time_stamp,MODE,RTL_ALT,lat,lon,relative_alt,vx,vy,vz,xacc,yacc,zacc,xgyro,ygyro,zgyro,roll,pitch,yaw,rollspeed,pitchspeed,yawspeed
17:42:37,STABILIZE,1500.0,-35.3632622,149.1652375,0.0,-1.0,1.0,-1.0,0.0,1.0,-1000.0,0.0,0.5,0.5,-0.0008502777491230518,0.0009660572104621679,0.023716946132481098,0.00025449186796322465,0.0002501012058928609,0.0017155040404759347
17:42:41,AUTO,1500.0,-35.3632622,149.1652376,0.0,-1.0,2.0,2.0,0.0,2.0,-1000.0,0.0,0.5,0.0,-0.0008406658889725804,0.0009843407897278666,0.022584980353713036,0.0002947436005342752,0.0002619715523906052,0.0014349197736009955
17:42:43,AUTO,1500.0,-35.3632621,149.16523745,0.0,0.0,0.0,0.5,0.0,1.5,-1000.0,0.5,1.0,1.0,-0.0006623473018407822,0.0013875805889256299,0.0220686299726367,0.00020888610742986202,0.0003286386199761182,0.0014691410469822586
17:42:44,AUTO,109835.0,-35.3632621,149.165237475,12.0,0.0,0.0,-10.0,0.0,0.5,-1058.5,5.75,-1.75,0.5,0.001000935739284614,0.0009477882704231888,0.021744132973253727,0.005768839968368411,-0.002251290876301937,0.0013759165303781629
17:42:45,AUTO,109835.0,-35.3632621,149.1652375,299.0,0.0,0.0,-85.5,0.0,0.0,-1117.5,-8.0,4.5,0.5,0.002284931601025164,0.0007686937606194988,0.021703334525227547,-0.009052106644958258,0.003914811182767153,0.0010326387418899685
17:42:47,AUTO,109835.0,-35.3632615,149.1652403,3112.0,8.5,47.0,-146.0,1.5,-9.5,-991.0,-72.5,57.5,-69.5,0.052425650879740715,0.0014592921361327171,-0.01911566685885191,-0.07304059364832938,0.057534103747457266,-0.06985176913440228
17:42:49,AUTO,109835.0,-35.363261,149.1652455,6165.5,-2.0,-31.5,-149.0,-1.0,3.5,-1002.0,51.5,-1.5,-7.0,-0.0636188481003046,-0.007060864940285683,-0.09219584986567497,0.05143836513161659,-0.002237773791421205,-0.0069395797327160835
17:42:50,AUTO,85380.0,-35.36326145,149.165238525,8102.75,-5.75,-51.5,-151.5,-6.5,12.0,-1003.0,64.75,11.75,2.0,0.014206742634996772,0.003097480832366273,-0.09590745158493519,0.06455080211162567,0.01142931473441422,0.00325113013968803
17:42:51,AUTO,85380.0,-35.363262,149.16523495,9282.0,-9.5,-20.0,-153.5,-1.0,5.5,-1000.0,40.0,-12.0,21.5,0.060310887172818184,0.008113604737445712,-0.09135647863149643,0.03984409011900425,-0.012761891819536686,0.022050877334550023
17:42:53,AUTO,85380.0,-35.3632623,149.16523635,12378.0,5.0,3.5,-152.0,0.0,-1.5,-1001.5,7.5,6.0,-29.0,-0.012816634960472584,-0.0009408461410203017,-0.10674301534891129,0.007583506987430155,0.006041140528395772,-0.029347793199121952
17:42:55,AUTO,126908.0,-35.363261550000004,149.1652355,15498.0,-0.5,-1.0,-153.0,-1.0,0.0,-999.5,3.0,1.0,-11.0,0.009372867178171873,0.0068490172270685434,-0.1491607129573822,0.002643161569721997,0.0005992892547510564,-0.0111117004416883
17:42:57,AUTO,168436.0,-35.3632616,149.16523575000002,18613.5,-3.0,5.0,-153.0,0.0,0.0,-999.5,-1.5,0.5,-19.0,0.004005868686363101,0.0039818547666072845,-0.17765287309885025,-0.0023896783677628264,9.893003152683377e-05,-0.019311875104904175
17:42:59,AUTO,168436.0,-35.3632618,149.16523635,21734.0,-2.0,4.0,-153.0,0.0,0.0,-1000.0,1.0,2.0,-22.5,0.0023253258550539613,0.0030879584373906255,-0.21678458154201508,0.0007502070220652968,0.001697664672974497,-0.023038428276777267
17:43:00,AUTO,3443.0,-35.36326185,149.16523657499997,23678.0,-2.0,3.0,-153.0,0.0,0.0,-999.75,1.0,0.25,-18.75,0.002419170457869768,0.00274318183073774,-0.24188760668039322,0.0003874480607919395,-0.0005068988975835964,-0.01887266058474779
17:43:01,AUTO,3443.0,-35.3632619,149.1652367,24846.5,-2.0,2.5,-153.0,0.0,-1.5,-990.0,-51.5,4.0,-12.0,0.0011297395976725966,0.00211295357439667,-0.2555052489042282,-0.05266189790563658,0.0031877346627879888,-0.01227303920313716
17:43:03,AUTO,3443.0,-35.36326235,149.1652366,27947.0,-4.5,4.5,-148.0,0.0,-1.0,-975.5,-84.5,76.0,230.5,-0.003746849950402975,0.014767372398637235,-0.18965891003608704,-0.08597193658351898,0.07539977692067623,0.231616772711277
17:43:05,AUTO,3443.0,-35.36326545,149.1652335,30129.0,4.5,2.5,-67.0,-0.5,-2.0,-970.0,-39.0,27.0,-28.5,0.039174605160951614,-0.04310756362974644,0.1309739127755165,-0.0398840494453907,0.026868668384850025,-0.028612584806978703
17:43:06,AUTO,201729.0,-35.363263425,149.1652357,30762.5,22.75,27.0,-37.25,-2.0,-2.75,-980.0,84.0,29.75,-6.25,0.014479862991720438,0.0010130656301043928,0.11388726159930229,0.08304897509515285,0.0291856846306473,-0.006709356734063476
17:43:07,AUTO,201729.0,-35.3632619,149.1652378,30979.0,16.5,22.0,-19.0,-1.0,-35.5,-958.0,-263.0,8.5,-8.5,0.0009428474586457014,0.014944665133953094,0.10700450837612152,-0.2631736770272255,0.008114205207675695,-0.008954842109233141
17:43:09,AUTO,201729.0,-35.363261,149.1652375,30901.5,12.5,-13.5,2.5,-4.0,-17.0,-1012.5,-134.0,-34.0,-5.5,0.004861210938543081,-0.042003702372312546,0.09379111975431442,-0.13357733935117722,-0.03549344465136528,-0.006119002588093281
17:43:11,AUTO,201729.0,-35.36324835,149.1652322,31010.0,158.0,-21.0,-18.0,-33.0,-2.0,-1017.0,164.0,-33.5,32.0,0.024338713847100735,-0.13878225535154343,-0.10245777294039726,0.16243603453040123,-0.035289764404296875,0.03246121667325497
17:43:12,AUTO,144803.0,-35.36322366666666,149.16522676666668,31299.333333333332,298.3333333333333,-39.333333333333336,-33.0,-61.333333333333336,-31.333333333333332,-1021.3333333333334,20.666666666666668,-5.333333333333333,9.333333333333334,0.030830982451637585,-0.1809305896361669,-0.09482314934333165,0.019163310527801514,-0.006438291321198146,0.009418448724318296
17:43:13,AUTO,144803.0,-35.36320093333333,149.16522256666667,31581.666666666668,382.0,-54.666666666666664,-44.0,-80.33333333333333,-43.333333333333336,-1018.3333333333334,5.333333333333333,-12.666666666666666,-3.0,0.027100132157405216,-0.18956750631332397,-0.09705670426289241,0.0039539287487665815,-0.014151581330224872,-0.0032908522019473216
17:43:15,AUTO,144803.0,-35.363118150000005,149.1652063,32894.5,440.5,-72.5,-77.0,-95.5,-45.5,-960.5,4.5,8.5,3.5,0.058278126642107964,0.0009266255947295576,-0.10315823554992676,0.003539338009431958,0.007966423669131473,0.003604300320148468
17:43:17,AUTO,144803.0,-35.3630537,149.16519365,33833.5,270.5,-38.0,-24.5,-57.5,-27.0,-997.0,310.5,37.0,-2.0,0.04872935451567173,0.0390737671405077,-0.10905681177973747,0.3100710231810808,0.03684963658452034,-0.002349956426769495
17:43:18,AUTO,96438.0,-35.363030333333334,149.16518983333333,34064.666666666664,148.0,-18.0,-13.0,-29.0,-15.333333333333334,-995.0,264.6666666666667,30.333333333333332,-7.333333333333333,0.028440104176600773,0.08252025643984477,-0.11371498803297679,0.26338212688763935,0.030047644550601642,-0.00770112833318611
17:43:19,AUTO,96438.0,-35.363023,149.16518903333332,34124.0,66.0,-6.333333333333333,-3.6666666666666665,-12.666666666666666,-13.333333333333334,-995.6666666666666,-327.3333333333333,-7.0,-12.333333333333334,0.002048463075576971,0.10323598235845566,-0.11699221283197403,-0.32916922370592755,-0.0074861229707797365,-0.012585052366678914
17:43:21,AUTO,96438.0,-35.36301086666667,149.16518716666667,34163.333333333336,190.0,-45.0,-13.333333333333334,-40.333333333333336,-18.666666666666668,-1037.0,114.0,79.0,-5.333333333333333,-0.0033765470531458655,-0.21012837688128153,-0.122651107609272,0.11323363085587819,0.07837350418170293,-0.006162748807885994
17:43:23,AUTO,96438.0,-35.36295723333333,149.1651751,34828.666666666664,383.6666666666667,-84.33333333333333,-49.333333333333336,-79.33333333333333,-39.333333333333336,-1024.3333333333333,34.666666666666664,148.0,-14.0,0.03179418854415417,-0.13664870212475458,-0.13064502676328024,0.033626278241475425,0.14709003704289594,-0.01446610347678264
17:43:24,AUTO,8744.0,-35.362916500000004,149.16516576666666,35601.333333333336,291.0,-61.0,-53.666666666666664,-62.333333333333336,-33.666666666666664,-972.0,260.6666666666667,111.0,1.6666666666666667,0.056634375204642616,0.1281020243962606,-0.1305044541756312,0.26033558261891204,0.11015698562065761,0.0010076873004436493
17:43:25,AUTO,8744.0,-35.3629009,149.16516239999999,35881.0,170.33333333333334,-31.0,-18.666666666666668,-35.333333333333336,-34.333333333333336,-970.0,-476.0,-106.33333333333333,7.666666666666667,0.031605555986364685,0.0957461843887965,-0.13275321821371713,-0.47699763998389244,-0.10754944508274396,0.00714810099452734
17:43:27,AUTO,8744.0,-35.362886100000004,149.1651604,35970.333333333336,16.333333333333332,-0.6666666666666666,1.3333333333333333,-1.6666666666666667,25.666666666666668,-1005.3333333333334,273.0,-242.33333333333334,-35.333333333333336,-0.0047502426120142145,-0.006016800180077553,-0.13828701277573904,0.2710394064585368,-0.24310941994190216,-0.03603828325867653
17:43:29,AUTO,74939.5,-35.36286343333333,149.1651552333333,36112.666666666664,266.6666666666667,-57.666666666666664,-27.333333333333332,-56.333333333333336,-30.333333333333332,-1025.3333333333333,-4.333333333333333,47.333333333333336,-4.666666666666667,0.0216429370145003,-0.14268932739893594,-0.14474119246006012,-0.005158521234989166,0.04716768333067497,-0.004601660165159653
17:43:31,AUTO,141135.0,-35.36280766666667,149.1651423666667,36993.0,269.0,-49.333333333333336,-50.0,-58.0,-19.666666666666668,-984.6666666666666,156.0,182.0,-6.666666666666667,0.047602018962303795,0.11189031104246776,-0.14456585546334585,0.155161182085673,0.18158618112405142,-0.0071961707435548306
17:43:33,AUTO,141135.0,-35.362785366666664,149.16513949999998,37359.666666666664,20.333333333333332,0.3333333333333333,1.6666666666666667,-2.6666666666666665,-8.0,-980.3333333333334,128.33333333333334,-53.333333333333336,5.666666666666667,-0.0009837745456025004,0.06853950892885526,-0.14821629722913107,0.12850132584571838,-0.05363937591512998,0.005051716560653101
17:43:34,AUTO,73893.0,-35.362783900000004,149.16513999999998,37327.0,55.0,-15.0,0.3333333333333333,-9.666666666666666,12.666666666666666,-1022.0,408.3333333333333,-194.33333333333334,-1.0,-0.006854238764693339,-0.1593226964275042,-0.14943885306517282,0.4077383478482564,-0.19522656003634134,-0.0015616232218841712
17:43:35,AUTO,73893.0,-35.3627761,149.16513806666669,37362.333333333336,185.33333333333334,-47.333333333333336,-9.666666666666666,-37.666666666666664,-26.0,-1031.3333333333333,-49.0,93.66666666666667,-6.333333333333333,0.004530648725146118,-0.20601163804531097,-0.15215826531251272,-0.049446081121762596,0.09301860257983208,-0.007798492869672676
17:43:37,AUTO,73893.0,-35.36272783333333,149.1651252,38022.666666666664,270.0,-50.0,-46.666666666666664,-59.666666666666664,-37.333333333333336,-1001.6666666666666,-60.0,226.33333333333334,-2.6666666666666665,0.05333929881453514,0.07445806078612804,-0.15363426009813944,-0.060039252042770386,0.22612999379634857,-0.0035444252813855806
17:43:39,AUTO,73893.0,-35.362707,149.16512173333334,38413.0,-1.6666666666666667,13.333333333333334,3.3333333333333335,1.0,4.666666666666667,-986.3333333333334,-189.66666666666666,-89.0,-9.333333333333334,-0.0015301028809820612,0.06446994220217069,-0.15312872330347696,-0.19074511528015137,-0.09017192665487528,-0.010625841522899767
17:43:40,AUTO,18533.0,-35.36270726666667,149.16512226666666,38364.333333333336,45.0,-2.3333333333333335,1.3333333333333333,-8.0,-17.333333333333332,-1026.6666666666667,-138.66666666666666,-195.66666666666666,11.666666666666666,0.00032440334325656295,-0.1585677812496821,-0.1553680052359899,-0.13915502031644186,-0.19673755764961243,0.010878634018202623
17:43:41,AUTO,18533.0,-35.36270016666666,149.16512053333332,38391.0,176.33333333333334,-31.333333333333332,-8.666666666666666,-38.0,-18.666666666666668,-1034.3333333333333,129.33333333333334,107.0,-6.0,0.01745362440124154,-0.2043225665887197,-0.15892780820528665,0.1286949316660563,0.10696397100885709,-0.007233242504298687
17:43:43,AUTO,18533.0,-35.362654533333334,149.1651097,39004.0,243.66666666666666,-38.666666666666664,-42.0,-50.666666666666664,-45.333333333333336,-991.0,-280.0,205.0,2.0,0.04290095716714859,0.09114960581064224,-0.15800219774246216,-0.2816175085802873,0.20524184902509054,0.0012916512787342072
17:43:45,AUTO,31257.0,-35.362637666666664,149.16510753333333,39326.666666666664,-15.333333333333334,15.666666666666666,2.3333333333333335,4.0,17.333333333333332,-1009.0,151.33333333333334,-113.33333333333333,-7.0,-0.0006174920126795769,0.04988256562501192,-0.15781770646572113,0.1499218245347341,-0.11453525349497795,-0.008688199372651676
17:43:47,AUTO,43981.0,-35.36263063333333,149.16510583333334,39321.333333333336,177.0,-32.333333333333336,-10.0,-37.666666666666664,-24.0,-1031.6666666666667,-24.0,131.66666666666666,-7.666666666666667,0.024458176145950954,-0.18157325188318887,-0.16371731956799826,-0.02490287522474925,0.13136385132869086,-0.009456652992715439
17:43:49,AUTO,43981.0,-35.362589566666664,149.1650948333333,39899.666666666664,189.66666666666666,-17.333333333333332,-32.666666666666664,-38.333333333333336,-37.333333333333336,-984.3333333333334,-323.6666666666667,144.33333333333334,3.3333333333333335,0.046787129094203316,0.12089264392852783,-0.15994819005330405,-0.32523412505785626,0.14405286312103271,0.0023857727646827698
17:43:50,AUTO,103550.0,-35.362579133333334,149.1650937,40108.666666666664,13.0,22.0,-0.6666666666666666,0.0,-13.0,-984.6666666666666,-263.6666666666667,-96.33333333333333,4.333333333333333,0.010588150781889757,0.08145609373847644,-0.15963761508464813,-0.2655440072218577,-0.0976132998863856,0.0035488936894883714
17:43:51,AUTO,103550.0,-35.36257963333333,149.1650948,40096.666666666664,-20.666666666666668,23.666666666666668,3.3333333333333335,6.333333333333333,-4.0,-1005.3333333333334,58.0,-140.66666666666666,6.666666666666667,0.0015843678265810013,0.013021784834563732,-0.15977728366851807,0.05707840621471405,-0.14181645524998507,0.006084344699047506
17:43:53,AUTO,103550.0,-35.36256876666666,149.16509283333335,40136.333333333336,185.66666666666666,-31.666666666666668,-15.0,-38.333333333333336,-18.333333333333332,-1021.6666666666666,126.0,113.66666666666667,0.6666666666666666,0.025325388958056767,-0.11814607679843903,-0.16596033175786337,0.12443190813064575,0.11351836969455083,-0.0002521896579613288
17:43:55,AUTO,103550.0,-35.36253326666667,149.16508476666664,40662.0,128.0,-13.333333333333334,-22.333333333333332,-27.0,-1.3333333333333333,-988.3333333333334,258.3333333333333,88.0,6.666666666666667,0.03253430935243765,0.13007075091203055,-0.16187284390131632,0.2561040719350179,0.08754086991151173,0.005053119423488776
17:43:56,AUTO,66070.0,-35.36252696666667,149.16508453333333,40785.0,0.6666666666666666,11.666666666666666,-0.6666666666666666,0.6666666666666666,14.333333333333334,-992.3333333333334,160.0,-44.666666666666664,2.0,-0.000917602990133067,0.047150409470001854,-0.16314889987309775,0.15750627716382345,-0.045681217995782696,0.0008179770472149054
17:43:57,AUTO,66070.0,-35.36252756666667,149.16508513333335,40774.666666666664,-14.0,8.666666666666666,2.3333333333333335,2.3333333333333335,-15.666666666666666,-990.6666666666666,-297.6666666666667,-153.0,7.666666666666667,-0.004953464648375909,-0.015728122865160305,-0.16235197087128958,-0.299202819665273,-0.15446236232916513,0.0064864020484189195
17:43:59,AUTO,66070.0,-35.36251613333334,149.16508009999998,40850.666666666664,155.66666666666666,-21.0,-15.0,-33.333333333333336,-10.333333333333334,-1013.3333333333334,217.0,76.0,3.3333333333333335,0.048665768156449,-0.07422373692194621,-0.16857671240965524,0.2150630702575048,0.07572495316465695,0.0016698999097570777
17:44:01,AUTO,66070.0,-35.362489466666666,149.1650739,41252.666666666664,87.33333333333333,12.0,-13.333333333333334,-15.666666666666666,5.0,-984.0,175.33333333333334,17.0,-4.0,0.02845601923763752,0.09720580528179805,-0.1636407971382141,0.17219645281632742,0.016369255880514782,-0.005904290669908126
17:44:02,AUTO,10696.0,-35.3624852,149.1650751,41331.333333333336,10.0,18.666666666666668,-1.6666666666666667,1.3333333333333333,0.0,-993.3333333333334,-169.0,-101.66666666666667,-11.0,-0.007877969183027744,0.007062087145944436,-0.1636212815841039,-0.17215434710184732,-0.10310110822319984,-0.012753792301130792
17:44:03,AUTO,10696.0,-35.36248406666667,149.16507616666664,41338.666666666664,33.333333333333336,3.3333333333333335,-1.6666666666666667,-3.0,-23.0,-1002.0,-95.66666666666667,-71.33333333333333,4.666666666666667,-0.007099455629941076,-0.07129141439994176,-0.16440275311470032,-0.09800930817921956,-0.0728371577958266,0.003179841209203005
17:44:05,AUTO,10696.0,-35.362468033333336,149.16507443333333,41505.0,105.66666666666667,-34.0,-13.333333333333334,-22.666666666666668,-6.333333333333333,-998.3333333333334,331.3333333333333,32.666666666666664,-1.6666666666666667,0.0052780282373229665,-0.00461346337882181,-0.16519792874654135,0.32889820262789726,0.03264852551122507,-0.0034240088425576687
17:44:07,AUTO,10696.0,-35.36245473333333,149.1650713,41716.0,27.0,-16.333333333333332,-4.333333333333333,-5.666666666666667,-11.333333333333334,-994.3333333333334,-323.6666666666667,-80.0,4.0,-0.005282857406806822,0.018123898810396593,-0.16542738676071167,-0.32612794637680054,-0.0812079260746638,0.002863084121296803
17:44:08,AUTO,54073.0,-35.36245159999999,149.16507090000002,41758.666666666664,23.666666666666668,-17.666666666666668,-2.0,-6.333333333333333,-24.0,-993.6666666666666,-383.0,39.666666666666664,0.3333333333333333,-0.00919851625803858,0.007984220515936613,-0.16588526964187622,-0.38522309670224786,0.03927701277037462,-0.0016623660922050476
17:44:09,AUTO,54073.0,-35.36245033333333,149.1650706,41774.333333333336,8.0,-15.333333333333334,-1.0,-1.6666666666666667,14.0,-1001.0,373.3333333333333,3.0,5.0,-0.00017642251138264933,0.023496959979335468,-0.16570224861303964,0.37224092831214267,0.002355271950364113,0.003787618518496553
17:44:11,RTL,54073.0,-35.36245016666666,149.16507066666668,41761.333333333336,0.6666666666666666,-14.333333333333334,-0.6666666666666666,0.0,-15.666666666666666,-1001.6666666666666,-161.66666666666666,23.666666666666668,-3.3333333333333335,-0.008149306910733381,-0.0021918613297202683,-0.16559200485547385,-0.16289082169532776,0.023237814505894978,-0.0050934795290231705
17:44:12,RTL,2648.0,-35.3624499,149.16507073333332,41934.333333333336,-1.6666666666666667,-15.333333333333334,-33.333333333333336,-0.3333333333333333,-4.333333333333333,-1042.3333333333333,-5.666666666666667,-2.0,2.6666666666666665,-0.007610235906516512,0.002095717820338905,-0.16608304778734842,-0.0066279446085294085,-0.003563018903757135,0.0014232603910689552
17:44:13,RTL,2648.0,-35.36244993333333,149.16507033333335,42309.666666666664,-3.0,-13.666666666666666,-63.666666666666664,-1.6666666666666667,3.0,-1032.3333333333333,16.666666666666668,0.3333333333333333,0.6666666666666666,-0.0038689206121489406,0.000355155858718111,-0.16682440539201102,0.015261150896549225,-0.00024533116569121677,-0.0009315937447051207
17:44:15,RTL,2648.0,-35.3624502,149.16506833333332,43887.666666666664,-1.6666666666666667,-0.3333333333333333,-77.0,-0.6666666666666666,1.6666666666666667,-988.6666666666666,-8.333333333333334,1.0,2.0,0.010234879019359747,0.0010117200048019488,-0.16720176239808401,-0.009775001555681229,0.0010197404383992155,0.0009589627928410968
17:44:17,RTL,2648.0,-35.3624501,149.16506783333332,45075.333333333336,-1.3333333333333333,7.666666666666667,-30.666666666666668,-0.6666666666666666,-3.0,-968.6666666666666,22.333333333333332,2.0,5.333333333333333,0.00761207197016726,0.004960461674878995,-0.1668098121881485,0.021361688772837322,0.001397523640965422,0.003917383030056953
17:44:18,RTL,21168.0,-35.36245,149.16506773333333,45249.666666666664,-3.0,9.0,1.3333333333333333,-1.0,4.666666666666667,-986.3333333333334,252.66666666666666,0.0,3.0,0.015201023158927759,0.0038882067892700434,-0.16634984811147055,0.2515487273534139,-0.0009442612063139677,0.0015707961671675246
17:44:19,RTL,21168.0,-35.36245,149.16506756666664,45218.666666666664,-3.0,10.333333333333334,4.0,-0.3333333333333333,8.0,-1009.6666666666666,-129.66666666666666,1.6666666666666667,3.6666666666666665,0.004659010854084045,0.0036958884447813034,-0.16616605718930563,-0.1322891116142273,0.001012740113462011,0.0020437870795528093
17:44:21,RTL,21168.0,-35.3624501,149.1650674,45546.0,-2.0,14.333333333333334,-49.666666666666664,0.3333333333333333,-3.0,-1029.0,-70.0,1.0,0.3333333333333333,0.00772348294655482,0.0036955881708612046,-0.1667830447355906,-0.07179060578346252,-7.662293501198292e-05,-0.001486244611442089
17:44:23,RTL,21168.0,-35.36245026666666,149.1650681,46499.666666666664,-1.3333333333333333,9.666666666666666,-18.333333333333332,0.0,12.333333333333334,-961.0,96.0,-0.3333333333333333,4.333333333333333,0.0028682447955361567,0.0006361797180337211,-0.166900763909022,0.09359206010897954,-0.0018607108698536952,0.0031405079256122312
17:44:24,RTL,140701.0,-35.3624504,149.1650681,46539.333333333336,0.0,8.0,3.3333333333333335,-1.0,7.666666666666667,-1002.3333333333334,-90.66666666666667,0.0,2.6666666666666665,0.0031245145946741104,5.7799111042792596e-05,-0.16683290898799896,-0.09359705448150635,-0.0011025230245043833,0.0014281371065105002
17:44:25,RTL,140701.0,-35.3624505,149.1650678,46525.0,0.0,8.666666666666666,-5.0,-2.0,1.3333333333333333,-1031.3333333333333,249.33333333333334,-0.6666666666666666,1.3333333333333333,0.015888136501113575,-0.0009072401444427669,-0.16744097073872885,0.2478890915711721,-0.002025049179792404,-0.00020903348922729492
17:44:27,RTL,140701.0,-35.3624509,149.16506556666664,47331.0,3.6666666666666665,25.0,-54.0,-0.6666666666666666,-0.3333333333333333,-986.0,-34.0,2.3333333333333335,1.6666666666666667,0.026454027121265728,-0.0003198172926204279,-0.1675687183936437,-0.03640163689851761,0.0020614464883692563,0.00033807110351820785
17:44:29,RTL,140701.0,-35.36245065,149.1650664,47798.5,3.5,24.5,2.5,0.5,-13.0,-991.75,59.5,2.5,1.25,0.015663619618862867,0.0031867713551037014,-0.16681652888655663,0.05638532340526581,0.00212834554258734,-0.0008075746009126306
17:44:30,RTL,12823.0,-35.36245043333333,149.1650675333333,47785.666666666664,1.3333333333333333,18.666666666666668,-9.0,1.3333333333333333,-12.0,-1032.3333333333333,-42.666666666666664,0.3333333333333333,0.3333333333333333,0.00318299257196486,0.00451081416880091,-0.16670072078704834,-0.04574776689211527,-0.0009453713428229094,-0.001422007257739703
17:44:31,RTL,12823.0,-35.3624503,149.1650681,47961.333333333336,0.0,12.666666666666666,-36.333333333333336,1.6666666666666667,3.0,-1035.0,159.0,-1.3333333333333333,1.3333333333333333,0.002920243889093399,0.002838916378095746,-0.16737793882687887,0.1557981272538503,-0.002759364744027456,-0.0004855155711993575
17:44:33,RTL,12823.0,-35.3624503,149.1650688,48899.666666666664,-1.0,4.0,-24.333333333333332,0.0,-3.3333333333333335,-956.6666666666666,-29.666666666666668,1.0,0.6666666666666666,0.0027447819399336972,0.0009133983791495363,-0.16785605251789093,-0.032514721155166626,0.00026398901051531237,-0.0009502163156867027
17:44:35,RTL,12823.0,-35.3624503,149.1650684,48959.666666666664,0.0,5.333333333333333,0.0,-0.3333333333333333,13.666666666666666,-1019.3333333333334,66.0,1.0,2.3333333333333335,0.006763130385176434,0.0016967858731125791,-0.1669654299815496,0.06207075218359629,-0.0004154813165465991,0.0008144546688223878
17:44:36,RTL,268160.0,-35.3624503,149.1650683,49195.666666666664,0.0,6.333333333333333,-41.333333333333336,0.0,2.6666666666666665,-1036.0,-84.0,1.0,0.0,0.00244758869788105,0.0020321391445274153,-0.16734657684961954,-0.08817147711912791,0.0004971931533267101,-0.0012608108033115666
17:44:37,RTL,268160.0,-35.3624503,149.16506833333332,49582.666666666664,0.0,5.666666666666667,-56.666666666666664,0.0,-5.666666666666667,-1002.3333333333334,-137.33333333333334,2.0,2.3333333333333335,0.0019275529872781287,0.0018263376938800018,-0.16794771949450174,-0.1416064187263449,0.0011968015072246392,0.0006012724479660392
17:44:39,RTL,268160.0,-35.3624503,149.16506933333332,50242.666666666664,0.0,0.3333333333333333,-0.6666666666666666,1.0,-18.333333333333332,-982.3333333333334,-140.66666666666666,3.3333333333333335,1.3333333333333333,-0.0035616580862551928,0.0019960261803741255,-0.1670874704917272,-0.14355086286862692,0.0028541921637952328,-0.0005307396641001105
17:44:41,RTL,268160.0,-35.3624502,149.1650697,50288.333333333336,-2.0,-3.3333333333333335,-23.666666666666668,0.0,2.3333333333333335,-1040.3333333333333,-28.0,2.6666666666666665,2.3333333333333335,-0.004759122190686564,0.0018324082872519891,-0.16738577683766684,-0.03211010557909807,0.0019246609881520271,0.000730283015097181
17:44:42,RTL,259665.0,-35.3624502,149.16507013333333,50839.333333333336,-2.0,-6.0,-55.333333333333336,0.3333333333333333,5.666666666666667,-1002.6666666666666,153.33333333333334,1.0,2.3333333333333335,-0.007593466745068629,0.001369221368804574,-0.16820200781027475,0.14963198577364287,3.842128595958153e-05,0.0010947376334418852
17:44:43,RTL,259665.0,-35.3624502,149.16507046666666,51229.333333333336,-2.0,-9.0,-41.333333333333336,0.0,5.0,-966.3333333333334,70.33333333333333,1.3333333333333333,2.3333333333333335,-0.01032698224298656,0.0009177033983481427,-0.16800804932912192,0.06703522801399231,8.246946769456069e-05,0.0007813824340701103
17:44:45,RTL,259665.0,-35.3624502,149.16507013333333,51446.666666666664,-2.0,-9.666666666666666,4.0,-0.3333333333333333,-4.666666666666667,-999.3333333333334,-379.0,2.0,1.6666666666666667,-0.010279571016629538,0.0011201065111284454,-0.16764646768569946,-0.382653438175718,0.0008686818570519487,-0.0004943573925023278
17:44:47,RTL,15367.0,-35.3624502,149.16507023333335,51827.0,-2.0,-8.666666666666666,-50.0,0.0,3.0,-1025.6666666666667,9.333333333333334,1.3333333333333333,1.0,-0.007548350530366103,0.001266035484150052,-0.16810806095600128,0.006377185384432475,-3.9548108664651714e-05,-0.0004514694834748904
17:44:49,RTL,15367.0,-35.3624501,149.16507056666669,52653.666666666664,-2.0,-11.333333333333334,-8.333333333333334,0.0,-20.0,-962.3333333333334,-441.0,-1.0,2.3333333333333335,-0.014953687321394682,0.001595542727348705,-0.1675225148598353,-0.4440442572037379,-0.0023402234461779394,0.0009874803945422173
17:44:51,RTL,15367.0,-35.3624501,149.1650705,52664.666666666664,-3.0,-12.333333333333334,-11.0,-0.6666666666666666,19.0,-1040.0,262.0,3.6666666666666665,5.333333333333333,-0.004404747858643532,0.0009970122094576557,-0.16733428339163461,0.25898098448912305,0.002347216863806049,0.003960504662245512
17:44:52,RTL,6238.0,-35.3624501,149.1650703,53098.333333333336,-3.0,-11.333333333333334,-52.0,-0.3333333333333333,2.3333333333333335,-1016.6666666666666,115.33333333333333,1.3333333333333333,3.6666666666666665,-0.0037715368768355497,0.0007091246564717343,-0.16859426101048788,0.11316048105557759,4.756334237754345e-05,0.0019192843077083428
17:44:53,RTL,6238.0,-35.3624502,149.16507,53505.0,-3.0,-10.333333333333334,-48.0,0.0,1.3333333333333333,-975.3333333333334,28.0,-0.6666666666666666,3.0,-0.0015176952971766393,0.00021174915855226573,-0.16812148690223694,0.02506256600220998,-0.0018082958413287997,0.0007318579591810703
17:44:55,RTL,6238.0,-35.3624504,149.16506893333332,53848.666666666664,-0.3333333333333333,-2.0,3.3333333333333335,-0.3333333333333333,6.333333333333333,-1002.0,-131.0,1.0,3.6666666666666665,-1.2161253948761441e-05,-0.0001970736678534498,-0.16754057010014853,-0.13430671890576681,-0.0007811057924603423,0.002402751357294619
17:44:57,RTL,6238.0,-35.36245043333333,149.1650681,54106.0,0.0,3.3333333333333335,-43.0,-1.0,-6.666666666666667,-1033.6666666666667,-60.666666666666664,0.6666666666666666,1.6666666666666667,0.010508093051612377,-0.00012408802285790443,-0.16814447939395905,-0.0630441705385844,-0.0003942194161936641,-6.46631233394146e-05
17:44:58,RTL,132899.0,-35.36245053333334,149.16506726666668,54753.666666666664,0.3333333333333333,9.666666666666666,-43.666666666666664,-0.6666666666666666,4.666666666666667,-968.0,48.333333333333336,1.6666666666666667,2.6666666666666665,0.017001938695708912,3.615142668422777e-05,-0.16855554282665253,0.045901929338773094,0.000274402826714019,0.0012924614517639081
17:44:59,RTL,132899.0,-35.3624506,149.16506686666665,54990.333333333336,1.3333333333333333,14.333333333333334,-15.0,0.3333333333333333,-6.0,-957.3333333333334,-238.0,0.3333333333333333,3.6666666666666665,0.013719558715820312,4.96630867322286e-05,-0.1675513486067454,-0.2412213310599327,-0.0013438751533006628,0.0017187475847701232
17:45:01,RTL,132899.0,-35.36245053333334,149.165067,55008.666666666664,2.0,18.666666666666668,-4.0,0.6666666666666666,11.333333333333334,-1025.0,320.0,5.0,2.3333333333333335,0.01482505351305008,0.003426758417238792,-0.16775191823641458,0.3169076790412267,0.003921886362756292,0.0008046259948362907
17:45:03,RTL,132899.0,-35.3624504,149.165068,55740.333333333336,0.0,11.0,-52.333333333333336,0.3333333333333333,-3.3333333333333335,-988.3333333333334,2.6666666666666665,3.6666666666666665,2.0,0.004318444921712701,0.0025198410730808973,-0.16776569187641144,-0.000533531109491984,0.0027946933017422757,0.0004574160169189175
17:45:04,RTL,3849.0,-35.3624504,149.16506826666668,56181.0,0.0,7.333333333333333,-10.0,0.3333333333333333,-16.0,-961.6666666666666,-203.33333333333334,-2.0,2.3333333333333335,0.0038966874902447066,0.0018107281066477299,-0.16786029438177744,-0.20614717404047647,-0.003779158888695141,0.000487126720448335
17:45:05,RTL,3849.0,-35.3624504,149.1650683,56206.666666666664,0.0,6.666666666666667,2.3333333333333335,0.0,16.666666666666668,-991.0,327.0,-0.6666666666666666,5.333333333333333,0.007882071270917853,0.0009663623253193995,-0.16740565995375314,0.323341503739357,-0.002335624381278952,0.0031954870404054723
17:45:07,RTL,3849.0,-35.3624504,149.16506783333332,56370.333333333336,0.0,10.0,-36.333333333333336,0.0,-3.3333333333333335,-1036.0,-87.66666666666667,2.0,2.3333333333333335,0.00920114324738582,0.001316902421725293,-0.1680313448111216,-0.09094053755203883,0.0006901396360869209,-0.00015092183214922747
17:45:09,RTL,3849.0,-35.3624504,149.1650678,57303.666666666664,0.0,10.666666666666666,-24.0,-0.3333333333333333,-3.0,-951.3333333333334,-226.66666666666666,0.0,5.333333333333333,0.0033299554294596114,0.0009946782180729012,-0.16777084271113077,-0.23099727431933084,-0.0016031696771581967,0.0035888555770119033
17:45:10,RTL,9017.0,-35.3624504,149.16506776666668,57392.666666666664,0.0,10.0,2.6666666666666665,-0.6666666666666666,-15.0,-991.3333333333334,-310.3333333333333,0.6666666666666666,2.0,0.005560819248785265,0.0014252011897042394,-0.1673555870850881,-0.31454071899255115,-0.0011545842280611396,-0.0003932362888008356
17:45:11,RTL,9017.0,-35.362450466666665,149.1650675333333,57370.0,0.0,11.666666666666666,0.0,-0.6666666666666666,8.0,-1021.0,340.0,4.333333333333333,2.6666666666666665,0.02024126673738162,0.0008301697962451726,-0.1675417423248291,0.33630894621213275,0.0031481776774550476,0.00020003877580165863
17:45:13,RTL,9017.0,-35.3624505,149.1650677,58005.333333333336,0.0,12.666666666666666,-55.666666666666664,0.0,-2.0,-999.6666666666666,0.3333333333333333,0.6666666666666666,2.0,0.005280637744969378,0.0016402634792029858,-0.1682273397843043,-0.004306380947430928,-0.0007131767924875021,-6.155231191466252e-05
17:45:15,RTL,104027.0,-35.3624505,149.16506833333332,58639.0,0.3333333333333333,8.666666666666666,0.0,1.6666666666666667,19.0,-992.0,447.0,3.0,4.0,0.007477740989997983,0.001630408107303083,-0.16732393205165863,0.44294580817222595,0.001082522173722585,0.0014130065683275461
17:45:18,RTL,104027.0,-35.3624504,149.1650685,59294.0,0.0,4.0,-56.5,0.0,13.0,-997.5,254.5,3.5,3.0,0.008172879926860332,0.0011462429538369179,-0.16846158355474472,0.2503534257411957,0.0026554077630862594,0.0008811649167910218
17:45:20,RTL,104027.0,-35.36245015,149.1650693,59881.0,0.0,1.5,0.5,1.5,6.5,-987.5,-123.0,0.0,3.0,-0.010872096056118608,0.004649856360629201,-0.16708792001008987,-0.128464013338089,-0.0009181393252220005,0.000808602781035006
17:45:21,RTL,123349.0,-35.36245005,149.16507015000002,59859.0,-2.0,-2.75,2.25,1.75,-0.5,-1001.5,161.25,3.25,2.5,-0.010506198683287948,0.00434385403059423,-0.16735289618372917,0.15694204159080982,0.0016282338765449822,-1.4484860002994537e-05
17:45:22,RTL,123349.0,-35.36244995,149.1650709,59984.5,-5.0,-12.5,-32.0,0.0,-7.0,-1040.0,33.0,-0.5,1.0,-0.00917730713263154,0.0011188431817572564,-0.1678682267665863,0.028904199600219727,-0.0027077182894572616,-0.0014710630057379603
17:45:24,RTL,123349.0,-35.362450249999995,149.16506994999997,60962.5,-2.5,-10.0,-33.0,-0.5,-10.5,-956.5,-304.5,-2.0,5.5,-0.003006890241522342,-0.000932108290726319,-0.1679951548576355,-0.30951637029647827,-0.004853317514061928,0.003804336069151759
17:45:26,RTL,138936.0,-35.3624503,149.1650693,61088.0,-1.0,-3.5,3.5,-1.0,25.0,-1003.5,622.5,0.5,3.5,0.01034384174272418,0.0002899253158830106,-0.16761789470911026,0.6186072826385498,-0.0014774484443478286,0.001247492735274136
17:45:28,RTL,154523.0,-35.3624505,149.16506765,61591.0,0.0,7.0,-54.0,-0.5,10.5,-1012.0,253.5,1.5,4.0,0.01602906407788396,0.00029978941893205047,-0.1685807704925537,0.24965686351060867,-0.000482492265291512,0.0015144010540097952
17:45:30,RTL,154523.0,-35.3624504,149.1650679,62311.0,0.0,10.5,-2.5,0.5,20.0,-982.0,524.0,5.0,4.5,0.010201945900917053,0.0025131235597655177,-0.16727163642644882,0.5194449871778488,0.0034832804230973125,0.002275066915899515
17:45:31,RTL,100509.0,-35.362450300000006,149.1650685,62300.5,0.0,7.0,3.75,1.5,-7.5,-991.25,-181.75,1.75,0.75,-0.005811758077470586,0.004076416429597884,-0.167157631367445,-0.18663537874817848,0.00021741774980910122,-0.0021773495827801526
17:45:32,RTL,100509.0,-35.36245,149.1650699,62331.0,-1.5,0.0,-19.0,1.5,-21.5,-1031.0,-380.5,-2.0,0.0,-0.01819759700447321,0.004427826963365078,-0.1675693467259407,-0.3854755610227585,-0.004313147626817226,-0.0023294876446016133
17:45:34,RTL,100509.0,-35.36245,149.165071,63248.0,-4.0,-13.0,-43.0,-0.5,-9.5,-963.5,-256.5,1.0,3.5,-0.01766741182655096,0.0010728599154390395,-0.16809187829494476,-0.26104074716567993,-0.0010272084036841989,0.001632610452361405
17:45:36,RTL,100509.0,-35.3624501,149.16507065000002,63482.5,-3.5,-15.5,4.5,0.0,28.5,-994.0,581.0,2.0,7.0,0.0010246341116726398,-0.00035618206311482936,-0.16702621430158615,0.5774514973163605,0.00021782389376312494,0.004353565163910389
17:45:37,RTL,28603.0,-35.3624502,149.16507032500002,63484.25,-2.5,-12.5,-6.75,0.0,-3.0,-1027.0,-123.25,4.25,2.0,-0.004609522002283484,0.0007896798451838549,-0.16692782565951347,-0.12709104642271996,0.0023793812142685056,-0.0006755863141734153
17:45:38,RTL,28603.0,-35.3624501,149.1650707,63837.0,-2.0,-11.5,-48.5,1.0,8.5,-1029.0,282.5,2.5,2.0,-0.009837532881647348,0.002043993677943945,-0.16800832003355026,0.279543399810791,0.0009207477560266852,-0.0002217715373262763
17:45:40,RTL,28603.0,-35.3624501,149.16507135,64651.0,-3.0,-17.5,-7.5,0.0,28.0,-973.5,599.0,7.0,5.5,-0.007461501052603126,0.0008981073333416134,-0.16718973964452744,0.5955569744110107,0.005252936854958534,0.0034509224351495504
17:45:42,RTL,28603.0,-35.3624498,149.1650725,64662.5,-4.5,-24.5,-12.5,0.5,-5.5,-1035.0,69.0,4.5,2.5,-0.02351239789277315,0.004389930749312043,-0.1672539860010147,0.06665800511837006,0.0022114748135209084,-0.00011486327275633812
17:45:43,RTL,113836.0,-35.362449749999996,149.165072825,64881.25,-6.5,-29.25,-39.0,-0.25,-2.0,-1028.5,-84.75,-0.75,3.0,-0.02670953469350934,0.0021257126209093258,-0.16813457384705544,-0.08735936135053635,-0.0027360339008737355,0.0009324847487732768
17:45:44,RTL,113836.0,-35.3624499,149.1650722,65499.5,-7.0,-30.0,-44.0,-1.5,-6.0,-968.5,-258.0,0.0,4.5,-0.015277490485459566,-0.0012452685623429716,-0.16820607334375381,-0.260797955095768,-0.0027213903376832604,0.002064006868749857
17:45:46,RTL,113836.0,-35.36245035,149.1650692,65762.0,-2.5,-11.5,4.0,-3.0,21.0,-994.5,580.5,2.0,3.5,0.022206788882613182,-0.002582586253993213,-0.16772304475307465,0.5792537331581116,0.0003926601493731141,0.0011225967900827527
17:45:48,RTL,113836.0,-35.3624509,149.16506535,66111.5,1.5,18.5,-50.0,-2.0,9.5,-1029.0,65.0,2.5,3.5,0.034738631919026375,-0.002022160857450217,-0.16784261167049408,0.062099017202854156,0.0007921303622424603,0.0009943681070581079
17:45:49,RTL,35856.0,-35.362450949999996,149.16506462499999,66529.0,4.0,28.0,-52.75,-0.75,4.75,-990.0,115.75,5.5,2.5,0.034707064274698496,1.4718330930918455e-05,-0.16780906915664673,0.11321403039619327,0.00384983594994992,9.651138680055737e-05
17:45:50,RTL,35856.0,-35.36245085,149.16506479999998,66994.5,5.0,35.0,-9.5,0.5,25.0,-956.0,282.0,5.0,5.5,0.02247725147753954,0.0030030241468921304,-0.16683880239725113,0.27848106902092695,0.0030190207762643695,0.0030692541040480137
17:45:52,RTL,35856.0,-35.3624505,149.16506694999998,66990.5,2.0,24.0,-6.0,2.0,-12.5,-1026.0,77.0,2.0,1.0,0.012055344181135297,0.004410632187500596,-0.16694513708353043,0.07424616813659668,0.0004574839258566499,-0.002328844042494893
17:45:54,RTL,53236.0,-35.3624505,149.1650674,67780.0,0.0,13.5,-52.5,-0.5,-8.5,-980.0,-136.5,0.5,2.5,0.013867275789380074,0.0005929726175963879,-0.16764920204877853,-0.13959220424294472,-0.0019172154134139419,-0.0003514772979542613
17:45:56,RTL,70616.0,-35.3624505,149.165067,68211.0,1.0,16.5,2.5,0.0,-20.5,-999.0,-191.0,4.0,1.5,0.015494218096137047,0.0018819933757185936,-0.1667211800813675,-0.19447825849056244,0.0018991469405591488,-0.0009732503676787019
17:45:58,RTL,70616.0,-35.3624505,149.1650675,68437.0,0.5,14.5,-42.5,1.0,-14.0,-1039.0,-131.5,0.5,3.0,0.0076098935678601265,0.0018554928828962147,-0.16731128096580505,-0.1355866864323616,-0.0024630583357065916,-1.8600374460220337e-05
17:45:59,RTL,105817.0,-35.3624505,149.165067825,68836.0,0.0,13.0,-54.5,0.25,0.25,-999.0,-8.5,2.75,1.75,0.0043320611002855,0.0016950257122516632,-0.16729599982500076,-0.013377455994486809,0.0008063357090577483,-0.0009499345615040511
17:46:00,RTL,105817.0,-35.3624504,149.16506855,69392.0,0.0,7.5,-20.0,0.5,-13.5,-956.5,-362.0,1.0,5.0,-0.00514587783254683,0.0022991651203483343,-0.1672215685248375,-0.36694788932800293,-0.0012535782298073173,0.0025045048678293824
17:46:02,RTL,105817.0,-35.3624502,149.1650693,69423.5,-1.0,0.5,-1.0,-0.5,27.5,-1028.0,588.0,3.0,1.0,0.005409313191194087,0.0021498490823432803,-0.16725310683250427,0.5837434530258179,0.0010070445714518428,-0.00201857287902385
17:46:04,RTL,105817.0,-35.3624502,149.16506915000002,70103.5,-1.0,0.5,-56.0,0.0,4.5,-1001.0,62.5,4.0,1.0,-0.0020102682465221733,0.0020825598621740937,-0.16773786395788193,0.05755183845758438,0.0019965150859206915,-0.001899484428577125
17:46:05,RTL,93460.0,-35.3624502,149.16506925000002,70470.75,-1.5,0.0,-36.75,-0.25,3.75,-960.0,125.5,2.75,4.0,0.0002526770331314765,0.0027990330127067864,-0.16766472533345222,0.1208287924528122,0.0007315653783734888,0.0014012373285368085
17:46:06,RTL,93460.0,-35.3624502,149.1650693,70672.5,-2.0,0.0,1.5,-1.0,20.0,-987.5,-7.5,-2.0,6.0,-0.006972726201638579,0.0013373343390412629,-0.1665223464369774,-0.013049572706222534,-0.004215577733702958,0.0036198836751282215
17:46:08,RTL,93460.0,-35.3624502,149.165069,70769.5,-2.0,0.0,-31.5,0.0,-6.0,-1036.5,-61.0,1.5,3.5,0.0029221343575045466,0.0016733695520088077,-0.16735146939754486,-0.06485512852668762,-0.000603016116656363,0.0008993804221972823
17:46:10,RTL,93460.0,-35.3624503,149.16506844999998,71731.5,-0.5,3.0,-32.5,0.5,-19.0,-960.0,-463.0,1.0,3.5,-0.0005534745287150145,0.0007941461517475545,-0.16755617409944534,-0.4682916849851608,-0.0011497566010802984,0.000740312272682786
17:46:11,RTL,187030.0,-35.3624503,149.165068375,71864.0,0.0,4.0,-6.25,0.25,1.75,-974.0,164.25,3.75,2.5,0.008362404420040548,0.0013227888848632574,-0.16728082671761513,0.15956623386591673,0.0018712954188231379,-0.0006496849819086492
17:46:12,RTL,187030.0,-35.3624503,149.16506855,71850.5,0.0,5.0,2.0,1.0,24.0,-1015.5,334.5,5.5,7.0,0.0001520519144833088,0.002830388955771923,-0.1666341945528984,0.329180090688169,0.0035245836479589343,0.003736270358785987
17:46:14,RTL,187030.0,-35.36245015,149.16507009999998,72384.5,-2.5,-4.5,-55.0,0.5,5.0,-1008.0,51.0,1.5,5.0,-0.011316591408103704,0.0026091826148331165,-0.1676599383354187,0.045850008726119995,-0.0004983576945960522,0.001783450017683208
17:46:16,RTL,187030.0,-35.3624502,149.16507015000002,73089.0,-2.5,-8.5,-2.0,-0.5,22.5,-979.0,184.0,1.5,4.0,-0.0049274933990091085,0.00025499855109956115,-0.1666806861758232,0.17840299755334854,-0.0006421878933906555,0.0010078790364786983
17:46:17,RTL,76080.0,-35.36245025,149.16506977499998,73074.25,-2.5,-8.25,3.25,-2.0,-5.25,-1005.75,-51.0,3.0,4.0,0.0010118288628291339,-0.0005934163445999729,-0.16738950461149216,-0.05506006255745888,0.0007642057025805116,0.001023236836772412
17:46:18,RTL,76080.0,-35.3624504,149.16506859999998,73116.5,-0.5,-1.0,-21.5,0.0,-2.0,-1046.5,135.5,4.5,3.0,0.014492753893136978,-0.00025673108029877767,-0.16664932668209076,0.1311998963356018,0.0020788483088836074,4.975823685526848e-06
17:46:20,RTL,76080.0,-35.3624504,149.1650682,74060.5,0.0,5.5,-43.5,0.0,-14.5,-961.0,-259.0,2.0,3.0,0.003017409355379641,0.001340550254099071,-0.16754493862390518,-0.26378215104341507,-0.0006038903957232833,3.693345934152603e-05
17:46:22,RTL,78474.0,-35.3624504,149.1650682,74296.0,0.0,6.5,3.5,0.5,22.0,-1009.5,640.5,5.0,1.0,0.013540784828364849,0.0016085936222225428,-0.16688422858715057,0.6361736953258514,0.002549012773670256,-0.0023651705123484135
17:46:24,RTL,80868.0,-35.3624503,149.16506909999998,74651.5,-1.0,2.5,-50.0,1.0,3.0,-1022.5,-26.5,3.0,4.0,-0.006397820310667157,0.0022446138318628073,-0.16719069331884384,-0.03142271935939789,0.0005556282121688128,0.0010596419451758265
17:46:26,RTL,80868.0,-35.36245015,149.1650703,75493.0,-2.0,-7.5,-8.5,0.0,20.5,-970.0,366.0,7.0,7.0,-0.006165622209664434,0.002758734975941479,-0.166628897190094,0.361066990531981,0.004280680441297591,0.00424172799102962
17:46:27,RTL,30728.0,-35.3624501,149.165070525,75503.0,-3.0,-9.75,2.75,0.0,-19.25,-989.0,-297.5,1.0,0.25,-0.010001678601838648,0.0016017808229662478,-0.16706837713718414,-0.30152592808008194,-0.001818538410589099,-0.003020795586053282
17:46:28,RTL,30728.0,-35.3624501,149.1650704,75491.0,-3.0,-12.5,-9.5,0.0,6.5,-1039.5,410.5,2.0,4.0,0.00434591481462121,0.0005106129246996716,-0.16696538776159286,0.4066961444914341,-0.000565017107874155,0.0005645003402605653
17:46:30,RTL,30728.0,-35.3624503,149.1650694,76308.0,-2.0,-6.0,-50.0,-1.0,-15.0,-979.0,-168.0,0.0,4.0,0.003135847393423319,-0.0006245095864869654,-0.16773687303066254,-0.17219357192516327,-0.002716473303735256,0.0009286107961088419
17:46:32,RTL,30728.0,-35.3624504,149.16506825,76672.5,-0.5,2.0,0.5,-2.0,-4.5,-984.5,-59.0,4.0,3.5,0.013131965883076191,-0.0002030166142503731,-0.16731999814510345,-0.06299267709255219,0.0015488649951294065,0.0005120283458381891
17:46:33,RTL,74030.0,-35.36245045,149.16506745,76651.25,0.0,8.25,1.0,-1.5,-1.75,-1009.25,-197.0,2.75,4.75,0.011278120917268097,0.00017226252566615585,-0.16690626367926598,-0.20194899290800095,0.00040971412090584636,0.0015788520104251802
17:46:34,RTL,74030.0,-35.362450550000005,149.16506645,76779.0,0.5,16.0,-28.0,-1.5,12.0,-1040.5,343.5,8.5,2.5,0.026563488878309727,0.0008295164298033342,-0.16721966862678528,0.338941365480423,0.005981793627142906,-0.0008761085337027907
17:46:36,RTL,74030.0,-35.3624506,149.1650664,77700.0,2.0,22.5,-35.0,1.0,-4.0,-965.5,143.5,6.0,4.5,0.018177855759859085,0.002733658766373992,-0.1669667437672615,0.1388237103819847,0.0033283483935520053,0.0009346442529931664
17:46:38,RTL,74030.0,-35.3624503,149.16506800000002,77879.0,0.0,13.0,1.5,0.5,-3.0,-1009.5,-30.0,2.0,3.5,0.0015853425429668278,0.003178846323862672,-0.16686268895864487,-0.03556177020072937,-0.00029833242297172546,-0.00012109777890145779
17:46:39,RTL,127135.0,-35.3624503,149.165068325,77953.75,-0.5,8.5,-24.0,0.25,1.25,-1037.5,72.5,2.75,3.25,0.003976004722062498,0.002293837838806212,-0.16673512756824493,0.06705848500132561,-0.00015010370407253504,-0.0002844003611244261
17:46:40,RTL,127135.0,-35.36245035,149.1650683,78372.0,-0.5,6.5,-52.5,0.0,15.0,-1018.5,158.0,3.0,5.5,0.005223881686106324,0.0009288649016525596,-0.16735516488552094,0.1526276096701622,0.000597246689721942,0.0017311403062194586
17:46:42,RTL,127135.0,-35.3624504,149.16506845,79153.5,0.0,6.0,-8.5,0.0,6.0,-979.0,125.0,3.0,3.5,0.0034753717482089996,0.0010049162374343723,-0.16678157448768616,0.11962573602795601,0.0001919999485835433,0.00035252340603619814
17:46:44,RTL,86541.5,-35.36245035,149.16506950000002,79196.0,0.0,-1.0,-15.0,1.0,-12.0,-1029.5,-267.0,1.0,2.0,-0.007478234125301242,0.0023331238771788776,-0.16665765643119812,-0.272494706325233,-0.001312289503403008,-0.0010933522135019302
17:46:46,RTL,45948.0,-35.3624501,149.1650709,80012.0,-2.5,-12.0,-42.0,0.0,-17.5,-969.5,-307.5,-0.5,4.5,-0.015151712577790022,0.0014004262338858098,-0.16764196753501892,-0.31305937469005585,-0.003947456949390471,0.0012800955446437001
17:46:48,RTL,45948.0,-35.3624503,149.16506975,80303.5,-2.5,-9.5,3.5,-2.0,5.0,-994.0,87.0,2.0,5.0,0.004517152439802885,-0.0015287550049833953,-0.1671432927250862,0.08191445469856262,-0.0006056870333850384,0.0016226129373535514
17:46:49,RTL,295073.0,-35.36245045,149.16506892499999,80321.75,-0.5,-2.75,-11.75,-0.5,-3.0,-1031.25,-59.5,2.75,4.0,0.009768352727405727,-0.0012551941035781056,-0.16679226607084274,-0.06460591964423656,3.916292916983366e-05,0.0003396821557544172
17:46:50,RTL,295073.0,-35.3624505,149.1650685,80635.5,0.0,1.0,-45.0,0.0,5.5,-1020.5,-22.0,6.5,3.5,0.0036242846108507365,0.00030084560421528295,-0.16700366884469986,-0.027493536472320557,0.0038080670638009906,0.00047136866487562656
17:46:52,RTL,295073.0,-35.36245035,149.1650699,81476.5,0.0,-2.5,-14.0,0.0,1.5,-978.0,-1.0,0.0,3.0,-0.011807190487161279,0.0018648473778739572,-0.16682468354701996,-0.006061345338821411,-0.0030851223273202777,-0.0001693187514320016
17:46:54,RTL,295073.0,-35.3624502,149.16507065000002,81519.5,-2.0,-12.0,-6.5,0.5,-10.0,-1031.5,-153.0,2.5,2.5,-0.007742448418866843,0.000945337931625545,-0.1663641259074211,-0.15750035643577576,-0.0003859513672068715,-0.0005958160618320107
17:46:55,RTL,111203.0,-35.3624502,149.16507095,81742.75,-2.0,-13.0,-39.75,0.75,-4.0,-1033.25,-60.0,2.25,2.75,-0.013248045463114977,0.0013167127035558224,-0.16706117987632751,-0.0651429845020175,-0.0005117609398439527,-0.00102093635359779
17:46:56,RTL,111203.0,-35.3624501,149.1650714,82241.0,-3.0,-17.0,-48.0,0.0,-6.5,-983.0,114.0,-0.5,4.0,-0.012434565462172031,0.0004468380466278177,-0.16734237223863602,0.10971927642822266,-0.0036481108982115984,0.0008989592315629125
17:46:58,RTL,111203.0,-35.3624502,149.165071,82668.0,-2.5,-18.0,2.0,0.0,2.5,-1000.5,-29.0,1.0,4.0,-0.007707107637543231,-0.00134774309117347,-0.16666176915168762,-0.03315544128417969,-0.001986962161026895,0.0007123920368030667
17:47:00,RTL,111203.0,-35.36245035,149.16507045,82873.0,-0.5,-13.0,-38.0,-0.5,-16.0,-1026.5,-291.5,0.5,4.0,-0.007752670382615179,-0.0009307707077823579,-0.16694608330726624,-0.2954256236553192,-0.0021859854459762573,0.0009081409079954028
17:47:01,RTL,88321.0,-35.3624504,149.16507035,83366.0,0.0,-11.25,-53.25,0.0,-1.5,-992.25,-57.5,1.75,4.0,-0.007326800609007478,-0.0016293381049763411,-0.16763146966695786,-0.061355069279670715,-0.0008596821571700275,0.0007791814859956503
17:47:02,RTL,88321.0,-35.3624505,149.16506985,83777.0,0.0,-9.5,-24.5,-1.0,-3.0,-968.5,-313.5,3.5,3.5,-0.00436037068720907,-0.002208645921200514,-0.16727110743522644,-0.3179179411381483,0.0007036022143438458,0.00013195909559726715
17:47:04,RTL,88321.0,-35.3624507,149.16506809999998,83868.0,1.0,2.0,-4.5,-0.5,-8.0,-1022.5,-126.0,2.0,2.5,0.012681558495387435,-0.002287096926011145,-0.16658995300531387,-0.12983237206935883,-0.0007455748273059726,-0.0007668707985430956
17:47:06,RTL,88321.0,-35.36245065,149.1650682,84533.5,2.5,7.0,-55.5,0.5,-10.5,-1000.0,-23.5,3.0,1.5,0.0038200331619009376,0.0008833108877297491,-0.16731692105531693,-0.027150120586156845,0.001057617599144578,-0.0018088447395712137
17:47:07,RTL,49365.0,-35.36245055,149.1650689,85024.0,1.75,3.75,-32.75,0.25,-4.0,-960.5,4.25,4.25,4.75,-0.0044988928057136945,0.001764210406690836,-0.16718308627605438,0.0004829131066799164,0.0015866872854530811,0.001085075840819627
17:47:08,RTL,49365.0,-35.3624504,149.16506950000002,85173.0,0.5,-1.5,-2.0,0.0,-9.5,-981.5,-128.0,0.5,3.0,-0.007082429285219405,0.001149881718447432,-0.16646812111139297,-0.13179495930671692,-0.0023517796071246266,-0.001042540417984128
17:47:10,RTL,49365.0,-35.3624504,149.16507000000001,85278.5,0.0,-6.5,-28.0,0.5,15.0,-1036.5,264.5,5.5,3.0,-0.004068928421474993,-0.00010461934323302557,-0.16679628193378448,0.26046339608728886,0.0030713961459696293,-0.00044418638572096825
17:47:12,RTL,49365.0,-35.36245035,149.16507085,86246.5,-0.5,-13.0,-37.5,1.0,-19.0,-968.5,-183.5,0.0,2.0,-0.013376169838011265,0.0004368990776129067,-0.16698025166988373,-0.1864782627671957,-0.0030693046282976866,-0.0022196066565811634
17:47:13,RTL,94044.0,-35.362450249999995,149.165071375,86475.0,-1.25,-16.75,-3.25,0.0,9.75,-982.25,158.5,2.25,4.25,-0.015033757139462978,0.0006723280530422926,-0.16678106784820557,0.15495833195745945,-0.0003847563057206571,0.0009800337720662355
17:47:14,RTL,94044.0,-35.3624502,149.1650713,86456.5,-2.5,-19.0,1.0,-1.0,-15.5,-1003.0,-243.0,1.0,4.0,-0.01544388197362423,-0.0003283579717390239,-0.16684070229530334,-0.24683168530464172,-0.0019037815509364009,0.0007014770526438951
17:47:16,RTL,94044.0,-35.36245045,149.16506995,86937.0,-1.0,-11.0,-52.5,-1.0,10.0,-1018.0,51.0,3.5,5.5,-0.00028019683668389916,-0.002790353843010962,-0.16726311296224594,0.04755646735429764,0.0009350876789540052,0.0016876680310815573
17:47:18,RTL,94044.0,-35.3624507,149.16506855,87704.5,1.5,-0.5,-8.0,-1.0,-2.0,-977.0,-105.0,4.5,4.0,0.007699273293837905,-0.002895112964324653,-0.16662795096635818,-0.10792039334774017,0.0019914944423362613,0.0003552297130227089
17:47:19,RTL,152741.0,-35.3624508,149.16506807500002,87710.25,2.75,3.75,2.5,-0.5,12.25,-1001.0,45.5,2.0,6.25,0.007403612866255571,-0.0017243021284230053,-0.1666782796382904,0.0416816808283329,-0.00034037494333460927,0.0026131828781217337
17:47:20,RTL,152741.0,-35.3624508,149.16506800000002,87762.0,3.0,7.0,-17.0,0.0,-2.5,-1032.5,115.0,2.0,1.0,0.011118519119918346,-0.0004798224435944576,-0.1665949821472168,0.11242649704217911,-0.0009261270752176642,-0.0029875283362343907
17:47:22,RTL,152741.0,-35.3624507,149.1650683,88630.5,2.0,4.5,-45.0,0.0,-18.0,-969.5,-205.0,-1.0,3.5,0.004338623955845833,-0.00019414047710597515,-0.1669769510626793,-0.2082604616880417,-0.0036091540823690593,0.00016439927276223898
17:47:24,RTL,112856.0,-35.362450550000005,149.16506865,88955.5,1.5,4.5,3.5,0.5,0.5,-1000.0,-31.5,4.5,5.5,0.0016678408719599247,0.0010622920817695558,-0.16614270210266113,-0.034450531005859375,0.0022336788242682815,0.0016059153713285923
17:47:26,RTL,72971.0,-35.3624504,149.16506955,89248.5,0.0,-1.0,-43.5,0.5,15.0,-1029.0,160.5,1.5,3.0,-0.004796326044015586,0.0005024098645662889,-0.1671236827969551,0.1568267378024757,-0.0008218865841627121,-0.0005860636010766029
17:47:28,RTL,72971.0,-35.36245045,149.16506895,90110.0,0.0,-1.0,-17.0,0.0,11.5,-966.5,147.5,1.0,4.5,0.007984463358297944,-0.001021211763145402,-0.16689056903123856,0.14414524286985397,-0.0010065892711281776,0.0010243681026622653
17:47:29,RTL,30618.0,-35.3624505,149.16506842500002,90168.5,0.0,2.25,3.0,-1.0,-2.5,-994.0,37.5,2.5,2.25,0.010248780570691451,-0.0007170574535848573,-0.1666724607348442,0.034388527274131775,0.00014122368884272873,-0.0014285582583397627
17:47:30,RTL,30618.0,-35.3624506,149.16506775,90162.0,0.5,6.5,-6.5,-2.0,0.0,-1018.5,-64.0,0.5,5.5,0.012341590598225594,-0.0019587231799960136,-0.16652366518974304,-0.06800501234829426,-0.00213030690792948,0.002303071552887559
17:47:32,RTL,30618.0,-35.362451,149.1650663,90884.5,4.5,20.0,-50.0,-0.5,-18.0,-984.5,-309.0,3.5,2.0,0.018464636988937855,-0.001988414500374347,-0.16697955876588821,-0.31298941373825073,0.0012164744548499584,-0.0013720615534111857
17:47:34,RTL,30618.0,-35.3624508,149.1650674,91362.0,5.5,17.5,2.0,1.5,-6.5,-981.0,-21.5,2.5,2.0,0.003346648649312556,0.001570305263157934,-0.1664106771349907,-0.026018142700195312,0.0004988387227058411,-0.0012852480867877603
17:47:35,RTL,237487.0,-35.362450625,149.16506852499998,91340.5,3.0,10.25,-2.0,0.75,-15.75,-1019.5,-269.5,0.5,0.5,-0.0066481688991189,0.0017524923605378717,-0.16648941114544868,-0.27380912005901337,-0.002093144867103547,-0.003156341495923698
17:47:36,RTL,237487.0,-35.3624505,149.1650694,91525.0,1.0,2.5,-35.0,0.5,8.0,-1043.5,189.5,4.0,3.0,-0.006360850267810747,0.0005789067217847332,-0.1667350009083748,0.18502041697502136,0.0014959928230382502,-0.00034877622965723276
17:47:38,RTL,237487.0,-35.36245045,149.16506995,92455.0,0.0,-6.0,-28.5,-0.5,11.0,-963.5,336.5,2.0,3.5,0.002286836039274931,-0.0014296075096353889,-0.16650394350290298,0.3330526649951935,-0.0003435469698160887,9.668944403529167e-05
17:47:40,RTL,237487.0,-35.3624505,149.16506945,92575.0,1.0,-2.0,-0.5,0.5,6.0,-1016.5,169.0,2.0,2.5,0.0015924673061817884,0.00014168872075970285,-0.16628985852003098,0.16464218497276306,-0.001077114138752222,-0.001441964297555387
17:47:41,RTL,52824.0,-35.3624505,149.16506985,92692.0,0.0,-4.5,-29.5,0.25,-0.5,-1036.25,-21.5,2.25,3.0,-0.007569870620500296,-0.0004094857213203795,-0.16683396324515343,-0.025288458913564682,-9.198370389640331e-05,-0.00020743714412674308
17:47:42,RTL,52824.0,-35.3624505,149.16506994999997,93000.5,0.0,-6.0,-52.5,0.0,0.0,-1019.0,-119.5,2.5,2.0,-0.008352394215762615,-0.0009997057204600424,-0.1669181063771248,-0.1235571913421154,0.00024387030862271786,-0.0012308069271966815
17:47:44,RTL,52824.0,-35.3624505,149.1650698,93772.0,1.0,-5.5,-9.5,-1.0,27.0,-968.0,435.0,5.5,7.5,0.0026032860623672605,-0.001906252233311534,-0.16609878093004227,0.4308493658900261,0.00304689584299922,0.004317531129345298
17:47:46,RTL,65135.5,-35.3624505,149.16506944999998,93774.0,0.0,-4.5,-8.0,0.0,-16.5,-1038.0,-163.5,1.0,-0.5,0.004740255884826183,-0.0010911275749094784,-0.1664288565516472,-0.1664489582180977,-0.001199649996124208,-0.004154537571594119
17:47:48,RTL,77447.0,-35.3624508,149.16506800000002,94574.0,2.0,3.0,-48.0,-1.0,-10.5,-975.5,-189.5,2.0,4.0,0.01269754534587264,-0.0033300273353233933,-0.167009636759758,-0.19325621984899044,-9.136571316048503e-05,0.0003056037239730358
17:47:50,RTL,77447.0,-35.3624508,149.1650674,94911.5,4.0,13.5,4.5,0.0,35.5,-1002.0,614.0,3.0,4.0,0.013972191605716944,-0.00012285512002563337,-0.16612374037504196,0.6094991564750671,0.001202555955387652,0.0006156659219413996
17:47:51,RTL,27415.0,-35.3624507,149.16506802499998,94929.75,3.5,10.0,-13.5,1.25,0.75,-1034.25,-116.0,-1.0,1.5,-0.0005950825870968401,0.0006243318421184085,-0.16582297906279564,-0.12037182040512562,-0.0035088736040052027,-0.0014910859754309058
17:47:52,RTL,27415.0,-35.3624507,149.16506835,95136.5,2.0,6.5,-41.0,0.0,-15.5,-1029.5,-264.5,1.5,2.0,-0.00026254740078002214,-0.000530222081579268,-0.16652031987905502,-0.26907097548246384,-0.0002619901206344366,-0.0015945876948535442
17:47:54,RTL,27415.0,-35.3624507,149.1650688,95956.0,3.0,2.0,-10.0,0.0,-26.0,-962.5,-208.0,3.0,1.0,0.0032092287437990308,-0.0015424610464833677,-0.16617771238088608,-0.21152248978614807,0.0012482234742492437,-0.0023493150947615504
17:47:56,RTL,27415.0,-35.3624507,149.1650689,95957.0,2.0,1.5,-6.0,-0.5,25.5,-1038.0,302.5,3.5,4.5,0.003603623903472908,-0.0011251772521063685,-0.1662057340145111,0.2974885404109955,0.0019500729977153242,0.0008579347049817443
17:47:57,RTL,6246.0,-35.3624507,149.1650682,96342.75,2.0,4.25,-49.75,-1.25,-0.5,-1024.0,-40.0,1.0,1.75,0.010470470762811601,-0.0019491717976052314,-0.16682418063282967,-0.044507551938295364,-0.0009265467524528503,-0.001733138575218618
17:47:58,RTL,6246.0,-35.3624508,149.1650677,96755.0,2.5,8.5,-54.0,0.0,9.5,-987.5,150.5,3.0,5.0,0.015273450873792171,-0.002209544531069696,-0.16707545518875122,0.14526698738336563,0.0013165377313271165,0.001570459338836372
17:48:00,RTL,6246.0,-35.362450749999994,149.1650677,97204.0,4.0,13.0,3.0,1.0,-3.5,-995.0,-296.0,1.5,6.0,-0.00315075003891252,0.0006027623967383988,-0.16610707342624664,-0.30105231516063213,-0.0009773657657206059,0.00279751094058156
17:48:02,RTL,6246.0,-35.36245045,149.16506945,97378.5,0.5,1.0,-39.0,1.0,-9.5,-1031.5,58.0,-0.5,0.5,-0.0037957222084514797,0.0016183695406652987,-0.1663280352950096,0.0537007674574852,-0.002978966338559985,-0.002992302761413157
17:48:03,RTL,67805.0,-35.3624504,149.165070175,98036.75,0.0,-5.75,-51.0,0.5,0.75,-981.5,94.5,-1.0,2.75,-0.007161225948948413,-7.755925525998464e-05,-0.16679329052567482,0.09012434259057045,-0.0037722710403613746,-0.000506312760990113
17:48:04,RTL,67805.0,-35.3624504,149.16507024999999,98360.0,0.0,-9.0,-25.0,0.0,-24.0,-950.0,-458.0,0.0,4.0,-0.00943199498578906,-0.0008155340619850904,-0.16657184809446335,-0.46240702271461487,-0.002190368017181754,0.0008942290442064404
17:48:06,RTL,67805.0,-35.36245045,149.16506975,98427.5,0.0,-6.5,2.5,0.0,30.5,-1004.0,665.5,3.0,4.5,0.005400221794843674,-0.0013538027997128665,-0.16621846705675125,0.6607001423835754,0.0011095572263002396,0.0018324496923014522
17:48:08,RTL,67805.0,-35.3624505,149.1650696,99007.5,0.5,-3.0,-55.5,0.0,5.0,-1005.0,50.5,2.0,2.0,-0.0035448838580123265,-0.0011149932979606092,-0.16716205328702927,0.045924440026283264,0.000557028572075069,-0.00098482146859169
17:48:09,RTL,11084.0,-35.3624505,149.165069575,99574.0,0.5,-4.5,-23.0,-0.25,-3.5,-956.75,-115.5,0.5,3.0,-0.003921513292880263,-0.0015992049302440137,-0.1662984974682331,-0.11978048831224442,-0.00160991822485812,-0.00028512923745438457
17:48:10,RTL,11084.0,-35.3624505,149.1650695,99667.5,1.0,-3.0,-1.0,-0.5,33.5,-988.5,578.0,4.0,1.0,0.0032878484344109893,-0.0008855963533278555,-0.1660282164812088,0.5734556168317795,0.0022354748798534274,-0.002378745819441974
17:48:12,RTL,11084.0,-35.3624505,149.1650689,99718.5,0.0,-1.5,-26.0,-1.5,-7.5,-1045.5,7.0,1.0,3.0,0.008860117988660932,-0.0006973043200559914,-0.16612449288368225,0.0032782554626464844,-0.0011323568178340793,0.0002478815149515867
17:48:14,RTL,56236.0,-35.3624506,149.16506825,100710.0,1.5,5.0,-43.5,0.0,-16.0,-957.0,-260.0,1.0,2.5,0.0016749667702242732,-0.000832089368486777,-0.1670517548918724,-0.26499710977077484,-0.0014475572388619184,-0.0005010936292819679
17:48:16,RTL,101388.0,-35.3624505,149.16506894999998,100931.0,1.0,2.5,4.0,0.5,13.5,-1012.5,511.0,1.0,2.0,0.00548177701421082,0.0010752419766504318,-0.16575605422258377,0.5068206042051315,-0.0012128674425184727,-0.0014739326434209943
17:48:20,RTL,227516.0,-35.3624506,149.1650689,102221.0,1.0,0.0,-12.0,0.0,18.0,-961.0,461.5,2.5,5.5,0.01185924606397748,-0.0019126911647617817,-0.1666501984000206,0.457425594329834,0.00035715149715542793,0.00236655306071043
17:48:22,RTL,227516.0,-35.3624506,149.16506885,102237.0,1.5,1.5,-11.5,0.5,13.5,-1038.0,130.5,4.5,3.5,-0.0018525967607274652,0.0010322730231564492,-0.16580747812986374,0.1251501515507698,0.0027943311724811792,0.000939146731980145
17:48:24,RTL,144624.0,-35.3624505,149.16506894999998,103117.0,0.0,0.0,-53.5,-0.5,10.0,-978.0,134.0,3.0,3.0,0.00339853682089597,-0.0006396341777872294,-0.1672726348042488,0.1288803666830063,0.0015528167714364827,-0.00013066758401691914
17:48:26,RTL,61732.0,-35.3624505,149.1650687,103546.5,1.0,3.5,3.5,1.0,-15.0,-983.5,-515.5,-1.0,5.5,-0.005961321294307709,0.0009332674962934107,-0.16574286669492722,-0.5208330899477005,-0.0030549512011930346,0.0022356928093358874
17:48:28,RTL,61732.0,-35.3624505,149.16506985,103717.5,0.0,-4.0,-38.5,0.0,1.0,-1037.5,157.0,-1.0,0.5,-0.0037828710046596825,5.3217470849631354e-05,-0.1664343848824501,0.15290705114603043,-0.0032121664844453335,-0.002122894278727472
17:48:29,RTL,91658.0,-35.3624505,149.165070225,104378.25,0.0,-8.0,-50.75,0.5,0.75,-978.75,90.5,0.5,2.25,-0.006165950006106868,-0.0009305936109740287,-0.1665620021522045,0.0864621102809906,-0.0017082106787711382,-0.0005022334516979754
17:48:30,RTL,91658.0,-35.3624505,149.1650704,104700.0,0.0,-10.0,-25.0,0.0,-22.5,-951.5,-433.5,0.0,3.0,-0.01160490745678544,-0.0012754795607179403,-0.16651131957769394,-0.4379135072231293,-0.0018832448404282331,-8.127791807055473e-05
17:48:32,RTL,91658.0,-35.3624504,149.16507015000002,104762.5,0.0,-9.5,1.5,-0.5,27.5,-1019.0,483.5,4.5,2.0,-0.0007249191403388977,-0.00012249433166289236,-0.1660374402999878,0.479641929268837,0.0030191465048119426,-0.0007110320730134845
17:48:34,RTL,91658.0,-35.3624504,149.1650701,105350.5,0.0,-8.0,-54.5,0.0,5.0,-1004.5,18.5,3.0,3.0,-0.007578831748105586,-0.0003874167305184528,-0.16735953837633133,0.014164939522743225,0.0016347572673112154,0.00023629609495401382
