time_stamp,RTL_ALT,MODE,lat,lon,relative_alt,vx,vy,vz,xacc,yacc,zacc,xgyro,ygyro,zgyro,roll,pitch,yaw,rollspeed,pitchspeed,yawspeed
07:15:47,1500.0,STABILIZE,-35.3632621,149.1652375,0.0,-1.0,1.5,1.0,0.0,1.0,-1000.0,1.0,0.0,0.0,-0.0009733943443279713,0.0009053490357473493,0.025450739078223705,0.00027738718199543655,0.00023199088172987103,0.0019171134335920215
07:15:51,1500.0,STABILIZE,-35.3632621,149.1652375,0.0,-1.0,0.5,-1.0,0.0,1.0,-1000.0,0.0,0.0,0.0,-0.0007879740733187646,0.0009226000693161041,0.02420886978507042,0.0002726371167227626,0.00018977667787112296,0.0017641055746935308
07:15:55,1500.0,AUTO,-35.3632622,149.1652375,3.0,-1.0,2.0,-1.0,0.0,1.0,-1000.0,0.0,0.0,0.0,-0.0003923053154721856,0.0009763951529748738,0.02266693115234375,0.0003463923349045217,0.00024643336655572057,0.001576160779222846
07:15:56,300000.0,AUTO,-35.3632621,149.1652375,20.25,-0.25,-0.25,-4.75,0.0,1.0,-1000.0,0.5,0.25,0.5,-0.00030391837572096847,0.0010441870836075395,0.022445769514888525,0.0002998310519615188,0.0002882993285311386,0.0015141614130698144
07:15:57,300000.0,AUTO,-35.3632621,149.1652375,28.0,0.0,0.5,-3.5,0.0,1.0,-1000.0,0.0,0.0,0.0,-3.699107401189394e-05,0.0012631323770619929,0.02210317924618721,0.00028751540230587125,0.00033840557443909347,0.001557944982778281
07:15:59,300000.0,AUTO,-35.3632621,149.1652375,126.0,0.0,1.0,-38.0,0.0,0.5,-1065.5,0.5,2.5,0.5,0.0012723486725008115,0.0009698869325802661,0.021462181583046913,0.0004423178907018155,0.0019502508512232453,0.0018893813248723745
07:16:00,78885.0,AUTO,-35.363262075,149.1652375,930.0,0.25,2.5,-129.0,0.0,0.0,-1060.5,29.5,-2.0,0.5,0.011269266891758889,0.0003821767822955735,0.021095559932291508,0.02953038568375632,-0.0027008175893570296,0.0013246660528238863
07:16:01,78885.0,AUTO,-35.363261800000004,149.16523875000001,2383.0,4.5,29.5,-147.0,0.0,-4.5,-998.5,9.0,15.0,-25.5,0.05023470148444176,-0.005635689478367567,0.004905098117887974,0.008168412372469902,0.014720292994752526,-0.025018208660185337
07:16:03,78885.0,AUTO,-35.3632608,149.1652459,5407.5,-0.5,-2.0,-147.0,0.5,-2.0,-1001.0,-18.0,-4.5,-26.0,-0.059884797781705856,0.002277014400533517,-0.08820339292287827,-0.018591608852148056,-0.0053732432425022125,-0.026251827366650105
07:16:04,2855.0,AUTO,-35.363261050000006,149.16524262500002,6929.5,-7.5,-54.75,-147.5,-5.75,11.0,-1001.5,63.5,7.75,-5.75,-0.03244349011220038,0.0025409012741874903,-0.10707790777087212,0.06322304904460907,0.007586916210129857,-0.006028569958289154
07:16:05,2855.0,AUTO,-35.363262250000005,149.16523654999997,8477.0,-17.5,-41.5,-150.0,-5.0,14.0,-1003.0,66.0,5.5,1.5,0.03402709774672985,0.010845930315554142,-0.10715014860033989,0.06609147787094116,0.004806847660802305,0.0025893279525917023
07:16:07,2855.0,AUTO,-35.36326315,149.16523665,11564.0,25.0,20.5,-147.0,-0.5,-7.0,-1003.5,-53.5,64.0,-63.5,-0.015471564373001456,-0.023931433097459376,-0.07385271228849888,-0.05391806008992717,0.0642398800700903,-0.06344426237046719
07:16:08,201662.0,AUTO,-35.363260724999996,149.1652372,13109.5,18.75,-10.0,-150.5,-5.5,-1.5,-1001.75,35.25,19.25,-49.0,-0.018194461008533835,0.017708462895825505,-0.14752791821956635,0.03488463442772627,0.019261554582044482,-0.049265739507973194
07:16:09,201662.0,AUTO,-35.36325995,149.1652357,14673.0,-3.5,-9.0,-150.5,-1.5,2.0,-999.0,17.0,-3.0,-9.0,0.012125176610425115,0.021856503561139107,-0.1720021292567253,0.016661155212204903,-0.003716064151376486,-0.008649662602692842
07:16:11,201662.0,AUTO,-35.36326155,149.16523575,17776.0,-11.0,5.0,-149.0,2.0,0.0,-998.0,-70.5,-3.0,-16.5,-0.018852764973416924,-0.000453622720669955,-0.174733005464077,-0.07184007670730352,-0.003626768011599779,-0.0167034228798002
07:16:12,200.0,AUTO,-35.363262725,149.16523455,19253.5,-22.75,-30.0,-129.75,0.25,7.25,-963.0,73.25,-28.0,242.75,-0.03954983956646174,0.021727133076637983,-0.03949986305087805,0.0728072221390903,-0.028962956741452217,0.24353992566466331
07:16:13,200.0,AUTO,-35.3632646,149.16523145000002,20368.5,-13.5,-10.0,-87.5,0.0,4.5,-962.0,44.5,-21.0,-18.5,0.05156197398900986,-0.0332762636244297,0.045136984437704086,0.04352218843996525,-0.02173978090286255,-0.018637172877788544
07:16:15,200.0,AUTO,-35.3632628,149.16523645,21571.0,16.0,36.0,-33.0,0.5,-9.0,-977.0,-15.5,15.0,2.0,0.0008109402842819691,0.010449931491166353,0.027929971925914288,-0.01592695014551282,0.014970900723710656,0.0020742450724355876
07:16:16,300000.0,AUTO,-35.36326155,149.16523937500003,21796.25,5.75,17.75,-5.75,0.0,-3.25,-959.5,-31.0,15.5,-4.0,-0.020602551521733403,0.01796270487830043,0.024895104579627514,-0.03191570658236742,0.014646693773102015,-0.004135364491958171
07:16:17,300000.0,AUTO,-35.36326155,149.16523935,21694.5,-9.0,-16.0,16.5,-0.5,6.0,-999.0,-88.0,-19.5,-4.5,-0.037987422198057175,0.01754230447113514,0.02177323494106531,-0.08908046782016754,-0.02054703002795577,-0.005006636260077357
07:16:19,300000.0,AUTO,-35.363264900000004,149.16523015,21530.0,-33.0,-74.5,0.0,-9.5,2.0,-998.5,-466.5,9.0,-479.5,-0.07744330912828445,-0.003683522343635559,-0.24688523076474667,-0.4679979681968689,0.008183818310499191,-0.4798628203570843
07:16:20,163816.0,AUTO,-35.363269075,149.16521855,21504.5,-61.0,-138.75,2.25,-34.25,16.0,-999.5,-25.5,4.25,-741.25,-0.07290703803300858,-0.07142363861203194,-0.9881267547607422,-0.02650638297200203,0.0035648565244628116,-0.7415451556444168
07:16:21,163816.0,AUTO,-35.36327575,149.1651996,21465.5,-81.5,-191.5,3.0,-50.0,-28.5,-1003.5,-251.5,11.5,-554.5,0.0034482497721910477,-0.08332675322890282,-1.693009853363037,-0.2526430655270815,0.011011687107384205,-0.5546654760837555
07:16:23,163816.0,AUTO,-35.36329125,149.165151,21361.0,-93.5,-229.5,6.5,-50.0,-43.5,-1004.5,-119.5,-1.5,14.5,0.028532281517982483,-0.05137532390654087,-1.9342591762542725,-0.11994948983192444,-0.002284115180373192,0.015236349077895284
07:16:24,253839.0,AUTO,-35.36329925,149.16512595,21289.5,-94.0,-227.25,6.5,-49.75,-30.5,-1002.75,-37.5,31.0,2.75,0.02784159267321229,-0.04387014405801892,-1.9374020993709564,-0.03877328708767891,0.030441083945333958,0.0030160141177475452
07:16:25,253839.0,AUTO,-35.36330715,149.16510255,21234.5,-82.5,-200.0,4.5,-43.0,-22.5,-1003.5,307.5,43.0,-6.5,0.03865537978708744,0.0016637491062283516,-1.9373573064804077,0.30696340277791023,0.04267248883843422,-0.006433812668547034
07:16:27,253839.0,AUTO,-35.3633179,149.16507335,21146.5,-15.0,-70.5,2.5,-13.0,-7.0,-1008.5,24.0,-28.0,-12.0,0.03039320930838585,0.05322702042758465,-1.9365187883377075,0.02277141809463501,-0.029327290481887758,-0.012311424128711224
07:16:28,199140.0,AUTO,-35.36331935,149.16506915,21127.0,7.5,-27.25,0.25,-3.25,-3.0,-1004.0,-26.25,-26.25,-10.0,0.015866333269514143,0.018157300306484103,-1.939019650220871,-0.028045792132616043,-0.02725609065964818,-0.01014663593377918
07:16:29,199140.0,AUTO,-35.363319700000005,149.16506809999998,21128.0,11.5,-14.0,-0.5,-1.5,-3.5,-1001.0,-172.5,-16.0,-7.0,0.010202331934124231,-0.0005456856451928616,-1.9414100646972656,-0.17379117012023926,-0.017225407995283604,-0.006863443646579981
07:16:31,199140.0,RTL,-35.3633208,149.1650673,21201.5,14.0,-13.5,-14.0,-2.5,-18.0,-1025.5,-355.5,0.5,3.5,0.018804605584591627,0.0009378811519127339,-1.9465186595916748,-0.3574890121817589,0.00014253688277676702,0.0047659596893936396
07:16:32,202932.0,RTL,-35.3633212,149.165067075,21518.25,20.0,-10.5,-51.75,-0.25,-0.25,-1044.0,-7.25,-1.25,5.5,0.020164538640528917,-0.00040726376755628735,-1.9482598006725311,-0.009622249752283096,-0.0018976102001033723,0.006564050680026412
07:16:33,202932.0,RTL,-35.3633212,149.16506705,22235.5,22.0,-9.5,-80.0,0.0,2.0,-1016.0,37.0,0.0,7.0,0.018019390292465687,-0.0009453239908907562,-1.9491638541221619,0.035152319353073835,-0.0006897736457176507,0.007341766031458974
07:16:35,202932.0,RTL,-35.363320099999996,149.16506635000002,23962.5,14.5,-4.5,-68.5,0.5,-2.0,-977.0,2.5,0.5,2.0,0.00312284825486131,0.00031544530065730214,-1.9494611024856567,0.0007304985774680972,0.0001060271606547758,0.0024206145317293704
07:16:36,260163.0,RTL,-35.363319475,149.16506600000002,24592.25,8.25,-1.5,-39.75,0.5,-1.5,-968.25,0.5,1.0,0.75,-0.0011214012702112086,0.0007283812883542851,-1.9496947228908539,-0.0023996091913431883,0.0007759681029710919,0.0012309005251154304
07:16:37,260163.0,RTL,-35.3633191,149.16506575,24856.5,3.5,0.5,-11.0,0.0,-1.0,-971.0,10.5,-0.5,-0.5,-0.0026535792276263237,0.000694750837283209,-1.950140357017517,0.0076387859880924225,-0.0009701152739580721,-0.00011370558058843017
07:16:39,260163.0,RTL,-35.36331865,149.16506545,24824.0,-2.5,4.5,2.0,0.0,-24.0,-1020.5,-401.0,-2.5,-0.5,-0.006635962170548737,0.00033678214822430164,-1.9505738019943237,-0.4034757912158966,-0.0028879897436127067,-0.0007394949352601543
07:16:40,200.0,RTL,-35.363318625,149.165065425,24922.75,-3.0,5.0,-29.5,0.0,-0.5,-1040.0,-85.5,-0.5,-0.25,-0.0023363884538412094,-0.0008404691398027353,-1.9510732293128967,-0.08786480315029621,-0.0015674586175009608,-0.000413133209804073
07:16:41,200.0,RTL,-35.363318899999996,149.1650656,25390.5,-2.5,4.0,-51.0,0.0,2.5,-992.0,-182.0,2.0,-0.5,-0.0013001763982174452,-0.0016737506375648081,-1.951647937297821,-0.18526830151677132,0.0015866649628151208,-0.0003968005476053804
07:16:43,200.0,RTL,-35.36331955,149.1650662,25921.0,2.5,0.5,3.5,0.0,12.5,-977.0,177.0,3.0,0.0,0.008802111318800598,-0.003622513497248292,-1.9521715641021729,0.17432832717895508,0.002243301016278565,1.219782279804349e-05
07:16:44,169683.0,RTL,-35.363319849999996,149.165066375,25880.75,4.75,-0.75,4.0,0.0,-12.5,-1001.25,-200.75,1.5,-0.25,0.008294566534459591,-0.0035099139204248786,-1.9526047706604004,-0.20378557220101357,0.0008368219714611769,-0.0004816835280507803
07:16:45,169683.0,RTL,-35.3633198,149.1650664,25971.0,7.0,-3.0,-21.5,0.0,6.5,-1038.0,95.5,2.5,2.0,0.006292925216257572,-0.0023574131773784757,-1.9534484148025513,0.09264332056045532,0.0013542191591113806,0.0019412717665545642
07:16:47,169683.0,RTL,-35.363319149999995,149.16506635000002,26756.0,1.5,-1.5,-25.5,0.5,15.5,-972.5,205.0,2.5,0.0,-6.661820225417614e-05,-0.003993448684923351,-1.954287827014923,0.2012748308479786,0.002116296294843778,-0.0003356659144628793
07:16:48,200.0,RTL,-35.363319125,149.1650664,26888.5,0.0,-1.0,1.0,-0.25,-2.0,-992.0,45.75,3.25,-1.25,0.004528866498731077,-0.003913927706889808,-1.9544851779937744,0.04334442317485809,0.0027053315425291657,-0.0019154823530698195
07:16:49,200.0,RTL,-35.363319149999995,149.1650664,26865.5,1.0,-2.0,1.0,0.5,-5.5,-1026.5,-143.5,-2.0,3.0,0.0006973238196223974,-0.0035120206885039806,-1.954889714717865,-0.14686071500182152,-0.0032021900988183916,0.00287717767059803
07:16:51,200.0,RTL,-35.363319000000004,149.16506625,27413.0,-0.5,-1.5,-47.5,0.5,-19.0,-999.5,-367.5,-1.5,0.0,-0.004558378015644848,-0.0033003540011122823,-1.9556145668029785,-0.370451420545578,-0.0026956407236866653,-0.0001049867132678628
07:16:52,58536.0,RTL,-35.363318725000006,149.1650661,27840.75,-2.0,-0.25,-25.25,-0.25,-2.5,-961.25,-64.75,1.0,2.0,-0.0036754713801201433,-0.002533876395318657,-1.9557513892650604,-0.06763369590044022,0.0004860908375121653,0.0018342503171879798
07:16:53,58536.0,RTL,-35.36331865,149.16506605,27949.0,-3.5,0.0,2.0,0.5,-6.0,-986.0,-9.0,-1.0,-1.5,4.0759798139333725e-05,-0.0031599001958966255,-1.9555934071540833,-0.01125994324684143,-0.0019163942779414356,-0.001695463142823428
07:16:55,58536.0,RTL,-35.3633196,149.16506644999998,28077.5,0.5,-1.0,-29.5,-2.0,6.5,-1032.0,160.5,3.5,0.5,0.01687844656407833,-0.004792578751221299,-1.9562641978263855,0.15799376741051674,0.002890894073061645,0.00024163222406059504
07:16:56,132189.0,RTL,-35.36332025,149.165066675,28513.0,7.0,-3.5,-50.0,-0.75,3.25,-997.0,64.0,1.25,1.25,0.01636884338222444,-0.004186755744740367,-1.9567738473415375,0.06092410907149315,0.0005881887045688927,0.0009555692158755846
07:16:57,132189.0,RTL,-35.36332055,149.1650668,28932.5,11.5,-5.0,-24.5,0.5,0.5,-962.0,248.5,2.0,2.0,0.020738914608955383,-0.002702918369323015,-1.9565632343292236,0.24612922221422195,0.002000029111513868,0.002181161427870393
07:16:59,132189.0,RTL,-35.36332025,149.1650665,29037.5,13.0,-5.0,0.5,1.0,15.0,-1011.5,166.5,2.5,2.5,0.006668367946986109,-0.0005050943364039995,-1.9567241668701172,0.16253742575645447,0.0020056084322277457,0.002091763773933053
07:17:00,200.0,RTL,-35.363319725,149.1650662,29148.0,8.75,-2.75,-26.25,0.75,-0.75,-1036.5,83.5,0.75,1.75,0.002474903330039524,-0.0002695160292205401,-1.957348257303238,0.08031028509140015,7.512619777116925e-05,0.0014556777314282954
07:17:01,200.0,RTL,-35.36331925,149.165066,29583.5,4.5,-0.5,-49.5,0.5,12.0,-1007.5,153.0,3.0,2.5,-0.0026228774804621935,-0.0009677702328190207,-1.9574469327926636,0.14955697394907475,0.0028851302340626717,0.0020739694009535015
07:17:03,200.0,RTL,-35.3633186,149.16506575,30183.0,-2.5,1.5,-1.0,0.0,-0.5,-978.5,17.5,0.0,1.0,-0.004552054451778531,-0.0022142878151498735,-1.9574178457260132,0.01432695984840393,-0.000668215099722147,0.0008777582552284002
07:17:04,161752.0,RTL,-35.3633185,149.1650657,30163.25,-4.75,2.0,2.0,0.5,7.5,-1011.5,248.0,2.25,2.25,0.001108460419345647,-0.0021461581927724183,-1.9575492143630981,0.2445309804752469,0.0018677642074180767,0.0016107660921989009
07:17:05,161752.0,RTL,-35.3633184,149.16506565,30266.5,-6.5,2.5,-24.5,0.0,-6.5,-1041.5,-93.5,1.0,0.0,-0.006026612827554345,-0.0016633356572128832,-1.9575351476669312,-0.0964536964893341,0.0001965775154531002,-0.000670707318931818
07:17:07,161752.0,RTL,-35.3633182,149.1650656,31177.0,-8.0,4.0,-37.0,0.0,-5.0,-965.5,-65.0,-0.5,1.0,-0.002934602787718177,-0.0022335797548294067,-1.9581393599510193,-0.06727010011672974,-0.0014204058679752052,0.00020044000120833516
07:17:08,200.0,RTL,-35.3633184,149.165065675,31394.25,-6.75,4.0,-4.0,-0.75,1.0,-981.0,-185.75,-1.25,1.0,-0.0056527426932007074,-0.002904424211010337,-1.9577020704746246,-0.1891382560133934,-0.0020094403298571706,-0.00028451503021642566
07:17:09,200.0,RTL,-35.36331925,149.16506615,31382.5,-3.0,2.5,1.5,-2.0,7.5,-1002.5,67.5,-0.5,2.0,0.011269362177699804,-0.005543276201933622,-1.957712173461914,0.06474578380584717,-0.0009555622236803174,0.0019454023567959666
07:17:11,200.0,RTL,-35.3633212,149.16506705,31825.5,16.0,-6.5,-50.0,-1.0,19.0,-1021.0,314.5,8.5,3.0,0.025044124573469162,-0.0031478300224989653,-1.9585239887237549,0.3107896000146866,0.008181932382285595,0.0021055879769846797
07:17:12,171120.0,RTL,-35.363321325,149.16506700000002,32359.75,20.0,-8.0,-44.0,0.0,1.75,-969.75,69.75,2.5,3.5,0.01864243997260928,-0.0006325296999420971,-1.9586480855941772,0.06652638770174235,0.002246254065539688,0.0028067636594641954
07:17:13,171120.0,RTL,-35.36332095,149.1650668,32626.5,19.5,-7.0,-9.0,1.5,0.0,-963.0,74.5,-4.0,6.0,0.012103858403861523,-0.0003488793008727953,-1.9579483270645142,0.07092481851577759,-0.005246300715953112,0.005262316670268774
07:17:15,171120.0,RTL,-35.36331925,149.16506600000002,32668.0,8.5,-2.0,-14.0,1.5,-1.5,-1037.0,-20.0,0.5,2.5,-0.009702144423499703,0.00021795282373204827,-1.9581201076507568,-0.024043887853622437,-0.0004846826195716858,0.0016323471209034324
07:17:16,300000.0,RTL,-35.3633185,149.165065675,32974.0,-0.5,0.75,-48.0,0.0,1.0,-1030.0,-10.5,-1.25,1.0,-0.009471812285482883,-0.0015950521337799728,-1.9583524465560913,-0.014532478526234627,-0.0018665814131963998,0.0002337305631954223
07:17:17,300000.0,RTL,-35.3633184,149.16506575,33512.5,-4.5,2.0,-48.5,0.0,14.0,-976.0,180.0,2.5,3.0,-0.0032933612819761038,-0.003259288496337831,-1.9586827754974365,0.17578354477882385,0.002426291350275278,0.0019805500633083284
07:17:19,300000.0,RTL,-35.363318449999994,149.16506575,33902.0,-4.5,1.5,3.0,0.0,1.0,-1002.0,11.5,1.5,2.0,-0.00394007982686162,-0.0017202679300680757,-1.9582366347312927,0.008306503295898438,0.0007607934530824423,0.0004929607966914773
07:17:20,4515.0,RTL,-35.363318549999995,149.16506575,33895.0,-5.5,2.75,-7.75,-0.75,8.25,-1027.25,102.75,-0.5,1.0,-0.00011806358816102147,-0.002831354388035834,-1.9581231772899628,0.09909612778574228,-0.0014994030934758484,-0.0006481164309661835
07:17:21,4515.0,RTL,-35.36331920000001,149.16506605,34157.0,-2.5,1.5,-41.5,-1.5,-12.5,-1027.5,-227.5,-2.0,0.5,0.007076863665133715,-0.003964092815294862,-1.9583128690719604,-0.23144428385421634,-0.0029315321298781782,-0.0005526153836399317
07:17:23,4515.0,RTL,-35.36332025,149.16506644999998,35087.0,8.0,-2.0,-22.5,0.5,-7.5,-965.0,-220.0,3.0,3.0,0.00865579687524587,-0.0009499387379037216,-1.9587193131446838,-0.22397731244564056,0.002224158262833953,0.0019441656186245382
07:17:24,200.0,RTL,-35.36332005,149.16506630000003,35183.5,9.75,-2.5,1.75,0.75,7.0,-991.75,142.0,0.25,1.5,0.007290907407877967,2.561940482337377e-05,-1.9582616984844208,0.1378531102091074,-0.0007340566080529243,0.0003676766937132925
07:17:25,200.0,RTL,-35.3633196,149.1650661,35166.5,7.0,-1.0,-2.0,1.5,-2.0,-1014.5,-49.0,2.5,2.0,-0.0017142612487077713,-0.00031765131279826164,-1.9583132863044739,-0.05282996594905853,0.0014856085181236267,0.0010709080379456282
07:17:27,200.0,RTL,-35.363319000000004,149.1650659,35794.0,0.5,0.5,-51.5,0.5,2.5,-998.0,213.5,3.0,2.5,0.0008325194648932666,-0.0017689787782728672,-1.9587829113006592,0.21071860566735268,0.001864801743067801,0.0016727542388252914
07:17:28,53141.0,RTL,-35.3633187,149.16506575,36259.5,-2.0,1.5,-28.75,0.0,2.0,-957.0,102.75,1.5,3.5,-0.002226103766588494,-0.0013314610987436026,-1.958580493927002,0.09908844158053398,0.0005873678019270301,0.002079057798255235
07:17:29,53141.0,RTL,-35.3633185,149.1650657,36388.5,-4.0,2.5,0.0,0.5,2.5,-983.0,96.0,-2.0,3.0,-0.002127400890458375,-0.0021858210675418377,-1.958323359489441,0.09232141077518463,-0.003562623751349747,0.0018083705799654126
07:17:31,53141.0,RTL,-35.3633187,149.16506585000002,36473.0,-4.5,1.5,-24.5,-0.5,11.0,-1036.0,18.5,4.5,2.0,-0.000997762894257903,-0.002844120957888663,-1.9586576223373413,0.014514848589897156,0.003739723120816052,0.0004991364548914135
07:17:32,271173.0,RTL,-35.3633188,149.165065825,36886.25,-2.75,1.0,-52.5,0.0,3.0,-1009.5,67.5,1.25,3.25,-0.0006048388895578682,-0.002055076532997191,-1.9590491652488708,0.06414070725440979,0.00027342746034264565,0.0019099130877293646
07:17:33,271173.0,RTL,-35.363318750000005,149.1650658,37373.5,-2.0,1.0,-35.0,0.0,21.0,-969.0,467.0,4.5,3.5,0.004039503633975983,-0.002154121291823685,-1.9586598873138428,0.4637511819601059,0.00411979656200856,0.002519369008950889
07:17:35,271173.0,RTL,-35.3633191,149.165066,37565.0,-0.5,0.5,1.5,0.0,0.5,-1005.0,37.5,0.5,1.0,0.004071923438459635,-0.0028811137890443206,-1.9586421251296997,0.033863067626953125,-0.0006361478008329868,6.455782568082213e-05
07:17:36,209827.0,RTL,-35.363319375,149.1650661,37622.0,0.75,0.0,-19.5,-0.5,4.5,-1033.75,37.0,0.5,1.0,0.006316219209111296,-0.0023759299656376243,-1.958653748035431,0.033459444995969534,-0.00011166339390911162,-0.00022224633721634746
07:17:37,209827.0,RTL,-35.3633198,149.1650663,38004.0,4.0,-0.5,-49.0,-0.5,7.5,-1018.0,-56.0,2.5,2.0,0.00872486550360918,-0.0026987219462171197,-1.9588276147842407,-0.06060871109366417,0.0018017785041593015,0.0008641575695946813
07:17:39,209827.0,RTL,-35.36332015,149.1650664,38765.0,10.0,-3.0,-7.5,1.0,3.5,-969.0,69.0,3.5,4.0,0.0064694995526224375,-0.0003998250249424018,-1.958823800086975,0.06498900055885315,0.003115710336714983,0.00297426781617105
07:17:40,200.0,RTL,-35.363319575000006,149.16506607500003,38771.25,7.25,-1.5,2.5,0.75,1.25,-1002.0,132.75,2.0,2.5,-0.00048035095096565783,0.0006815593369537964,-1.9584934413433075,0.12911854311823845,0.0015063791070133448,0.0011371453292667866
07:17:41,200.0,RTL,-35.363318899999996,149.1650657,38812.5,2.0,1.0,-15.5,1.0,-11.0,-1029.0,-333.0,1.0,1.0,-0.01240490423515439,0.00046352771278179716,-1.9589441418647766,-0.3374844640493393,-0.00015313364565372467,-0.0004903993685729802
07:17:43,200.0,RTL,-35.363317949999995,149.16506525,39695.0,-8.0,5.0,-51.5,0.0,1.5,-979.0,-135.5,0.0,3.0,-0.015259547624737024,-0.0006695817719446495,-1.958878993988037,-0.13932596379891038,-0.001129518379457295,0.001406306226272136
07:17:44,10866.0,RTL,-35.3633178,149.165065175,40075.5,-11.5,7.5,-16.5,-0.25,-5.5,-961.25,-32.75,-2.25,2.5,-0.010566013748757541,-0.0009600012781447731,-1.9584821164608002,-0.03647908568382263,-0.0035239594581071287,0.0012802392593584955
07:17:45,10866.0,RTL,-35.3633179,149.1650652,40124.0,-12.0,7.5,2.0,0.5,-6.0,-996.5,-112.5,-0.5,2.0,-0.007894593523815274,-0.001171086565591395,-1.9579877257347107,-0.11575410142540932,-0.0018757738871499896,0.0007748841890133917
07:17:47,10866.0,RTL,-35.36331815,149.16506525,40327.5,-10.0,7.0,-38.0,0.0,-8.0,-1030.0,-45.5,-2.0,2.0,-0.0036489224730757996,-0.0016751725343056023,-1.9587182402610779,-0.048525214195251465,-0.0038218324771150947,0.0005839812220074236
07:17:48,60318.0,RTL,-35.3633183,149.165065425,40833.75,-9.0,5.75,-56.0,0.0,-1.0,-994.5,-47.75,-0.5,1.0,-0.004615618963725865,-0.0020566607418004423,-1.9589844942092896,-0.05113201588392258,-0.0015904123429208994,-0.0005415427149273455
07:17:49,60318.0,RTL,-35.363318449999994,149.16506555,41288.0,-8.0,5.0,-28.0,0.0,-18.5,-955.0,-307.5,0.5,2.5,-0.005373035906814039,-0.0020833865855820477,-1.9590663313865662,-0.310846284031868,-0.0005871059256605804,0.0006191563443280756
07:17:51,60318.0,RTL,-35.36331815,149.16506545,41404.0,-8.5,4.0,0.5,0.5,3.0,-1007.0,95.0,3.0,4.5,-0.007698757341131568,-0.0011925525614060462,-1.9582679271697998,0.09233154356479645,0.0018613239226397127,0.0026255398988723755
07:17:52,84819.0,RTL,-35.3633179,149.1650654,41510.75,-10.75,5.0,-27.25,0.0,2.0,-1040.75,45.75,0.75,1.25,-0.007892807596363127,-0.0019507976830936968,-1.9586361646652222,0.043198876082897186,-0.0006932274409336969,-0.00038810574915260077
07:17:53,84819.0,RTL,-35.363318,149.16506545,41949.5,-11.0,5.0,-50.5,0.0,13.5,-1011.5,261.5,2.5,2.0,-0.0038945291889831424,-0.002375922747887671,-1.9588189125061035,0.25919073820114136,0.00205309537705034,0.0003750345204025507
07:17:55,84819.0,RTL,-35.36331865,149.1650657,42577.5,-6.5,3.5,-1.5,0.0,1.0,-974.5,-2.5,2.0,2.0,-0.0012699863873422146,-0.0020339107722975314,-1.9585050344467163,-0.004908949136734009,0.0013210339820943773,0.0005988036282360554
07:17:56,248524.0,RTL,-35.3633187,149.1650657,42561.5,-4.5,2.75,2.0,0.0,10.25,-1007.0,222.0,3.75,3.5,0.0008247134683188051,-0.0011628418578766286,-1.9583143293857574,0.21981928683817387,0.002664194267708808,0.0021092002280056477
07:17:57,248524.0,RTL,-35.3633186,149.16506565,42664.5,-5.0,3.0,-24.0,0.0,-18.0,-1035.5,-329.0,0.0,1.0,-0.007440299377776682,-0.0008212237735278904,-1.9588967561721802,-0.33088547363877296,-0.0018575014546513557,-0.0001819627359509468
07:17:59,248524.0,RTL,-35.3633184,149.1650655,43541.5,-6.0,4.5,-34.5,0.0,7.0,-969.0,-11.5,4.0,2.0,-0.006693623494356871,-0.0012596531305462122,-1.95882648229599,-0.014688923954963684,0.002831057645380497,0.0007230126648209989
07:18:00,140931.0,RTL,-35.3633184,149.1650655,43741.25,-6.5,4.5,-2.25,-0.5,-4.0,-979.0,103.0,2.75,4.5,-6.538830893987324e-05,-0.0009012288792291656,-1.9587047398090363,0.10163065185770392,0.001744540291838348,0.0026301227044314146
07:18:01,140931.0,RTL,-35.3633184,149.16506555,43726.5,-6.5,4.5,1.5,0.0,-6.5,-1007.0,-63.5,0.5,0.5,-0.0032598080579191446,-0.002050488197710365,-1.9580855965614319,-0.06513625383377075,-0.0011374254245311022,-0.0016734907403588295
07:18:03,140931.0,RTL,-35.3633188,149.1650658,44191.5,-5.0,2.5,-48.5,-0.5,-3.5,-1014.5,58.5,0.5,2.5,0.005539235658943653,-0.003047928912565112,-1.9589484333992004,0.057174116373062134,-0.0009836448007263243,0.000698222080245614
07:18:04,124535.0,RTL,-35.36331915,149.165066,44680.25,-1.5,1.25,-36.5,-0.5,1.75,-961.25,43.75,3.25,2.0,0.005991975151118822,-0.002472414867952466,-1.9589287340641022,0.04169478826224804,0.00212413226836361,0.0004771462990902364
07:18:05,124535.0,RTL,-35.36331935,149.1650661,44875.5,1.0,0.5,-4.5,0.0,1.0,-982.5,31.5,0.5,1.5,0.004885493137408048,-0.001721150940284133,-1.9587077498435974,0.02981090545654297,-0.0009609559783712029,-0.00020603672601282597
07:18:07,124535.0,RTL,-35.36331935,149.1650661,44935.0,1.5,0.0,-19.0,0.0,4.5,-1032.0,-10.0,-1.0,2.0,0.0004010188567917794,-0.0014551578206010163,-1.9588284492492676,-0.01240663230419159,-0.0024258424527943134,0.00018292502500116825
07:18:08,53842.0,RTL,-35.3633193,149.16506605,45297.5,1.5,0.5,-50.25,-0.5,1.75,-1015.0,-24.0,2.25,2.75,0.0004926238325424492,-0.0010598517255857587,-1.9590011537075043,-0.02590140886604786,0.00086713902419433,0.0011615934781730175
07:18:09,53842.0,RTL,-35.3633194,149.16506615,45796.5,2.0,1.0,-39.0,-0.5,-1.5,-970.0,-188.5,2.5,3.5,0.0015356172225438058,-0.0013913168222643435,-1.9588326215744019,-0.19089465588331223,0.0005122709553688765,0.0018264466198161244
07:18:11,53842.0,RTL,-35.36332015,149.16506675,46038.5,7.0,-1.5,3.5,-1.0,-0.5,-1022.0,-43.5,4.5,1.0,0.017019994091242552,-0.003247880609706044,-1.958296775817871,-0.04556506872177124,0.0031932731508277357,-0.0005958307883702219
07:18:12,200.0,RTL,-35.363320449999996,149.1650669,46074.5,12.5,-3.0,-15.25,0.0,-5.75,-1027.5,-42.75,6.5,1.5,0.013704616343602538,0.0010554005566518754,-1.9587947726249695,-0.04457300715148449,0.005432839592685923,-0.0004592461627908051
07:18:13,200.0,RTL,-35.36332015,149.16506694999998,46421.0,14.5,0.0,-46.5,0.5,13.5,-1021.5,296.5,4.5,3.0,0.010729563888162374,0.003249172354117036,-1.9586495757102966,0.29437288641929626,0.0037109318072907627,0.0009137601591646671
07:18:15,200.0,RTL,-35.3633198,149.16506775,47176.5,12.0,-2.0,-8.5,0.0,2.0,-967.0,110.5,6.5,1.5,0.012283276068046689,-0.005711151636205614,-1.9588799476623535,0.1081744134426117,0.004833063168916851,-0.00023262342438101768
07:18:16,82782.0,RTL,-35.363319825,149.165067825,47187.75,11.0,-3.0,3.5,-0.25,-14.75,-1000.5,-167.25,5.25,2.5,0.00974030073848553,-0.0011192769452463835,-1.9584361016750336,-0.16984516382217407,0.004006463917903602,0.0006245425320230424
07:18:17,82782.0,RTL,-35.363319950000005,149.16506805,47215.0,13.5,0.0,-13.0,0.0,5.5,-1022.5,80.0,10.0,2.0,0.01462990790605545,0.005938474670983851,-1.9585343599319458,0.07711198925971985,0.009112070547416806,-0.0005815266631543636
07:18:19,82782.0,RTL,-35.36331915,149.1650703,47974.5,20.0,7.0,-40.0,2.5,-1.0,-976.0,-196.0,-16.0,0.0,0.0046508891973644495,-0.006461285753175616,-1.9591262936592102,-0.1992070022970438,-0.018428188748657703,-0.0012290443992242217
07:18:20,142588.0,RTL,-35.36331870000001,149.165071075,48253.0,13.0,-2.25,-8.5,1.25,-6.0,-964.25,33.5,15.75,1.0,0.008050695527344942,-0.013210430042818189,-1.9588682353496552,0.030490610748529434,0.014446769375354052,-0.0010532868618611246
07:18:21,142588.0,RTL,-35.3633185,149.165071,48263.5,10.0,-4.0,3.5,1.0,-4.0,-988.0,-41.5,13.5,4.0,0.00487528694793582,0.0014382533554453403,-1.958784282207489,-0.045347117818892,0.012425631284713745,0.0012389463372528553
07:18:23,142588.0,RTL,-35.36331765,149.165073,48510.0,18.5,21.5,-35.5,4.5,7.0,-1021.5,194.0,-17.5,1.5,0.01056513749063015,0.016754858195781708,-1.9583057761192322,0.1907675638794899,-0.019806489814072847,-0.000297669495921582
07:18:24,300000.0,RTL,-35.3633169,149.1650763,48913.25,21.5,24.25,-36.5,5.5,8.75,-978.0,68.75,-38.5,1.0,0.009579128614859655,-0.010494747082702816,-1.9588253796100616,0.06504112668335438,-0.040732269175350666,-0.0011320078338030726
07:18:25,300000.0,RTL,-35.3633164,149.16507835,49156.5,13.0,2.0,-10.5,2.0,2.0,-978.0,175.0,28.5,3.0,0.013957377523183823,-0.026141377165913582,-1.9591509699821472,0.17173337936401367,0.02646137261763215,0.0013731891522184014
07:18:27,300000.0,RTL,-35.363316100000006,149.16507875000002,49197.5,18.5,12.0,-8.0,4.0,15.5,-1021.5,235.5,15.0,3.0,0.008503360615577549,0.03487851656973362,-1.9581459164619446,0.23095794767141342,0.013074313290417194,0.0010946426773443818
07:18:28,223376.0,RTL,-35.363314625,149.16508184999998,49375.0,30.0,42.25,-27.25,10.0,4.5,-1014.5,34.5,-27.5,0.5,-0.001061878865584731,0.03233469929546118,-1.9580776691436768,0.030550498515367508,-0.029528131301049143,-0.0018805022409651428
07:18:29,223376.0,RTL,-35.363312449999995,149.16508705,49667.5,26.0,41.0,-24.5,10.0,15.5,-988.5,18.0,-66.5,0.5,-0.008443566504865885,-0.021438630181364715,-1.9577292203903198,0.012949004769325256,-0.0690467320382595,-0.0012172216083854437
07:18:31,223376.0,RTL,-35.3633117,149.1650902,49848.0,2.0,-3.5,1.5,-1.5,8.0,-991.5,140.5,70.0,4.5,0.010090635973028839,0.015673771500587463,-1.957906723022461,0.13624564185738564,0.06860166788101196,0.001929866150021553
07:18:32,172929.0,RTL,-35.3633118,149.165091525,49863.5,22.0,31.25,-7.5,7.25,-1.75,-1011.5,-134.25,5.0,1.25,0.010008699260652065,0.059923991560935974,-1.9565544724464417,-0.13875454291701317,0.0029806876555085182,-0.0013285786844789982
07:18:33,172929.0,RTL,-35.36330945,149.1650975,50014.0,40.5,67.5,-18.5,18.5,28.5,-1009.5,453.0,-52.0,1.5,0.0016114525496959686,0.03645673859864473,-1.9565449953079224,0.44909338653087616,-0.05448852526023984,-0.0012273859465494752
07:18:35,172929.0,RTL,-35.363304299999996,149.16510985,50299.0,6.0,18.0,-2.0,3.5,-6.5,-992.0,-18.0,70.0,2.5,-0.006502924486994743,-0.04755076672881842,-1.9549557566642761,-0.022199362516403198,0.06827134173363447,0.00036700780037790537
07:18:36,12254.0,RTL,-35.363304225,149.165110975,50302.0,3.25,13.75,0.0,0.75,8.25,-997.25,142.25,100.75,5.25,0.005938076530583203,0.04543523699976504,-1.9555608034133911,0.13784953951835632,0.09920144453644753,0.002626667730510235
07:18:37,12254.0,RTL,-35.3633029,149.16511574999998,50319.0,33.0,72.0,-3.5,13.5,7.0,-1005.0,-97.0,15.0,2.0,-0.0015352786285802722,0.08155878633260727,-1.9546887278556824,-0.10090221464633942,0.012981157749891281,-0.0004039693158119917
07:18:39,12254.0,RTL,-35.3632946,149.16514185,50396.5,72.5,152.0,-1.5,32.5,30.5,-990.5,212.5,15.0,6.0,-0.009197654435411096,0.07123954966664314,-1.9534360766410828,0.20828475803136826,0.013862660620361567,0.003552569542080164
07:18:40,167823.0,RTL,-35.3632882,149.165160775,50386.5,88.75,188.5,1.0,40.5,16.25,-995.5,-97.5,10.25,-3.75,-0.018615931272506714,0.08175653405487537,-1.9539301991462708,-0.10153505532070994,0.008605933224316686,-0.0063107156893238425
07:18:41,167823.0,RTL,-35.36328035,149.1651836,50384.5,97.0,213.0,-1.5,48.5,31.0,-1000.5,-171.5,-45.0,-0.5,-0.031213135458528996,0.0473451423458755,-1.953424334526062,-0.17683695256710052,-0.047568658366799355,-0.0032244930043816566
07:18:43,167823.0,RTL,-35.36326755,149.16522394999998,50410.5,54.5,123.0,0.5,25.5,18.5,-996.0,32.5,-25.5,4.0,-0.01081054040696472,-0.05407971702516079,-1.9523087739944458,0.027678847312927246,-0.027677029371261597,0.0013551842421293259
07:18:44,98231.0,RTL,-35.363264825,149.165234275,50401.25,26.5,52.75,2.0,10.75,3.0,-1000.5,-117.75,37.75,6.5,0.0027794238994829357,-0.056057692505419254,-1.9527192413806915,-0.12251290585845709,0.036047257483005524,0.004369806032627821
07:18:45,98231.0,RTL,-35.363264099999995,149.165238,50390.0,17.0,15.0,1.0,3.0,6.0,-990.0,2.5,27.0,9.0,0.012361841043457389,-0.01943140709772706,-1.9521266222000122,-0.0029327869415283203,0.025574858766049147,0.00664932606741786
07:18:47,98231.0,RTL,-35.363263200000006,149.16523965,50394.0,16.0,3.5,0.5,1.0,-17.5,-985.5,-162.5,-4.0,2.5,0.008900601766072214,0.0017989464104175568,-1.950695812702179,-0.16722653806209564,-0.005756077356636524,0.0006264094263315201
07:18:48,262522.0,RTL,-35.363262775,149.16524032499998,50395.75,14.5,1.0,0.25,1.5,-3.75,-998.0,-155.75,-4.5,2.5,0.004414951341459528,-0.010381957748904824,-1.9502746760845184,-0.16156941652297974,-0.006785648933146149,0.00019904319196939468
07:18:49,262522.0,RTL,-35.363262750000004,149.16524045,50396.5,10.5,-6.5,0.5,0.0,8.5,-999.0,143.0,5.0,0.5,0.012055680621415377,-0.009011795278638601,-1.9502496719360352,0.13723009824752808,0.0032374149886891246,-0.0020706309005618095
07:18:51,262522.0,RTL,-35.3632633,149.16523949999998,50394.0,11.5,-9.5,0.0,-2.0,-3.5,-995.5,-173.0,7.5,-0.5,0.013426212128251791,-0.0021761716343462467,-1.9500247836112976,-0.1787688061594963,0.005762036424130201,-0.0030498469714075327
07:18:52,167155.0,RTL,-35.3632637,149.165239125,50385.75,15.0,-9.0,4.25,-1.5,5.5,-981.25,-45.5,1.0,0.75,0.0166130056604743,-0.0015405841113533825,-1.9499254524707794,-0.05164318531751633,-0.0006959160964470357,-0.0015609649708494544
07:18:53,167155.0,RTL,-35.363263950000004,149.16523885,50090.0,17.5,-8.5,56.0,-0.5,-17.0,-942.0,80.0,5.0,0.5,0.025857134722173214,-0.0006741632150806254,-1.9499838948249817,0.07504630088806152,0.0033432593336328864,-0.0024548888904973865
07:18:55,167155.0,RTL,-35.363263200000006,149.16523790000002,48082.5,13.5,-4.5,106.0,2.5,-68.5,-985.5,-742.5,3.0,8.0,0.004309412441216409,0.0023226788034662604,-1.9514896273612976,-0.7470972239971161,0.0007869449909776449,0.005831291782669723
07:18:56,48725.0,RTL,-35.363262250000005,149.16523745,47019.5,6.25,-1.0,99.0,2.75,-70.0,-994.75,-874.25,-0.75,-1.75,-0.007999228612334264,0.0012994589051231742,-1.9507300853729248,-0.8789859265089035,-0.0029510610038414598,-0.0048486420419067144
07:18:57,48725.0,RTL,-35.363261300000005,149.16523695,45993.5,-3.5,2.0,98.0,2.5,-67.5,-1045.0,-1163.5,2.5,-4.5,-0.01999838463962078,0.0009009070890897419,-1.9514656066894531,-1.1681079864501953,0.001087361597456038,-0.007693029707297683
07:18:59,48725.0,RTL,-35.363259400000004,149.16523615,43965.0,-22.0,9.0,105.5,0.5,-74.5,-959.0,-1505.5,4.0,-2.5,-0.04304513894021511,-0.0008007098367670551,-1.9505836367607117,-1.510660707950592,0.001978770305868238,-0.005577318021096289
07:19:00,288249.0,RTL,-35.363259,149.165236,42944.25,-28.75,12.0,98.0,0.0,-29.0,-999.25,-1088.5,-1.0,2.25,-0.04214347992092371,-0.0026146579475607723,-1.9502812623977661,-1.0949450731277466,-0.0034910851973108947,-0.0006725647253915668
07:19:01,288249.0,RTL,-35.3632591,149.16523615,41928.0,-30.5,12.5,102.5,-0.5,13.5,-987.0,-514.0,3.0,1.0,-0.03707364574074745,-0.0032197090331465006,-1.9503322839736938,-0.5210455041378736,0.0012578037567436695,-0.001689762226305902
07:19:03,288249.0,RTL,-35.3632599,149.1652364,39883.0,-26.0,10.0,100.0,-1.5,54.0,-952.0,388.0,4.5,1.5,-0.01961806882172823,-0.0028649703599512577,-1.9506937265396118,0.3808279260993004,0.0026658412534743547,-0.0009210490970872343
07:19:04,300000.0,RTL,-35.36326009999999,149.1652364,38860.25,-22.25,8.75,97.75,-0.75,40.25,-1024.0,-136.5,3.0,12.0,-0.026807887945324183,-0.0020289492094889283,-1.9502855241298676,-0.143685732036829,0.0013759009598288685,0.00947856402490288
07:19:05,300000.0,RTL,-35.3632602,149.1652364,37842.5,-21.0,9.0,98.0,-1.5,57.0,-998.5,673.5,0.5,0.0,-0.018120165914297104,-0.0013394707348197699,-1.9505429863929749,0.6671127527952194,-0.0017895998898893595,-0.0036291065625846386
07:19:07,300000.0,RTL,-35.36326045,149.16523645,35795.5,-19.0,8.5,94.5,0.0,61.0,-1020.5,1392.5,1.0,1.5,0.0024468222400173545,-0.0015870245988480747,-1.950508952140808,1.3884496688842773,-0.0014168894849717617,-0.0013613966293632984
07:19:08,245579.0,RTL,-35.363260425,149.1652364,34779.5,-18.5,9.0,99.75,0.25,52.5,-1017.5,1380.75,4.5,1.75,0.004290607757866383,-0.0007300972574739717,-1.9501177072525024,1.377740889787674,0.002572483499534428,-0.0011120923445560038
07:19:09,245579.0,RTL,-35.3632603,149.16523635,33766.0,-20.0,9.5,98.0,1.0,18.5,-997.0,966.0,5.0,-1.5,0.0011012665927410126,-0.0008318702020915225,-1.9509369134902954,0.9644345045089722,0.002985298982821405,-0.0048587864730507135
07:19:11,245579.0,RTL,-35.36326,149.1652362,31720.0,-24.0,11.5,99.5,0.0,-46.0,-1027.5,-210.5,1.0,2.5,-0.006706130225211382,-0.0006994412397034466,-1.9508742690086365,-0.21117155998945236,-0.0006637978367507458,-0.0007607834413647652
07:19:12,290054.0,RTL,-35.3632601,149.165236225,30710.0,-23.5,12.0,101.25,-1.25,-66.0,-958.0,-547.25,-3.0,4.25,-0.011736419866792858,-0.002669114852324128,-1.9500996470451355,-0.5481124296784401,-0.00579447130439803,0.0013383685727603734
07:19:13,290054.0,RTL,-35.3632606,149.1652365,30079.0,-23.0,12.0,98.0,-3.0,-63.0,-971.0,-1123.0,0.0,1.0,-0.011556719429790974,-0.0053270356729626656,-1.9497580528259277,-1.1240733861923218,-0.0035480093210935593,-0.0014610434882342815
07:19:15,290054.0,RTL,-35.36326385,149.1652384,28058.0,4.5,-1.0,100.5,-4.0,65.5,-963.0,529.5,7.5,7.0,0.023319642059504986,-0.007217864040285349,-1.9501661658287048,0.5248281508684158,0.005456920713186264,0.0043622058583423495
07:19:16,300000.0,RTL,-35.36326495,149.16523875000001,26780.75,21.75,-8.75,101.5,-0.5,66.5,-1019.5,989.0,4.0,15.5,0.03107572626322508,-0.002202032832428813,-1.9503745436668396,0.984396755695343,0.0020228916546329856,0.012781253084540367
07:19:17,300000.0,RTL,-35.363265049999995,149.1652387,26019.5,26.0,-9.5,98.0,-0.5,62.5,-987.0,1406.0,2.0,5.5,0.03483265079557896,-0.0014774576993659139,-1.9501968622207642,1.4026998281478882,9.118940215557814e-05,0.0030550816445611417
07:19:19,300000.0,RTL,-35.363265150000004,149.1652387,23976.0,31.0,-11.0,100.5,2.0,59.5,-1054.0,1324.5,1.5,9.5,0.03510737791657448,-0.00018896649271482602,-1.9498088955879211,1.3204550743103027,-0.0006909794174134731,0.007254547206684947
07:19:20,300000.0,RTL,-35.36326415,149.165238175,22699.5,25.25,-8.5,99.25,1.5,39.25,-1017.75,1331.25,4.5,8.25,0.027672927360981703,0.0009165172959910706,-1.9493471682071686,1.3278533816337585,0.0021838689572177827,0.0055823002476245165
07:19:21,300000.0,RTL,-35.36326375,149.165238,21927.0,20.0,-5.5,102.0,0.5,52.5,-1034.5,1449.5,3.5,13.5,0.023857315070927143,-0.0008839743677526712,-1.9502174258232117,1.44562566280365,0.0006474780384451151,0.010952667566016316
07:19:23,300000.0,RTL,-35.36326425,149.1652384,19903.0,19.5,-5.0,99.0,-2.0,39.0,-1033.0,1123.0,3.0,1.0,0.039721425622701645,-0.004550745245069265,-1.9504464268684387,1.1196613311767578,0.000555017963051796,-0.0019415960414335132
07:19:24,208384.0,RTL,-35.36326522499999,149.165238925,18623.75,25.25,-8.5,102.0,-1.0,-41.0,-990.5,-123.5,5.5,2.0,0.04134626127779484,-0.004112181253731251,-1.9495582580566406,-0.1263359528966248,0.0031085365335457027,-0.0009539502789266407
07:19:25,208384.0,RTL,-35.36326575,149.16523915,17847.0,30.0,-10.5,105.5,0.0,-51.0,-980.0,-132.5,2.0,-7.0,0.047533901408314705,-0.003810609574429691,-1.950775921344757,-0.13569435477256775,-0.0001567051513120532,-0.010707562789320946
07:19:27,208384.0,RTL,-35.3632653,149.16523865,15809.0,35.0,-13.0,97.0,2.5,-64.5,-1003.5,-931.0,1.5,-2.0,0.015750483609735966,0.003161198110319674,-1.9509480595588684,-0.9351189434528351,-0.0013393162516877055,-0.005873593967407942
07:19:28,230870.0,RTL,-35.363263925,149.165237875,14530.5,25.75,-7.5,100.75,2.0,-42.75,-994.25,-1303.0,0.25,2.75,-0.01582057832274586,0.002629444352351129,-1.9497569501399994,-1.309944897890091,-0.0026328008389100432,-0.00039626884972676635
07:19:29,230870.0,RTL,-35.36326325,149.16523765,13756.5,18.0,-3.5,102.0,2.0,-30.0,-1007.5,-1126.0,-4.5,6.5,-0.01681467331945896,0.0010742954909801483,-1.9502407312393188,-1.133533775806427,-0.007347267586737871,0.00357965927105397
07:19:31,230870.0,RTL,-35.36326235,149.1652374,11742.5,5.5,0.0,84.0,0.0,23.0,-1033.5,-201.0,3.0,3.5,-0.008318174164742231,-0.0021777047077193856,-1.949580729007721,-0.21018551662564278,0.0006715190829709172,0.0006201755022630095
07:19:32,200.0,RTL,-35.363262475,149.1652376,11111.5,3.5,0.0,24.0,-0.5,3.75,-1021.0,272.25,4.75,2.25,0.012888311641290784,-0.0034006256028078496,-1.9494176506996155,0.26671655662357807,0.0022711751516908407,-0.0006843430164735764
07:19:33,200.0,RTL,-35.363262649999996,149.16523775000002,10941.5,4.5,-0.5,23.5,-1.5,-23.5,-984.5,-715.0,0.0,1.0,0.0007304387399926782,-0.0036014245124533772,-1.9490298628807068,-0.7218935191631317,-0.0019469059188850224,-0.0019361792365089059
07:19:35,200.0,RTL,-35.3632634,149.165238,10321.5,11.0,-4.0,33.5,0.0,-15.5,-984.5,-708.0,0.0,4.0,-9.185756789520383e-05,-0.002172395004890859,-1.9495657086372375,-0.7155936658382416,-0.0022306935861706734,0.0008180462755262852
07:19:36,260649.0,RTL,-35.3632634,149.16523792499999,9897.0,12.25,-4.25,33.75,1.25,-27.75,-996.25,-333.25,2.0,2.75,0.009503476088866591,-0.00013200276680436218,-1.9491314888000488,-0.33957935869693756,-0.000831083336379379,0.0002749124832917005
07:19:37,260649.0,RTL,-35.363263,149.16523765,9636.0,11.5,-3.5,33.0,1.0,14.0,-1003.5,-177.5,1.0,2.5,-0.007974642678163946,0.000295724457828328,-1.9494380354881287,-0.18573367595672607,-0.001400526030920446,-0.00028620928060263395
07:19:39,260649.0,RTL,-35.3632615,149.16523695,8955.5,-2.0,1.5,32.5,1.5,5.0,-1004.5,-200.5,1.0,3.0,-0.019155364017933607,0.0010131644958164543,-1.9489567279815674,-0.20842768251895905,-0.000931274495087564,0.00026065181009471416
07:19:40,300000.0,RTL,-35.363260724999996,149.165236575,8726.25,-10.0,5.5,-4.0,0.25,-4.0,-1027.5,-65.75,3.0,3.5,-0.015287848887965083,0.0001301810220866173,-1.9492989778518677,-0.07212468609213829,0.0005064044089522213,0.00030463532311841846
07:19:41,300000.0,RTL,-35.36326045,149.1652364,8774.0,-14.5,7.5,-7.0,0.0,3.0,-1005.5,301.0,1.0,2.0,-0.008774549001827836,-0.0004514348111115396,-1.9496288895606995,0.2949766181409359,-0.0011402470991015434,-0.0014279682654887438
07:19:43,300000.0,RTL,-35.3632596,149.165236,8840.5,-23.0,11.0,-0.5,0.0,13.5,-999.0,135.0,2.0,3.0,-0.02675069309771061,0.00020542237234622007,-1.9496136903762817,0.12792745232582092,-0.0002216146094724536,-3.263331018388271e-05
07:19:44,300000.0,RTL,-35.363259525,149.16523602499998,8835.25,-26.75,13.0,3.5,-0.5,5.0,-976.25,-64.25,3.0,4.75,-0.02018920169211924,-0.0025580132205504924,-1.9493842720985413,-0.06980153173208237,0.0007267286418937147,0.0016634578350931406
07:19:45,300000.0,RTL,-35.36325975,149.1652362,8744.5,-27.0,12.5,21.0,0.0,-7.5,-1020.0,94.5,4.0,6.5,-0.009011662332341075,-0.003087702440097928,-1.949070692062378,0.09037397801876068,0.0017333856085315347,0.003295777947641909
07:19:47,300000.0,RTL,-35.3632611,149.16523684999999,8699.5,-17.0,8.0,-2.0,-3.0,21.0,-1009.5,162.5,1.5,1.5,-1.7241109162569046e-06,-0.004421757301315665,-1.9495124816894531,0.15606216341257095,-0.0009953329572454095,-0.0019455061992630363
07:19:48,274100.0,RTL,-35.363262275,149.16523755,8708.5,-5.75,3.0,0.0,-2.25,8.0,-996.75,-54.25,1.75,3.5,0.0076915862373425625,-0.005432726698927581,-1.9494874477386475,-0.06023421511054039,-0.001278307696338743,-0.00017355626914650202
07:19:49,274100.0,RTL,-35.36326305,149.16523784999998,8710.5,-0.5,0.5,0.0,-1.5,-21.0,-999.0,-267.5,3.0,1.0,0.01767086610198021,-0.004840225679799914,-1.9496644735336304,-0.27186401188373566,0.0004863682552240789,-0.0022224949207156897
07:19:51,274100.0,RTL,-35.363264349999994,149.1652384,8717.5,18.0,-6.5,0.0,-0.5,28.0,-1002.0,200.5,6.5,6.0,0.017983566503971815,-0.001717967912554741,-1.9494888186454773,0.1943422332406044,0.0037328897742554545,0.0030169303063303232
07:19:52,200.0,RTL,-35.363264275,149.16523825,8618.75,20.0,-6.25,28.5,0.25,1.75,-964.25,-363.5,3.0,7.25,0.007380087772617117,-6.919556108186953e-05,-1.9494237005710602,-0.37033243477344513,-1.527456333860755e-06,0.004410167981404811
07:19:53,200.0,RTL,-35.363264,149.16523805,8331.5,20.5,-6.0,42.0,0.5,45.0,-1006.0,925.5,3.5,7.5,0.01782788150012493,0.0004568599251797423,-1.9486348032951355,0.9191224277019501,0.0010629366151988506,0.0040799768175929785
07:19:55,200.0,RTL,-35.3632633,149.1652378,7577.5,13.0,-2.5,34.0,0.0,44.0,-997.0,631.0,-0.5,3.5,0.011408047750592232,-0.002014111611060798,-1.9489893317222595,0.6243123263120651,-0.003691023215651512,0.0001971458550542593
07:19:56,76674.0,RTL,-35.363263475000004,149.165238025,7149.5,11.75,-2.75,34.25,-0.5,-30.0,-1000.0,-528.0,4.0,2.25,0.010070495714899153,-0.0038972058100625873,-1.9491654336452484,-0.5338209168985486,0.0012423595762811601,-0.0011764781083911657
07:19:57,76674.0,RTL,-35.3632635,149.16523815,6892.5,14.0,-5.0,34.5,-1.0,35.0,-978.0,211.0,5.0,5.0,0.007168845739215612,-0.0036571689415723085,-1.9488901495933533,0.2030698787420988,0.0019765461329370737,0.001673285965807736
07:19:59,76674.0,RTL,-35.36326305,149.1652379,6208.5,12.5,-5.5,33.0,0.5,-1.0,-1008.5,-217.5,1.0,7.0,-0.007595278788357973,-9.603219223208725e-05,-1.949156641960144,-0.2257019653916359,-0.0024951588129624724,0.0037418275605887175
07:20:00,196732.0,RTL,-35.36326235000001,149.165237475,5775.5,5.25,-1.5,33.0,0.75,-18.0,-1008.0,-409.5,0.25,3.5,-0.006812747335061431,-0.0005228193913353607,-1.9492273032665253,-0.4159634932875633,-0.002770213468465954,0.000227740325499326
07:20:01,196732.0,RTL,-35.3632621,149.1652374,5513.5,3.0,0.0,31.0,0.0,36.0,-1016.5,457.0,3.5,4.5,-0.0016193077899515629,-0.001761954976245761,-1.9492149949073792,0.44949157536029816,0.0005903572309762239,0.0016793610993772745
07:20:03,196732.0,RTL,-35.363262,149.1652374,4839.0,0.0,0.0,31.5,0.0,28.5,-1008.5,823.0,3.5,4.5,0.01307674334384501,-0.0027902814326807857,-1.9494861364364624,0.8163518309593201,0.0011065127328038216,0.0014821330551058054
07:20:04,300000.0,RTL,-35.36326205,149.16523745,4407.0,-0.25,0.0,31.75,-0.25,-29.25,-989.75,-518.5,1.75,3.25,-0.0005943001015111804,-0.002988226944580674,-1.9493552148342133,-0.5242644846439362,-0.0009858770645223558,0.0001266236649826169
07:20:05,300000.0,RTL,-35.363262250000005,149.16523755,4153.0,0.0,0.0,31.0,-0.5,10.0,-1002.5,-271.5,1.5,2.0,-0.002584048081189394,-0.003592657041735947,-1.9493548274040222,-0.279387490125373,-0.0009090964449569583,-0.001172248157672584
07:20:07,300000.0,RTL,-35.363263,149.1652379,3473.0,7.0,-3.0,32.0,0.5,7.0,-1003.5,-338.0,2.5,5.5,-0.0014805669779889286,-0.002811479731462896,-1.9497509002685547,-0.34653699584305286,0.00014132296200841665,0.0019588954746723175
07:20:08,145879.0,RTL,-35.3632625,149.16523765,3054.75,4.5,-2.25,32.0,1.25,-22.0,-995.25,-182.75,3.0,3.5,-0.00017382693476974964,-0.0006750817992724478,-1.9495686888694763,-0.18852844648063183,0.0004323591128922999,0.00015018729027360678
07:20:09,145879.0,RTL,-35.36326205,149.16523734999998,2802.5,2.0,-0.5,33.0,1.0,12.5,-1009.0,-140.5,1.5,3.0,-0.015408325474709272,-0.0002607853166409768,-1.9494817852973938,-0.14910665899515152,-0.001386065036058426,-3.4867553040385246e-05
07:20:11,145879.0,RTL,-35.363260600000004,149.1652367,2118.0,-10.5,4.5,32.5,0.0,-4.0,-994.5,-511.0,0.5,0.0,-0.029407001100480556,-0.0006412302172975615,-1.948980689048767,-0.519102931022644,-0.002610299736261368,-0.00360712013207376
07:20:12,92399.0,RTL,-35.36326015,149.16523654999997,1694.5,-18.0,7.75,32.5,0.0,-6.5,-994.25,105.75,1.75,2.75,-0.009027633350342512,-0.003801616665441543,-1.9491026699543,0.10032817721366882,-0.001093410886824131,-0.00047179387183859944
07:20:13,92399.0,RTL,-35.3632604,149.16523675000002,1437.5,-18.5,7.0,32.5,-1.5,-0.5,-994.5,-485.0,0.5,2.5,-0.02013390138745308,-0.0047675627283751965,-1.948881447315216,-0.49232710897922516,-0.0028140259673818946,-0.00077172985766083
07:20:15,92399.0,RTL,-35.36326245,149.16523795,758.0,-1.5,-1.0,33.0,-1.0,36.0,-977.5,60.5,5.0,1.0,0.006749491905793548,-0.00623538251966238,-1.9498947858810425,0.05269141495227814,0.0018886453472077847,-0.0022062112111598253
07:20:16,300000.0,RTL,-35.363263200000006,149.16523825000002,333.0,4.25,-3.5,31.75,-1.5,-22.25,-994.5,-348.0,2.25,2.25,0.014280666888225824,-0.005079019931145012,-1.9485972821712494,-0.35380011051893234,-0.0006424057646654546,-0.001555723778437823
07:20:17,300000.0,RTL,-35.36326365,149.1652384,82.0,13.0,-11.0,25.5,27.0,18.0,-983.5,-417.5,17.0,-3.0,0.005528467241674662,-0.003626246238127351,-1.9490021467208862,-0.4249299392104149,0.014590779668651521,-0.006631228839978576
07:20:19,300000.0,RTL,-35.3632638,149.16523825000002,0.0,12.5,-7.0,10.5,0.0,0.0,-1000.0,3.5,3.5,3.0,0.004996106028556824,-0.000528800519532524,-1.949434757232666,-0.002853527432307601,0.000964178703725338,-3.4973490983247757e-06
07:20:20,57837.0,RTL,-35.363264050000005,149.16523875,0.0,4.25,0.75,8.25,0.0,0.0,-1000.0,3.5,3.25,3.25,-0.0011578781341086142,0.0009171152487397194,-1.9507329165935516,-0.0029275556444190443,0.0009052874520421028,-4.921923391520977e-05
07:20:21,57837.0,RTL,-35.36326425,149.16523905000003,0.0,-0.5,5.0,6.0,0.0,-10.5,-1013.0,7.0,3.0,3.0,-0.003992317710071802,0.0013802590547129512,-1.9514787197113037,0.0009290347807109356,0.0009673722088336945,-0.0001736300764605403
07:20:23,57837.0,RTL,-35.363265,149.1652398,0.0,-9.5,10.5,3.0,0.0,0.0,-1000.0,3.0,3.0,4.0,-0.008255000226199627,0.0013399665476754308,-1.9516977071762085,-0.002903765649534762,0.0008566011674702168,-7.063359953463078e-05
07:20:25,57837.0,RTL,-35.363265350000006,149.16524,0.0,-12.5,11.0,2.0,0.0,0.0,-1000.0,3.5,3.0,3.0,-0.009293813724070787,0.0005457089282572269,-1.9518741369247437,-0.002796343993395567,0.0007393471896648407,-0.00020519830286502838
