time_stamp,MODE,lat,lon,relative_alt,roll,pitch,yaw,rollspeed,pitchspeed,yawspeed,xacc,yacc,zacc,xgyro,ygyro,zgyro,vx,vy,vz,RTL_ALT
05:03:42.520,STABILIZE,-35.3632621,149.1652375,0,-0.0007986671989783645,0.0009811102645471692,0.02538798190653324,0.00027344829868525267,0.0002936093369498849,0.001990530639886856,0,1,-1000,0,0,0,-1,0,-1,1500.0
05:03:42.720,STABILIZE,-35.3632621,149.1652375,0,-0.0007986671989783645,0.0009811102645471692,0.02538798190653324,0.00027344829868525267,0.0002936093369498849,0.001990530639886856,0,1,-1000,0,0,0,-1,0,-1,1500.0
05:03:42.921,STABILIZE,-35.3632621,149.1652375,0,-0.0007726395269855857,0.0009733507176861167,0.02523629553616047,0.0003025404876098037,0.0003545221115928143,0.0019215376814827323,0,1,-1000,0,0,0,-1,0,-1,1500.0
05:03:43.122,STABILIZE,-35.3632621,149.1652375,0,-0.0007726395269855857,0.0009733507176861167,0.02523629553616047,0.0003025404876098037,0.0003545221115928143,0.0019215376814827323,0,1,-1000,0,0,0,-1,0,-1,1500.0
05:03:43.323,STABILIZE,-35.3632621,149.1652375,0,-0.0007726395269855857,0.0009733507176861167,0.02523629553616047,0.0003025404876098037,0.0003545221115928143,0.0019215376814827323,0,1,-1000,0,0,0,-1,0,-1,1500.0
05:03:43.523,STABILIZE,-35.3632621,149.1652375,0,-0.0007726395269855857,0.0009733507176861167,0.02523629553616047,0.0003025404876098037,0.0003545221115928143,0.0019215376814827323,0,1,-1000,0,0,0,-1,0,-1,1500.0
05:03:43.724,STABILIZE,-35.3632621,149.1652375,0,-0.0007726395269855857,0.0009733507176861167,0.02523629553616047,0.0003025404876098037,0.0003545221115928143,0.0019215376814827323,0,1,-1000,0,0,0,-1,0,-1,1500.0
05:03:43.925,STABILIZE,-35.3632621,149.1652375,0,-0.0007844044594094157,0.0009443238959647715,0.024879785254597664,0.0001873484579846263,0.00010662074782885611,0.0017917294753715396,0,1,-1000,0,1,0,-1,0,-1,1500.0
05:03:44.126,STABILIZE,-35.3632621,149.1652375,0,-0.0007844044594094157,0.0009443238959647715,0.024879785254597664,0.0001873484579846263,0.00010662074782885611,0.0017917294753715396,0,1,-1000,0,0,0,-1,1,-1,1500.0
05:03:44.327,STABILIZE,-35.3632621,149.1652375,0,-0.0007938044145703316,0.000941242091357708,0.02471429482102394,0.00017101882258430123,0.00032186589669436216,0.0017981885466724634,0,1,-1000,0,0,0,-1,1,-1,1500.0
05:03:44.528,STABILIZE,-35.3632621,149.1652375,0,-0.0007938044145703316,0.000941242091357708,0.02471429482102394,0.00017101882258430123,0.00032186589669436216,0.0017981885466724634,0,1,-1000,0,0,0,-1,1,-1,1500.0
05:03:44.730,STABILIZE,-35.3632621,149.1652375,0,-0.0007938044145703316,0.000941242091357708,0.02471429482102394,0.00017101882258430123,0.00032186589669436216,0.0017981885466724634,0,1,-1000,0,0,0,-1,1,-1,1500.0
05:03:44.931,STABILIZE,-35.3632621,149.1652375,0,-0.0007938044145703316,0.000941242091357708,0.02471429482102394,0.00017101882258430123,0.00032186589669436216,0.0017981885466724634,0,1,-1000,0,0,0,-1,1,-1,1500.0
05:03:45.132,STABILIZE,-35.3632621,149.1652375,0,-0.0007938044145703316,0.000941242091357708,0.02471429482102394,0.00017101882258430123,0.00032186589669436216,0.0017981885466724634,0,1,-1000,0,0,0,-1,1,-1,1500.0
05:03:45.333,STABILIZE,-35.3632621,149.1652375,0,-0.0007938044145703316,0.000941242091357708,0.02471429482102394,0.00017101882258430123,0.00032186589669436216,0.0017981885466724634,0,1,-1000,0,0,0,-1,1,-1,1500.0
05:03:45.535,STABILIZE,-35.3632621,149.1652375,0,-0.0007938044145703316,0.000941242091357708,0.02471429482102394,0.00017101882258430123,0.00032186589669436216,0.0017981885466724634,0,1,-1000,0,0,0,-1,1,-1,1500.0
05:03:45.736,STABILIZE,-35.3632621,149.1652375,0,-0.0006221130024641752,0.0009447180200368166,0.024212729185819626,0.00027754809707403183,0.0002990738721564412,0.0019520956557244062,0,2,-1000,0,1,0,-1,3,1,1500.0
05:03:45.937,STABILIZE,-35.3632621,149.1652375,0,-0.0006221130024641752,0.0009447180200368166,0.024212729185819626,0.00027754809707403183,0.0002990738721564412,0.0019520956557244062,0,2,-1000,0,1,0,-1,3,1,1500.0
05:03:46.138,STABILIZE,-35.3632621,149.1652375,0,-0.0006221130024641752,0.0009447180200368166,0.024212729185819626,0.00027754809707403183,0.0002990738721564412,0.0019520956557244062,0,2,-1000,0,1,0,-1,3,1,1500.0
05:03:46.340,STABILIZE,-35.3632621,149.1652375,0,-0.0006221130024641752,0.0009447180200368166,0.024212729185819626,0.00027754809707403183,0.0002990738721564412,0.0019520956557244062,0,2,-1000,0,1,0,-1,3,1,1500.0
05:03:46.542,STABILIZE,-35.3632621,149.1652375,0,-0.0009168601245619357,0.000955905532464385,0.023866547271609306,0.0003224042593501508,0.0003158216131851077,0.0017901147948578,0,2,-1000,0,1,0,-1,3,1,1500.0
05:03:46.743,STABILIZE,-35.3632622,149.1652375,0,-0.0009168601245619357,0.000955905532464385,0.023866547271609306,0.0003224042593501508,0.0003158216131851077,0.0017901147948578,0,2,-1000,0,1,0,-1,2,0,1500.0
05:03:46.945,STABILIZE,-35.3632622,149.1652375,0,-0.0009168601245619357,0.000955905532464385,0.023866547271609306,0.0003224042593501508,0.0003158216131851077,0.0017901147948578,0,2,-1000,0,1,0,-1,2,0,1500.0
05:03:47.146,STABILIZE,-35.3632622,149.1652375,0,-0.0009168601245619357,0.000955905532464385,0.023866547271609306,0.0003224042593501508,0.0003158216131851077,0.0017901147948578,0,2,-1000,0,1,0,-1,2,0,1500.0
05:03:47.349,STABILIZE,-35.3632622,149.1652375,0,-0.0009168601245619357,0.000955905532464385,0.023866547271609306,0.0003224042593501508,0.0003158216131851077,0.0017901147948578,0,2,-1000,0,1,0,-1,2,0,1500.0
05:03:47.551,STABILIZE,-35.3632622,149.1652375,0,-0.0009168601245619357,0.000955905532464385,0.023866547271609306,0.0003224042593501508,0.0003158216131851077,0.0017901147948578,0,2,-1000,0,1,0,-1,2,0,1500.0
05:03:47.752,STABILIZE,-35.3632622,149.1652375,0,-0.0011253244010731578,0.0009610563865862787,0.02358478307723999,0.00023503293050453067,0.00038136442890390754,0.0017016127239912748,0,1,-1000,0,0,0,-1,1,0,1500.0
05:03:47.953,STABILIZE,-35.3632622,149.1652375,0,-0.0011253244010731578,0.0009610563865862787,0.02358478307723999,0.00023503293050453067,0.00038136442890390754,0.0017016127239912748,0,1,-1000,0,0,0,-1,1,0,1500.0
05:03:48.155,STABILIZE,-35.3632622,149.1652375,0,-0.0011253244010731578,0.0009610563865862787,0.02358478307723999,0.00023503293050453067,0.00038136442890390754,0.0017016127239912748,0,1,-1000,0,0,0,-1,1,0,1500.0
05:03:48.357,STABILIZE,-35.3632622,149.1652375,0,-0.0010710926726460457,0.0009643035009503365,0.023390209302306175,0.00010081491200253367,0.0001659237896092236,0.00175381894223392,0,0,-1002,0,0,1,-1,1,0,1500.0
05:03:48.558,STABILIZE,-35.3632622,149.1652375,0,-0.0010996623896062374,0.0009697405039332807,0.023330003023147583,0.00022029905812814832,0.0003164326772093773,0.0017106067389249802,0,1,-1000,0,1,0,-1,1,0,1500.0
05:03:48.759,STABILIZE,-35.3632622,149.1652375,0,-0.0010996623896062374,0.0009697405039332807,0.023330003023147583,0.00022029905812814832,0.0003164326772093773,0.0017106067389249802,0,1,-1000,0,1,0,-1,1,0,1500.0
05:03:48.961,STABILIZE,-35.3632622,149.1652375,0,-0.0010996623896062374,0.0009697405039332807,0.023330003023147583,0.00022029905812814832,0.0003164326772093773,0.0017106067389249802,0,1,-1000,0,1,0,-1,1,0,1500.0
05:03:49.162,STABILIZE,-35.3632622,149.1652375,0,-0.0010996623896062374,0.0009697405039332807,0.023330003023147583,0.00022029905812814832,0.0003164326772093773,0.0017106067389249802,0,1,-1000,0,1,0,-1,1,0,1500.0
05:03:49.363,STABILIZE,-35.3632622,149.1652375,0,-0.0010996623896062374,0.0009697405039332807,0.023330003023147583,0.00022029905812814832,0.0003164326772093773,0.0017106067389249802,0,1,-1000,0,1,0,-1,1,0,1500.0
05:03:49.565,STABILIZE,-35.3632622,149.1652375,0,-0.0011390454601496458,0.000970809196587652,0.023093143478035927,0.000241341651417315,0.00034079275792464614,0.0017103676218539476,0,1,-1000,1,0,0,-1,1,0,1500.0
05:03:49.766,STABILIZE,-35.3632622,149.1652375,0,-0.0011390454601496458,0.000970809196587652,0.023093143478035927,0.000241341651417315,0.00034079275792464614,0.0017103676218539476,0,1,-1000,1,0,0,-1,1,0,1500.0
05:03:49.968,STABILIZE,-35.3632622,149.1652375,0,-0.001156928832642734,0.0009736783686093986,0.023035062476992607,0.00021474569803103805,0.00034811615478247404,0.0017240163870155811,0,1,-1000,0,0,0,-1,1,0,1500.0
05:03:50.170,STABILIZE,-35.3632622,149.1652375,0,-0.001156928832642734,0.0009736783686093986,0.023035062476992607,0.00021474569803103805,0.00034811615478247404,0.0017240163870155811,0,1,-1000,0,0,0,-1,1,0,1500.0
05:03:50.371,STABILIZE,-35.3632622,149.1652375,0,-0.001156928832642734,0.0009736783686093986,0.023035062476992607,0.00021474569803103805,0.00034811615478247404,0.0017240163870155811,0,1,-1000,0,0,0,-1,1,0,1500.0
05:03:50.572,STABILIZE,-35.3632622,149.1652375,0,-0.001156928832642734,0.0009736783686093986,0.023035062476992607,0.00021474569803103805,0.00034811615478247404,0.0017240163870155811,0,1,-1000,0,0,0,-1,1,0,1500.0
05:03:50.773,STABILIZE,-35.3632622,149.1652375,0,-0.001156928832642734,0.0009736783686093986,0.023035062476992607,0.00021474569803103805,0.00034811615478247404,0.0017240163870155811,0,1,-1000,0,0,0,-1,1,0,1500.0
05:03:50.975,STABILIZE,-35.3632622,149.1652375,0,-0.0011704540811479092,0.0009731357567943633,0.0228413213044405,0.00020997633691877127,0.0002910363837145269,0.001657811924815178,0,2,-1000,0,0,0,-1,0,0,1500.0
05:03:51.177,STABILIZE,-35.3632622,149.1652375,0,-0.0011704540811479092,0.0009731357567943633,0.0228413213044405,0.00020997633691877127,0.0002910363837145269,0.001657811924815178,0,2,-1000,0,0,0,-1,0,0,1500.0
05:03:51.378,STABILIZE,-35.3632622,149.1652375,0,-0.0011704540811479092,0.0009731357567943633,0.0228413213044405,0.00020997633691877127,0.0002910363837145269,0.001657811924815178,0,2,-1000,0,0,0,-1,0,0,1500.0
05:03:51.580,STABILIZE,-35.3632622,149.1652375,0,-0.001170442090369761,0.000984472339041531,0.02268282324075699,0.00041790195973590016,0.0003362750867381692,0.0016244628932327032,0,2,-1000,0,1,1,-1,1,0,1500.0
05:03:51.781,STABILIZE,-35.3632622,149.1652375,0,-0.001170442090369761,0.000984472339041531,0.02268282324075699,0.00041790195973590016,0.0003362750867381692,0.0016244628932327032,0,2,-1000,0,1,1,-1,1,0,1500.0
05:03:51.982,STABILIZE,-35.3632622,149.1652375,0,-0.0011728067183867097,0.0009823599830269814,0.022646760568022728,0.00018349802121520042,0.00020962790586054325,0.001517786644399166,0,4,-996,0,1,0,-1,0,-3,1500.0
05:03:52.184,STABILIZE,-35.3632622,149.1652375,0,-0.0011728067183867097,0.0009823599830269814,0.022646760568022728,0.00018349802121520042,0.00020962790586054325,0.001517786644399166,0,4,-996,0,1,0,-1,0,-3,1500.0
05:03:52.385,STABILIZE,-35.3632622,149.1652375,0,-0.0011728067183867097,0.0009823599830269814,0.022646760568022728,0.00018349802121520042,0.00020962790586054325,0.001517786644399166,0,4,-996,0,1,0,-1,0,-3,1500.0
05:03:52.587,STABILIZE,-35.3632622,149.1652374,10,-0.0011728067183867097,0.0009823599830269814,0.022646760568022728,0.00018349802121520042,0.00020962790586054325,0.001517786644399166,0,2,-1000,0,0,0,-1,0,-3,1500.0
05:03:52.788,STABILIZE,-35.3632622,149.1652374,10,-0.0011728067183867097,0.0009823599830269814,0.022646760568022728,0.00018349802121520042,0.00020962790586054325,0.001517786644399166,0,2,-1000,0,0,0,-1,0,-3,1500.0
05:03:52.990,STABILIZE,-35.3632622,149.1652374,10,-0.0011728067183867097,0.0009823599830269814,0.022646760568022728,0.00018349802121520042,0.00020962790586054325,0.001517786644399166,0,2,-1000,0,0,0,-1,0,-3,1500.0
05:03:53.191,STABILIZE,-35.3632622,149.1652374,10,-0.0011728067183867097,0.0009823599830269814,0.022646760568022728,0.00018349802121520042,0.00020962790586054325,0.001517786644399166,0,2,-1000,0,0,0,-1,0,-3,1500.0
05:03:53.393,STABILIZE,-35.3632622,149.1652374,10,-0.0011728067183867097,0.0009823599830269814,0.022646760568022728,0.00018349802121520042,0.00020962790586054325,0.001517786644399166,0,2,-1000,0,0,0,-1,0,-3,1500.0
05:03:53.594,STABILIZE,-35.3632622,149.1652374,10,-0.0011728067183867097,0.0009823599830269814,0.022646760568022728,0.00018349802121520042,0.00020962790586054325,0.001517786644399166,0,2,-1000,0,0,0,-1,0,-3,1500.0
05:03:53.796,STABILIZE,-35.3632622,149.1652374,10,-0.0011728067183867097,0.0009823599830269814,0.022646760568022728,0.00018349802121520042,0.00020962790586054325,0.001517786644399166,0,2,-1000,0,0,0,-1,0,-3,1500.0
05:03:53.997,STABILIZE,-35.3632622,149.1652374,10,-0.0011728067183867097,0.0009823599830269814,0.022646760568022728,0.00018349802121520042,0.00020962790586054325,0.001517786644399166,0,2,-1000,0,0,0,-1,0,-3,1500.0
05:03:54.199,STABILIZE,-35.3632622,149.1652374,10,-0.0011728067183867097,0.0009823599830269814,0.022646760568022728,0.00018349802121520042,0.00020962790586054325,0.001517786644399166,0,2,-1000,0,0,0,-1,0,-3,1500.0
05:03:54.400,STABILIZE,-35.3632622,149.1652374,10,-0.0011728067183867097,0.0009823599830269814,0.022646760568022728,0.00018349802121520042,0.00020962790586054325,0.001517786644399166,0,2,-1000,0,0,0,-1,0,-3,1500.0
05:03:54.602,STABILIZE,-35.3632622,149.1652374,10,-0.0011728067183867097,0.0009823599830269814,0.022646760568022728,0.00018349802121520042,0.00020962790586054325,0.001517786644399166,0,2,-1000,0,0,0,-1,0,-3,1500.0
05:03:54.803,STABILIZE,-35.3632622,149.1652374,10,-0.0011728067183867097,0.0009823599830269814,0.022646760568022728,0.00018349802121520042,0.00020962790586054325,0.001517786644399166,0,2,-1000,0,0,0,-1,0,-3,1500.0
05:03:55.005,STABILIZE,-35.3632622,149.1652374,10,-0.0011728067183867097,0.0009823599830269814,0.022646760568022728,0.00018349802121520042,0.00020962790586054325,0.001517786644399166,0,2,-1000,0,0,0,-1,0,-3,1500.0
05:03:55.206,STABILIZE,-35.3632622,149.1652374,10,-0.0011728067183867097,0.0009823599830269814,0.022646760568022728,0.00018349802121520042,0.00020962790586054325,0.001517786644399166,0,2,-1000,0,0,0,-1,0,-3,1500.0
05:03:55.408,STABILIZE,-35.3632622,149.1652374,10,-0.0011728067183867097,0.0009823599830269814,0.022646760568022728,0.00018349802121520042,0.00020962790586054325,0.001517786644399166,0,2,-1000,0,0,0,-1,0,-3,1500.0
05:03:55.609,STABILIZE,-35.3632622,149.1652375,23,-0.0005393234314396977,0.0009747821604833007,0.02180703729391098,0.00029953912599012256,0.00021372776245698333,0.0014150855131447315,0,1,-1000,0,0,0,-1,0,-3,1500.0
05:03:55.811,STABILIZE,-35.3632622,149.1652375,23,-0.0005393234314396977,0.0009747821604833007,0.02180703729391098,0.00029953912599012256,0.00021372776245698333,0.0014150855131447315,0,1,-1000,0,0,0,-1,0,-3,1500.0
05:03:56.012,STABILIZE,-35.3632622,149.1652375,23,-0.0005393234314396977,0.0009747821604833007,0.02180703729391098,0.00029953912599012256,0.00021372776245698333,0.0014150855131447315,0,1,-1000,0,0,0,-1,0,-3,1500.0
05:03:56.214,AUTO,-35.3632622,149.1652375,24,-0.0004952230374328792,0.0009734755149111152,0.021690024062991142,0.000304928922560066,0.00023595750099048018,0.0015043166931718588,0,2,-1000,1,1,1,-1,1,-2,1500.0
05:03:56.416,AUTO,-35.3632622,149.1652375,5,-0.00048176557174883783,0.000977126182988286,0.021646587178111076,0.000252752797678113,0.00023936806246638298,0.0014057280495762825,0,1,-1000,0,1,1,-1,1,-2,1500.0
05:03:56.618,AUTO,-35.3632622,149.1652375,6,-0.0004711350193247199,0.0009798179380595684,0.021580899134278297,0.0003037256537936628,0.0003439926658757031,0.0015407881001010537,0,2,-1000,1,0,1,-1,1,-2,1500.0
05:03:56.819,AUTO,-35.3632622,149.1652375,7,-0.00045487767783924937,0.0009912861278280616,0.021519899368286133,0.0003206036053597927,0.0004134945338591933,0.0014076621737331152,0,1,-1000,1,0,1,-1,1,-2,1500.0
05:03:57.021,AUTO,-35.3632622,149.1652375,7,-0.00045487767783924937,0.0009912861278280616,0.021519899368286133,0.0003206036053597927,0.0004134945338591933,0.0014076621737331152,0,1,-1000,1,0,1,-1,1,-2,1500.0
05:03:57.223,AUTO,-35.3632622,149.1652375,7,-0.00045487767783924937,0.0009912861278280616,0.021519899368286133,0.0003206036053597927,0.0004134945338591933,0.0014076621737331152,0,1,-1000,1,0,1,-1,1,-2,1500.0
05:03:57.426,AUTO,-35.3632622,149.1652375,7,-0.00045487767783924937,0.0009912861278280616,0.021519899368286133,0.0003206036053597927,0.0004134945338591933,0.0014076621737331152,0,1,-1000,1,0,1,-1,1,-2,1500.0
05:03:57.628,AUTO,-35.3632621,149.1652375,9,-0.00034194535692222416,0.0010916750179603696,0.02135133557021618,0.0003457278944551945,0.0002438086667098105,0.0013713311636820436,0,1,-1000,0,0,1,0,0,-1,1500.0
05:03:57.830,AUTO,-35.3632621,149.1652375,10,-0.0002865450514946133,0.0011472185142338276,0.021268608048558235,0.00036881736014038324,0.00021339947124943137,0.001322800642810762,0,2,-1000,1,0,1,0,0,-1,1500.0
05:03:58.032,AUTO,-35.3632621,149.1652375,10,-0.0002865450514946133,0.0011472185142338276,0.021268608048558235,0.00036881736014038324,0.00021339947124943137,0.001322800642810762,0,2,-1000,1,0,1,0,0,-1,1500.0
05:03:58.234,AUTO,-35.3632621,149.1652375,9,-0.0002416498027741909,0.0012062425957992673,0.021205494180321693,0.00024922494776546955,0.00021778990048915148,0.001399871427565813,0,2,-1000,0,1,1,0,0,-1,1500.0
05:03:58.444,AUTO,-35.3632621,149.1652375,9,-0.00019271856581326574,0.001273580128327012,0.02114134095609188,0.0003063242183998227,0.0003343313583172858,0.0014312755083665252,0,2,-1000,1,0,0,0,0,-1,1500.0
05:03:58.685,AUTO,-35.3632621,149.1652375,9,-0.0001344111660728231,0.0013434095308184624,0.02106294222176075,0.00022064836230129004,0.00032628519693389535,0.0012958201114088297,0,1,-1000,1,0,0,0,0,-1,1500.0
05:03:59.002,AUTO,-35.3632621,149.1652375,10,8.690614777151495e-05,0.0014148741029202938,0.020984966307878494,0.0003418217529542744,0.00023840455105528235,0.0014127111062407494,0,1,-1000,1,0,0,0,0,-1,1500.0
05:03:59.230,AUTO,-35.3632621,149.1652375,10,8.690614777151495e-05,0.0014148741029202938,0.020984966307878494,0.0003418217529542744,0.00023840455105528235,0.0014127111062407494,0,1,-1000,1,0,0,0,0,-1,1500.0
05:03:59.431,AUTO,-35.3632621,149.1652375,10,8.690614777151495e-05,0.0014148741029202938,0.020984966307878494,0.0003418217529542744,0.00023840455105528235,0.0014127111062407494,0,1,-1000,1,0,0,0,0,-1,1500.0
05:03:59.634,AUTO,-35.3632621,149.1652375,9,0.0002837101637851447,0.0016397815197706223,0.020763030275702477,0.00035200442653149366,0.0002996591501869261,0.0013030414702370763,0,1,-1000,0,0,0,0,0,-1,1500.0
05:03:59.838,AUTO,-35.3632621,149.1652375,8,0.000356826203642413,0.001711406046524644,0.020690929144620895,0.0003923273761756718,0.00026822194922715425,0.001344770542345941,0,1,-1000,1,0,0,0,0,-1,1500.0
05:04:00.041,AUTO,-35.3632621,149.1652375,8,0.000356826203642413,0.001711406046524644,0.020690929144620895,0.0003923273761756718,0.00026822194922715425,0.001344770542345941,0,1,-1000,1,0,0,0,0,-1,198487.0
05:04:00.242,AUTO,-35.3632621,149.1652375,10,0.0013071491848677397,0.0009122465271502733,0.020613953471183777,0.010876390151679516,-0.009055564180016518,0.0016567192506045103,0,0,-1101,11,-8,1,0,0,-7,198487.0
05:04:00.444,AUTO,-35.3632621,149.1652375,69,0.00327898096293211,-0.0005241353064775467,0.02064039744436741,0.00681987963616848,-0.00026245968183502555,0.0021741874516010284,0,0,-1142,7,0,1,0,0,-41,198487.0
05:04:00.646,AUTO,-35.3632621,149.1652375,212,0.002629783470183611,0.00024069679784588516,0.020576072856783867,-0.006417924538254738,0.00408949377015233,0.0009477731073275208,0,0,-1130,-5,5,0,0,0,-75,198487.0
05:04:00.848,AUTO,-35.3632621,149.1652375,433,0.0019719600677490234,0.0011473834747448564,0.020558977499604225,-0.0030875280499458313,0.0020918294321745634,0.0022337750997394323,0,0,-1109,-2,2,1,0,0,-103,198487.0
05:04:01.049,AUTO,-35.3632621,149.1652375,433,0.0019719600677490234,0.0011473834747448564,0.020558977499604225,-0.0030875280499458313,0.0020918294321745634,0.0022337750997394323,0,0,-1109,-2,2,1,0,0,-103,198487.0
05:04:01.251,AUTO,-35.3632621,149.1652375,433,0.0019719600677490234,0.0011473834747448564,0.020558977499604225,-0.0030875280499458313,0.0020918294321745634,0.0022337750997394323,0,0,-1109,-2,2,1,0,0,-103,198487.0
05:04:01.453,AUTO,-35.3632621,149.1652375,433,0.0019719600677490234,0.0011473834747448564,0.020558977499604225,-0.0030875280499458313,0.0020918294321745634,0.0022337750997394323,0,0,-1109,-2,2,1,0,0,-103,198487.0
05:04:01.655,AUTO,-35.363262,149.1652375,1422,0.024897649884223938,-0.0011846007546409965,0.020181896165013313,0.04699856415390968,-0.007108266465365887,0.002226406242698431,0,0,-1016,47,-6,1,1,6,-145,198487.0
05:04:01.856,AUTO,-35.363262,149.1652377,1801,0.03642553836107254,-0.003122991882264614,0.020319070667028427,0.044924408197402954,-0.008240025490522385,0.0028059619944542646,0,-1,-1006,45,-7,2,1,12,-147,198487.0
05:04:02.059,AUTO,-35.3632619,149.1652381,2181,0.0472431406378746,-0.005349223501980305,0.020531639456748962,0.042103804647922516,-0.009194592945277691,0.003216024488210678,0,-3,-1002,42,-8,2,3,21,-148,198487.0
05:04:02.260,AUTO,-35.3632619,149.1652381,2181,0.0472431406378746,-0.005349223501980305,0.020531639456748962,0.042103804647922516,-0.009194592945277691,0.003216024488210678,0,-3,-1002,42,-8,2,3,21,-148,198487.0
05:04:02.462,AUTO,-35.3632618,149.1652388,2563,0.05727646127343178,-0.008092897944152355,0.020739732310175896,0.03866463527083397,-0.011720673181116581,0.0036437585949897766,1,-5,-1000,39,-10,3,5,32,-148,198487.0
05:04:02.663,AUTO,-35.3632616,149.1652398,2945,0.06202063709497452,-0.007658961694687605,-0.010796741582453251,-0.032487258315086365,0.04142634570598602,-0.06273507326841354,1,-8,-992,-31,42,-62,9,45,-147,198487.0
05:04:02.865,AUTO,-35.3632613,149.1652412,3322,0.03678041324019432,0.016001995652914047,-0.034800224006175995,-0.1609473079442978,0.08428527414798737,-0.0965064987540245,2,-11,-991,-160,84,-96,9,54,-144,198487.0
05:04:03.067,AUTO,-35.3632613,149.1652412,3322,0.03678041324019432,0.016001995652914047,-0.034800224006175995,-0.1609473079442978,0.08428527414798737,-0.0965064987540245,2,-11,-991,-160,84,-96,9,54,-144,198487.0
05:04:03.269,AUTO,-35.3632613,149.1652412,3322,0.03678041324019432,0.016001995652914047,-0.034800224006175995,-0.1609473079442978,0.08428527414798737,-0.0965064987540245,2,-11,-991,-160,84,-96,9,54,-144,198487.0
05:04:03.471,AUTO,-35.3632613,149.1652412,3322,0.03678041324019432,0.016001995652914047,-0.034800224006175995,-0.1609473079442978,0.08428527414798737,-0.0965064987540245,2,-11,-991,-160,84,-96,9,54,-144,198487.0
05:04:03.672,AUTO,-35.363261,149.165245,4449,-0.03586363419890404,0.024830317124724388,-0.09045638144016266,-0.047412410378456116,-0.024780817329883575,-0.04550854489207268,6,-8,-1003,-46,-24,-46,-3,36,-148,198487.0
05:04:03.874,AUTO,-35.363261,149.1652458,4832,-0.05174330994486809,0.012045934796333313,-0.09315479546785355,-0.0744103267788887,-0.06858121603727341,0.006021319888532162,5,-5,-1000,-73,-68,5,-7,23,-148,198487.0
05:04:04.089,AUTO,-35.3632611,149.1652463,5215,-0.07112937420606613,-0.008094916120171547,-0.08378208428621292,-0.06629719585180283,-0.08291006088256836,0.030092356726527214,3,-2,-1002,-65,-82,29,-7,6,-148,198487.0
05:04:04.402,AUTO,-35.3632613,149.1652462,5597,-0.07500598579645157,-0.015842819586396217,-0.08145589381456375,0.020444227382540703,-0.00016952073201537132,-0.0029631098732352257,1,0,-1004,20,0,-3,-4,-12,-148,198487.0
05:04:04.616,AUTO,-35.3632613,149.1652456,5980,-0.0656534731388092,-0.01498190127313137,-0.08262086659669876,0.047824230045080185,0.0022410457022488117,-0.0015778548549860716,-1,4,-1001,48,3,-1,-1,-30,-148,198487.0
05:04:04.850,AUTO,-35.3632614,149.1652446,6367,-0.051972176879644394,-0.014429093338549137,-0.08357282727956772,0.057768501341342926,0.003252830822020769,0.0012310831807553768,-4,6,-1000,58,3,1,0,-44,-148,198487.0
05:04:05.090,AUTO,-35.3632614,149.1652446,6367,-0.051972176879644394,-0.014429093338549137,-0.08357282727956772,0.057768501341342926,0.003252830822020769,0.0012310831807553768,-4,6,-1000,58,3,1,0,-44,-148,198487.0
05:04:05.297,AUTO,-35.3632614,149.1652446,6367,-0.051972176879644394,-0.014429093338549137,-0.08357282727956772,0.057768501341342926,0.003252830822020769,0.0012310831807553768,-4,6,-1000,58,3,1,0,-44,-148,198487.0
05:04:05.500,AUTO,-35.3632614,149.1652446,6367,-0.051972176879644394,-0.014429093338549137,-0.08357282727956772,0.057768501341342926,0.003252830822020769,0.0012310831807553768,-4,6,-1000,58,3,1,0,-44,-148,198487.0
05:04:05.705,AUTO,-35.3632614,149.1652401,7514,-0.005612993612885475,-0.006112478673458099,-0.08434714376926422,0.06491494178771973,0.01601732335984707,0.003722602967172861,-8,11,-1003,65,16,3,2,-60,-149,198487.0
05:04:05.914,AUTO,-35.3632613,149.1652384,7901,0.010692366398870945,-0.0019473142456263304,-0.08375159651041031,0.06498213857412338,0.01668911799788475,0.004248324315994978,-8,11,-1004,65,17,3,1,-58,-150,180196.0
05:04:06.116,AUTO,-35.3632613,149.1652368,8289,0.02674795500934124,0.0021070600487291813,-0.08288336545228958,0.06470377743244171,0.015579505823552608,0.004544082097709179,-7,10,-1003,65,16,4,0,-51,-151,180196.0
05:04:06.318,AUTO,-35.3632614,149.1652355,8680,0.042656365782022476,0.005599651485681534,-0.0818653404712677,0.062347277998924255,0.012677976861596107,0.004736677743494511,-6,9,-1003,63,13,4,0,-40,-152,180196.0
05:04:06.519,AUTO,-35.3632614,149.1652355,8680,0.042656365782022476,0.005599651485681534,-0.0818653404712677,0.062347277998924255,0.012677976861596107,0.004736677743494511,-6,9,-1003,63,13,4,0,-40,-152,180196.0
05:04:06.721,AUTO,-35.3632614,149.1652345,9073,0.05777202174067497,0.008065606467425823,-0.0808335468173027,0.05979462340474129,0.007958939298987389,0.00479860557243228,-4,7,-1002,60,8,4,-2,-27,-152,180196.0
05:04:06.923,AUTO,-35.3632614,149.1652339,9465,0.06626776605844498,0.014465995132923126,-0.0851777121424675,0.012847538106143475,0.042976755648851395,-0.03683435544371605,-2,4,-997,13,43,-37,-3,-11,-151,180196.0
05:04:07.125,AUTO,-35.3632614,149.1652339,9465,0.06626776605844498,0.014465995132923126,-0.0851777121424675,0.012847538106143475,0.042976755648851395,-0.03683435544371605,-2,4,-997,13,43,-37,-3,-11,-151,180196.0
05:04:07.327,AUTO,-35.3632614,149.1652339,9465,0.06626776605844498,0.014465995132923126,-0.0851777121424675,0.012847538106143475,0.042976755648851395,-0.03683435544371605,-2,4,-997,13,43,-37,-3,-11,-151,180196.0
05:04:07.529,AUTO,-35.3632614,149.1652339,9465,0.06626776605844498,0.014465995132923126,-0.0851777121424675,0.012847538106143475,0.042976755648851395,-0.03683435544371605,-2,4,-997,13,43,-37,-3,-11,-151,180196.0
05:04:07.731,AUTO,-35.3632619,149.1652345,10620,0.02266346663236618,0.00958984810858965,-0.09404411911964417,-0.0802362710237503,-0.037877269089221954,0.01071151066571474,4,0,-999,-79,-37,10,-11,24,-147,180196.0
05:04:07.933,AUTO,-35.3632622,149.1652351,11002,0.004146023187786341,0.001375780557282269,-0.09286421537399292,-0.06582258641719818,-0.0267532616853714,0.004404890350997448,5,-3,-1002,-65,-26,4,-11,25,-148,180196.0
05:04:08.134,AUTO,-35.3632624,149.1652357,11385,-0.008365952409803867,-0.004240893293172121,-0.09296417236328125,-0.038236722350120544,-0.017470093443989754,-0.0027972308453172445,4,-3,-1004,-37,-16,-3,-9,23,-149,180196.0
05:04:08.336,AUTO,-35.3632625,149.1652363,11770,-0.015252707526087761,-0.007297984324395657,-0.09522498399019241,-0.018284911289811134,-0.008092417381703854,-0.012519742362201214,3,-3,-1003,-17,-7,-12,-6,18,-150,180196.0
05:04:08.538,AUTO,-35.3632625,149.1652363,11770,-0.015252707526087761,-0.007297984324395657,-0.09522498399019241,-0.018284911289811134,-0.008092417381703854,-0.012519742362201214,3,-3,-1003,-17,-7,-12,-6,18,-150,180196.0
05:04:08.739,AUTO,-35.3632626,149.1652367,12157,-0.017832761630415916,-0.008814423345029354,-0.09907058626413345,-0.0050480845384299755,-0.002756446599960327,-0.016732312738895416,2,-2,-1002,-4,-1,-16,-3,12,-150,180196.0
05:04:08.991,AUTO,-35.3632627,149.1652369,12545,-0.017125524580478668,-0.00889261532574892,-0.10450392216444016,0.008403926156461239,0.0031134397722780704,-0.022801870480179787,1,-1,-1001,9,3,-23,0,6,-151,180196.0
05:04:09.242,AUTO,-35.3632627,149.1652369,12545,-0.017125524580478668,-0.00889261532574892,-0.10450392216444016,0.008403926156461239,0.0031134397722780704,-0.022801870480179787,1,-1,-1001,9,3,-23,0,6,-151,180196.0
05:04:09.488,AUTO,-35.3632627,149.1652369,12545,-0.017125524580478668,-0.00889261532574892,-0.10450392216444016,0.008403926156461239,0.0031134397722780704,-0.022801870480179787,1,-1,-1001,9,3,-23,0,6,-151,180196.0
05:04:09.707,AUTO,-35.3632626,149.1652368,13872,-0.003959930036216974,-0.003723382018506527,-0.12679295241832733,0.019340937957167625,0.010418876074254513,-0.026100797578692436,-1,0,-1000,20,11,-26,4,-6,-151,180196.0
05:04:09.953,AUTO,-35.3632624,149.1652366,14261,0.000319722224958241,-0.0013251046184450388,-0.13317765295505524,0.015392226167023182,0.010006587021052837,-0.02417318895459175,-2,0,-1000,15,10,-24,5,-7,-151,180196.0
05:04:10.155,AUTO,-35.3632624,149.1652366,14261,0.000319722224958241,-0.0013251046184450388,-0.13317765295505524,0.015392226167023182,0.010006587021052837,-0.02417318895459175,-2,0,-1000,15,10,-24,5,-7,-151,180196.0
05:04:10.360,AUTO,-35.3632623,149.1652364,14651,0.0038478891365230083,0.0009713972685858607,-0.13917730748653412,0.013541682623326778,0.00890948623418808,-0.022188786417245865,-2,1,-1000,14,9,-22,5,-7,-151,180196.0
05:04:10.562,AUTO,-35.3632622,149.1652361,15041,0.006636868230998516,0.003049079328775406,-0.14476673305034637,0.010915917344391346,0.008605225011706352,-0.02099408581852913,-2,0,-1000,11,9,-21,4,-6,-151,180196.0
05:04:10.764,AUTO,-35.363262,149.1652359,15431,0.008929708041250706,0.004859182983636856,-0.14979948103427887,0.0063744280487298965,0.006541206501424313,-0.01740422658622265,-2,0,-999,7,7,-17,4,-5,-151,10515.0
05:04:10.966,AUTO,-35.3632619,149.1652357,15819,0.010255580767989159,0.006048421375453472,-0.15428201854228973,0.0027846049051731825,0.004682715050876141,-0.017662810161709785,-1,0,-1000,3,5,-17,3,-3,-151,10515.0
05:04:11.173,AUTO,-35.3632619,149.1652357,15819,0.010255580767989159,0.006048421375453472,-0.15428201854228973,0.0027846049051731825,0.004682715050876141,-0.017662810161709785,-1,0,-1000,3,5,-17,3,-3,-151,10515.0
05:04:11.374,AUTO,-35.3632619,149.1652357,15819,0.010255580767989159,0.006048421375453472,-0.15428201854228973,0.0027846049051731825,0.004682715050876141,-0.017662810161709785,-1,0,-1000,3,5,-17,3,-3,-151,10515.0
05:04:11.576,AUTO,-35.3632619,149.1652357,15819,0.010255580767989159,0.006048421375453472,-0.15428201854228973,0.0027846049051731825,0.004682715050876141,-0.017662810161709785,-1,0,-1000,3,5,-17,3,-3,-151,10515.0
05:04:11.778,AUTO,-35.3632617,149.1652355,16987,0.0059357606805861,0.007632742170244455,-0.1657765805721283,-0.05187444016337395,-0.0009699273505248129,-0.010544504970312119,-1,0,-995,-51,0,-11,0,1,-151,10515.0
05:04:11.979,AUTO,-35.3632616,149.1652354,17373,-0.013110572472214699,0.006888706237077713,-0.16885723173618317,-0.08780070394277573,-0.0024487704504281282,-0.013845350593328476,0,0,-996,-86,-1,-14,-1,0,-150,10515.0
05:04:12.181,AUTO,-35.3632616,149.1652353,17761,-0.03771878033876419,0.006354133598506451,-0.17244358360767365,-0.09959431737661362,-0.000331260816892609,-0.015144746750593185,0,0,-998,-98,0,-15,-3,-6,-149,10515.0
05:04:12.384,AUTO,-35.3632616,149.1652353,17761,-0.03771878033876419,0.006354133598506451,-0.17244358360767365,-0.09959431737661362,-0.000331260816892609,-0.015144746750593185,0,0,-998,-98,0,-15,-3,-6,-149,10515.0
05:04:12.585,AUTO,-35.3632616,149.1652349,18141,-0.05054939165711403,0.019551126286387444,-0.14820469915866852,-0.012988822534680367,0.09090569615364075,0.20948338508605957,-1,2,-981,-11,91,209,-7,-17,-145,10515.0
05:04:12.787,AUTO,-35.3632618,149.1652342,18507,-0.04865475371479988,0.04822639003396034,-0.06121788173913956,-0.004219082184135914,0.08228401839733124,0.4464786648750305,-1,6,-979,-3,83,446,-16,-28,-140,10515.0
05:04:12.989,AUTO,-35.3632623,149.1652332,18855,-0.02300838753581047,0.039099909365177155,0.02680027112364769,0.1351345330476761,-0.13938279449939728,0.24964821338653564,0,10,-955,135,-138,249,-27,-36,-130,10515.0
05:04:13.191,AUTO,-35.3632623,149.1652332,18855,-0.02300838753581047,0.039099909365177155,0.02680027112364769,0.1351345330476761,-0.13938279449939728,0.24964821338653564,0,10,-955,135,-138,249,-27,-36,-130,10515.0
05:04:13.393,AUTO,-35.3632623,149.1652332,18855,-0.02300838753581047,0.039099909365177155,0.02680027112364769,0.1351345330476761,-0.13938279449939728,0.24964821338653564,0,10,-955,135,-138,249,-27,-36,-130,10515.0
05:04:13.595,AUTO,-35.3632623,149.1652332,18855,-0.02300838753581047,0.039099909365177155,0.02680027112364769,0.1351345330476761,-0.13938279449939728,0.24964821338653564,0,10,-955,135,-138,249,-27,-36,-130,10515.0
05:04:13.797,AUTO,-35.3632639,149.1652306,19730,0.06005621328949928,-0.03639201074838638,0.060715653002262115,0.04750450327992439,-0.020226215943694115,-0.04631044343113899,1,7,-961,48,-19,-46,-19,-13,-97,10515.0
05:04:13.999,AUTO,-35.3632642,149.1652303,19969,0.06548775732517242,-0.03674164041876793,0.050986651331186295,0.004660640377551317,0.008410896174609661,-0.03659772127866745,1,2,-965,5,9,-36,-10,2,-88,10515.0
05:04:14.208,AUTO,-35.3632643,149.1652304,20184,0.06176042556762695,-0.03185482323169708,0.04477747529745102,-0.027140747755765915,0.025816822424530983,-0.01941658742725849,1,-1,-969,-26,26,-19,-1,16,-79,10515.0
05:04:14.432,AUTO,-35.3632643,149.1652309,20378,0.052215348929166794,-0.024546734988689423,0.04181235283613205,-0.04191293194890022,0.03229273110628128,-0.006577004678547382,1,-5,-972,-40,32,-6,5,28,-71,10515.0
05:04:14.649,AUTO,-35.3632643,149.1652309,20378,0.052215348929166794,-0.024546734988689423,0.04181235283613205,-0.04191293194890022,0.03229273110628128,-0.006577004678547382,1,-5,-972,-40,32,-6,5,28,-71,10515.0
05:04:14.912,AUTO,-35.3632639,149.1652327,20715,0.028493614867329597,-0.009216278791427612,0.04022563621401787,-0.046168286353349686,0.030746769160032272,0.0007154152262955904,1,-9,-975,-45,31,0,14,42,-59,10515.0
05:04:15.151,AUTO,-35.3632639,149.1652327,20715,0.028493614867329597,-0.009216278791427612,0.04022563621401787,-0.046168286353349686,0.030746769160032272,0.0007154152262955904,1,-9,-975,-45,31,0,14,42,-59,10515.0
05:04:15.353,AUTO,-35.3632639,149.1652327,20715,0.028493614867329597,-0.009216278791427612,0.04022563621401787,-0.046168286353349686,0.030746769160032272,0.0007154152262955904,1,-9,-975,-45,31,0,14,42,-59,10515.0
05:04:15.562,AUTO,-35.3632639,149.1652327,20715,0.028493614867329597,-0.009216278791427612,0.04022563621401787,-0.046168286353349686,0.030746769160032272,0.0007154152262955904,1,-9,-975,-45,31,0,14,42,-59,10515.0
05:04:15.773,AUTO,-35.3632627,149.165236,21104,-0.000996540766209364,0.00943754892796278,0.038858573883771896,-0.024011710658669472,0.01714833453297615,0.0015559924067929387,0,-10,-978,-23,17,1,15,40,-42,16330.0
05:04:15.974,AUTO,-35.3632623,149.165237,21203,-0.006391369272023439,0.01248144544661045,0.03821437805891037,-0.011908035725355148,0.010836404748260975,0.0005016755894757807,1,-9,-977,-10,11,0,14,36,-36,16330.0
05:04:16.176,AUTO,-35.363262,149.1652378,21288,-0.010443229228258133,0.014183918945491314,0.03764716535806656,-0.018140345811843872,0.006403816398233175,-0.0005826385458931327,0,-8,-976,-17,7,0,11,31,-30,16330.0
05:04:16.378,AUTO,-35.363262,149.1652378,21288,-0.010443229228258133,0.014183918945491314,0.03764716535806656,-0.018140345811843872,0.006403816398233175,-0.0005826385458931327,0,-8,-976,-17,7,0,11,31,-30,16330.0
05:04:16.579,AUTO,-35.3632617,149.1652386,21357,-0.012636080384254456,0.014515363611280918,0.03706112504005432,-0.01621551811695099,0.0005280949408188462,-0.0009564306237734854,0,-6,-975,-15,1,-1,9,25,-24,16330.0
05:04:16.781,AUTO,-35.3632615,149.1652392,21411,-0.012854862958192825,0.014069528318941593,0.03648638352751732,0.03068731725215912,-0.00028115714667364955,-0.00342471431940794,0,-3,-973,31,0,-3,6,20,-17,16330.0
05:04:16.983,AUTO,-35.3632614,149.1652396,21446,-0.012850086204707623,0.013066711835563183,0.036042675375938416,-0.01691208779811859,-0.005251419730484486,-0.001772494288161397,0,-6,-970,-16,-4,-1,4,15,-10,16330.0
05:04:17.184,AUTO,-35.3632614,149.1652396,21446,-0.012850086204707623,0.013066711835563183,0.036042675375938416,-0.01691208779811859,-0.005251419730484486,-0.001772494288161397,0,-6,-970,-16,-4,-1,4,15,-10,16330.0
05:04:17.386,AUTO,-35.3632614,149.1652396,21446,-0.012850086204707623,0.013066711835563183,0.036042675375938416,-0.01691208779811859,-0.005251419730484486,-0.001772494288161397,0,-6,-970,-16,-4,-1,4,15,-10,16330.0
05:04:17.588,AUTO,-35.3632614,149.1652396,21446,-0.012850086204707623,0.013066711835563183,0.036042675375938416,-0.01691208779811859,-0.005251419730484486,-0.001772494288161397,0,-6,-970,-16,-4,-1,4,15,-10,16330.0
05:04:17.790,AUTO,-35.3632612,149.16524,21396,-0.03454039990901947,0.014338701963424683,0.03282642737030983,0.8231989145278931,-0.06357084959745407,-0.010392445139586926,-1,42,-989,824,-62,-10,-5,-8,22,16330.0
05:04:17.992,AUTO,-35.3632613,149.1652396,21340,-0.02530372142791748,-0.0018928610952571034,0.03289630636572838,0.6383240818977356,-0.06141166016459465,-0.004852133337408304,0,14,-1007,638,-60,-5,-6,-18,20,16330.0
05:04:18.193,AUTO,-35.3632613,149.1652389,21290,-0.03607281669974327,-0.011877251788973808,0.03224913775920868,-0.4106900095939636,-0.029171384871006012,-0.008851761929690838,-3,-26,-1019,-410,-28,-9,-4,-27,15,16330.0
05:04:18.394,AUTO,-35.3632613,149.1652389,21290,-0.03607281669974327,-0.011877251788973808,0.03224913775920868,-0.4106900095939636,-0.029171384871006012,-0.008851761929690838,-3,-26,-1019,-410,-28,-9,-4,-27,15,16330.0
05:04:18.596,AUTO,-35.3632614,149.165238,21254,-0.041586983948946,-0.019850898534059525,0.03193167969584465,-0.6702846884727478,-0.03683963045477867,-0.0029419807251542807,-5,-26,-1029,-669,-35,-2,-1,-35,11,16330.0
05:04:18.835,AUTO,-35.3632613,149.1652368,21230,-0.04112783074378967,-0.026884932070970535,0.03063862770795822,-0.2662891149520874,-0.027943793684244156,-0.012834610417485237,-9,6,-1017,-264,-27,-12,3,-41,6,16330.0
05:04:19.060,AUTO,-35.3632613,149.1652354,21216,-0.030884016305208206,-0.03349652141332626,0.029187802225351334,0.45254772901535034,-0.015802139416337013,-0.007672697771340609,-8,41,-1021,454,-14,-7,9,-48,1,16330.0
05:04:19.342,AUTO,-35.3632613,149.1652354,21216,-0.030884016305208206,-0.03349652141332626,0.029187802225351334,0.45254772901535034,-0.015802139416337013,-0.007672697771340609,-8,41,-1021,454,-14,-7,9,-48,1,16330.0
05:04:19.576,AUTO,-35.3632613,149.1652354,21216,-0.030884016305208206,-0.03349652141332626,0.029187802225351334,0.45254772901535034,-0.015802139416337013,-0.007672697771340609,-8,41,-1021,454,-14,-7,9,-48,1,16330.0
05:04:19.823,AUTO,-35.36326,149.1652296,21212,-0.03498639911413193,-0.055378496646881104,-0.086713045835495,-0.13663475215435028,-0.024966415017843246,-0.2972113788127899,-20,-13,-994,-136,-23,-297,30,-76,-3,16330.0
05:04:20.025,AUTO,-35.3632593,149.1652269,21216,-0.04042621701955795,-0.0648917630314827,-0.16517099738121033,-0.4342629611492157,-0.02947011962532997,-0.2847744822502136,-25,-17,-1014,-433,-28,-284,37,-87,-4,16330.0
05:04:20.247,AUTO,-35.3632584,149.1652239,21225,-0.04731319099664688,-0.07490897923707962,-0.2380536049604416,-0.5974860787391663,-0.026613108813762665,-0.2602711617946625,-29,-12,-998,-596,-25,-260,46,-100,-6,16330.0
05:04:20.450,AUTO,-35.3632573,149.1652204,21237,-0.048006463795900345,-0.08414077013731003,-0.3054250478744507,-0.25578394532203674,-0.019015297293663025,-0.25210335850715637,-31,15,-997,-253,-17,-252,56,-113,-7,16330.0
05:04:20.654,AUTO,-35.3632573,149.1652204,21237,-0.048006463795900345,-0.08414077013731003,-0.3054250478744507,-0.25578394532203674,-0.019015297293663025,-0.25210335850715637,-31,15,-997,-253,-17,-252,56,-113,-7,223224.0
05:04:20.856,AUTO,-35.363256,149.1652165,21252,-0.037037599831819534,-0.09476197510957718,-0.3693349063396454,0.44291985034942627,-0.03859097510576248,-0.2461998015642166,-39,39,-1002,444,-37,-245,65,-128,-8,223224.0
05:04:21.058,AUTO,-35.3632544,149.1652121,21269,-0.03338275104761124,-0.10876327753067017,-0.4321289360523224,0.26489293575286865,-0.05407441034913063,-0.2221285104751587,-47,0,-1005,265,-53,-221,75,-146,-9,223224.0
05:04:21.270,AUTO,-35.3632544,149.1652121,21269,-0.03338275104761124,-0.10876327753067017,-0.4321289360523224,0.26489293575286865,-0.05407441034913063,-0.2221285104751587,-47,0,-1005,265,-53,-221,75,-146,-9,223224.0
05:04:21.472,AUTO,-35.3632544,149.1652121,21269,-0.03338275104761124,-0.10876327753067017,-0.4321289360523224,0.26489293575286865,-0.05407441034913063,-0.2221285104751587,-47,0,-1005,265,-53,-221,75,-146,-9,223224.0
05:04:21.675,AUTO,-35.3632483,149.1651957,21324,-0.031195804476737976,-0.14953118562698364,-0.619861900806427,0.32178622484207153,-0.022774796932935715,-0.24985162913799286,-61,17,-1008,323,-21,-249,111,-209,-10,223224.0
05:04:21.877,AUTO,-35.3632483,149.1651957,21324,-0.031195804476737976,-0.14953118562698364,-0.619861900806427,0.32178622484207153,-0.022774796932935715,-0.24985162913799286,-61,17,-1008,323,-21,-249,111,-209,-10,223224.0
05:04:22.080,AUTO,-35.3632457,149.165189,21346,-0.022394917905330658,-0.15540069341659546,-0.683089554309845,0.12850351631641388,-0.016435177996754646,-0.223493754863739,-66,-14,-1008,129,-15,-223,123,-235,-11,223224.0
05:04:22.282,AUTO,-35.3632428,149.1651817,21371,-0.01762387901544571,-0.15774059295654297,-0.7462339401245117,-0.2529321014881134,-0.007112035993486643,-0.2347603589296341,-70,-25,-1012,-251,-6,-234,135,-259,-13,223224.0
05:04:22.484,AUTO,-35.3632396,149.1651738,21401,-0.008153952658176422,-0.16113005578517914,-0.8091922998428345,-0.06687989085912704,-0.019254812970757484,-0.2518843114376068,-74,-18,-1007,-64,-18,-252,146,-282,-14,223224.0
05:04:22.687,AUTO,-35.3632361,149.1651651,21434,0.007107122335582972,-0.17036454379558563,-0.873406171798706,0.19593827426433563,-0.04432220011949539,-0.25082623958587646,-80,-18,-1003,197,-43,-250,157,-304,-15,223224.0
05:04:22.889,AUTO,-35.3632361,149.1651651,21434,0.007107122335582972,-0.17036454379558563,-0.873406171798706,0.19593827426433563,-0.04432220011949539,-0.25082623958587646,-80,-18,-1003,197,-43,-250,157,-304,-15,223224.0
05:04:23.091,AUTO,-35.3632325,149.165156,21467,0.012162548489868641,-0.17791306972503662,-0.936838686466217,-0.11255654692649841,-0.025745511054992676,-0.24700205028057098,-78,-40,-1004,-111,-24,-246,168,-328,-15,223224.0
05:04:23.293,AUTO,-35.3632325,149.165156,21467,0.012162548489868641,-0.17791306972503662,-0.936838686466217,-0.11255654692649841,-0.025745511054992676,-0.24700205028057098,-78,-40,-1004,-111,-24,-246,168,-328,-15,223224.0
05:04:23.495,AUTO,-35.3632325,149.165156,21467,0.012162548489868641,-0.17791306972503662,-0.936838686466217,-0.11255654692649841,-0.025745511054992676,-0.24700205028057098,-78,-40,-1004,-111,-24,-246,168,-328,-15,223224.0
05:04:23.696,AUTO,-35.3632199,149.1651249,21580,0.04537104070186615,-0.19462895393371582,-1.1114951372146606,-0.0048886011354625225,-0.055012863129377365,-0.13054652512073517,-88,-46,-999,-3,-54,-130,201,-403,-18,223224.0
05:04:23.898,AUTO,-35.3632199,149.1651249,21580,0.04537104070186615,-0.19462895393371582,-1.1114951372146606,-0.0048886011354625225,-0.055012863129377365,-0.13054652512073517,-88,-46,-999,-3,-54,-130,201,-403,-18,223224.0
05:04:24.171,AUTO,-35.3632152,149.1651132,21622,0.048664528876543045,-0.20260532200336456,-1.1265289783477783,-0.03236454725265503,-0.03846294432878494,-0.01599225588142872,-98,-46,-1004,-30,-37,-15,212,-429,-18,223224.0
05:04:24.410,AUTO,-35.3632102,149.1651009,21666,0.047664131969213486,-0.20286069810390472,-1.1221214532852173,0.0014432643074542284,0.02790248580276966,0.02522186189889908,-102,-55,-1012,3,29,25,224,-455,-19,223224.0
05:04:24.644,AUTO,-35.363205,149.1650879,21718,0.047385074198246,-0.19517797231674194,-1.1124504804611206,-0.0009519287850707769,0.03091484121978283,0.031535446643829346,-93,-37,-1003,0,31,31,235,-479,-22,223224.0
05:04:24.881,AUTO,-35.3631995,149.1650743,21778,0.04810396954417229,-0.18609105050563812,-1.106656551361084,0.05656450241804123,0.03420410677790642,0.010527361184358597,-108,-62,-1009,58,35,10,244,-501,-26,223224.0
05:04:25.119,AUTO,-35.3631939,149.1650601,21848,0.05122167989611626,-0.18353937566280365,-1.1048436164855957,-0.005673157051205635,-0.0016322156880050898,-0.0024223229847848415,-125,-48,-1002,-3,0,-2,251,-517,-29,223224.0
05:04:25.323,AUTO,-35.3631939,149.1650601,21848,0.05122167989611626,-0.18353937566280365,-1.1048436164855957,-0.005673157051205635,-0.0016322156880050898,-0.0024223229847848415,-125,-48,-1002,-3,0,-2,251,-517,-29,223224.0
05:04:25.526,AUTO,-35.3631939,149.1650601,21848,0.05122167989611626,-0.18353937566280365,-1.1048436164855957,-0.005673157051205635,-0.0016322156880050898,-0.0024223229847848415,-125,-48,-1002,-3,0,-2,251,-517,-29,223224.0
05:04:25.728,AUTO,-35.363176,149.1650148,22091,0.06208733469247818,-0.1710861623287201,-1.1067333221435547,0.027103621512651443,0.01833386905491352,-0.010316853411495686,-110,-43,-986,28,19,-10,270,-562,-32,112471.0
05:04:25.930,AUTO,-35.3631698,149.1649991,22177,0.058523375540971756,-0.16383786499500275,-1.1066579818725586,0.01669231615960598,0.00890238769352436,-0.0034117938484996557,-129,-68,-995,18,9,-3,276,-574,-34,112471.0
05:04:26.131,AUTO,-35.3631698,149.1649991,22177,0.058523375540971756,-0.16383786499500275,-1.1066579818725586,0.01669231615960598,0.00890238769352436,-0.0034117938484996557,-129,-68,-995,18,9,-3,276,-574,-34,112471.0
05:04:26.333,AUTO,-35.3631635,149.1649831,22267,0.06352707743644714,-0.164160817861557,-1.1069111824035645,0.008487746119499207,0.0015315617201849818,-0.0015232758596539497,-135,-82,-983,10,2,-1,278,-583,-32,112471.0
05:04:26.535,AUTO,-35.3631572,149.164967,22353,0.06560912728309631,-0.1613878607749939,-1.107987642288208,-0.015029378235340118,-0.0016757629346102476,0.0038012214936316013,-129,-60,-988,-13,0,3,283,-591,-32,112471.0
05:04:26.737,AUTO,-35.3631507,149.1649507,22438,0.06129969656467438,-0.1587255895137787,-1.107969880104065,0.004599514417350292,0.0314248725771904,-0.00367253297008574,-124,-76,-985,6,32,-3,287,-598,-31,112471.0
05:04:26.939,AUTO,-35.3631441,149.1649341,22521,0.061392057687044144,-0.14940281212329865,-1.1081352233886719,0.006473742425441742,0.04336795210838318,-0.0012998583260923624,-121,-81,-988,8,44,-1,289,-605,-31,112471.0
05:04:27.142,AUTO,-35.3631441,149.1649341,22521,0.061392057687044144,-0.14940281212329865,-1.1081352233886719,0.006473742425441742,0.04336795210838318,-0.0012998583260923624,-121,-81,-988,8,44,-1,289,-605,-31,112471.0
05:04:27.344,AUTO,-35.3631441,149.1649341,22521,0.061392057687044144,-0.14940281212329865,-1.1081352233886719,0.006473742425441742,0.04336795210838318,-0.0012998583260923624,-121,-81,-988,8,44,-1,289,-605,-31,112471.0
05:04:27.546,AUTO,-35.3631441,149.1649341,22521,0.061392057687044144,-0.14940281212329865,-1.1081352233886719,0.006473742425441742,0.04336795210838318,-0.0012998583260923624,-121,-81,-988,8,44,-1,289,-605,-31,112471.0
05:04:27.748,AUTO,-35.3631243,149.1648841,22782,0.06853669136762619,-0.13566765189170837,-1.1103746891021729,0.01797741837799549,-0.009072776883840561,0.0066301897168159485,-136,-69,-973,19,-8,6,288,-609,-30,112471.0
05:04:27.950,AUTO,-35.3631177,149.1648675,22862,0.06714028120040894,-0.13457995653152466,-1.1102317571640015,0.041458889842033386,-0.01576244831085205,-0.0026551871560513973,-142,-69,-984,43,-14,-2,288,-609,-29,112471.0
05:04:28.152,AUTO,-35.3631177,149.1648675,22862,0.06714028120040894,-0.13457995653152466,-1.1102317571640015,0.041458889842033386,-0.01576244831085205,-0.0026551871560513973,-142,-69,-984,43,-14,-2,288,-609,-29,112471.0
05:04:28.354,AUTO,-35.3631111,149.1648508,22935,0.06597142666578293,-0.13724948465824127,-1.1101747751235962,-0.018461380153894424,-0.009686166420578957,-0.0013162242248654366,-137,-66,-983,-16,-8,-1,289,-609,-26,112471.0
05:04:28.555,AUTO,-35.3631044,149.1648339,23002,0.06775149703025818,-0.13853031396865845,-1.1106542348861694,-0.022996844723820686,-0.014604886993765831,0.01404657494276762,-133,-74,-986,-21,-13,14,289,-612,-24,112471.0
05:04:28.760,AUTO,-35.3630978,149.1648172,23065,0.06751164048910141,-0.1430576741695404,-1.1122932434082031,0.004166903905570507,-0.015568495728075504,-0.0007102826493792236,-129,-68,-980,6,-14,0,290,-614,-22,112471.0
05:04:29.053,AUTO,-35.3630911,149.1648004,23125,0.06630419939756393,-0.14270582795143127,-1.1123542785644531,0.017660874873399734,0.03321049362421036,-0.0026494434569031,-141,-66,-987,19,34,-2,291,-617,-22,112471.0
05:04:29.268,AUTO,-35.3630911,149.1648004,23125,0.06630419939756393,-0.14270582795143127,-1.1123542785644531,0.017660874873399734,0.03321049362421036,-0.0026494434569031,-141,-66,-987,19,34,-2,291,-617,-22,112471.0
05:04:29.486,AUTO,-35.3630911,149.1648004,23125,0.06630419939756393,-0.14270582795143127,-1.1123542785644531,0.017660874873399734,0.03321049362421036,-0.0026494434569031,-141,-66,-987,19,34,-2,291,-617,-22,112471.0
05:04:29.726,AUTO,-35.3630911,149.1648004,23125,0.06630419939756393,-0.14270582795143127,-1.1123542785644531,0.017660874873399734,0.03321049362421036,-0.0026494434569031,-141,-66,-987,19,34,-2,291,-617,-22,112471.0
05:04:29.940,AUTO,-35.3630647,149.1647334,23414,0.0683310329914093,-0.08703111857175827,-1.1114513874053955,-0.06683335453271866,0.07453232258558273,0.013613217510282993,-135,-79,-996,-65,75,13,282,-602,-33,112471.0
05:04:30.142,AUTO,-35.3630647,149.1647334,23414,0.0683310329914093,-0.08703111857175827,-1.1114513874053955,-0.06683335453271866,0.07453232258558273,0.013613217510282993,-135,-79,-996,-65,75,13,282,-602,-33,112471.0
05:04:30.352,AUTO,-35.3630582,149.1647169,23498,0.06247055530548096,-0.07073763757944107,-1.1106184720993042,-0.07043751329183578,0.06930974870920181,0.013197826221585274,-134,-60,-991,-68,70,13,279,-590,-33,81619.0
05:04:30.554,AUTO,-35.3630519,149.1647008,23583,0.06307695806026459,-0.056955352425575256,-1.110312819480896,0.03298213705420494,0.058376554399728775,-0.004923691041767597,-131,-60,-985,34,59,-4,271,-577,-33,81619.0
05:04:30.756,AUTO,-35.3630459,149.1646852,23665,0.06674091517925262,-0.04749181866645813,-1.1106528043746948,0.06691568344831467,0.023761777207255363,-0.005804889835417271,-115,-64,-974,68,24,-5,264,-561,-30,81619.0
05:04:30.959,AUTO,-35.36304,149.16467,23739,0.06826526671648026,-0.0354623980820179,-1.1103109121322632,-0.027988802641630173,0.05989276245236397,-0.002797007095068693,-135,-71,-992,-26,60,-2,255,-543,-28,81619.0
05:04:31.162,AUTO,-35.36304,149.16467,23739,0.06826526671648026,-0.0354623980820179,-1.1103109121322632,-0.027988802641630173,0.05989276245236397,-0.002797007095068693,-135,-71,-992,-26,60,-2,255,-543,-28,81619.0
05:04:31.363,AUTO,-35.36304,149.16467,23739,0.06826526671648026,-0.0354623980820179,-1.1103109121322632,-0.027988802641630173,0.05989276245236397,-0.002797007095068693,-135,-71,-992,-26,60,-2,255,-543,-28,81619.0
05:04:31.566,AUTO,-35.36304,149.16467,23739,0.06826526671648026,-0.0354623980820179,-1.1103109121322632,-0.027988802641630173,0.05989276245236397,-0.002797007095068693,-135,-71,-992,-26,60,-2,255,-543,-28,81619.0
05:04:31.768,AUTO,-35.3630236,149.1646275,23930,0.07370493561029434,-0.0020393412560224533,-1.1096863746643066,0.07662254571914673,0.04548411816358566,-0.003983611240983009,-106,-46,-984,78,46,-3,229,-480,-20,81619.0
05:04:31.969,AUTO,-35.3630186,149.1646146,23981,0.06663420051336288,0.009386935271322727,-1.1093958616256714,-0.2078775316476822,0.053800251334905624,-0.0013073212467133999,-107,-67,-990,-206,54,-1,218,-456,-18,81619.0
05:04:32.172,AUTO,-35.3630139,149.1646023,24027,0.06329977512359619,0.021987777203321457,-1.109218716621399,0.04045572504401207,0.04814630746841431,-0.013626092113554478,-97,-53,-992,42,48,-13,208,-430,-16,81619.0
05:04:32.373,AUTO,-35.3630139,149.1646023,24027,0.06329977512359619,0.021987777203321457,-1.109218716621399,0.04045572504401207,0.04814630746841431,-0.013626092113554478,-97,-53,-992,42,48,-13,208,-430,-16,81619.0
05:04:32.575,AUTO,-35.3630093,149.1645908,24067,0.0738029032945633,0.035695046186447144,-1.11019766330719,0.5129269361495972,0.037634581327438354,-0.032538071274757385,-101,-30,-988,514,38,-32,196,-403,-13,81619.0
05:04:32.777,AUTO,-35.3630051,149.16458,24099,0.060067951679229736,0.047336313873529434,-1.1113476753234863,-0.1671658754348755,0.048228971660137177,0.01821140944957733,-87,-83,-993,-166,49,18,183,-375,-10,81619.0
05:04:32.979,AUTO,-35.3630012,149.1645701,24126,0.04748213291168213,0.05030665174126625,-1.1109355688095093,-0.7460528612136841,0.005697587504982948,0.011564047075808048,-87,-74,-994,-744,6,11,170,-345,-8,81619.0
05:04:33.183,AUTO,-35.3630012,149.1645701,24126,0.04748213291168213,0.05030665174126625,-1.1109355688095093,-0.7460528612136841,0.005697587504982948,0.011564047075808048,-87,-74,-994,-744,6,11,170,-345,-8,81619.0
05:04:33.385,AUTO,-35.3630012,149.1645701,24126,0.04748213291168213,0.05030665174126625,-1.1109355688095093,-0.7460528612136841,0.005697587504982948,0.011564047075808048,-87,-74,-994,-744,6,11,170,-345,-8,81619.0
05:04:33.588,AUTO,-35.3630012,149.1645701,24126,0.04748213291168213,0.05030665174126625,-1.1109355688095093,-0.7460528612136841,0.005697587504982948,0.011564047075808048,-87,-74,-994,-744,6,11,170,-345,-8,81619.0
05:04:33.792,AUTO,-35.362991,149.1645447,24176,0.05457441881299019,0.054813068360090256,-1.1113771200180054,0.6453900337219238,0.015555955469608307,-0.012267121113836765,-63,-16,-993,646,16,-12,136,-267,-4,81619.0
05:04:33.994,AUTO,-35.3629882,149.1645377,24189,0.044658493250608444,0.058759983628988266,-1.1110365390777588,0.03570720553398132,0.007716702297329903,0.010885976254940033,-52,-49,-992,36,8,10,124,-242,-4,81619.0
05:04:34.196,AUTO,-35.3629856,149.1645314,24201,0.027035770937800407,0.06482227891683578,-1.1108156442642212,-0.6282492876052856,0.02063562721014023,0.015937162563204765,-48,-68,-1002,-626,21,16,113,-217,-4,81619.0
05:04:34.403,AUTO,-35.3629856,149.1645314,24201,0.027035770937800407,0.06482227891683578,-1.1108156442642212,-0.6282492876052856,0.02063562721014023,0.015937162563204765,-48,-68,-1002,-626,21,16,113,-217,-4,81619.0
05:04:34.686,AUTO,-35.3629812,149.1645207,24226,0.020497944205999374,0.07727988064289093,-1.1117573976516724,0.3567903935909271,0.013627012260258198,-0.01770518533885479,-38,6,-1016,359,14,-17,90,-166,-5,81619.0
05:04:34.928,AUTO,-35.3629795,149.1645165,24237,0.028973320499062538,0.08319754153490067,-1.1118348836898804,0.7202028036117554,0.00727848382666707,-0.010726068168878555,-35,11,-1021,722,8,-10,77,-142,-3,81619.0
05:04:35.155,AUTO,-35.3629795,149.1645165,24237,0.028973320499062538,0.08319754153490067,-1.1118348836898804,0.7202028036117554,0.00727848382666707,-0.010726068168878555,-35,11,-1021,722,8,-10,77,-142,-3,81619.0
05:04:35.402,AUTO,-35.3629795,149.1645165,24237,0.028973320499062538,0.08319754153490067,-1.1118348836898804,0.7202028036117554,0.00727848382666707,-0.010726068168878555,-35,11,-1021,722,8,-10,77,-142,-3,81619.0
05:04:35.629,AUTO,-35.3629795,149.1645165,24237,0.028973320499062538,0.08319754153490067,-1.1118348836898804,0.7202028036117554,0.00727848382666707,-0.010726068168878555,-35,11,-1021,722,8,-10,77,-142,-3,81619.0
05:04:35.831,AUTO,-35.3629759,149.1645075,24258,0.016501763835549355,0.060208071023225784,-1.1111671924591064,-0.2711585760116577,-0.02125396765768528,0.004358855541795492,-17,-42,-1017,-270,-20,4,46,-79,-1,81619.0
05:04:36.033,AUTO,-35.3629752,149.1645056,24262,0.011309970170259476,0.053252268582582474,-1.1115401983261108,-0.43627673387527466,-0.02241843193769455,0.005729952827095985,-13,-49,-977,-435,-21,5,38,-63,0,81619.0
05:04:36.235,AUTO,-35.3629746,149.1645041,24262,0.005374620668590069,0.04815322905778885,-1.1121766567230225,-0.6341172456741333,-0.02115495502948761,0.003929721191525459,-10,-45,-991,-633,-20,4,31,-50,-1,286903.0
05:04:36.437,AUTO,-35.3629742,149.1645029,24266,0.0036867319140583277,0.04242228344082832,-1.1125825643539429,-0.24446046352386475,-0.024772100150585175,-0.002994167385622859,-8,1,-1007,-241,-23,-2,26,-37,-2,286903.0
05:04:36.639,AUTO,-35.3629742,149.1645029,24266,0.0036867319140583277,0.04242228344082832,-1.1125825643539429,-0.24446046352386475,-0.024772100150585175,-0.002994167385622859,-8,1,-1007,-241,-23,-2,26,-37,-2,286903.0
05:04:36.841,AUTO,-35.362974,149.164502,24271,0.010398956947028637,0.03777880594134331,-1.112740397453308,0.43361589312553406,-0.017038900405168533,-0.0007318239659070969,-6,33,-999,436,-15,0,22,-26,-1,286903.0
05:04:37.043,AUTO,-35.3629738,149.1645014,24276,0.012315982952713966,0.03329643979668617,-1.1130136251449585,0.4140012264251709,-0.020305700600147247,-0.0003323765122331679,-4,6,-998,415,-19,0,17,-17,-1,286903.0
05:04:37.245,AUTO,-35.3629738,149.1645014,24276,0.012315982952713966,0.03329643979668617,-1.1130136251449585,0.4140012264251709,-0.020305700600147247,-0.0003323765122331679,-4,6,-998,415,-19,0,17,-17,-1,286903.0
05:04:37.452,AUTO,-35.3629738,149.1645014,24276,0.012315982952713966,0.03329643979668617,-1.1130136251449585,0.4140012264251709,-0.020305700600147247,-0.0003323765122331679,-4,6,-998,415,-19,0,17,-17,-1,286903.0
05:04:37.655,AUTO,-35.3629738,149.1645014,24276,0.012315982952713966,0.03329643979668617,-1.1130136251449585,0.4140012264251709,-0.020305700600147247,-0.0003323765122331679,-4,6,-998,415,-19,0,17,-17,-1,286903.0
05:04:37.856,AUTO,-35.362974,149.1645008,24281,0.0029846064280718565,0.015159920789301395,-1.1153693199157715,-0.06838563084602356,-0.02607731893658638,0.0031863113399595022,-1,17,-996,-65,-25,3,9,0,0,286903.0
05:04:38.058,AUTO,-35.3629742,149.1645008,24279,0.006894984282553196,0.00881778635084629,-1.115769386291504,0.3909461796283722,-0.023638233542442322,0.007155213505029678,-1,35,-1011,394,-22,7,8,4,0,286903.0
05:04:38.261,AUTO,-35.3629745,149.1645007,24279,0.01824410818517208,0.001397338230162859,-1.1163190603256226,0.6560593247413635,-0.029647648334503174,0.007888208143413067,0,28,-1006,658,-29,8,7,5,0,286903.0
05:04:38.463,AUTO,-35.3629747,149.1645007,24279,0.020187733694911003,-0.006578762084245682,-1.1172089576721191,0.11112325638532639,-0.03637450933456421,0.009297937154769897,-1,-8,-997,112,-35,9,8,5,0,286903.0
05:04:38.666,AUTO,-35.362975,149.1645008,24279,0.010757284238934517,-0.011948468163609505,-1.117759108543396,-0.5644304752349854,-0.0009837651159614325,0.010693103075027466,0,-24,-1008,-562,0,11,10,3,0,286903.0
05:04:38.868,AUTO,-35.362975,149.1645008,24279,0.010757284238934517,-0.011948468163609505,-1.117759108543396,-0.5644304752349854,-0.0009837651159614325,0.010693103075027466,0,-24,-1008,-562,0,11,10,3,0,286903.0
05:04:39.070,AUTO,-35.3629753,149.1645007,24281,0.010275556705892086,-0.009067627601325512,-1.1178150177001953,-0.3604312837123871,0.0064993007108569145,0.010617624036967754,-1,2,-994,-357,7,10,13,2,0,286903.0
05:04:39.275,RTL,-35.3629753,149.1645007,24281,0.010275556705892086,-0.009067627601325512,-1.1178150177001953,-0.3604312837123871,0.0064993007108569145,0.010617624036967754,-1,2,-994,-357,7,10,13,2,0,286903.0
05:04:39.477,RTL,-35.3629753,149.1645007,24281,0.010275556705892086,-0.009067627601325512,-1.1178150177001953,-0.3604312837123871,0.0064993007108569145,0.010617624036967754,-1,2,-994,-357,7,10,13,2,0,286903.0
05:04:39.679,RTL,-35.3629758,149.1645004,24281,0.029484378173947334,-0.0014933883212506771,-1.1188957691192627,0.270568311214447,0.012349002994596958,0.006496622692793608,-1,0,-1016,272,13,7,19,0,0,286903.0
05:04:39.881,RTL,-35.3629758,149.1645004,24281,0.029484378173947334,-0.0014933883212506771,-1.1188957691192627,0.270568311214447,0.012349002994596958,0.006496622692793608,-1,0,-1016,272,13,7,19,0,0,286903.0
05:04:40.082,RTL,-35.3629758,149.1645002,24289,0.013489698991179466,0.0010719667188823223,-1.1186811923980713,-0.454670786857605,0.011995740234851837,0.012878475710749626,-1,-30,-1016,-452,12,13,20,0,-5,286903.0
05:04:40.300,RTL,-35.362976,149.1645001,24309,0.011069167405366898,0.0020223441533744335,-1.1184309720993042,-0.20222343504428864,0.002212967723608017,0.012148876674473286,0,0,-1027,-198,2,13,21,2,-10,286903.0
05:04:40.565,RTL,-35.3629759,149.1645,24343,0.02261066623032093,0.00255374307744205,-1.1181247234344482,0.5202286243438721,0.003961781971156597,0.014340345747768879,0,21,-1029,523,4,15,22,3,-16,286903.0
