time_stamp,MODE,lat,lon,relative_alt,roll,pitch,yaw,rollspeed,pitchspeed,yawspeed,xacc,yacc,zacc,xgyro,ygyro,zgyro,vx,vy,vz,RTL_ALT
01:24:38.579,STABILIZE,-35.3632622,149.1652375,0,0.0002221398171968758,0.0014793574810028076,0.026713412255048752,0.00015286958659999073,0.00019150078878737986,0.0021641096100211143,0,1,-1000,0,0,0,-2,2,0,1500.0
01:24:38.780,STABILIZE,-35.3632622,149.1652375,0,0.0002221398171968758,0.0014793574810028076,0.026713412255048752,0.00015286958659999073,0.00019150078878737986,0.0021641096100211143,0,1,-1000,0,0,0,-2,2,0,1500.0
01:24:38.980,STABILIZE,-35.3632622,149.1652375,0,0.0002221398171968758,0.0014793574810028076,0.026713412255048752,0.00015286958659999073,0.00019150078878737986,0.0021641096100211143,0,1,-1000,0,0,0,-2,2,0,1500.0
01:24:39.181,STABILIZE,-35.3632622,149.1652375,0,4.0384053136222064e-05,0.0013887841487303376,0.026408350095152855,0.00025058313622139394,0.0004108623252250254,0.0021452740766108036,0,1,-1000,0,0,0,-2,2,0,1500.0
01:24:39.382,STABILIZE,-35.3632622,149.1652375,0,4.0384053136222064e-05,0.0013887841487303376,0.026408350095152855,0.00025058313622139394,0.0004108623252250254,0.0021452740766108036,0,1,-1000,0,0,0,-2,2,0,1500.0
01:24:39.582,STABILIZE,-35.3632622,149.1652375,0,4.0384053136222064e-05,0.0013887841487303376,0.026408350095152855,0.00025058313622139394,0.0004108623252250254,0.0021452740766108036,0,1,-1000,0,0,0,-2,2,0,1500.0
01:24:39.783,STABILIZE,-35.3632622,149.1652375,0,-0.0002263025235151872,0.0012201224453747272,0.025981176644563675,0.00016435948782600462,0.00019712021457962692,0.0021564061753451824,0,1,-1000,0,0,0,-1,1,0,1500.0
01:24:39.985,STABILIZE,-35.3632622,149.1652375,0,-0.0002263025235151872,0.0012201224453747272,0.025981176644563675,0.00016435948782600462,0.00019712021457962692,0.0021564061753451824,0,1,-1000,0,0,0,-1,1,0,1500.0
01:24:40.187,STABILIZE,-35.3632622,149.1652375,0,-0.0002263025235151872,0.0012201224453747272,0.025981176644563675,0.00016435948782600462,0.00019712021457962692,0.0021564061753451824,0,1,-1000,0,0,0,-1,1,0,1500.0
01:24:40.388,STABILIZE,-35.3632622,149.1652375,0,-0.0002263025235151872,0.0012201224453747272,0.025981176644563675,0.00016435948782600462,0.00019712021457962692,0.0021564061753451824,0,1,-1000,0,0,0,-1,1,0,1500.0
01:24:40.589,STABILIZE,-35.3632622,149.1652375,0,-0.0002263025235151872,0.0012201224453747272,0.025981176644563675,0.00016435948782600462,0.00019712021457962692,0.0021564061753451824,0,1,-1000,0,0,0,-1,1,0,1500.0
01:24:40.791,STABILIZE,-35.3632622,149.1652375,0,-0.0002263025235151872,0.0012201224453747272,0.025981176644563675,0.00016435948782600462,0.00019712021457962692,0.0021564061753451824,0,1,-1000,0,0,0,-1,1,0,1500.0
01:24:40.993,STABILIZE,-35.3632622,149.1652375,0,-0.0002263025235151872,0.0012201224453747272,0.025981176644563675,0.00016435948782600462,0.00019712021457962692,0.0021564061753451824,0,1,-1000,0,0,0,-1,1,0,1500.0
01:24:41.195,STABILIZE,-35.3632622,149.1652375,0,-0.0005805966211482882,0.0010520588839426637,0.025353888049721718,8.200947195291519e-05,0.00027487296028994024,0.0019970228895545006,0,1,-1000,0,0,0,-1,1,0,1500.0
01:24:41.396,STABILIZE,-35.3632622,149.1652375,0,-0.0005805966211482882,0.0010520588839426637,0.025353888049721718,8.200947195291519e-05,0.00027487296028994024,0.0019970228895545006,0,1,-1000,0,0,0,-1,1,0,1500.0
01:24:41.597,STABILIZE,-35.3632622,149.1652375,0,-0.0005805966211482882,0.0010520588839426637,0.025353888049721718,8.200947195291519e-05,0.00027487296028994024,0.0019970228895545006,0,1,-1000,0,0,0,-1,1,0,1500.0
01:24:41.798,STABILIZE,-35.3632622,149.1652375,0,-0.0005805966211482882,0.0010520588839426637,0.025353888049721718,8.200947195291519e-05,0.00027487296028994024,0.0019970228895545006,0,1,-1000,0,0,0,-1,1,0,1500.0
01:24:41.999,STABILIZE,-35.3632622,149.1652375,0,-0.0005805966211482882,0.0010520588839426637,0.025353888049721718,8.200947195291519e-05,0.00027487296028994024,0.0019970228895545006,0,1,-1000,0,0,0,-1,1,0,1500.0
01:24:42.200,STABILIZE,-35.3632621,149.1652376,0,-0.0005805966211482882,0.0010520588839426637,0.025353888049721718,8.200947195291519e-05,0.00027487296028994024,0.0019970228895545006,0,1,-1000,0,0,0,-1,3,3,1500.0
01:24:42.401,STABILIZE,-35.3632621,149.1652376,0,-0.0005805966211482882,0.0010520588839426637,0.025353888049721718,8.200947195291519e-05,0.00027487296028994024,0.0019970228895545006,0,1,-1000,0,0,0,-1,3,3,1500.0
01:24:42.603,STABILIZE,-35.3632621,149.1652376,0,-0.0005805966211482882,0.0010520588839426637,0.025353888049721718,8.200947195291519e-05,0.00027487296028994024,0.0019970228895545006,0,1,-1000,0,0,0,-1,3,3,1500.0
01:24:42.804,STABILIZE,-35.3632621,149.1652376,0,-0.0005805966211482882,0.0010520588839426637,0.025353888049721718,8.200947195291519e-05,0.00027487296028994024,0.0019970228895545006,0,1,-1000,0,0,0,-1,3,3,1500.0
01:24:43.005,STABILIZE,-35.3632621,149.1652376,0,-0.0005805966211482882,0.0010520588839426637,0.025353888049721718,8.200947195291519e-05,0.00027487296028994024,0.0019970228895545006,0,1,-1000,0,0,0,-1,3,3,1500.0
01:24:43.206,STABILIZE,-35.3632621,149.1652375,0,-0.0008833284955471754,0.0009765246650204062,0.02452939935028553,0.00017784431111067533,0.00010926055256277323,0.0019020806066691875,0,1,-1000,0,0,0,-1,2,2,1500.0
01:24:43.407,STABILIZE,-35.3632621,149.1652375,0,-0.0008833284955471754,0.0009765246650204062,0.02452939935028553,0.00017784431111067533,0.00010926055256277323,0.0019020806066691875,0,1,-1000,0,0,0,-1,2,2,1500.0
01:24:43.608,STABILIZE,-35.3632621,149.1652375,0,-0.0008833284955471754,0.0009765246650204062,0.02452939935028553,0.00017784431111067533,0.00010926055256277323,0.0019020806066691875,0,1,-1000,0,0,0,-1,2,2,1500.0
01:24:43.809,STABILIZE,-35.3632621,149.1652375,0,-0.0010860856855288148,0.0009645620593801141,0.02429489977657795,0.00022895773872733116,0.00025369939976371825,0.0019026172813028097,0,1,-1000,0,0,0,-1,1,2,1500.0
01:24:44.011,STABILIZE,-35.3632621,149.1652375,0,-0.0010860856855288148,0.0009645620593801141,0.02429489977657795,0.00022895773872733116,0.00025369939976371825,0.0019026172813028097,0,1,-1000,0,0,0,-1,1,2,1500.0
01:24:44.212,STABILIZE,-35.3632621,149.1652375,0,-0.0010860856855288148,0.0009645620593801141,0.02429489977657795,0.00022895773872733116,0.00025369939976371825,0.0019026172813028097,0,1,-1000,0,0,0,-1,1,2,1500.0
01:24:44.413,STABILIZE,-35.3632621,149.1652375,0,-0.0010860856855288148,0.0009645620593801141,0.02429489977657795,0.00022895773872733116,0.00025369939976371825,0.0019026172813028097,0,1,-1000,0,0,0,-1,1,2,1500.0
01:24:44.614,STABILIZE,-35.3632621,149.1652375,0,-0.0011937780072912574,0.0009533192496746778,0.024083305150270462,0.00016482837963849306,0.0003301528049632907,0.0017723561031743884,0,1,-1000,0,0,0,-1,1,1,1500.0
01:24:44.815,STABILIZE,-35.3632621,149.1652375,0,-0.0011937780072912574,0.0009533192496746778,0.024083305150270462,0.00016482837963849306,0.0003301528049632907,0.0017723561031743884,0,1,-1000,0,0,0,-1,1,1,1500.0
01:24:45.018,STABILIZE,-35.3632621,149.1652375,0,-0.0007427827222272754,0.000949266308452934,0.023945415392518044,0.018479816615581512,0.00031558546470478177,0.0017893231706693769,0,75,-889,19,0,0,-1,3,5,1500.0
01:24:45.219,STABILIZE,-35.3632621,149.1652375,0,-0.0007427827222272754,0.000949266308452934,0.023945415392518044,0.018479816615581512,0.00031558546470478177,0.0017893231706693769,0,75,-889,19,0,0,-1,3,5,1500.0
01:24:45.420,STABILIZE,-35.3632621,149.1652375,0,-0.0007427827222272754,0.000949266308452934,0.023945415392518044,0.018479816615581512,0.00031558546470478177,0.0017893231706693769,0,75,-889,19,0,0,-1,3,5,1500.0
01:24:45.621,STABILIZE,-35.3632621,149.1652375,0,-0.0007427827222272754,0.000949266308452934,0.023945415392518044,0.018479816615581512,0.00031558546470478177,0.0017893231706693769,0,75,-889,19,0,0,-1,3,5,1500.0
01:24:45.822,STABILIZE,-35.3632621,149.1652375,0,-0.0007427827222272754,0.000949266308452934,0.023945415392518044,0.018479816615581512,0.00031558546470478177,0.0017893231706693769,0,1,-1000,1,1,0,-1,3,5,1500.0
01:24:46.023,STABILIZE,-35.3632621,149.1652375,0,-0.001027241232804954,0.0009528322843834758,0.023618830367922783,0.00018999387975782156,0.00010072538862004876,0.0015987224178388715,0,1,-1000,1,1,0,-1,3,5,1500.0
01:24:46.225,STABILIZE,-35.3632621,149.1652375,0,-0.001027241232804954,0.0009528322843834758,0.023618830367922783,0.00018999387975782156,0.00010072538862004876,0.0015987224178388715,0,1,-1000,1,1,0,-1,3,5,1500.0
01:24:46.426,STABILIZE,-35.3632621,149.1652375,0,-0.001027241232804954,0.0009528322843834758,0.023618830367922783,0.00018999387975782156,0.00010072538862004876,0.0015987224178388715,0,1,-1000,1,1,0,-1,3,5,1500.0
01:24:46.627,STABILIZE,-35.3632622,149.1652375,0,-0.0011782455258071423,0.0009614589507691562,0.023487679660320282,0.00023107981542125344,0.0003075961722061038,0.0018453940283507109,0,2,-1000,1,0,0,-1,2,3,1500.0
01:24:46.828,STABILIZE,-35.3632622,149.1652375,0,-0.0011782455258071423,0.0009614589507691562,0.023487679660320282,0.00023107981542125344,0.0003075961722061038,0.0018453940283507109,0,2,-1000,1,0,0,-1,2,3,1500.0
01:24:47.030,STABILIZE,-35.3632622,149.1652375,0,-0.001301875920034945,0.0009711855673231184,0.02336256206035614,0.00026665598852559924,0.0003454569960013032,0.0016443200875073671,0,2,-1000,1,0,0,-1,1,3,1500.0
01:24:47.231,STABILIZE,-35.3632622,149.1652375,0,-0.001301875920034945,0.0009711855673231184,0.02336256206035614,0.00026665598852559924,0.0003454569960013032,0.0016443200875073671,0,2,-1000,1,0,0,-1,1,3,1500.0
01:24:47.432,STABILIZE,-35.3632622,149.1652375,0,-0.001301875920034945,0.0009711855673231184,0.02336256206035614,0.00026665598852559924,0.0003454569960013032,0.0016443200875073671,0,2,-1000,1,0,0,-1,1,3,1500.0
01:24:47.634,STABILIZE,-35.3632622,149.1652375,0,-0.001301875920034945,0.0009711855673231184,0.02336256206035614,0.00026665598852559924,0.0003454569960013032,0.0016443200875073671,0,2,-1000,1,0,0,-1,1,3,1500.0
01:24:47.835,STABILIZE,-35.3632622,149.1652375,0,-0.0014213420217856765,0.0009729128796607256,0.02319888211786747,0.00024948088685050607,0.0003921984462067485,0.0016695878002792597,0,1,-1000,0,0,0,-1,1,2,1500.0
01:24:48.036,STABILIZE,-35.3632622,149.1652375,0,-0.0014213420217856765,0.0009729128796607256,0.02319888211786747,0.00024948088685050607,0.0003921984462067485,0.0016695878002792597,0,1,-1000,0,0,0,-1,1,2,1500.0
01:24:48.237,STABILIZE,-35.3632622,149.1652375,0,-0.0014213420217856765,0.0009729128796607256,0.02319888211786747,0.00024948088685050607,0.0003921984462067485,0.0016695878002792597,0,1,-1000,0,0,0,-1,1,2,1500.0
01:24:48.439,STABILIZE,-35.3632622,149.1652375,0,-0.001479850965552032,0.0009748127195052803,0.023100245743989944,0.000312624906655401,0.0003561248304322362,0.001642622402869165,0,2,-1000,0,0,0,-1,0,1,1500.0
01:24:48.640,STABILIZE,-35.3632622,149.1652375,0,-0.001479850965552032,0.0009748127195052803,0.023100245743989944,0.000312624906655401,0.0003561248304322362,0.001642622402869165,0,-4,-1010,0,0,1,-1,0,1,1500.0
01:24:48.841,STABILIZE,-35.3632622,149.1652375,0,-0.001479850965552032,0.0009748127195052803,0.023100245743989944,0.000312624906655401,0.0003561248304322362,0.001642622402869165,0,-4,-1010,0,0,1,-1,0,1,1500.0
01:24:49.042,STABILIZE,-35.3632622,149.1652375,0,-0.001479850965552032,0.0009748127195052803,0.023100245743989944,0.000312624906655401,0.0003561248304322362,0.001642622402869165,0,2,-1000,0,0,1,-1,0,1,1500.0
01:24:49.243,STABILIZE,-35.3632622,149.1652375,0,-0.001479850965552032,0.0009748127195052803,0.023100245743989944,0.000312624906655401,0.0003561248304322362,0.001642622402869165,0,2,-1000,0,0,1,-1,0,1,1500.0
01:24:49.445,STABILIZE,-35.3632622,149.1652375,0,-0.001479850965552032,0.0009748127195052803,0.023100245743989944,0.000312624906655401,0.0003561248304322362,0.001642622402869165,0,2,-1000,0,0,1,-1,0,1,1500.0
01:24:49.646,STABILIZE,-35.3632622,149.1652375,0,-0.001479850965552032,0.0009748127195052803,0.023100245743989944,0.000312624906655401,0.0003561248304322362,0.001642622402869165,0,2,-1000,0,0,1,-1,0,1,1500.0
01:24:49.847,STABILIZE,-35.3632622,149.1652375,0,-0.001479850965552032,0.0009748127195052803,0.023100245743989944,0.000312624906655401,0.0003561248304322362,0.001642622402869165,0,2,-1000,0,0,1,-1,0,1,1500.0
01:24:50.049,STABILIZE,-35.3632622,149.1652375,0,-0.0012547061778604984,0.0009786980226635933,0.022760706022381783,0.00020182505249977112,0.0003106238436885178,0.0017371904104948044,0,2,-1000,0,0,1,-1,0,0,1500.0
01:24:50.250,STABILIZE,-35.3632622,149.1652375,0,-0.0012547061778604984,0.0009786980226635933,0.022760706022381783,0.00020182505249977112,0.0003106238436885178,0.0017371904104948044,0,2,-1000,0,0,1,-1,0,0,1500.0
01:24:50.451,STABILIZE,-35.3632622,149.1652375,0,-0.0012547061778604984,0.0009786980226635933,0.022760706022381783,0.00020182505249977112,0.0003106238436885178,0.0017371904104948044,0,2,-1000,0,0,1,-1,0,0,1500.0
01:24:50.653,STABILIZE,-35.3632622,149.1652375,0,-0.0012144343927502632,0.0009780405089259148,0.022669052705168724,0.0002823268296197057,0.00029792950954288244,0.0017280890606343746,0,1,-1000,0,0,0,-1,0,0,1500.0
01:24:50.854,STABILIZE,-35.3632622,149.1652375,0,-0.0012144343927502632,0.0009780405089259148,0.022669052705168724,0.0002823268296197057,0.00029792950954288244,0.0017280890606343746,0,1,-1000,0,0,0,-1,0,0,1500.0
01:24:51.055,STABILIZE,-35.3632622,149.1652375,0,-0.0012144343927502632,0.0009780405089259148,0.022669052705168724,0.0002823268296197057,0.00029792950954288244,0.0017280890606343746,0,1,-1000,0,0,0,-1,0,0,1500.0
01:24:51.257,STABILIZE,-35.3632622,149.1652375,0,-0.0012144343927502632,0.0009780405089259148,0.022669052705168724,0.0002823268296197057,0.00029792950954288244,0.0017280890606343746,0,1,-1000,0,0,0,-1,0,0,1500.0
01:24:51.458,STABILIZE,-35.3632622,149.1652375,0,-0.0012144343927502632,0.0009780405089259148,0.022669052705168724,0.0002823268296197057,0.00029792950954288244,0.0017280890606343746,0,1,-1000,0,0,0,-1,0,0,1500.0
01:24:51.659,STABILIZE,-35.3632622,149.1652375,0,-0.0012144343927502632,0.0009780405089259148,0.022669052705168724,0.0002823268296197057,0.00029792950954288244,0.0017280890606343746,0,1,-1000,0,0,0,-1,0,0,1500.0
01:24:51.860,STABILIZE,-35.3632622,149.1652375,0,-0.0011525838635861874,0.0009844008600339293,0.02240791544318199,0.00042257877066731453,0.0003212026786059141,0.0015745159471407533,0,2,-1000,0,1,0,-1,0,0,1500.0
01:24:52.061,STABILIZE,-35.3632622,149.1652375,0,-0.0011525838635861874,0.0009844008600339293,0.02240791544318199,0.00042257877066731453,0.0003212026786059141,0.0015745159471407533,0,2,-1000,0,1,0,-1,0,0,1500.0
01:24:52.262,STABILIZE,-35.3632622,149.1652375,0,-0.0011525838635861874,0.0009844008600339293,0.02240791544318199,0.00042257877066731453,0.0003212026786059141,0.0015745159471407533,0,2,-1000,0,1,0,-1,0,0,1500.0
01:24:52.463,STABILIZE,-35.3632622,149.1652375,0,-0.0011525838635861874,0.0009844008600339293,0.02240791544318199,0.00042257877066731453,0.0003212026786059141,0.0015745159471407533,0,2,-1000,0,1,0,-1,0,0,1500.0
01:24:52.664,STABILIZE,-35.3632622,149.1652375,0,-0.0009557788725942373,0.000987539067864418,0.022255657240748405,0.00026137259555980563,0.0003025016630999744,0.0016091561410576105,0,1,-1000,1,0,1,-1,0,-2,1500.0
01:24:52.865,STABILIZE,-35.3632622,149.1652375,0,-0.0009136435110121965,0.000981857068836689,0.022206611931324005,0.000267664494458586,0.0002052121562883258,0.0015728662256151438,0,2,-1000,0,0,0,-1,0,-2,1500.0
01:24:53.067,STABILIZE,-35.3632622,149.1652375,0,-0.0009136435110121965,0.000981857068836689,0.022206611931324005,0.000267664494458586,0.0002052121562883258,0.0015728662256151438,0,2,-1000,0,0,0,-1,0,-2,1500.0
01:24:53.269,STABILIZE,-35.3632622,149.1652375,0,-0.0009136435110121965,0.000981857068836689,0.022206611931324005,0.000267664494458586,0.0002052121562883258,0.0015728662256151438,0,2,-1000,0,0,0,-1,0,-2,1500.0
01:24:53.477,AUTO,-35.3632622,149.1652375,0,-0.0009136435110121965,0.000981857068836689,0.022206611931324005,0.000267664494458586,0.0002052121562883258,0.0015728662256151438,0,2,-1000,0,0,0,-1,0,-2,1500.0
01:24:53.679,AUTO,-35.3632622,149.1652375,0,-0.0009136435110121965,0.000981857068836689,0.022206611931324005,0.000267664494458586,0.0002052121562883258,0.0015728662256151438,0,2,-1000,0,0,0,-1,0,-2,1500.0
01:24:53.881,AUTO,-35.3632622,149.1652375,9,-0.0008087546448223293,0.0009937492432072759,0.021997012197971344,0.0003352355561219156,0.00025173369795084,0.0015005703317001462,0,1,-1000,0,0,0,-1,0,-2,1500.0
01:24:54.083,AUTO,-35.3632622,149.1652375,10,-0.0007874183356761932,0.0010005005169659853,0.0219251848757267,0.0002734377048909664,0.0003320754040032625,0.0014740603510290384,0,2,-1000,1,0,0,-1,0,-1,1500.0
01:24:54.284,AUTO,-35.3632621,149.1652375,11,-0.0007646829471923411,0.0010151671012863517,0.021868031471967697,0.00016325380420312285,0.00022471265401691198,0.0014441910898312926,0,1,-1000,0,1,0,0,0,-1,1500.0
01:24:54.488,AUTO,-35.3632621,149.1652375,11,-0.0007646829471923411,0.0010151671012863517,0.021868031471967697,0.00016325380420312285,0.00022471265401691198,0.0014441910898312926,0,1,-1000,0,1,0,0,0,-1,1500.0
01:24:54.737,AUTO,-35.3632621,149.1652375,12,-0.0007308959029614925,0.0010497481562197208,0.021805984899401665,0.00010044052032753825,0.00031598820351064205,0.0014399215579032898,0,1,-1000,0,0,0,0,0,-1,1500.0
01:24:55.026,AUTO,-35.3632621,149.1652375,13,-0.0006485228077508509,0.001156186917796731,0.021666593849658966,0.00018279347568750381,0.0002390111912973225,0.0014317159075289965,0,2,-1000,1,1,1,0,0,-1,1500.0
01:24:55.262,AUTO,-35.3632621,149.1652375,14,-0.0006485228077508509,0.001156186917796731,0.021666593849658966,0.00018279347568750381,0.0002390111912973225,0.0014317159075289965,0,1,-1000,0,0,0,0,0,-1,1500.0
01:24:55.464,AUTO,-35.3632621,149.1652375,14,-0.0006485228077508509,0.001156186917796731,0.021666593849658966,0.00018279347568750381,0.0002390111912973225,0.0014317159075289965,0,1,-1000,0,0,0,0,0,-1,1500.0
01:24:55.665,AUTO,-35.3632621,149.1652375,14,-0.0006485228077508509,0.001156186917796731,0.021666593849658966,0.00018279347568750381,0.0002390111912973225,0.0014317159075289965,0,1,-1000,0,0,0,0,0,-1,1500.0
01:24:55.888,AUTO,-35.3632621,149.1652375,11,-0.0001698941778158769,0.0013419807655736804,0.021462861448526382,0.0002979834098368883,0.00022829341469332576,0.0013696304522454739,0,1,-1000,0,1,0,0,1,0,1500.0
01:24:56.090,AUTO,-35.3632621,149.1652375,10,-0.00010953937453450635,0.0014166312757879496,0.021392153576016426,0.0002606913330964744,0.0003676593769341707,0.0015044464962556958,0,1,-1000,0,0,0,0,1,0,1187.0
01:24:56.291,AUTO,-35.3632621,149.1652375,9,-5.0943821406690404e-05,0.0014852830208837986,0.021312879398465157,0.00028668210143223405,0.0002592783421278,0.0014775557210668921,0,2,-1000,1,1,1,0,0,0,1187.0
01:24:56.493,AUTO,-35.3632621,149.1652375,9,-5.0943821406690404e-05,0.0014852830208837986,0.021312879398465157,0.00028668210143223405,0.0002592783421278,0.0014775557210668921,0,2,-1000,1,1,1,0,0,0,1187.0
01:24:56.694,AUTO,-35.3632621,149.1652375,9,5.717150543205207e-06,0.0015614631120115519,0.021218743175268173,0.00028124178061261773,0.0002567569026723504,0.0013889214023947716,0,1,-1000,1,0,0,0,0,0,1187.0
01:24:56.896,AUTO,-35.3632621,149.1652375,9,7.231536437757313e-05,0.001637693028897047,0.021144960075616837,0.00034180626971647143,0.0003428300842642784,0.0014230422675609589,0,2,-1000,1,0,0,0,0,0,1187.0
01:24:57.099,AUTO,-35.3632621,149.1652375,9,0.00014758930774405599,0.0017167804762721062,0.021066095679998398,0.0004213348147459328,0.00041926733683794737,0.0013649504398927093,0,1,-1000,0,0,1,0,0,0,1187.0
01:24:57.301,AUTO,-35.3632621,149.1652375,9,0.00014758930774405599,0.0017167804762721062,0.021066095679998398,0.0004213348147459328,0.00041926733683794737,0.0013649504398927093,0,1,-1000,0,0,1,0,0,0,1187.0
01:24:57.503,AUTO,-35.3632621,149.1652375,9,0.00014758930774405599,0.0017167804762721062,0.021066095679998398,0.0004213348147459328,0.00041926733683794737,0.0013649504398927093,0,1,-1000,0,0,1,0,0,0,1187.0
01:24:57.705,AUTO,-35.3632621,149.1652375,9,0.00014758930774405599,0.0017167804762721062,0.021066095679998398,0.0004213348147459328,0.00041926733683794737,0.0013649504398927093,0,1,-1000,0,0,1,0,0,0,1187.0
01:24:57.907,AUTO,-35.3632621,149.1652375,202,0.0037681341636925936,0.0001978873333428055,0.020940320566296577,0.006972679868340492,0.0034928680397570133,0.0014822519151493907,0,0,-1130,7,4,1,0,1,-71,1187.0
01:24:58.108,AUTO,-35.3632621,149.1652375,417,0.0024922650773078203,0.0011327863903716207,0.020855529233813286,-0.010729268193244934,0.004342555068433285,0.0029091171454638243,0,0,-1108,-10,4,2,0,1,-100,1187.0
01:24:58.310,AUTO,-35.3632621,149.1652375,696,0.0020028441213071346,0.001709720236249268,0.02084980346262455,0.0006288025761023164,-2.8742593713104725e-05,0.0011587770422920585,0,0,-1089,1,0,0,0,1,-124,1187.0
01:24:58.512,AUTO,-35.3632621,149.1652375,696,0.0020028441213071346,0.001709720236249268,0.02084980346262455,0.0006288025761023164,-2.8742593713104725e-05,0.0011587770422920585,0,0,-1089,1,0,0,0,1,-124,1187.0
01:24:58.714,AUTO,-35.3632621,149.1652375,1033,0.010996992699801922,0.0009093779372051358,0.020494811236858368,0.04734368249773979,-0.005893455818295479,0.0012640745844691992,0,0,-1042,48,-5,0,0,2,-138,1187.0
01:24:58.916,AUTO,-35.363262,149.1652375,1397,0.022788451984524727,-0.000795401749201119,0.020444177091121674,0.04655900597572327,-0.006981826853007078,0.002038853708654642,0,0,-1018,47,-6,1,0,5,-145,1187.0
01:24:59.119,AUTO,-35.363262,149.1652377,1775,0.03420053422451019,-0.0027070462238043547,0.02053643763065338,0.045044902712106705,-0.008022022433578968,0.0027093165554106236,0,-1,-1007,45,-7,2,1,11,-148,1187.0
01:24:59.321,AUTO,-35.363262,149.1652377,1775,0.03420053422451019,-0.0027070462238043547,0.02053643763065338,0.045044902712106705,-0.008022022433578968,0.0027093165554106236,0,-1,-1007,45,-7,2,1,11,-148,1187.0
01:24:59.523,AUTO,-35.363262,149.1652377,1775,0.03420053422451019,-0.0027070462238043547,0.02053643763065338,0.045044902712106705,-0.008022022433578968,0.0027093165554106236,0,-1,-1007,45,-7,2,1,11,-148,1187.0
01:24:59.724,AUTO,-35.363262,149.1652377,1775,0.03420053422451019,-0.0027070462238043547,0.02053643763065338,0.045044902712106705,-0.008022022433578968,0.0027093165554106236,0,-1,-1007,45,-7,2,1,11,-148,1187.0
01:24:59.927,AUTO,-35.3632616,149.1652398,2925,0.06284427642822266,-0.009458395652472973,-0.00792813953012228,-0.005412783473730087,0.014970269985496998,-0.041135385632514954,0,-8,-992,-4,15,-41,8,43,-148,1187.0
01:25:00.148,AUTO,-35.3632614,149.1652411,3304,0.043242260813713074,0.011767974123358727,-0.030059928074479103,-0.1347990185022354,0.10141368955373764,-0.10256574302911758,3,-10,-990,-134,101,-102,10,53,-146,1187.0
01:25:00.362,AUTO,-35.3632612,149.1652425,3678,-0.0005844742991030216,0.02353956177830696,-0.0505487322807312,-0.16509313881397247,0.0027520416770130396,-0.07044104486703873,4,-12,-1002,-164,3,-70,7,54,-145,1187.0
01:25:00.630,AUTO,-35.363261,149.1652439,4058,-0.02385299652814865,0.01710178703069687,-0.06186893954873085,-0.04539583995938301,-0.033220645040273666,-0.039308689534664154,5,-10,-1012,-44,-32,-39,3,47,-147,1187.0
01:25:00.858,AUTO,-35.3632609,149.1652451,4442,-0.03156355395913124,0.00880385097116232,-0.06886612623929977,-0.017251377925276756,-0.023857668042182922,-0.03280815854668617,4,-8,-1006,-16,-22,-33,2,37,-149,1187.0
01:25:01.188,AUTO,-35.3632608,149.165246,4828,-0.03927095979452133,0.0038740686140954494,-0.07579318434000015,-0.04851076006889343,-0.012092403136193752,-0.031411293894052505,4,-8,-1000,-47,-11,-31,1,26,-150,1187.0
01:25:01.390,AUTO,-35.3632608,149.165246,4828,-0.03927095979452133,0.0038740686140954494,-0.07579318434000015,-0.04851076006889343,-0.012092403136193752,-0.031411293894052505,4,-8,-1000,-47,-11,-31,1,26,-150,1187.0
01:25:01.593,AUTO,-35.3632608,149.165246,4828,-0.03927095979452133,0.0038740686140954494,-0.07579318434000015,-0.04851076006889343,-0.012092403136193752,-0.031411293894052505,4,-8,-1000,-47,-11,-31,1,26,-150,1187.0
01:25:01.796,AUTO,-35.3632608,149.165246,4828,-0.03927095979452133,0.0038740686140954494,-0.07579318434000015,-0.04851076006889343,-0.012092403136193752,-0.031411293894052505,4,-8,-1000,-47,-11,-31,1,26,-150,39253.0
01:25:01.998,AUTO,-35.3632608,149.165246,6131,-0.07095194607973099,-0.00032985894358716905,-0.10073386877775192,0.051643893122673035,-0.001705830218270421,-0.018830986693501472,-2,4,-1002,52,-1,-19,-2,-31,-149,39253.0
01:25:02.200,AUTO,-35.3632608,149.165245,6514,-0.057172372937202454,-0.0003455704136285931,-0.1047373041510582,0.057899877429008484,0.00327053084038198,-0.0125249233096838,-5,6,-1000,58,4,-12,-4,-46,-149,39253.0
01:25:02.402,AUTO,-35.3632609,149.1652436,6897,-0.04202556982636452,0.0010305873584002256,-0.10747559368610382,0.06243087723851204,0.008344190195202827,-0.008128334768116474,-5,10,-1001,63,9,-8,-6,-56,-149,39253.0
01:25:02.604,AUTO,-35.3632609,149.1652436,6897,-0.04202556982636452,0.0010305873584002256,-0.10747559368610382,0.06243087723851204,0.008344190195202827,-0.008128334768116474,-5,10,-1001,63,9,-8,-6,-56,-149,39253.0
01:25:02.806,AUTO,-35.363261,149.165242,7280,-0.02589598298072815,0.0034074541181325912,-0.10923109948635101,0.06594794988632202,0.011260763742029667,-0.004265696741640568,-7,12,-1002,66,12,-4,-8,-61,-149,39253.0
01:25:03.007,AUTO,-35.3632612,149.1652403,7665,-0.009177320636808872,0.006381428334861994,-0.11003120243549347,0.06842371076345444,0.01232960820198059,-0.001971242483705282,-7,13,-1003,69,13,-2,-11,-63,-150,39253.0
01:25:03.209,AUTO,-35.3632615,149.1652385,8052,0.00792323425412178,0.009372754953801632,-0.10998913645744324,0.06926238536834717,0.011244882829487324,0.0010815267451107502,-7,13,-1004,70,12,0,-13,-60,-151,39253.0
01:25:03.411,AUTO,-35.3632615,149.1652385,8052,0.00792323425412178,0.009372754953801632,-0.10998913645744324,0.06926238536834717,0.011244882829487324,0.0010815267451107502,-7,13,-1004,70,12,0,-13,-60,-151,39253.0
01:25:03.613,AUTO,-35.3632615,149.1652385,8052,0.00792323425412178,0.009372754953801632,-0.10998913645744324,0.06926238536834717,0.011244882829487324,0.0010815267451107502,-7,13,-1004,70,12,0,-13,-60,-151,39253.0
01:25:03.815,AUTO,-35.3632615,149.1652385,8052,0.00792323425412178,0.009372754953801632,-0.10998913645744324,0.06926238536834717,0.011244882829487324,0.0010815267451107502,-7,13,-1004,70,12,0,-13,-60,-151,39253.0
01:25:04.016,AUTO,-35.3632627,149.1652345,9227,0.058005232363939285,0.014067553915083408,-0.10668831318616867,0.06400192528963089,-0.0005018849624320865,0.0036851614713668823,-2,11,-1003,64,0,3,-21,-28,-153,39253.0
01:25:04.218,AUTO,-35.3632632,149.1652339,9620,0.07332463562488556,0.01287639420479536,-0.1051829531788826,0.05975383147597313,-0.007471351884305477,0.005244141444563866,0,7,-1001,60,-6,4,-22,-10,-153,39253.0
01:25:04.420,AUTO,-35.3632637,149.1652338,10011,0.07875410467386246,0.0025977531913667917,-0.0963849276304245,-0.022455871105194092,-0.08099572360515594,0.07268937677145004,4,3,-994,-21,-80,72,-21,8,-152,39253.0
01:25:04.622,AUTO,-35.3632641,149.1652342,10398,0.06639020889997482,-0.028149815276265144,-0.07261884212493896,-0.06108921021223068,-0.13479293882846832,0.1305398792028427,5,0,-996,-60,-134,130,-15,25,-150,39253.0
01:25:04.852,AUTO,-35.3632641,149.1652342,10398,0.06639020889997482,-0.028149815276265144,-0.07261884212493896,-0.06108921021223068,-0.13479293882846832,0.1305398792028427,5,0,-996,-60,-134,130,-15,25,-150,39253.0
01:25:05.079,AUTO,-35.3632643,149.1652349,10784,0.04103606566786766,-0.06092197448015213,-0.04487115517258644,-0.13495765626430511,-0.06440742313861847,0.07172251492738724,5,-3,-994,-134,-63,71,-1,36,-148,39253.0
01:25:05.327,AUTO,-35.3632642,149.1652358,11162,0.005095315165817738,-0.055335283279418945,-0.04324617236852646,-0.13368475437164307,0.07495997101068497,-0.03484480455517769,3,-7,-1001,-133,75,-35,15,38,-147,39253.0
01:25:05.553,AUTO,-35.3632642,149.1652358,11162,0.005095315165817738,-0.055335283279418945,-0.04324617236852646,-0.13368475437164307,0.07495997101068497,-0.03484480455517769,3,-7,-1001,-133,75,-35,15,38,-147,39253.0
01:25:05.755,AUTO,-35.3632642,149.1652358,11162,0.005095315165817738,-0.055335283279418945,-0.04324617236852646,-0.13368475437164307,0.07495997101068497,-0.03484480455517769,3,-7,-1001,-133,75,-35,15,38,-147,39253.0
01:25:05.957,AUTO,-35.3632624,149.1652379,12304,-0.036845073103904724,-0.00137795670889318,-0.1046818345785141,-0.0028381990268826485,0.04807303845882416,-0.08793707191944122,-4,-8,-1006,-2,48,-88,32,10,-151,39253.0
01:25:06.159,AUTO,-35.3632617,149.165238,12691,-0.03459050878882408,0.007354770787060261,-0.12552326917648315,0.018095005303621292,0.031303081661462784,-0.0747392401099205,-5,-6,-1004,18,31,-75,29,0,-152,39253.0
01:25:06.360,AUTO,-35.3632617,149.165238,12691,-0.03459050878882408,0.007354770787060261,-0.12552326917648315,0.018095005303621292,0.031303081661462784,-0.0747392401099205,-5,-6,-1004,18,31,-75,29,0,-152,25873.0
01:25:06.562,AUTO,-35.3632611,149.1652379,13082,-0.028480783104896545,0.013478847220540047,-0.1431022584438324,0.030247392132878304,0.023689759895205498,-0.06032804027199745,-5,-3,-1002,30,24,-60,24,-9,-152,25873.0
01:25:06.764,AUTO,-35.3632606,149.1652376,13473,-0.019417960196733475,0.017777705565094948,-0.1565028727054596,0.04029983654618263,0.01607736572623253,-0.045437492430210114,-6,-1,-1001,40,16,-45,18,-15,-153,25873.0
01:25:06.965,AUTO,-35.3632602,149.1652371,13864,-0.008749895729124546,0.02110924758017063,-0.16648820042610168,0.04557117447257042,0.01273252908140421,-0.03457171842455864,-6,0,-1001,46,13,-35,12,-18,-153,25873.0
01:25:07.167,AUTO,-35.36326,149.1652366,14256,0.0026738992892205715,0.023928258568048477,-0.17397494614124298,0.04670624062418938,0.01135990209877491,-0.027042020112276077,-5,2,-1001,47,12,-27,5,-18,-153,25873.0
01:25:07.369,AUTO,-35.36326,149.1652366,14256,0.0026738992892205715,0.023928258568048477,-0.17397494614124298,0.04670624062418938,0.01135990209877491,-0.027042020112276077,-5,2,-1001,47,12,-27,5,-18,-153,25873.0
01:25:07.572,AUTO,-35.36326,149.1652366,14256,0.0026738992892205715,0.023928258568048477,-0.17397494614124298,0.04670624062418938,0.01135990209877491,-0.027042020112276077,-5,2,-1001,47,12,-27,5,-18,-153,25873.0
01:25:07.774,AUTO,-35.36326,149.1652366,14256,0.0026738992892205715,0.023928258568048477,-0.17397494614124298,0.04670624062418938,0.01135990209877491,-0.027042020112276077,-5,2,-1001,47,12,-27,5,-18,-153,25873.0
01:25:07.976,AUTO,-35.3632601,149.1652354,15430,0.019353635609149933,0.019866863265633583,-0.17811359465122223,0.002680367324501276,-0.01580107770860195,0.006645940709859133,0,2,-998,3,-15,6,-9,-5,-152,25873.0
01:25:08.177,AUTO,-35.3632602,149.1652352,15820,0.018615249544382095,0.015672381967306137,-0.17582519352436066,-0.005685705691576004,-0.017293699085712433,0.008261796087026596,0,2,-999,-4,-16,7,-12,0,-152,25873.0
01:25:08.379,AUTO,-35.3632604,149.1652352,16208,0.016072401776909828,0.011662272736430168,-0.1736835539340973,-0.013108455576002598,-0.015355700626969337,0.005979327484965324,1,1,-999,-12,-14,5,-13,3,-152,25873.0
01:25:08.580,AUTO,-35.3632604,149.1652352,16208,0.016072401776909828,0.011662272736430168,-0.1736835539340973,-0.013108455576002598,-0.015355700626969337,0.005979327484965324,1,1,-999,-12,-14,5,-13,3,-152,25873.0
01:25:08.782,AUTO,-35.3632607,149.1652353,16596,0.012882822193205357,0.008020613342523575,-0.17228563129901886,-0.0127766327932477,-0.01219287421554327,0.001483346801251173,2,1,-1000,-11,-11,1,-14,6,-152,25873.0
01:25:08.984,AUTO,-35.363261,149.1652353,16985,0.009276014752686024,0.004772605840116739,-0.17178259789943695,-0.011012157425284386,-0.0121982516720891,-0.000423634221078828,2,0,-1000,-10,-11,0,-14,8,-152,25873.0
01:25:09.187,AUTO,-35.3632612,149.1652355,17373,0.006225571036338806,0.0020344452932476997,-0.17255492508411407,-0.012129138223826885,-0.0095885144546628,-0.0061226519756019115,2,1,-1000,-11,-8,-6,-13,9,-152,25873.0
01:25:09.388,AUTO,-35.3632612,149.1652355,17373,0.006225571036338806,0.0020344452932476997,-0.17255492508411407,-0.012129138223826885,-0.0095885144546628,-0.0061226519756019115,2,1,-1000,-11,-8,-6,-13,9,-152,25873.0
01:25:09.590,AUTO,-35.3632612,149.1652355,17373,0.006225571036338806,0.0020344452932476997,-0.17255492508411407,-0.012129138223826885,-0.0095885144546628,-0.0061226519756019115,2,1,-1000,-11,-8,-6,-13,9,-152,25873.0
01:25:09.792,AUTO,-35.3632612,149.1652355,17373,0.006225571036338806,0.0020344452932476997,-0.17255492508411407,-0.012129138223826885,-0.0095885144546628,-0.0061226519756019115,2,1,-1000,-11,-8,-6,-13,9,-152,25873.0
01:25:09.994,AUTO,-35.3632618,149.1652361,18540,4.70583290734794e-05,-0.0026420357171446085,-0.18186083436012268,-0.004631698131561279,-0.0027740527875721455,-0.017588935792446136,2,0,-1000,-3,-1,-17,-8,8,-152,25873.0
01:25:10.195,AUTO,-35.363262,149.1652363,18928,-0.0005615046247839928,-0.0030180802568793297,-0.1869194507598877,-0.0016013390850275755,0.00021844636648893356,-0.02279350534081459,1,0,-1000,0,1,-22,-6,7,-153,25873.0
01:25:10.422,AUTO,-35.3632621,149.1652364,19318,-0.0006130214896984398,-0.0026523310225456953,-0.19292965531349182,0.0016061117639765143,0.002990342676639557,-0.02602311410009861,1,0,-1001,2,3,-26,-5,5,-153,25873.0
01:25:10.632,AUTO,-35.3632621,149.1652364,19318,-0.0006130214896984398,-0.0026523310225456953,-0.19292965531349182,0.0016061117639765143,0.002990342676639557,-0.02602311410009861,1,0,-1001,2,3,-26,-5,5,-153,25873.0
01:25:10.844,AUTO,-35.3632621,149.1652364,19707,-0.00014229072257876396,-0.0019037093734368682,-0.1994834989309311,0.003851975779980421,0.0037833976093679667,-0.026784997433423996,0,0,-1000,4,4,-27,-3,4,-153,25873.0
01:25:11.054,AUTO,-35.3632622,149.1652365,20101,0.0004893922596238554,-0.001239062868990004,-0.2061363160610199,0.0046036746352910995,0.003946021199226379,-0.025144310668110847,0,0,-1000,5,4,-25,-2,3,-153,25873.0
01:25:11.256,AUTO,-35.3632622,149.1652365,20490,0.0011116513051092625,-0.000579244049731642,-0.2126469761133194,0.0045791990123689175,0.004451286513358355,-0.025447137653827667,0,0,-1000,5,5,-25,-1,2,-153,25873.0
01:25:11.467,AUTO,-35.3632622,149.1652365,20490,0.0011116513051092625,-0.000579244049731642,-0.2126469761133194,0.0045791990123689175,0.004451286513358355,-0.025447137653827667,0,0,-1000,5,5,-25,-1,2,-153,25873.0
01:25:11.669,AUTO,-35.3632622,149.1652365,20490,0.0011116513051092625,-0.000579244049731642,-0.2126469761133194,0.0045791990123689175,0.004451286513358355,-0.025447137653827667,0,0,-1000,5,5,-25,-1,2,-153,25873.0
01:25:11.871,AUTO,-35.3632622,149.1652365,20490,0.0011116513051092625,-0.000579244049731642,-0.2126469761133194,0.0045791990123689175,0.004451286513358355,-0.025447137653827667,0,0,-1000,5,5,-25,-1,2,-153,96908.0
01:25:12.073,AUTO,-35.3632622,149.1652365,21660,0.003483521519228816,0.0016336903208866715,-0.23130999505519867,0.002306972164660692,0.0023126734886318445,-0.022861961275339127,0,0,-1000,3,2,-23,0,1,-153,96908.0
01:25:12.274,AUTO,-35.3632622,149.1652365,22050,0.003997916355729103,0.0021529453806579113,-0.23700439929962158,0.0024133138358592987,0.002458716742694378,-0.022090496495366096,0,0,-1000,3,3,-22,0,1,-153,96908.0
01:25:12.476,AUTO,-35.3632622,149.1652365,22447,0.004377283155918121,0.0028616455383598804,-0.24284765124320984,0.0013346924679353833,0.004642491228878498,-0.025006860494613647,0,0,-1000,2,5,-25,0,2,-153,96908.0
01:25:12.677,AUTO,-35.3632622,149.1652365,22837,0.004666059743613005,0.0038333262782543898,-0.24858123064041138,0.002124298131093383,0.002626868197694421,-0.02189468778669834,0,0,-1000,3,3,-22,0,2,-153,96908.0
01:25:12.879,AUTO,-35.3632622,149.1652365,22837,0.004666059743613005,0.0038333262782543898,-0.24858123064041138,0.002124298131093383,0.002626868197694421,-0.02189468778669834,0,0,-1000,3,3,-22,0,2,-153,96908.0
01:25:13.080,AUTO,-35.3632622,149.1652365,23226,0.004553356673568487,0.004114374052733183,-0.2537992596626282,-0.0013998477952554822,0.00017058360390365124,-0.019108101725578308,0,0,-1000,0,0,-19,0,2,-153,96908.0
01:25:13.282,AUTO,-35.3632621,149.1652365,23616,0.004236603621393442,0.004060607869178057,-0.2586123049259186,-0.001501872087828815,-0.000966009683907032,-0.015890756621956825,0,0,-1000,0,0,-16,0,3,-153,96908.0
01:25:13.491,AUTO,-35.3632621,149.1652365,23616,0.004236603621393442,0.004060607869178057,-0.2586123049259186,-0.001501872087828815,-0.000966009683907032,-0.015890756621956825,0,0,-1000,0,0,-16,0,3,-153,96908.0
01:25:13.692,AUTO,-35.3632621,149.1652365,23616,0.004236603621393442,0.004060607869178057,-0.2586123049259186,-0.001501872087828815,-0.000966009683907032,-0.015890756621956825,0,0,-1000,0,0,-16,0,3,-153,96908.0
01:25:13.894,AUTO,-35.3632621,149.1652367,24777,0.003797427751123905,0.004030986223369837,-0.2727263271808624,-3.708974691107869e-05,-0.0013106236001476645,-0.016310593113303185,0,0,-1000,0,0,-16,-1,3,-153,96908.0
01:25:14.095,AUTO,-35.3632621,149.1652367,24777,0.003797427751123905,0.004030986223369837,-0.2727263271808624,-3.708974691107869e-05,-0.0013106236001476645,-0.016310593113303185,0,0,-1000,0,0,-16,-1,3,-153,96908.0
01:25:14.296,AUTO,-35.3632621,149.1652367,25166,-0.0037952177226543427,0.004254487808793783,-0.27581140398979187,-0.0646393820643425,0.00797662977129221,-0.0017452185275033116,0,0,-996,-64,8,-2,-1,3,-152,96908.0
01:25:14.498,AUTO,-35.3632621,149.1652367,25552,-0.010272596962749958,0.006330462172627449,-0.2743607461452484,0.018520236015319824,0.007407523691654205,0.01240651123225689,0,0,-1003,19,8,12,-3,0,-152,96908.0
01:25:14.708,AUTO,-35.3632621,149.1652366,25940,-0.0022942873183637857,0.006768780294805765,-0.2706734538078308,0.037471953779459,-0.0010090046562254429,0.017695695161819458,0,0,-1003,38,0,17,-4,0,-153,96908.0
01:25:14.924,AUTO,-35.3632621,149.1652366,26329,0.005289027933031321,0.005774530582129955,-0.2650009095668793,0.02606182172894478,-0.003673669882118702,0.025426620617508888,0,0,-1000,26,-2,25,-5,0,-153,96908.0
01:25:15.160,AUTO,-35.3632622,149.1652366,26718,0.0095195472240448,0.004525643773376942,-0.2585350275039673,0.010125473141670227,-0.005571956280618906,0.02437705546617508,0,1,-1000,10,-4,24,-5,1,-153,96908.0
01:25:15.377,AUTO,-35.3632622,149.1652366,26718,0.0095195472240448,0.004525643773376942,-0.2585350275039673,0.010125473141670227,-0.005571956280618906,0.02437705546617508,0,1,-1000,10,-4,24,-5,1,-153,96908.0
01:25:15.662,AUTO,-35.3632622,149.1652366,26718,0.0095195472240448,0.004525643773376942,-0.2585350275039673,0.010125473141670227,-0.005571956280618906,0.02437705546617508,0,1,-1000,10,-4,24,-5,1,-153,96908.0
01:25:15.865,AUTO,-35.3632622,149.1652366,26718,0.0095195472240448,0.004525643773376942,-0.2585350275039673,0.010125473141670227,-0.005571956280618906,0.02437705546617508,0,1,-1000,10,-4,24,-5,1,-153,96908.0
01:25:16.067,AUTO,-35.3632623,149.1652367,27883,0.009361672215163708,0.0018208681140094995,-0.23920316994190216,-0.006710284389555454,-0.001902850577607751,0.02358168363571167,1,0,-999,-5,-1,23,-3,7,-153,96908.0
01:25:16.271,AUTO,-35.3632624,149.1652369,28271,0.007574520073831081,0.0013722226722165942,-0.23356236517429352,-0.010593927465379238,-0.0017842184752225876,0.021663110703229904,1,0,-1000,-9,0,21,-2,8,-152,96908.0
01:25:16.473,AUTO,-35.3632624,149.165237,28658,0.005760411731898785,0.0014997369144111872,-0.22830553352832794,-0.004045628476887941,0.002945090876892209,0.020128056406974792,1,0,-1000,-2,3,19,-2,8,-152,22928.0
01:25:16.674,AUTO,-35.3632624,149.1652372,29046,0.00403611920773983,0.001956361113116145,-0.223163902759552,-0.0062060304917395115,0.0020176474936306477,0.020176049321889877,1,-1,-1000,-5,3,19,-1,8,-152,22928.0
01:25:16.876,AUTO,-35.3632624,149.1652374,29434,0.002316824859008193,0.001967795193195343,-0.21809545159339905,-0.007829198613762856,-0.0001322951284237206,0.020117435604333878,0,-1,-1000,-6,0,20,-1,8,-152,22928.0
01:25:17.078,AUTO,-35.3632624,149.1652374,29434,0.002316824859008193,0.001967795193195343,-0.21809545159339905,-0.007829198613762856,-0.0001322951284237206,0.020117435604333878,0,-1,-1000,-6,0,20,-1,8,-152,22928.0
01:25:17.280,AUTO,-35.3632623,149.1652376,29821,0.0007596382638439536,0.0017819534987211227,-0.21325625479221344,-0.002487578894942999,0.0010210257023572922,0.020917033776640892,0,-1,-1000,-1,1,20,0,8,-152,22928.0
01:25:17.487,AUTO,-35.3632623,149.1652376,29821,0.0007596382638439536,0.0017819534987211227,-0.21325625479221344,-0.002487578894942999,0.0010210257023572922,0.020917033776640892,0,-1,-1000,-1,1,20,0,8,-152,22928.0
01:25:17.692,AUTO,-35.3632623,149.1652376,29821,0.0007596382638439536,0.0017819534987211227,-0.21325625479221344,-0.002487578894942999,0.0010210257023572922,0.020917033776640892,0,-1,-1000,-1,1,20,0,8,-152,22928.0
01:25:17.894,AUTO,-35.3632623,149.165238,30985,-0.0003020660951733589,0.0018508135108277202,-0.19937726855278015,-0.001980218105018139,-0.002412018831819296,0.017072824761271477,0,0,-1000,0,-1,16,0,5,-153,22928.0
01:25:18.096,AUTO,-35.3632623,149.165238,30985,-0.0003020660951733589,0.0018508135108277202,-0.19937726855278015,-0.001980218105018139,-0.002412018831819296,0.017072824761271477,0,0,-1000,0,-1,16,0,5,-153,22928.0
01:25:18.298,AUTO,-35.3632623,149.1652381,31371,-0.004416617564857006,0.004681549500674009,-0.1878751665353775,-0.056187573820352554,0.04835442453622818,0.12439446151256561,0,-1,-976,-55,49,124,0,4,-151,22928.0
01:25:18.499,AUTO,-35.3632623,149.1652381,31753,-0.029047532007098198,0.031094931066036224,-0.12057758867740631,-0.12746170163154602,0.12363478541374207,0.3914855718612671,0,-1,-970,-126,124,391,-5,0,-143,22928.0
01:25:18.702,AUTO,-35.3632625,149.165238,32108,-0.05922010913491249,0.06738229840993881,0.011790238320827484,-0.14057137072086334,0.09433439373970032,0.6081514358520508,2,2,-970,-139,95,608,-16,-10,-136,22928.0
01:25:18.903,AUTO,-35.363263,149.1652375,32436,-0.05667649954557419,0.05445046350359917,0.12161213904619217,0.07077962905168533,-0.18970927596092224,0.2942332625389099,4,6,-941,71,-188,294,-30,-25,-121,22928.0
01:25:19.105,AUTO,-35.363263,149.1652375,32436,-0.05667649954557419,0.05445046350359917,0.12161213904619217,0.07077962905168533,-0.18970927596092224,0.2942332625389099,4,6,-941,71,-188,294,-30,-25,-121,22928.0
01:25:19.307,AUTO,-35.3632637,149.1652366,32728,-0.029781313613057137,0.005510118789970875,0.16772033274173737,0.10131216049194336,-0.1986905038356781,0.10133279114961624,4,9,-945,102,-197,101,-34,-34,-107,22928.0
01:25:19.509,AUTO,-35.3632637,149.1652366,32728,-0.029781313613057137,0.005510118789970875,0.16772033274173737,0.10131216049194336,-0.1986905038356781,0.10133279114961624,4,9,-945,102,-197,101,-34,-34,-107,22928.0
01:25:19.711,AUTO,-35.3632637,149.1652366,32728,-0.029781313613057137,0.005510118789970875,0.16772033274173737,0.10131216049194336,-0.1986905038356781,0.10133279114961624,4,9,-945,102,-197,101,-34,-34,-107,22928.0
01:25:19.913,AUTO,-35.3632653,149.1652341,33417,0.03471149504184723,-0.05286793410778046,0.16414788365364075,0.0024977149441838264,-0.001032804953865707,-0.03838571533560753,0,5,-965,3,0,-38,-8,-18,-75,22928.0
01:25:20.115,AUTO,-35.3632653,149.1652341,33417,0.03471149504184723,-0.05286793410778046,0.16414788365364075,0.0024977149441838264,-0.001032804953865707,-0.03838571533560753,0,5,-965,3,0,-38,-8,-18,-75,22928.0
01:25:20.324,AUTO,-35.3632654,149.1652337,33596,0.04223749041557312,-0.04940512031316757,0.1546657681465149,0.06694748997688293,0.023565765470266342,-0.03408065810799599,-1,5,-971,68,24,-34,1,-6,-66,22928.0
01:25:20.538,AUTO,-35.3632654,149.1652336,33755,0.04268784821033478,-0.04120080545544624,0.14669667184352875,-0.006670144386589527,0.036590032279491425,-0.0268317349255085,-2,-3,-973,-5,37,-27,10,3,-59,22928.0
01:25:20.742,AUTO,-35.3632651,149.1652337,33898,0.03503238409757614,-0.0308476984500885,0.14043833315372467,-0.19496409595012665,0.04310065507888794,-0.02151678130030632,-2,-11,-976,-193,44,-21,17,13,-53,22928.0
01:25:20.974,AUTO,-35.3632647,149.165234,34023,0.03511321172118187,-0.020182980224490166,0.1355990469455719,0.3301065266132355,0.04080631583929062,-0.013344687409698963,-3,16,-971,331,41,-13,21,20,-47,22928.0
01:25:21.205,AUTO,-35.3632641,149.1652345,34131,0.032717905938625336,-0.01019209437072277,0.13150209188461304,0.6783847808837891,0.039196815341711044,-0.007928424514830112,-3,13,-982,679,40,-7,24,24,-40,22928.0
01:25:21.409,AUTO,-35.3632641,149.1652345,34131,0.032717905938625336,-0.01019209437072277,0.13150209188461304,0.6783847808837891,0.039196815341711044,-0.007928424514830112,-3,13,-982,679,40,-7,24,24,-40,22928.0
01:25:21.611,AUTO,-35.3632641,149.1652345,34131,0.032717905938625336,-0.01019209437072277,0.13150209188461304,0.6783847808837891,0.039196815341711044,-0.007928424514830112,-3,13,-982,679,40,-7,24,24,-40,22928.0
01:25:21.816,AUTO,-35.3632641,149.1652345,34131,0.032717905938625336,-0.01019209437072277,0.13150209188461304,0.6783847808837891,0.039196815341711044,-0.007928424514830112,-3,13,-982,679,40,-7,24,24,-40,22928.0
01:25:22.018,AUTO,-35.3632624,149.1652366,34380,-0.001364608877338469,0.011585685424506664,0.12120236456394196,-0.5925154685974121,0.0171503946185112,-0.011635195463895798,-2,-37,-977,-592,18,-11,21,27,-26,131190.0
01:25:22.219,AUTO,-35.3632619,149.1652372,34434,-0.009216450154781342,0.01468871533870697,0.1171906441450119,-0.6045694947242737,0.01242340262979269,-0.008944743312895298,-3,-28,-997,-603,13,-8,17,24,-19,131190.0
01:25:22.421,AUTO,-35.3632615,149.1652377,34475,-0.00908259954303503,0.015885943546891212,0.11461697518825531,-0.1567005217075348,0.0006160483462736011,-0.006379678379744291,-1,7,-949,-154,1,-6,14,21,-13,131190.0
01:25:22.622,AUTO,-35.3632615,149.1652377,34475,-0.00908259954303503,0.015885943546891212,0.11461697518825531,-0.1567005217075348,0.0006160483462736011,-0.006379678379744291,-1,7,-949,-154,1,-6,14,21,-13,131190.0
01:25:22.824,AUTO,-35.3632612,149.1652381,34499,-7.207570160971954e-05,0.015885863453149796,0.11225057393312454,0.5320315957069397,-0.0007718224660493433,-0.004725960083305836,0,34,-960,534,0,-4,10,18,-7,131190.0
01:25:23.027,AUTO,-35.363261,149.1652384,34502,-0.0020209799986332655,0.029899053275585175,0.10002525895833969,0.8109685182571411,0.19629350304603577,0.012251341715455055,0,27,-932,812,196,12,6,14,4,131190.0
01:25:23.228,AUTO,-35.3632609,149.1652384,34468,-0.01198270171880722,0.04202748462557793,0.10399622470140457,0.4360029101371765,-0.017790693789720535,0.0012525878846645355,0,-3,-973,435,-16,1,-1,6,15,131190.0
01:25:23.430,AUTO,-35.3632609,149.1652384,34468,-0.01198270171880722,0.04202748462557793,0.10399622470140457,0.4360029101371765,-0.017790693789720535,0.0012525878846645355,0,-3,-973,435,-16,1,-1,6,15,131190.0
01:25:23.632,AUTO,-35.3632609,149.1652384,34468,-0.01198270171880722,0.04202748462557793,0.10399622470140457,0.4360029101371765,-0.017790693789720535,0.0012525878846645355,0,-3,-973,435,-16,1,-1,6,15,131190.0
01:25:23.834,AUTO,-35.3632609,149.1652384,34468,-0.01198270171880722,0.04202748462557793,0.10399622470140457,0.4360029101371765,-0.017790693789720535,0.0012525878846645355,0,-3,-973,435,-16,1,-1,6,15,131190.0
01:25:24.035,AUTO,-35.3632616,149.1652375,34358,-0.025469165295362473,0.03116721846163273,0.10318993031978607,-0.52321857213974,0.002972516231238842,-0.00938443560153246,1,0,-1008,-521,4,-9,-25,-10,7,131190.0
01:25:24.237,AUTO,-35.3632623,149.1652368,34335,-0.018217748031020164,0.03144135698676109,0.10050302743911743,0.23362664878368378,0.00823092833161354,-0.016190268099308014,3,38,-1018,236,9,-15,-31,-14,4,131190.0
01:25:24.438,AUTO,-35.3632631,149.1652359,34320,-0.007764520589262247,0.03377404808998108,0.09862952679395676,0.7188390493392944,0.014134249649941921,-0.018160510808229446,4,40,-1016,720,15,-18,-38,-20,1,131190.0
01:25:24.640,AUTO,-35.363264,149.165235,34312,-0.011148151941597462,0.03763219714164734,0.09687048196792603,0.5179281234741211,0.012843489646911621,-0.02218867465853691,6,25,-1014,518,13,-22,-46,-25,0,131190.0
01:25:24.842,AUTO,-35.363264,149.165235,34312,-0.011148151941597462,0.03763219714164734,0.09687048196792603,0.5179281234741211,0.012843489646911621,-0.02218867465853691,6,25,-1014,518,13,-22,-46,-25,0,131190.0
01:25:25.048,AUTO,-35.3632652,149.1652338,34311,-0.022020578384399414,0.04108387231826782,0.08120615780353546,-0.13021047413349152,0.028322188183665276,-0.21260742843151093,4,-7,-1008,-129,29,-212,-54,-31,-3,131190.0
01:25:25.295,AUTO,-35.3632666,149.1652324,34316,-0.04188434034585953,0.04249817505478859,-0.04110897332429886,-0.6663163304328918,0.055117081850767136,-0.7280816435813904,2,-9,-1010,-665,56,-727,-64,-37,-5,131190.0
01:25:25.512,AUTO,-35.3632666,149.1652324,34316,-0.04188434034585953,0.04249817505478859,-0.04110897332429886,-0.6663163304328918,0.055117081850767136,-0.7280816435813904,2,-9,-1010,-665,56,-727,-64,-37,-5,131190.0
01:25:25.740,AUTO,-35.3632666,149.1652324,34316,-0.04188434034585953,0.04249817505478859,-0.04110897332429886,-0.6663163304328918,0.055117081850767136,-0.7280816435813904,2,-9,-1010,-665,56,-727,-64,-37,-5,131190.0
01:25:25.949,AUTO,-35.3632721,149.1652269,34349,-0.08858276158571243,0.015220902860164642,-0.6636346578598022,0.24144327640533447,0.000827144249342382,-0.8325110673904419,-12,45,-1025,243,1,-832,-99,-60,-10,131190.0
01:25:26.150,AUTO,-35.3632746,149.1652245,34366,-0.09026207029819489,-0.0018745536217465997,-0.8580729365348816,0.49656185507774353,-0.02437088079750538,-0.7761095762252808,-17,57,-1031,498,-23,-776,-115,-71,-11,131190.0
01:25:26.355,AUTO,-35.3632746,149.1652245,34366,-0.09026207029819489,-0.0018745536217465997,-0.8580729365348816,0.49656185507774353,-0.02437088079750538,-0.7761095762252808,-17,57,-1031,498,-23,-776,-115,-71,-11,131190.0
01:25:26.557,AUTO,-35.3632775,149.1652219,34386,-0.09731486439704895,-0.02528945729136467,-1.0435583591461182,0.33387845754623413,-0.039623651653528214,-0.7455196380615234,-28,40,-1027,334,-38,-745,-132,-83,-12,53940.0
01:25:26.759,AUTO,-35.3632807,149.165219,34410,-0.11830458790063858,-0.05261880159378052,-1.2239052057266235,-0.4108954966068268,-0.011555320583283901,-0.7079436182975769,-38,2,-1013,-409,-10,-707,-150,-96,-13,53940.0
01:25:26.961,AUTO,-35.3632843,149.1652157,34438,-0.11885851621627808,-0.08426561951637268,-1.402072787284851,-0.2620789706707001,-0.034497469663619995,-0.7183090448379517,-46,26,-1005,-260,-33,-718,-169,-111,-15,53940.0
01:25:27.163,AUTO,-35.3632885,149.165212,34469,-0.1000775694847107,-0.11524402350187302,-1.5817807912826538,0.3843461871147156,-0.06144290044903755,-0.728147566318512,-51,39,-1011,386,-60,-728,-191,-128,-16,53940.0
01:25:27.365,AUTO,-35.3632885,149.165212,34469,-0.1000775694847107,-0.11524402350187302,-1.5817807912826538,0.3843461871147156,-0.06144290044903755,-0.728147566318512,-51,39,-1011,386,-60,-728,-191,-128,-16,53940.0
01:25:27.567,AUTO,-35.3632885,149.165212,34469,-0.1000775694847107,-0.11524402350187302,-1.5817807912826538,0.3843461871147156,-0.06144290044903755,-0.728147566318512,-51,39,-1011,386,-60,-728,-191,-128,-16,53940.0
01:25:27.769,AUTO,-35.3632885,149.165212,34469,-0.1000775694847107,-0.11524402350187302,-1.5817807912826538,0.3843461871147156,-0.06144290044903755,-0.728147566318512,-51,39,-1011,386,-60,-728,-191,-128,-16,53940.0
01:25:27.970,AUTO,-35.3633037,149.1651984,34583,-0.024581436067819595,-0.16726481914520264,-2.123667001724243,-0.340324342250824,-0.0036151122767478228,-0.7224282026290894,-78,-28,-997,-338,-2,-722,-256,-181,-19,53940.0
01:25:28.172,AUTO,-35.3633097,149.165193,34629,0.015201183035969734,-0.1745685338973999,-2.3070108890533447,0.1137080192565918,-0.030121535062789917,-0.7158950567245483,-74,-20,-1013,116,-29,-715,-275,-199,-22,53940.0
01:25:28.374,AUTO,-35.3633097,149.165193,34629,0.015201183035969734,-0.1745685338973999,-2.3070108890533447,0.1137080192565918,-0.030121535062789917,-0.7158950567245483,-74,-20,-1013,116,-29,-715,-275,-199,-22,53940.0
01:25:28.576,AUTO,-35.3633161,149.1651871,34683,0.04557036980986595,-0.16767549514770508,-2.4411990642547607,0.18907518684864044,0.040484584867954254,-0.32127848267555237,-71,-40,-1015,191,41,-321,-295,-216,-25,53940.0
01:25:28.777,AUTO,-35.3633229,149.1651807,34745,0.049662575125694275,-0.15995196998119354,-2.4729514122009277,-0.15137344598770142,0.015307411551475525,0.014325917698442936,-71,-47,-1007,-149,16,14,-312,-232,-27,53940.0
01:25:28.979,AUTO,-35.36333,149.165174,34813,0.04732503369450569,-0.1575317233800888,-2.456162452697754,-0.020729918032884598,0.01108002383261919,0.10215439647436142,-78,-43,-1005,-18,12,102,-326,-246,-29,53940.0
01:25:29.181,AUTO,-35.3633374,149.165167,34886,0.04971230775117874,-0.15443825721740723,-2.4312007427215576,0.17955000698566437,0.013619540259242058,0.09047350287437439,-83,-56,-1005,181,14,90,-339,-259,-31,53940.0
01:25:29.385,AUTO,-35.3633374,149.165167,34886,0.04971230775117874,-0.15443825721740723,-2.4312007427215576,0.17955000698566437,0.013619540259242058,0.09047350287437439,-83,-56,-1005,181,14,90,-339,-259,-31,53940.0
01:25:29.588,AUTO,-35.3633374,149.165167,34886,0.04971230775117874,-0.15443825721740723,-2.4312007427215576,0.17955000698566437,0.013619540259242058,0.09047350287437439,-83,-56,-1005,181,14,90,-339,-259,-31,53940.0
01:25:29.792,AUTO,-35.3633374,149.165167,34886,0.04971230775117874,-0.15443825721740723,-2.4312007427215576,0.17955000698566437,0.013619540259242058,0.09047350287437439,-83,-56,-1005,181,14,90,-339,-259,-31,53940.0
01:25:29.997,AUTO,-35.363361,149.1651439,35122,0.04434161260724068,-0.14854715764522552,-2.4092094898223877,0.18024758994579315,0.008387615904211998,-0.010017013177275658,-101,-39,-1002,181,9,-9,-371,-290,-33,53940.0
01:25:30.199,AUTO,-35.3633694,149.1651357,35206,0.04623885825276375,-0.14396785199642181,-2.412621259689331,-0.043089378625154495,0.022502196952700615,-0.006239694077521563,-100,-59,-999,-41,23,-6,-381,-298,-34,53940.0
01:25:30.400,AUTO,-35.363378,149.1651274,35291,0.04446068033576012,-0.13952000439167023,-2.4151217937469482,-0.084309883415699,0.03356900066137314,0.0007915965397842228,-104,-62,-1000,-82,34,1,-389,-305,-34,53940.0
01:25:30.613,AUTO,-35.363378,149.1651274,35291,0.04446068033576012,-0.13952000439167023,-2.4151217937469482,-0.084309883415699,0.03356900066137314,0.0007915965397842228,-104,-62,-1000,-82,34,1,-389,-305,-34,53940.0
01:25:30.859,AUTO,-35.3633867,149.1651189,35378,0.04865299537777901,-0.13301409780979156,-2.416449785232544,0.11618217825889587,0.02087603323161602,-0.0069084493443369865,-106,-52,-999,117,21,-6,-397,-311,-34,53940.0
01:25:31.147,AUTO,-35.3634044,149.1651017,35556,0.051863785833120346,-0.13151073455810547,-2.418339729309082,-0.0403113029897213,0.015000329352915287,-0.0008638892322778702,-105,-41,-985,-38,16,0,-406,-317,-34,53940.0
01:25:31.350,AUTO,-35.3634044,149.1651017,35556,0.051863785833120346,-0.13151073455810547,-2.418339729309082,-0.0403113029897213,0.015000329352915287,-0.0008638892322778702,-105,-41,-985,-38,16,0,-406,-317,-34,53940.0
01:25:31.559,AUTO,-35.3634044,149.1651017,35556,0.051863785833120346,-0.13151073455810547,-2.418339729309082,-0.0403113029897213,0.015000329352915287,-0.0008638892322778702,-105,-41,-985,-38,16,0,-406,-317,-34,53940.0
01:25:31.760,AUTO,-35.3634044,149.1651017,35556,0.051863785833120346,-0.13151073455810547,-2.418339729309082,-0.0403113029897213,0.015000329352915287,-0.0008638892322778702,-105,-41,-985,-38,16,0,-406,-317,-34,53940.0
01:25:31.962,AUTO,-35.3634315,149.1650752,35824,0.05107564851641655,-0.10236415266990662,-2.4205644130706787,-0.06509394943714142,0.02613258734345436,0.0053669242188334465,-103,-64,-992,-63,27,5,-412,-322,-35,53940.0
01:25:32.165,AUTO,-35.3634407,149.1650663,35914,0.05238617956638336,-0.10221332311630249,-2.421546459197998,0.024033036082983017,-0.01645447500050068,-0.0031850305385887623,-103,-61,-983,26,-15,-2,-412,-320,-34,54844.0
01:25:32.366,AUTO,-35.3634407,149.1650663,35914,0.05238617956638336,-0.10221332311630249,-2.421546459197998,0.024033036082983017,-0.01645447500050068,-0.0031850305385887623,-103,-61,-983,26,-15,-2,-412,-320,-34,54844.0
01:25:32.568,AUTO,-35.3634498,149.1650574,35999,0.057360295206308365,-0.10731397569179535,-2.4231081008911133,0.07967893034219742,0.0006244764081202447,-0.009165140800178051,-96,-57,-981,81,1,-8,-412,-320,-32,54844.0
01:25:32.770,AUTO,-35.3634589,149.1650486,36080,0.054709404706954956,-0.09752941131591797,-2.423893928527832,-0.10151410847902298,0.06009448319673538,0.0014708021190017462,-109,-66,-997,-100,61,1,-411,-319,-31,54844.0
01:25:32.972,AUTO,-35.363468,149.1650397,36162,0.05373144894838333,-0.08382134139537811,-2.424679756164551,0.0029037492349743843,0.05062248557806015,-0.005600558593869209,-94,-54,-994,4,51,-5,-408,-317,-32,54844.0
01:25:33.174,AUTO,-35.3634771,149.1650309,36247,0.05856160447001457,-0.07102145999670029,-2.425204038619995,0.11212258785963058,0.04549862816929817,-0.008318652398884296,-106,-55,-993,113,46,-7,-402,-312,-33,54844.0
01:25:33.376,AUTO,-35.3634771,149.1650309,36247,0.05856160447001457,-0.07102145999670029,-2.425204038619995,0.11212258785963058,0.04549862816929817,-0.008318652398884296,-106,-55,-993,113,46,-7,-402,-312,-33,54844.0
01:25:33.578,AUTO,-35.3634771,149.1650309,36247,0.05856160447001457,-0.07102145999670029,-2.425204038619995,0.11212258785963058,0.04549862816929817,-0.008318652398884296,-106,-55,-993,113,46,-7,-402,-312,-33,54844.0
01:25:33.780,AUTO,-35.3634771,149.1650309,36247,0.05856160447001457,-0.07102145999670029,-2.425204038619995,0.11212258785963058,0.04549862816929817,-0.008318652398884296,-106,-55,-993,113,46,-7,-402,-312,-33,54844.0
01:25:33.982,AUTO,-35.3635031,149.1650056,36493,0.05980704724788666,-0.03105851076543331,-2.4268081188201904,0.44853001832962036,0.053088538348674774,-0.01870867609977722,-89,-42,-979,450,54,-18,-374,-292,-30,54844.0
01:25:34.183,AUTO,-35.3635114,149.1649977,36567,0.061619650572538376,-0.018213195726275444,-2.42883563041687,-0.023454485461115837,0.03296070545911789,0.01685984432697296,-92,-72,-986,-22,33,17,-361,-279,-28,54844.0
01:25:34.386,AUTO,-35.3635193,149.1649901,36638,0.052543267607688904,-0.01178356260061264,-2.429321765899658,-0.5280746817588806,0.03648831695318222,0.014751052483916283,-96,-76,-989,-526,37,15,-345,-268,-26,54844.0
01:25:34.588,AUTO,-35.3635193,149.1649901,36638,0.052543267607688904,-0.01178356260061264,-2.429321765899658,-0.5280746817588806,0.03648831695318222,0.014751052483916283,-96,-76,-989,-526,37,15,-345,-268,-26,54844.0
01:25:34.790,AUTO,-35.363527,149.1649826,36705,0.04990250617265701,0.001218490768224001,-2.4297752380371094,0.1033204197883606,0.05663256719708443,-0.0309218131005764,-80,-33,-978,105,57,-30,-328,-256,-23,54844.0
01:25:34.992,AUTO,-35.3635342,149.1649757,36762,0.058186884969472885,0.016439737752079964,-2.4301700592041016,0.6114246845245361,0.06128576397895813,-0.017011085525155067,-87,-11,-1005,613,62,-16,-309,-244,-22,54844.0
01:25:35.194,AUTO,-35.3635409,149.1649691,36816,0.055908482521772385,0.028217552229762077,-2.4301719665527344,0.22389070689678192,0.046616654843091965,0.016049174591898918,-79,-55,-995,224,47,16,-290,-228,-20,54844.0
01:25:35.400,AUTO,-35.3635409,149.1649691,36816,0.055908482521772385,0.028217552229762077,-2.4301719665527344,0.22389070689678192,0.046616654843091965,0.016049174591898918,-79,-55,-995,224,47,16,-290,-228,-20,54844.0
01:25:35.602,AUTO,-35.3635409,149.1649691,36816,0.055908482521772385,0.028217552229762077,-2.4301719665527344,0.22389070689678192,0.046616654843091965,0.016049174591898918,-79,-55,-995,224,47,16,-290,-228,-20,54844.0
01:25:35.804,AUTO,-35.3635409,149.1649691,36816,0.055908482521772385,0.028217552229762077,-2.4301719665527344,0.22389070689678192,0.046616654843091965,0.016049174591898918,-79,-55,-995,224,47,16,-290,-228,-20,54844.0
01:25:36.006,AUTO,-35.3635584,149.1649523,36949,0.03959859535098076,0.06880167871713638,-2.4298033714294434,-0.5742908120155334,0.06910540163516998,-0.008063283748924732,-62,-49,-1032,-572,70,-7,-223,-179,-14,54844.0
01:25:36.294,AUTO,-35.3635632,149.1649476,36987,0.0400162935256958,0.0801711156964302,-2.4310975074768066,0.016453787684440613,0.030104389414191246,-0.03942840173840523,-55,-8,-970,19,30,-39,-197,-160,-12,54844.0
