time_stamp,RTL_ALT,MODE,roll,pitch,yaw,rollspeed,pitchspeed,yawspeed,lat,lon,relative_alt,vx,vy,vz,xacc,yacc,zacc,xgyro,ygyro,zgyro
12:19:38,1500.0,STABILIZE,-0.00019201745453756303,0.0015920550795271993,0.02819935232400894,0.0002465409052092582,0.0002965867461171001,0.0024915244430303574,-35.3632621,149.1652374,60.0,-2.0,1.0,-1.0,0.0,1.0,-1000.0,0.0,0.0,0.0
12:19:48,1500.0,STABILIZE,-0.0005915937945246696,0.0009405158925801516,0.024003420025110245,0.00030512060038745403,0.00031106226379051805,0.0017434046603739262,-35.3632622,149.1652375,71.0,-1.0,1.0,-1.0,0.0,1.0,-1000.0,0.0,0.0,0.0
12:19:54,1500.0,AUTO,-0.0010765311890281737,0.0011485522845759988,0.022060475312173367,0.0003291362663730979,0.00025090313283726573,0.0014793454320169985,-35.3632621,149.1652375,0.0,0.0,0.0,1.0,0.0,1.0,-1000.0,0.5,0.0,0.5
12:19:55,174678.0,AUTO,-0.0009521903557470068,0.001345050404779613,0.021877850871533155,0.00020479175145737827,0.00031024141935631633,0.0013442993513308465,-35.3632621,149.165237475,0.0,0.0,0.0,0.25,0.0,1.5,-1000.0,0.25,0.25,0.25
12:19:56,174678.0,AUTO,-0.0007009864784777164,0.0017086545703932643,0.021562043577432632,0.00027681622304953635,0.00030745932599529624,0.001466586603783071,-35.3632621,149.1652374,0.0,0.0,0.0,0.0,0.0,1.5,-1000.0,0.5,0.5,0.0
12:19:58,174678.0,AUTO,0.027462379075586796,-0.0017932910996023566,0.021201622672379017,0.04556478001177311,-0.007703894749283791,0.0026979484828189015,-35.363262,149.1652376,1581.5,1.0,8.0,-146.0,0.0,-1.0,-1012.0,45.5,-6.5,1.5
12:19:59,223615.0,AUTO,0.049750267527997494,-0.0021108887158334255,0.0021110845264047384,-0.018530515488237143,0.025624633999541402,-0.03551722096744925,-35.363261675000004,149.165239475,2732.25,6.25,36.0,-147.25,1.0,-6.5,-996.25,-17.75,26.5,-36.0
12:20:00,223615.0,AUTO,-0.039742808789014816,0.012339988257735968,-0.07820136472582817,-0.037089306861162186,-0.01992025598883629,-0.03534177504479885,-35.3632609,149.1652455,4636.0,-1.0,30.0,-149.0,4.0,-6.5,-1003.0,-36.0,-19.0,-35.5
12:20:02,223615.0,AUTO,-0.0011494280770421028,3.6248122341930866e-05,-0.09341135993599892,0.06531645357608795,0.013521440327167511,0.0017027402063831687,-35.363261249999994,149.16523985,7716.0,-3.5,-57.5,-150.5,-7.5,13.0,-1003.0,65.0,13.5,0.5
12:20:03,169286.0,AUTO,0.04633169528096914,0.0074064231012016535,-0.09044110588729382,0.051804288756102324,-0.0011995142558589578,0.012470978777855635,-35.363261725,149.16523587499998,8888.0,-7.75,-32.25,-152.75,-3.75,8.5,-1001.5,52.25,-0.75,11.5
12:20:04,169286.0,AUTO,0.007511443720431998,-0.005522777792066336,-0.07956839725375175,-0.058856530115008354,0.0028461329638957977,-0.014631450176239014,-35.3632625,149.16523505,10835.0,-1.0,18.0,-149.5,2.0,-2.5,-1001.0,-58.0,3.0,-14.5
12:20:06,169286.0,AUTO,0.000726592174032703,0.003842047182843089,-0.1317804455757141,0.01498461700975895,0.005927631864324212,-0.020612542517483234,-35.3632619,149.16523610000002,13940.0,3.5,-4.5,-152.0,-2.0,0.0,-1000.0,15.5,6.0,-20.5
12:20:07,180859.0,AUTO,0.00746658886782825,0.006504312972538173,-0.14568058028817177,0.00602597399847582,0.0026087747246492654,-0.015059514669701457,-35.363261675000004,149.165235575,15113.25,0.75,-2.0,-152.75,-1.25,0.0,-999.75,6.25,2.5,-14.5
12:20:08,180859.0,AUTO,0.007235291879624128,0.005271323258057237,-0.16220512986183167,-0.0023959483951330185,-0.000644833518890664,-0.01370814023539424,-35.3632616,149.1652354,17057.5,-2.5,4.5,-152.0,0.0,0.0,-1000.0,-1.5,0.0,-14.0
12:20:10,180859.0,AUTO,-0.04303920455276966,0.011664451914839447,-0.18151138722896576,-0.05953844450414181,0.050958193838596344,0.10659715998917818,-35.36326175,149.1652359,20161.5,-6.0,-7.0,-148.5,-0.5,1.0,-988.5,-58.0,51.5,106.5
12:20:11,30683.0,AUTO,-0.01563130464637652,0.01882394589483738,0.03081904910504818,0.07758923433721066,-0.07756581157445908,0.22616668418049812,-35.36326285,149.165233925,21216.75,-27.5,-30.25,-126.25,1.25,8.75,-962.5,78.0,-76.75,225.5
12:20:12,30683.0,AUTO,0.05361313372850418,-0.03503803163766861,0.06081990897655487,-0.020848088897764683,0.02897641994059086,-0.016561024822294712,-35.3632648,149.1652315,22515.5,1.5,15.0,-77.5,0.0,-1.5,-969.5,-19.5,29.5,-16.5
12:20:14,30683.0,AUTO,-0.009535303805023432,0.01408824184909463,0.05325192026793957,-0.030152293853461742,0.006494181114248931,-0.0015348527813330293,-35.36326205,149.16523805,23574.0,12.5,27.5,-29.0,0.0,-8.666666666666666,-976.0,-33.0,13.333333333333334,-1.0
12:20:15,200.0,AUTO,-0.020627504913136363,0.017361445585265756,0.0505296541377902,-0.024459210457280278,2.7946196496486664e-05,-0.0046691490861121565,-35.36326137499999,149.16523955,23698.5,4.5,12.5,-6.25,0.0,-0.75,-963.0,-23.75,1.0,-4.25
12:20:16,200.0,AUTO,0.014438681304454803,-0.037036627531051636,0.045628827065229416,-0.4793701469898224,-0.058317163959145546,-0.009319249540567398,-35.36326115,149.1652393,23538.0,4.5,-5.5,13.0,-2.0,-18.0,-1015.5,-477.5,-57.0,-9.0
12:20:18,200.0,AUTO,0.09053946286439896,-0.11207413300871849,0.1143186166882515,-0.2468012496829033,-0.035047611221671104,0.06574990786612034,-35.363249999999994,149.16524650000002,23428.5,134.5,94.0,0.0,-19.5,-44.5,-1003.5,-245.5,-33.5,65.0
12:20:19,208835.0,AUTO,0.07413848862051964,-0.1586238406598568,0.37064603716135025,0.07599089294672012,-0.030045444378629327,0.5748410671949387,-35.363238425,149.16525625,23400.75,204.75,145.75,1.25,-38.75,-39.0,-1006.5,77.0,-28.75,574.0
12:20:20,208835.0,AUTO,0.03571681212633848,-0.19268936663866043,0.6826469600200653,0.04668033868074417,-0.030839258804917336,-0.09979185461997986,-35.36320925,149.16528165,23350.5,321.0,230.5,2.5,-81.5,-39.5,-1000.0,48.0,-29.5,-99.0
12:20:22,208835.0,AUTO,0.05732711652914683,-0.19979322950045267,0.6527225375175476,0.01412761677056551,0.01363360695540905,-0.005514734773896635,-35.36314786666667,149.1653352666667,23246.666666666668,468.6666666666667,332.0,1.3333333333333333,-115.33333333333333,-58.0,-999.3333333333334,14.666666666666666,14.333333333333334,-5.666666666666667
12:20:23,65150.0,AUTO,0.07032609730958939,-0.17912114163239798,0.6496433019638062,0.009472360834479332,0.0140650838923951,-0.007805528895308574,-35.36310716666667,149.16537056666667,23232.333333333332,519.3333333333334,368.6666666666667,-1.3333333333333333,-131.0,-64.66666666666667,-987.3333333333334,10.0,14.333333333333334,-7.333333333333333
12:20:24,65150.0,AUTO,0.07802515849471092,-0.16155905276536942,0.6484099626541138,0.003366766031831503,0.030561047606170177,-0.004955606069415808,-35.3630649,149.1654074,23226.0,545.5,389.5,-0.5,-136.0,-79.0,-991.5,4.5,31.0,-4.5
12:20:26,65150.0,AUTO,0.08036781847476959,-0.14124508202075958,0.644039511680603,-0.002286662347614765,-0.026739878579974174,-0.0020913342013955116,-35.3629463,149.1655118,23125.0,553.0,397.0,9.0,-132.0,-75.0,-976.0,-1.0,-25.0,-2.0
12:20:27,122627.0,AUTO,0.0830974392592907,-0.14109129458665848,0.6427900493144989,0.014182870276272297,0.015284292516298592,-0.0073619665345177054,-35.362915,149.16553919999998,23057.5,557.5,399.5,7.5,-141.25,-78.0,-993.75,15.0,16.0,-7.25
12:20:28,122627.0,AUTO,0.08310193940997124,-0.13493607938289642,0.6408670842647552,-0.000500076450407505,0.0032950528839137405,-0.002043343207333237,-35.3628644,149.1655834,22983.0,559.0,402.0,4.0,-124.5,-82.0,-983.5,1.0,4.0,-1.5
12:20:30,122627.0,AUTO,0.0832892656326294,-0.13232000917196274,0.6371638774871826,0.00958406669087708,-0.003606555052101612,-0.003037844959180802,-35.36276355,149.16567185,22866.5,555.0,398.5,6.0,-121.0,-73.0,-975.5,10.5,-2.5,-2.5
12:20:31,232262.0,AUTO,0.0800157580524683,-0.12901072949171066,0.6356717199087143,0.0007178366649895906,-0.002662752114702016,0.0005654425476677716,-35.362713549999995,149.165715775,22802.25,553.75,396.75,4.5,-139.5,-80.75,-992.25,2.0,-1.25,0.25
12:20:32,232262.0,AUTO,0.08196572959423065,-0.13114971667528152,0.6337110996246338,0.00724092754535377,-0.007101206691004336,-0.0009108089143410325,-35.3626638,149.16575955,22746.5,555.0,394.5,6.0,-125.5,-90.5,-983.0,8.5,-5.5,-1.0
12:20:34,232262.0,AUTO,0.07713929936289787,-0.11995064839720726,0.6320526897907257,-0.02818006556481123,0.01806688541546464,0.007905728882178664,-35.3625642,149.1658471,22634.0,553.5,389.5,3.5,-132.0,-83.0,-988.0,-26.5,19.0,8.0
12:20:35,237297.0,AUTO,0.08026186935603619,-0.07090146839618683,0.6321750283241272,0.01610183482989669,0.05615423619747162,-0.0013433605163299944,-35.36251505,149.165890025,22616.75,531.5,372.5,-0.75,-125.25,-84.75,-992.25,17.0,56.75,-1.5
12:20:36,237297.0,AUTO,0.0784696452319622,-0.024069544160738587,0.6323222517967224,-0.13938338472507894,0.044380975887179375,0.0039919824921526015,-35.36246765,149.1659313,22611.0,468.5,329.5,2.5,-115.0,-84.5,-987.5,-137.5,45.0,4.0
12:20:38,237297.0,AUTO,0.04454226419329643,0.05174287594854832,0.6308289468288422,-0.16425136476755142,0.008925146306864917,0.0030146464705467224,-35.362397,149.16599409999998,22459.0,285.5,204.0,8.0,-66.0,-56.5,-1011.5,-162.5,9.5,3.0
12:20:39,221041.0,AUTO,0.02015861519612372,0.06463539227843285,0.6302699893712997,0.014327369630336761,0.021859725704416633,0.005851267604157329,-35.362375400000005,149.16601432500002,22390.75,197.75,138.25,4.5,-44.75,-29.75,-1006.75,15.5,22.75,6.5
12:20:40,221041.0,AUTO,0.005104180774651468,0.07250934094190598,0.6289030313491821,0.11709296703338623,-0.00813605822622776,0.009764453454408795,-35.36236235,149.16602705,22358.5,115.5,70.5,1.5,-25.0,-22.0,-1006.0,117.5,-6.5,10.0
12:20:42,221041.0,AUTO,0.0013201487017795444,0.027726560831069946,0.6292869746685028,0.4125492125749588,-0.021626880392432213,0.00013744266470894217,-35.36235295,149.1660346,22343.5,18.5,-5.0,0.0,-3.5,18.5,-1006.0,413.0,-20.0,1.0
12:20:43,300000.0,AUTO,-0.0030512112643918954,0.002956667129183188,0.629402294754982,-0.010618560016155243,-0.02674603508785367,-0.0009470182558288798,-35.3623524,149.1660341,22354.5,2.25,-12.75,-0.25,0.0,2.25,-1002.0,-10.0,-25.25,-0.5
12:20:44,300000.0,RTL,0.0010872833809116855,-0.004936576762702316,0.6294054985046387,0.277215912938118,0.010747517459094524,-0.0020458584767766297,-35.362352349999995,149.16603335,22363.0,3.0,-7.5,-0.5,-0.5,12.5,-1006.5,278.0,11.0,-1.0
12:20:46,300000.0,RTL,0.0021315125632099807,0.0003098888846579939,0.6277872323989868,-0.024587398394942284,0.00022060080664232373,-0.0010466445237398148,-35.36235205,149.16603279999998,22790.0,1.5,-3.0,-55.5,0.0,-5.0,-1045.0,-24.0,1.0,-0.5
12:20:47,55625.0,RTL,0.0009495099038758781,0.0006832144717918709,0.627170979976654,-0.013352943409699947,0.00010748195927590132,-0.00018103192269336432,-35.362351925,149.16603255,23578.0,0.0,-1.5,-100.5,0.0,-0.25,-1044.5,-12.75,1.0,0.25
12:20:48,55625.0,RTL,0.012443480489309877,-0.0007000195037107915,0.6263046562671661,0.024056668858975172,-0.0034818160347640514,0.00034351120120845735,-35.3623519,149.1660325,24833.0,-1.5,1.5,-137.5,0.0,0.0,-1025.5,24.5,-2.5,0.5
12:20:50,55625.0,RTL,-0.013738308101892471,0.00944150472059846,0.5790188610553741,-0.0889692073687911,0.023019197396934032,-0.0584235992282629,-35.36235375,149.16603745,27851.5,-19.5,35.0,-147.0,4.5,-8.5,-1000.0,-88.0,24.5,-57.0
12:20:51,300000.0,RTL,-0.05625257175415754,0.0014465450367424637,0.5416852682828903,0.027314083883538842,0.002253179205581546,-0.025331614073365927,-35.362354375,149.166039125,29380.25,5.75,-11.75,-149.0,-1.0,1.5,-1001.25,27.25,3.5,-24.0
12:20:52,300000.0,RTL,-0.007961252704262733,0.0029614209197461605,0.5289001762866974,0.051279909908771515,-0.0050801620818674564,0.005353809799998999,-35.36235295,149.16603579999997,30927.5,14.5,-37.0,-150.0,-4.0,8.0,-1001.5,51.5,-3.5,6.5
12:20:54,300000.0,RTL,0.015330424532294273,-0.003313899847853463,0.5489358007907867,-0.008280695416033268,0.009785404428839684,-0.011923744808882475,-35.362350899999996,149.16603015,34045.0,1.0,-2.0,-150.5,-1.5,1.5,-1000.0,-7.0,10.0,-10.5
12:20:55,288026.0,RTL,0.007215912570245564,0.0024888809421099722,0.5318265706300735,-0.001665462550590746,0.004146530176512897,-0.018114648293703794,-35.36235045,149.16602995,35594.75,-1.5,4.0,-151.0,-0.75,0.0,-1000.25,-0.75,5.0,-16.75
12:20:56,288026.0,RTL,0.006453187204897404,0.004421527031809092,0.5129084289073944,0.0018641878850758076,0.0012955571874044836,-0.017146695405244827,-35.3623502,149.1660301,37156.0,-4.0,5.0,-151.0,0.0,0.0,-1000.0,2.0,2.0,-16.0
12:20:58,288026.0,RTL,0.0036881043342873454,0.004004121059551835,0.47316648066043854,0.0014493934577330947,-0.0009644777164794505,-0.019448724575340748,-35.3623503,149.1660308,40277.5,-8.0,5.5,-152.0,0.0,0.0,-1000.0,2.5,0.5,-18.0
12:20:59,100362.0,RTL,0.002457761496771127,0.0028034384013153613,0.45129698514938354,-0.00011994419037364423,-0.0004548902215901762,-0.021618780214339495,-35.36235065,149.166031075,41840.25,-7.75,4.75,-152.0,0.0,0.0,-1000.0,1.0,0.75,-20.0
12:21:00,100362.0,RTL,0.001913920626975596,0.002179452800191939,0.4283846467733383,0.0023133392678573728,-0.00030539813451468945,-0.021217805333435535,-35.362350899999996,149.1660313,43399.0,-6.5,4.0,-152.0,0.0,0.0,-1000.0,3.0,1.0,-19.5
12:21:02,100362.0,RTL,0.002133993140887469,0.0021878505358472466,0.38260264694690704,0.00033448945032432675,0.0007740657893009484,-0.020551041699945927,-35.36235135,149.1660316,46518.5,-5.0,3.0,-152.0,0.0,0.0,-1000.0,1.0,2.0,-19.0
12:21:03,108675.0,RTL,0.001663662667851895,0.0019132265588268638,0.36087100952863693,0.00034366975887678564,7.29131861589849e-05,-0.021135193295776844,-35.362351475000004,149.166031725,48075.5,-4.25,3.0,-152.0,0.0,0.0,-1000.0,1.25,1.0,-19.5
12:21:04,108675.0,RTL,0.0034873480908572674,0.0035821700002998114,0.3492361307144165,0.00290197366848588,0.0029488722793757915,0.0023794490844011307,-35.36235155,149.16603185000002,49632.5,-4.5,3.0,-152.0,0.0,0.0,-999.0,3.5,4.0,3.5
12:21:06,108675.0,RTL,0.00046827645564917475,0.0012459131830837578,0.39445461332798004,-0.0022944785305298865,-0.0007041937205940485,0.027203251607716084,-35.36235215,149.16603220000002,52736.5,-6.0,3.5,-152.0,0.0,0.0,-1000.0,-0.5,0.5,28.0
12:21:07,166887.0,RTL,-0.0002935417178377975,0.00028432963154045865,0.4181758612394333,0.0017845573602244258,-0.000245930947130546,0.022784830536693335,-35.36235237499999,149.1660324,54289.25,-3.75,2.5,-152.0,0.0,0.0,-1000.0,3.0,1.0,23.75
12:21:08,166887.0,RTL,0.0001736137164698448,0.00019636711658677086,0.4377887547016144,0.002959046745672822,0.0011721699847839773,0.018585411831736565,-35.3623524,149.1660324,55842.5,-1.5,1.5,-152.0,0.0,0.0,-1000.0,4.0,2.5,19.5
12:21:10,166887.0,RTL,0.0019156935741193593,0.001405244111083448,0.46957236528396606,0.0003449594369158149,0.0008480115793645382,0.014189238660037518,-35.362352200000004,149.1660324,58949.0,-1.0,0.5,-152.0,0.0,0.0,-999.5,2.0,2.5,15.0
12:21:11,167526.0,RTL,0.0021373434574343264,0.0012409148330334574,0.4823155626654625,0.0013861697225365788,-0.00017731913249008358,0.013050275621935725,-35.362352075000004,149.166032325,60506.0,-1.0,1.0,-152.0,0.0,0.0,-1000.25,2.5,1.0,14.0
12:21:12,167526.0,RTL,0.0018154041026718915,0.0015527738141827285,0.4934668093919754,0.00024459813721477985,0.0003732962068170309,0.012293267995119095,-35.362352,149.1660323,62058.5,-1.5,1.0,-152.0,0.0,0.0,-1000.0,1.0,1.5,13.5
12:21:14,167526.0,RTL,0.002104711253196001,0.0015864500892348588,0.5113158822059631,0.0029815668240189552,0.00216486380668357,0.0092124342918396,-35.362351849999996,149.1660323,65160.0,-2.0,1.0,-152.0,0.0,0.0,-999.5,4.0,3.5,10.0
12:21:15,200.0,RTL,0.001756343524903059,0.001767198380548507,0.5184191912412643,0.0011031752219423652,-0.00029500166419893503,0.008154272218234837,-35.3623518,149.1660323,66712.25,-2.75,1.0,-152.0,0.0,0.0,-1000.0,2.25,1.25,9.25
12:21:16,200.0,RTL,0.0015441723517142236,0.0014168889611028135,0.5249633193016052,0.0020394662278704345,0.0003453387471381575,0.007415318163111806,-35.3623518,149.1660323,68265.5,-3.0,1.0,-152.0,0.0,0.0,-1000.0,3.0,1.5,8.5
12:21:18,200.0,RTL,0.00099702543229796,0.0009220084903063253,0.5368216037750244,0.001599055656697601,0.00022456387523561716,0.00790323386900127,-35.3623518,149.1660323,71378.0,-2.0,1.0,-152.0,0.0,0.0,-999.5,2.5,1.5,9.0
12:21:19,140797.0,RTL,0.0006951102986931801,0.0007122675306163728,0.5420971214771271,0.0005221939645707607,0.000621942599536851,0.006178290699608624,-35.3623518,149.1660323,72932.0,-2.0,0.5,-152.0,0.0,0.0,-999.75,2.0,2.25,7.25
12:21:20,140797.0,RTL,0.0013410556130111217,0.0009406548633705825,0.5473645329475403,0.002952330280095339,0.001622494193725288,0.004356871359050274,-35.3623518,149.1660323,74485.5,-2.0,0.0,-152.0,0.0,0.0,-1000.5,4.0,3.0,5.5
12:21:22,140797.0,RTL,0.0016568776918575168,0.0014941378613002598,0.556806743144989,0.002445554593577981,0.0019333462114445865,0.005490535404533148,-35.3623518,149.1660323,77590.0,-2.0,0.0,-152.0,0.0,0.0,-1000.0,3.5,3.0,6.5
12:21:23,246752.0,RTL,0.0014925985888112336,0.0015143413911573589,0.5609814375638962,-0.0008042046392802149,0.0006764085846953094,0.004367646673927084,-35.36235175,149.1660323,79142.5,-2.0,0.0,-152.0,0.0,0.0,-999.75,0.75,2.0,5.5
12:21:24,246752.0,RTL,0.0012117188307456672,0.0013005497748963535,0.5647179782390594,0.0026548848836682737,0.0007267754408530891,0.004058296210132539,-35.3623517,149.1660323,80695.0,-3.0,0.0,-152.0,0.0,0.0,-1000.5,4.0,2.5,5.0
12:21:26,246752.0,RTL,0.0008263853087555617,0.0014993128133937716,0.5713455080986023,-0.0011451662867330015,0.0008821985684335232,0.0026218743878416717,-35.3623517,149.1660323,83802.5,-2.0,0.0,-152.0,0.0,0.0,-999.5,0.5,2.5,3.5
12:21:27,269788.0,RTL,7.131023579365348e-05,0.0010763828322524205,0.5744940340518951,-0.0004668929032050073,-0.0007987762219272554,0.0036282881628721952,-35.362351724999996,149.1660323,85354.75,-2.0,0.0,-152.0,0.0,0.0,-999.75,1.0,1.0,5.0
12:21:28,269788.0,RTL,0.0005441792964120395,0.0007161055982578546,0.5774541795253754,0.0018499016878195107,0.00033982458990067244,0.004196483176201582,-35.3623518,149.1660323,86908.5,-2.0,0.0,-152.0,0.0,0.0,-1000.0,3.5,2.0,5.5
12:21:30,269788.0,RTL,0.001240372599568218,0.0006586095259990543,0.582463413476944,0.0019908626563847065,0.000597627367824316,0.002397351316176355,-35.3623518,149.1660323,90014.5,-2.0,0.0,-152.0,0.0,0.0,-1000.0,3.5,2.0,3.5
12:21:31,210710.0,RTL,0.0014667268260382116,0.0008015358762349933,0.584933340549469,0.0003628395206760615,0.0010658984538167715,0.0029867117118556052,-35.3623518,149.1660323,91571.75,-2.0,0.0,-152.0,0.0,0.0,-1000.25,2.0,2.5,4.25
12:21:32,210710.0,RTL,0.0015710390289314091,0.0017180597642436624,0.5872986912727356,-0.0005411154124885798,0.0007718780543655157,0.003434726968407631,-35.3623518,149.1660323,93126.0,-2.0,0.0,-152.0,0.0,0.0,-999.5,0.5,2.0,5.0
12:21:34,210710.0,RTL,0.0009150008263532072,0.001439173356629908,0.5910661220550537,-0.0010182142723351717,0.0011879770318046212,0.000997618946712464,-35.3623517,149.1660323,96227.5,-2.0,0.0,-152.0,0.0,0.0,-999.5,0.5,2.5,2.5
12:21:35,300000.0,RTL,0.00026341113334638067,0.0015752535546198487,0.5928425490856171,-0.00011993289808742702,-0.00036091453512199223,0.0022709185432177037,-35.3623517,149.1660323,97781.25,-2.0,0.0,-152.0,0.0,0.0,-999.75,1.5,1.5,3.5
12:21:36,300000.0,RTL,0.00015159069880610332,0.0006688691501040012,0.5943932235240936,0.0026330676628276706,0.0010477789910510182,0.0025948071852326393,-35.36235175,149.1660323,99334.5,-2.0,0.0,-152.0,0.0,0.0,-999.5,4.0,2.5,4.0
12:21:38,300000.0,RTL,0.0007212983618956059,0.0007648655155207962,0.5981438159942627,0.0012354516657069325,0.0007889666594564915,0.002151512249838561,-35.3623518,149.1660323,102448.5,-1.0,0.0,-152.0,0.0,0.0,-999.5,3.0,2.5,3.5
12:21:39,88721.0,RTL,0.0009939046431099996,0.0007748933567199856,0.599420353770256,0.0005728773248847574,0.0005037341616116464,0.0016847930965013802,-35.3623518,149.1660323,104002.0,-2.0,0.0,-152.0,0.0,0.0,-999.25,2.5,2.25,3.0
12:21:40,88721.0,RTL,0.001373190141748637,0.0006694977346342057,0.6006308794021606,-8.274795254692435e-05,0.00041822262573987246,0.0014324019430205226,-35.3623518,149.1660323,105558.0,-2.0,0.0,-152.0,0.0,0.0,-1000.0,1.5,2.0,3.0
12:21:42,88721.0,RTL,0.0012150369002483785,0.0017149465857073665,0.6027390658855438,-0.002831886406056583,0.0007475023157894611,0.0024024317390285432,-35.3623518,149.1660323,108662.0,-2.0,0.0,-152.0,0.0,0.0,-999.0,-0.5,2.5,3.5
12:21:43,270995.0,RTL,0.0004711108558694832,0.001766083063557744,0.6040269881486893,0.0003777761594392359,-0.00012793997302651405,0.00295370991807431,-35.3623518,149.1660323,110214.75,-2.0,0.0,-152.0,0.0,0.0,-1000.0,1.75,1.75,4.25
12:21:44,270995.0,RTL,0.000496682376251556,0.0014262148761190474,0.6048547029495239,0.003441007691435516,-0.000293648277875036,0.00269339676015079,-35.3623518,149.1660323,111767.5,-2.0,0.0,-152.0,0.0,0.0,-1000.5,5.0,1.5,4.5
12:21:46,270995.0,RTL,0.0004730485088657588,0.0007931718428153545,0.6063610315322876,0.0012001775903627276,0.0016207220032811165,0.0008883934351615608,-35.3623518,149.1660323,114876.5,-1.5,0.0,-152.0,0.0,0.0,-1000.0,2.5,3.5,2.5
12:21:47,148019.0,RTL,0.0006585708179045469,0.0008739399054320529,0.6073291003704071,0.001286728773266077,0.0012287780991755426,0.0021750422893092036,-35.3623518,149.1660323,116428.5,-1.0,0.0,-152.0,0.0,0.0,-999.75,3.0,2.75,3.75
12:21:48,148019.0,RTL,0.0007338785799220204,0.0010778423165902495,0.6079997718334198,0.0005245002685114741,0.0005503993015736341,-0.00029126141453161836,-35.3623518,149.1660323,117981.5,-1.5,0.0,-152.0,0.0,0.0,-1000.5,2.0,2.5,1.0
12:21:50,148019.0,RTL,0.001272317545954138,0.0005087064491817728,0.6090214252471924,0.002067089022602886,0.001666010357439518,0.002467594458721578,-35.3623518,149.1660323,121091.0,-2.0,0.0,-152.0,0.0,0.0,-999.5,3.5,4.0,4.0
12:21:51,290324.0,RTL,0.0013230294862296432,0.0014299293980002403,0.6100048273801804,-0.00020555761875584722,0.0020720972679555416,0.00016341920127160847,-35.3623518,149.1660323,122645.75,-1.75,0.0,-152.0,0.0,0.0,-999.75,1.75,4.0,1.5
12:21:52,290324.0,RTL,0.0009113330161198974,0.0019139312207698822,0.6103351414203644,0.0001290630316361785,0.001417670282535255,-0.00010578020010143518,-35.36235175,149.1660323,124199.0,-2.0,0.0,-152.0,0.0,0.0,-1000.0,2.0,3.5,1.5
12:21:54,290324.0,RTL,0.00027320738445268944,0.0008400533843087032,0.6121563613414764,0.0012006321921944618,-0.0010774678084999323,0.0015894008101895452,-35.36235175,149.1660324,127305.5,-2.0,0.0,-152.0,0.0,0.0,-1000.0,3.0,1.0,3.0
12:21:55,56297.0,RTL,0.00023899331790744327,0.0005007622748962604,0.6123653501272202,0.0003469759540166706,0.0006701787351630628,-0.00013571942690759897,-35.3623518,149.1660324,128867.5,-1.75,0.0,-152.0,0.0,0.0,-1000.0,2.25,2.75,1.5
12:21:56,56297.0,RTL,0.00047331016685348004,0.0008163332531694323,0.6126552820205688,-0.0007085531251505017,-0.0005028211162425578,-0.00034676288487389684,-35.3623518,149.1660324,130417.0,-1.0,0.0,-152.0,0.0,0.0,-1000.0,1.0,1.5,1.0
12:21:58,56297.0,RTL,0.0006496646092273295,0.0009525606001261622,0.6135186553001404,-0.0011087454040534794,-0.0010059830965474248,0.0018329060403630137,-35.3623518,149.1660324,133527.0,-1.5,0.0,-152.0,0.0,0.0,-1000.0,1.0,1.0,3.5
12:21:59,115704.0,RTL,0.000547514071513433,0.0009414445230504498,0.6137296557426453,0.0009037011186592281,0.001166694681160152,0.0015119734161999077,-35.3623518,149.1660324,135081.25,-1.75,0.0,-152.0,0.0,0.0,-999.5,2.75,3.25,3.25
12:22:00,115704.0,RTL,0.0009383921278640628,0.0008815538021735847,0.6139511168003082,8.139526471495628e-06,0.0012060748413205147,0.0012050243094563484,-35.3623518,149.1660324,136634.5,-2.0,0.0,-152.0,0.0,0.0,-999.5,2.0,3.0,2.5
12:22:02,115704.0,RTL,0.0011984859593212605,0.0012652389123104513,0.6144217550754547,-0.0011955848312936723,-0.0004097985802218318,0.0003937584115192294,-35.3623518,149.1660323,139741.5,-2.0,0.0,-152.0,0.0,0.0,-1000.0,1.0,1.5,2.0
12:22:03,56918.0,RTL,0.0008760170530877076,0.001954244857188314,0.6147476434707642,-0.00028530071722343564,0.0005897480878047645,0.001806724234484136,-35.362351775,149.1660323,141299.0,-2.0,0.0,-152.0,0.0,0.0,-999.75,2.0,2.5,3.5
12:22:04,56918.0,RTL,0.0002726957172853872,0.0016866334481164813,0.615163266658783,0.0009609461994841695,0.0009376133093610406,0.0016784034669399261,-35.3623517,149.16603235000002,142849.5,-2.0,0.0,-152.0,0.0,0.0,-999.5,3.0,3.0,3.5
12:22:06,56918.0,RTL,2.0930878235958517e-05,0.0006153886206448078,0.6154244840145111,0.0009688972495496273,0.00020378368208184838,0.0007606112631037831,-35.3623518,149.1660324,145956.5,-1.5,0.0,-152.0,0.0,0.0,-1000.0,2.5,2.5,2.5
12:22:07,71363.0,RTL,0.0008029812597669661,0.0006603630099561997,0.6156329810619354,0.0010916003375314176,4.873343277722597e-05,0.0012313948245719075,-35.3623518,149.1660324,147508.0,-1.0,0.0,-152.0,0.0,0.0,-1000.25,3.0,2.25,2.75
12:22:08,71363.0,RTL,0.0009681321680545807,0.000569457100937143,0.6156492531299591,0.0007027365500107408,0.0010450260015204549,0.0015634943265467882,-35.3623518,149.16603235000002,149061.5,-1.0,0.0,-152.0,0.0,0.0,-1000.0,2.5,3.0,3.0
12:22:10,71363.0,RTL,0.000805527699412778,0.0009351926273666322,0.6167159974575043,0.0014522176934406161,-0.0003630364080891013,-0.0007932489970698953,-35.3623518,149.1660323,152167.5,-1.5,0.0,-152.0,0.0,0.0,-1000.5,3.5,2.0,1.0
12:22:11,177678.0,RTL,0.0008030165918171406,0.0009209648997057229,0.616651251912117,-0.0008943595457822084,0.0013693698565475643,0.0006576826272066683,-35.3623518,149.1660323,153723.5,-1.75,0.0,-152.0,0.0,0.0,-999.5,1.5,3.25,2.5
12:22:12,177678.0,RTL,0.00017503754497738555,0.0012884737807326019,0.6169936060905457,0.0011459633242338896,0.0005855425260961056,0.0007586472202092409,-35.3623518,149.1660323,155277.5,-2.0,0.0,-152.0,0.0,0.0,-1000.0,3.0,2.5,2.5
12:22:14,177678.0,RTL,0.0008794573950581253,0.0013904331717640162,0.6170856356620789,-0.000349033041857183,-0.0005948489415459335,0.0009547413792461157,-35.3623518,149.1660323,158384.5,-2.0,0.0,-152.0,0.0,0.0,-1000.0,2.0,1.5,3.0
12:22:15,190214.0,RTL,0.0009687514393590391,0.0016188562440220267,0.6170878410339355,8.826085831969976e-06,6.503832992166281e-06,0.0010917755425907671,-35.3623518,149.1660323,159944.25,-2.0,0.0,-152.0,0.0,0.0,-999.75,2.25,2.25,3.0
12:22:16,190214.0,RTL,0.0006508235674118623,0.001253270311281085,0.6172420382499695,0.001537703676149249,0.0001468731788918376,0.0008675887947902083,-35.3623518,149.1660323,161495.5,-2.0,0.0,-152.0,0.0,0.0,-1000.0,3.5,2.5,3.0
12:22:18,190214.0,RTL,0.00030979390430729836,0.0007211601769085974,0.6172776222229004,0.002863965230062604,0.0005826582200825214,0.002030196017585695,-35.3623518,149.1660323,164605.5,-1.5,0.0,-152.0,0.0,0.0,-1000.5,5.5,2.5,3.5
12:22:19,110335.0,RTL,0.0005602413657470606,0.0009225277754012495,0.6171750724315643,0.0007589638698846102,0.0008336668252013624,0.0009171023266389966,-35.3623518,149.1660323,166159.0,-1.0,0.0,-152.0,0.0,0.0,-999.75,3.25,3.0,2.75
12:22:20,110335.0,RTL,0.0006323854031506926,0.0009716529457364231,0.6171591877937317,0.00217424298170954,0.00023376592434942722,0.0010646122391335666,-35.3623518,149.1660323,167712.0,-1.0,0.0,-152.0,0.0,0.0,-1000.5,4.5,2.5,3.0
12:22:22,110335.0,RTL,0.0011523437569849193,0.0005890365282539278,0.6173768043518066,0.00014482525875791907,-0.0006050425581634045,0.0021042622392997146,-35.3623518,149.1660323,170819.5,-1.0,0.0,-152.0,0.0,0.0,-1000.0,2.5,2.0,4.0
12:22:23,269083.0,RTL,0.000835659506265074,0.0010348256182624027,0.6173425763845444,-0.0003153354045934975,0.0001475876779295504,0.00045362638775259256,-35.3623518,149.1660323,172375.0,-1.5,0.0,-152.0,0.0,0.0,-999.75,2.0,2.25,2.5
12:22:24,269083.0,RTL,0.00040529384568799287,0.0016046807868406177,0.6176564395427704,0.0006047743372619152,0.0021784433629363775,0.0014451030874624848,-35.3623518,149.16603235000002,173927.5,-1.5,0.0,-152.0,0.0,0.0,-999.5,2.5,4.5,3.0
12:22:26,269083.0,RTL,0.00026702518152887933,0.001648156379815191,0.618413507938385,0.0008485948201268911,-0.0009573826100677252,1.6570556908845901e-06,-35.3623518,149.1660324,177032.5,-2.0,0.0,-152.0,0.0,0.0,-1001.0,3.0,1.5,2.5
12:22:27,122854.0,RTL,0.00028634794580284506,0.0006369530092342757,0.6183096915483475,0.0007499612402170897,-0.0004868255346082151,0.0018553997506387532,-35.3623518,149.1660324,178585.75,-2.0,0.0,-152.0,0.0,0.0,-999.75,3.25,2.0,4.0
12:22:28,122854.0,RTL,0.0003255234223615844,0.0003542614977050107,0.6181277632713318,0.0009600055054761469,0.00010927917901426554,-0.00020130595657974482,-35.3623518,149.1660324,180140.0,-1.5,0.0,-152.0,0.0,0.0,-1000.0,3.5,2.5,2.0
12:22:30,122854.0,RTL,0.0011722740018740296,0.0006414723175112158,0.6180998682975769,-0.0009598151664249599,0.0008982210420072079,0.0011790579883381724,-35.3623518,149.16603235000002,183249.0,-1.0,0.0,-152.0,0.0,0.0,-999.5,1.5,3.5,3.5
12:22:31,200.0,RTL,0.0008379710488952696,0.0008116638200590387,0.6182973235845566,0.00088943459559232,0.0007319705910049379,0.0017328274552710354,-35.3623518,149.1660323,184802.25,-1.0,0.0,-152.0,0.0,0.0,-999.5,3.0,3.0,4.0
12:22:32,200.0,RTL,0.000425729580456391,0.00120778355631046,0.6179628372192383,0.0025675041833892465,0.00039458496030420065,0.000679127755574882,-35.3623518,149.1660323,186357.5,-1.0,0.0,-152.0,0.0,0.0,-1000.5,5.0,3.0,2.5
12:22:34,200.0,RTL,0.0005597749550361186,0.0010012045968323946,0.6181059181690216,0.0004354473203420639,-0.0006578793399967253,0.002021524589508772,-35.3623518,149.1660323,189466.0,-2.0,0.0,-152.0,0.0,0.0,-1000.0,3.0,2.0,4.5
12:22:35,169376.0,RTL,0.0006572843412868679,0.0011864838015753776,0.6181270182132721,0.0006543270428664982,0.0012847179314121604,0.0008480767428409308,-35.3623518,149.1660323,191019.25,-1.75,0.0,-152.0,0.0,0.0,-999.75,3.5,3.75,3.0
12:22:36,169376.0,RTL,0.0009461682639084756,0.0017934166826307774,0.6180010139942169,-0.000825020601041615,0.00019063171930611134,-0.0013442076742649078,-35.3623518,149.1660323,192574.5,-2.0,0.0,-152.0,0.0,0.0,-1000.0,1.5,2.5,1.0
12:22:38,169376.0,RTL,0.00026931383763439953,0.0009888358763419092,0.6179183125495911,-0.0016660811379551888,8.520320989191532e-05,-0.0013032290735282004,-35.36235175,149.1660323,195680.0,-2.0,0.0,-152.0,0.0,0.0,-1000.0,1.0,2.5,1.0
12:22:39,200.0,RTL,0.00011705782344506588,0.0005204605113249272,0.6181423664093018,0.0021027521579526365,0.0002784408861771226,0.0013004540815018117,-35.3623518,149.1660323,197236.25,-1.5,0.0,-152.0,0.0,0.0,-1000.25,4.75,2.5,3.5
12:22:40,200.0,RTL,0.0003949595120502636,0.00045390130253508687,0.6182933747768402,0.0015625152736902237,0.0011297365417703986,0.0005706790834665298,-35.3623518,149.1660323,198792.0,-1.0,0.0,-152.0,0.0,0.0,-1000.0,4.0,3.5,2.5
12:22:42,200.0,RTL,0.0011860584781970829,0.0007544776308350265,0.618547260761261,-0.00010664225555956364,0.0006094038253650069,0.001216089935041964,-35.3623518,149.1660323,201895.5,-1.0,0.0,-152.0,0.0,0.0,-999.5,2.5,3.5,3.5
12:22:43,300000.0,RTL,0.0011586260952753946,0.00083530145639088,0.6186883747577667,8.026778232306242e-05,0.0006147485692054033,0.00033621539478190243,-35.3623518,149.1660323,203449.0,-1.25,0.0,-152.0,0.0,0.0,-1000.0,2.5,3.25,2.5
12:22:44,300000.0,RTL,0.0010706191533245146,0.001860841759480536,0.6186811625957489,-0.0007313142996281385,0.0001420851331204176,0.002640554099343717,-35.3623518,149.1660323,205002.5,-2.0,0.0,-152.0,0.0,0.0,-1000.0,2.0,2.5,5.0
12:22:46,300000.0,RTL,0.000379790406441316,0.0011963754368480295,0.6186466217041016,0.00034614233300089836,-0.00128432537894696,0.0008820812217891216,-35.3623517,149.1660323,208116.5,-2.0,0.0,-152.0,0.0,0.0,-1000.5,3.0,1.5,3.0
12:22:47,151246.0,RTL,-3.0720697168362676e-05,0.0004917055957776029,0.6185170114040375,8.040724787861109e-05,-0.00044251151848584414,2.0946579752489924e-05,-35.3623518,149.1660323,209669.25,-2.0,0.0,-152.0,0.0,0.0,-1000.0,3.0,2.25,2.25
12:22:48,151246.0,RTL,0.00038752739783376455,0.0008205233898479491,0.6185889840126038,0.0023692321265116334,-0.00024998770095407963,0.0004608121234923601,-35.3623518,149.1660323,211224.5,-1.0,0.0,-152.0,0.0,0.0,-1000.5,5.5,2.5,3.0
12:22:50,151246.0,RTL,0.0006846759060863405,0.0008819724025670439,0.6184742450714111,0.0002933497307822108,-0.0008803204400464892,-0.0003054736880585551,-35.3623518,149.1660323,214330.0,-1.0,0.0,-152.0,0.0,0.0,-1000.0,3.0,1.5,2.0
12:22:51,120430.0,RTL,0.0005634901172015816,0.0010375249112257734,0.6184121519327164,0.00022477935999631882,0.00033984408946707845,0.0005949159676674753,-35.3623518,149.1660323,215883.25,-1.75,0.0,-152.0,0.0,0.0,-999.75,2.75,3.0,2.75
12:22:52,120430.0,RTL,0.0004930234863422811,0.000869413634063676,0.6184278726577759,-0.0012970056850463152,-0.0005948928883299232,-0.00011640484444797039,-35.3623518,149.1660323,217436.5,-1.5,0.0,-152.0,0.0,0.0,-1000.0,2.0,2.5,2.0
12:22:54,120430.0,RTL,0.0012317049549892545,0.0005569464556174353,0.6184150278568268,0.0018276417395099998,0.0011915323557332158,0.0009465134935453534,-35.3623518,149.1660323,220544.5,-2.0,0.0,-152.0,0.0,0.0,-1000.0,4.5,4.0,3.0
12:22:55,200.0,RTL,0.0013170375605113804,0.0016740466235205531,0.618295282125473,0.000634527241345495,0.0012361282715573907,0.001066481287125498,-35.3623518,149.1660323,222096.75,-2.0,0.0,-152.0,0.0,0.0,-999.75,3.5,4.0,3.5
12:22:56,200.0,RTL,0.0006896669219713658,0.0016044930671341717,0.6184246242046356,0.0013263949658721685,0.0017207404598593712,0.0007955858018249273,-35.3623518,149.1660323,223653.0,-2.0,0.0,-152.0,0.0,0.0,-1000.0,4.0,4.5,3.5
12:22:58,200.0,RTL,-0.0003664963660412468,0.0007918516057543457,0.6188805401325226,-0.00014285952784121037,0.000953610404394567,0.0022645064163953066,-35.3623518,149.1660324,226758.5,-2.0,0.0,-152.0,0.0,0.0,-999.5,3.0,4.0,5.0
12:22:59,59973.0,RTL,0.0002911482806666754,0.0007109867947292514,0.6189733445644379,0.0009111763793043792,-0.00046453182585537434,0.0007897175091784447,-35.3623518,149.1660324,228313.25,-1.0,0.0,-152.0,0.0,0.0,-999.75,3.75,2.5,3.25
12:23:00,59973.0,RTL,0.0004703294762293808,0.00031662209948990494,0.6187279224395752,-0.0006403543520718813,0.0008341004140675068,0.0020484148990362883,-35.3623518,149.1660324,229867.0,-1.0,0.0,-152.0,0.0,0.0,-999.0,2.0,3.5,4.5
12:23:02,59973.0,RTL,0.001555227325297892,0.0007631051703356206,0.6188337802886963,-0.0013233469799160957,-0.00013285037130117416,0.001531288493424654,-35.3623518,149.1660323,232392.0,-1.0,0.0,-152.0,0.0,0.0,-1000.0,2.0,3.0,4.0
12:23:03,200.0,RTL,0.0012497572461143136,0.0013003845524508506,0.6186782717704773,0.0001338413858320564,0.0012057520798407495,0.0010700749699026346,-35.3623518,149.1660323,234294.25,-1.5,0.0,-152.0,0.0,0.0,-1000.0,3.0,4.0,3.5
12:23:04,200.0,RTL,0.0010043946385849267,0.0018845136122157176,0.6186030109723409,0.0004612434034546216,0.0008615076852341493,0.0003220229409635067,-35.3623518,149.1660323,235860.66666666666,-2.0,0.0,-152.0,0.0,0.0,-1000.0,3.3333333333333335,4.0,3.0
12:23:06,200.0,RTL,-0.00013848151138518006,0.0009795870282687247,0.6185088157653809,-0.0024594831047579646,-0.0009892593370750546,0.00020385644165799022,-35.3623518,149.1660324,239193.0,-2.0,0.0,-152.0,0.0,0.0,-1000.0,1.0,2.5,2.5
12:23:07,88231.0,RTL,8.34039392429986e-05,0.0007394411222776398,0.618793711066246,0.0013120656949467957,0.00038071360904723406,0.0006015073740854859,-35.3623518,149.1660324,240747.75,-1.5,0.0,-152.0,0.0,0.0,-999.75,4.5,3.5,3.0
12:23:08,88231.0,RTL,0.00029270880622789264,0.0009900386212393641,0.6184529066085815,0.00031903828494250774,-0.0007084282115101814,0.0002653880510479212,-35.3623518,149.1660324,241719.0,-1.0,0.0,-152.0,0.0,0.0,-1000.0,3.0,2.0,3.0
12:23:10,88231.0,RTL,0.000819571636384353,0.0007260851853061467,0.6183056831359863,0.0022393985418602824,0.0011629441287368536,0.0011696103028953075,-35.3623518,149.1660324,244787.0,-1.0,0.0,-152.0,0.0,0.0,-1000.0,5.5,4.5,4.0
12:23:11,73238.0,RTL,0.0010674977966118604,0.0006991498812567443,0.6183970868587494,-0.0014371692668646574,1.9594270270317793e-05,-0.00019583507673814893,-35.3623518,149.1660323,246729.0,-1.0,0.0,-152.0,0.0,0.0,-999.75,2.0,3.0,2.75
12:23:12,73238.0,RTL,0.0007952645828481764,0.0008892830519471318,0.6182959079742432,0.001039263210259378,0.001613260363228619,0.00142634566873312,-35.3623518,149.1660323,247894.0,-1.0,0.0,-152.0,0.0,0.0,-1000.0,4.0,5.0,4.0
12:23:14,73238.0,RTL,0.0003854578244499862,0.0010836863366421312,0.6182598173618317,0.0016302725998684764,-0.0014866802375763655,0.0011848172871395946,-35.3623518,149.1660323,251004.0,-2.0,0.0,-152.0,0.0,0.0,-1000.0,4.5,1.5,4.0
12:23:15,79789.0,RTL,0.0004992884132661857,0.0009326951258117333,0.6189408302307129,-4.931178409606218e-06,0.00025262730196118355,-1.073820749297738e-05,-35.3623518,149.1660323,252941.5,-2.0,0.0,-152.0,0.0,0.0,-999.75,3.0,3.5,2.5
12:23:16,79789.0,RTL,0.0005517129902727902,0.0007909677224233747,0.6187885701656342,-0.0006056111888028681,-0.0013322541490197182,-0.0006661440711468458,-35.3623518,149.1660323,254108.0,-2.0,0.0,-152.0,0.0,0.0,-1000.0,2.5,1.5,2.0
12:23:18,79789.0,RTL,0.0008377682243008167,0.0015640304191038013,0.6188133060932159,-0.0003468790091574192,-0.0022471959237009287,0.00020701391622424126,-35.36235175,149.1660323,257213.0,-2.0,0.0,-152.0,0.0,0.0,-1000.0,3.0,0.5,3.0
12:23:19,35706.0,RTL,0.0003413788363104686,0.0008774485977482982,0.6188360899686813,-0.000934077484998852,-0.00081205292372033,0.0008670862298458815,-35.362351724999996,149.1660323,259158.5,-2.0,0.0,-152.0,0.0,0.0,-999.75,2.5,2.25,3.5
12:23:20,35706.0,RTL,-2.029294676830773e-05,0.0004790098173543811,0.6185958981513977,-0.0003424787428230047,6.334180943667889e-05,-0.0011729298857972026,-35.3623518,149.1660323,260331.5,-2.0,0.0,-152.0,0.0,0.0,-1000.5,2.5,3.0,1.5
12:23:22,35706.0,RTL,0.0011825718684121966,0.0004881198692601174,0.6186045110225677,-0.0005391106242313981,-0.000454394263215363,0.001153362332843244,-35.3623518,149.1660323,263430.0,-1.0,0.0,-152.0,0.0,0.0,-1000.0,2.5,2.5,4.0
12:23:23,200.0,RTL,0.0007347946375375614,0.0008928849274525419,0.618741363286972,-0.00020058004884049296,6.579788168892264e-05,-0.00037811254151165485,-35.3623518,149.1660323,265371.75,-1.0,0.0,-152.0,0.0,0.0,-1000.25,3.0,3.25,2.75
12:23:24,200.0,RTL,0.00016894746295292862,0.001484267006162554,0.6184458136558533,-0.0004486573161557317,-0.00030629464890807867,-0.0007933459710329771,-35.3623518,149.1660323,266537.0,-1.0,0.0,-152.0,0.0,0.0,-1000.0,2.5,3.0,2.0
12:23:26,200.0,RTL,0.0005009398446418345,0.0008658132865093648,0.6183972656726837,0.00028070167172700167,0.000426369602791965,0.0012464801548048854,-35.3623518,149.1660323,269651.0,-1.0,0.0,-152.0,0.0,0.0,-999.5,3.5,4.0,4.5
12:23:27,300000.0,RTL,0.000665535990265198,0.0010856942390091717,0.6183655112981796,0.001341610390227288,0.0008127111941576004,0.000643602863419801,-35.3623518,149.1660323,271594.25,-1.5,0.0,-152.0,0.0,0.0,-999.75,4.5,4.25,3.25
12:23:28,300000.0,RTL,0.0006480911106336862,0.0012192685389891267,0.6185421645641327,3.851961810141802e-05,-0.0007380008464679122,0.002097048913128674,-35.3623518,149.1660323,272763.0,-2.0,0.0,-152.0,0.0,0.0,-1000.0,3.0,2.5,4.5
12:23:30,300000.0,RTL,0.0004101742524653673,0.0011405182885937393,0.6181415915489197,-0.0007521436782553792,-0.001273315167054534,5.819648504257202e-05,-35.3623518,149.1660323,275866.5,-2.0,0.0,-152.0,0.0,0.0,-1000.5,2.5,2.0,2.5
12:23:31,300000.0,RTL,0.00010556014967733063,0.00046169232518877834,0.6192898750305176,-4.6910776291042566e-05,-0.0008700135513208807,0.00032174360239878297,-35.3623518,149.1660323,277808.0,-2.0,0.0,-152.0,0.0,0.0,-999.75,3.0,2.75,3.0
12:23:32,300000.0,RTL,0.0003156178936478682,0.0005049631581641734,0.619017630815506,0.002313273143954575,-0.00017701613251119852,0.0007856228621676564,-35.3623518,149.1660323,278972.5,-1.5,0.0,-152.0,0.0,0.0,-1000.5,5.5,3.5,4.0
12:23:34,300000.0,RTL,0.0008683930791448802,0.0007241245766635984,0.6190640032291412,-0.001486239256337285,-9.976211003959179e-06,-0.0003442632732912898,-35.3623518,149.1660323,282079.0,-1.0,0.0,-152.0,0.0,0.0,-999.5,2.0,3.5,3.0
12:23:35,300000.0,RTL,0.00038093906664471433,0.0013021766499150544,0.6188109368085861,-0.0013736149994656444,0.0002564184251241386,0.00015441124560311437,-35.3623518,149.1660323,284022.5,-1.0,0.0,-152.0,0.0,0.0,-999.75,2.25,4.0,3.0
12:23:36,300000.0,RTL,5.474059048538038e-05,0.0014642983442172408,0.6185853183269501,0.0015937580028548837,-0.001117431209422648,0.0006095651770010591,-35.3623518,149.1660323,285190.0,-1.0,0.0,-152.0,0.0,0.0,-1000.5,5.0,2.5,3.5
12:23:38,300000.0,RTL,0.0005868162261322141,0.0009088757506106049,0.6187336146831512,-0.00012254074681550264,-7.453956641256809e-06,2.6848632842302322e-05,-35.3623518,149.1660323,288295.0,-1.0,0.0,-152.0,0.0,0.0,-1000.0,3.5,3.5,3.0
12:23:39,224295.0,RTL,0.0005063406642875634,0.0011919475218746811,0.6185739636421204,0.00011351320426911116,0.0003103514900431037,0.0006316027138382196,-35.3623518,149.1660323,290242.25,-1.5,0.0,-152.0,0.0,0.0,-999.75,3.5,3.75,3.75
12:23:40,224295.0,RTL,0.0005397741915658116,0.0010120201332028955,0.6183486580848694,0.001075532054528594,-5.6290882639586926e-05,0.00023394986055791378,-35.3623518,149.1660323,291411.5,-2.0,0.0,-152.0,0.0,0.0,-1000.0,4.5,3.5,3.5
12:23:42,224295.0,RTL,0.0006128551613073796,0.0013973923050798476,0.6184552311897278,0.001154865836724639,0.0006688630674034357,0.0006384198786690831,-35.3623518,149.1660323,294514.0,-2.0,0.0,-152.0,0.0,0.0,-1000.0,4.5,4.0,3.5
12:23:43,12550.0,RTL,6.370248320308747e-05,0.0004726354745798744,0.618603065609932,0.00026254268595948815,-0.0006421795696951449,0.0015653637237846851,-35.3623518,149.1660323,296451.25,-2.0,0.0,-152.0,0.0,0.0,-999.75,4.0,2.75,4.75
12:23:44,12550.0,RTL,0.0001965155897778459,0.0005904131976421922,0.6184653043746948,0.001172939082607627,0.0013009498361498117,-0.0011784182861447334,-35.3623518,149.1660323,297616.0,-1.5,0.0,-152.0,0.0,0.0,-1000.5,5.0,5.0,2.0
12:23:46,12550.0,RTL,0.0009013359085656703,0.0004277994448784739,0.61842280626297,0.0004175580106675625,-0.0007545780390501022,0.0008653311524540186,-35.3623518,149.1660323,300730.5,-1.0,0.0,-152.0,0.0,0.0,-1000.0,4.0,2.5,3.5
12:23:47,171935.0,RTL,0.0010786289640236646,0.0010338510619476438,0.6189989298582077,-0.0008624432957731187,0.000518814311362803,-0.00044046295806765556,-35.3623518,149.1660323,302673.5,-1.0,0.0,-152.0,0.0,0.0,-999.75,2.5,4.25,2.75
12:23:48,171935.0,RTL,0.0011026615393348038,0.0010246920865029097,0.6188460886478424,0.0006184588419273496,-0.00012410175986588,0.0023477637441828847,-35.3623518,149.1660323,303841.0,-1.0,0.0,-152.0,0.0,0.0,-1000.0,4.0,3.0,5.5
12:23:50,171935.0,RTL,0.0005501754058059305,0.0018739723018370569,0.618849128484726,-2.9292074032127857e-05,-0.0018831812776625156,0.001234193448908627,-35.3623518,149.1660323,306947.0,-2.0,0.0,-152.0,0.0,0.0,-1000.5,3.5,1.5,4.5
12:23:51,28362.0,RTL,-8.12573307484854e-06,0.0011691806284943596,0.6188618540763855,-0.0006726986612193286,-0.0010810134699568152,0.00021221133647486567,-35.3623518,149.1660324,308884.25,-2.0,0.0,-152.0,0.0,0.0,-1000.0,3.0,2.5,3.5
12:23:52,28362.0,RTL,-0.00010909570119110867,0.0005799882055725902,0.6189126372337341,0.0004048014525324106,0.0009285281412303448,0.0005343511002138257,-35.3623518,149.1660324,310049.0,-2.0,0.0,-152.0,0.0,0.0,-1000.0,3.5,4.5,3.5
12:23:54,28362.0,RTL,0.0007511635194532573,0.0008048996969591826,0.6186342537403107,0.001493091695010662,0.0005118031986057758,-0.0011717674788087606,-35.3623518,149.1660324,313156.0,-1.0,0.0,-152.0,0.0,0.0,-1000.5,5.0,4.5,2.0
12:23:55,200.0,RTL,0.0010558798385318369,0.000548570606042631,0.6186133176088333,0.0006240057409740984,0.0010569485602900386,0.001064295880496502,-35.3623518,149.1660323,315100.5,-1.0,0.0,-152.0,0.0,0.0,-999.75,4.5,4.5,4.5
12:23:56,200.0,RTL,0.0007094096508808434,0.0007829648966435343,0.6187486052513123,-0.0003923436161130667,-0.0009857482509687543,0.0021828048629686236,-35.3623518,149.1660323,316267.0,-1.0,0.0,-152.0,0.0,0.0,-1000.0,3.0,3.0,5.5
12:23:58,200.0,RTL,-0.00037613091990351677,0.000921233935514465,0.6183567345142365,-0.00046129687689244747,0.00014833733439445496,-0.001372123253531754,-35.3623518,149.1660323,319373.0,-1.0,0.0,-152.0,0.0,0.0,-1000.0,3.0,3.5,2.0
12:23:59,178464.0,RTL,2.4264264197881857e-05,0.0004928141352138482,0.6184296905994415,-1.9914587028324604e-05,-0.0005558382254093885,0.00021796883083879948,-35.362351874999995,149.1660323,321315.0,-1.0,0.0,-152.0,0.0,0.0,-1000.0,3.75,3.0,3.5
12:24:00,178464.0,RTL,0.00012368253010208718,0.0004284566384740174,0.6184154450893402,0.0007313024252653122,-0.0001054288586601615,0.0013039347250014544,-35.3623519,149.1660323,322480.5,-1.0,0.0,-152.0,0.0,0.0,-1000.0,4.5,4.0,5.0
12:24:02,178464.0,RTL,-0.0003881294542225078,0.00014445657143369317,0.6183786392211914,-0.00043095904402434826,-0.0007222152780741453,0.0026169157354161143,-35.3623519,149.1660323,325594.5,0.0,0.0,-152.0,0.0,0.0,-999.5,3.5,3.0,6.0
12:24:03,200.0,RTL,-0.00055950087698875,7.858082972234115e-05,0.6191951334476471,-0.000511414313223213,-0.001005896192509681,0.0011429706355556846,-35.3623519,149.1660323,327527.5,0.0,0.0,-152.0,0.0,0.0,-1000.25,3.25,2.5,4.5
12:24:04,200.0,RTL,-0.0007383852207567543,-0.00043243901745881885,0.6189369261264801,6.098998710513115e-06,-0.0008114046650007367,0.0006949257804080844,-35.362352,149.1660323,328697.0,0.0,0.0,-152.0,0.0,0.0,-1000.0,4.0,3.0,4.0
12:24:06,200.0,RTL,-0.0005679437599610537,-5.9676955061149783e-05,0.6188350915908813,-0.0016983039677143097,-0.0006368948379531503,0.0002280705375596881,-35.362352,149.1660323,331808.0,0.0,0.0,-152.0,0.0,0.0,-1000.0,2.0,3.0,4.0
12:24:07,200.0,RTL,-0.0007168568481574766,-6.187266808410641e-05,0.6188396662473679,-0.0003532926202751696,0.00023663067258894444,0.0005263154162093997,-35.362352,149.16603235000002,333749.25,0.0,0.0,-152.0,0.0,0.0,-999.75,3.75,4.25,4.25
12:24:08,200.0,RTL,-0.0010996797354891896,-4.7460307541769e-05,0.6186807751655579,-0.00030373793561011553,0.0003414206439629197,0.0009256231132894754,-35.362352,149.1660324,334914.0,0.0,0.0,-152.0,0.0,0.0,-1000.5,3.0,4.0,4.5
12:24:10,200.0,RTL,-0.0007922049262560904,-0.0005203182226978242,0.6186843812465668,0.001228067558258772,-0.0005840003723278642,0.0007393158739432693,-35.362352,149.1660324,338023.5,0.0,0.0,-152.0,0.0,0.0,-1000.5,5.0,3.0,4.0
12:24:11,52764.0,RTL,-0.0009467932832194492,-0.0005619352741632611,0.6186525970697403,0.0004357606521807611,-0.0008648810326121747,0.0013825104106217623,-35.362352,149.1660324,339962.0,0.0,0.0,-152.0,0.0,0.0,-999.75,4.25,2.5,4.5
12:24:12,52764.0,RTL,-0.0007052781293168664,-0.0006044968904461712,0.6184530556201935,5.699857138097286e-05,-0.00168426928576082,-0.0011513644130900502,-35.362352,149.1660324,341131.5,0.0,0.0,-152.0,0.0,0.0,-1000.0,3.5,2.0,2.5
12:24:14,52764.0,RTL,-0.0009863046288955957,-0.0009504523477517068,0.6185922920703888,0.00016018096357584,-0.000772013096138835,-0.00033006584271788597,-35.3623521,149.1660324,344234.0,1.0,0.0,-152.0,0.0,0.0,-1000.0,3.5,2.5,3.0
12:24:15,216012.0,RTL,-0.0007694203814025968,-0.00035504850984580116,0.618615448474884,0.00010831595864146948,0.0007375308778136969,3.7480262108147144e-05,-35.3623521,149.1660324,346175.75,1.0,0.0,-152.0,0.0,0.0,-999.5,3.75,4.5,3.5
12:24:16,216012.0,RTL,-0.0005506575689651072,-1.1616693882388063e-05,0.618502289056778,-0.0002859459491446614,-0.0005488123279064894,0.00017693592235445976,-35.3623521,149.1660324,347340.5,1.0,0.0,-152.0,0.0,0.0,-1000.0,3.5,3.0,3.5
12:24:18,216012.0,RTL,-0.0011198045103810728,-0.0005922811105847359,0.6183892786502838,0.00037927122320979834,-0.0010136028286069632,0.0010619624517858028,-35.3623521,149.1660324,350450.5,0.0,0.0,-152.0,0.0,0.0,-1000.0,4.0,2.5,4.5
12:24:19,120371.0,RTL,-0.0014791241846978664,-0.00033199478093592916,0.6188564002513885,-0.001341404509730637,-0.00014510168693959713,0.0014949112082831562,-35.3623521,149.1660324,352391.0,0.0,0.0,-152.0,0.0,0.0,-999.75,2.25,3.5,5.0
12:24:20,120371.0,RTL,-0.0018038915586657822,-0.001345669210422784,0.6193687319755554,-0.0007758579449728131,-0.0007979145739227533,-0.0005362422671169043,-35.3623521,149.1660324,353555.5,1.0,0.0,-152.0,0.0,0.0,-999.5,2.5,3.0,3.0
12:24:22,120371.0,RTL,-0.001172554912045598,-0.0009140223846770823,0.6188247501850128,-0.00044389721006155014,0.00039813912007957697,0.0008475142531096935,-35.3623521,149.1660324,356667.0,1.0,0.0,-152.0,0.0,0.0,-999.5,3.5,4.0,4.0
12:24:23,161411.0,RTL,-0.0010743181919679046,-0.0012152993294876069,0.6190203428268433,-1.6521255020052195e-05,-0.0011926220613531768,0.0003651558072306216,-35.3623521,149.1660324,358605.75,1.0,0.0,-152.0,0.0,0.0,-1000.25,3.25,2.5,3.75
12:24:24,161411.0,RTL,-0.0010383401822764426,-0.0011605974868871272,0.618823230266571,-0.0004249600460752845,-0.00021495181135833263,-0.0010805841302499175,-35.3623521,149.1660324,359774.0,1.0,0.0,-152.0,0.0,0.0,-1000.0,3.0,3.5,2.5
12:24:26,161411.0,RTL,-0.001353665953502059,-0.0009862026781775057,0.6185604631900787,0.0019051649142056704,-0.00036808312870562077,0.0006606841925531626,-35.3623521,149.1660324,362887.5,1.0,0.0,-152.0,0.0,0.0,-1000.0,5.5,3.5,4.0
12:24:27,178380.0,RTL,-0.0011367363622412086,-0.0011018760269507766,0.6187455207109451,-0.00043868430657312274,-0.00022623833501711488,0.0006919404841028154,-35.3623521,149.1660324,364823.0,1.0,0.0,-152.0,0.0,0.0,-999.75,3.0,3.25,4.25
12:24:28,178380.0,RTL,-0.001231620495673269,-0.0008318171894643456,0.618854820728302,-0.00231910590082407,-0.0015027939807623625,0.00024288252461701632,-35.3623521,149.1660324,365994.0,1.0,0.0,-152.0,0.0,0.0,-1000.0,1.0,2.0,3.5
12:24:30,178380.0,RTL,-0.0008157218398991972,-0.0005181595770409331,0.6188478469848633,0.0009136819280683994,0.0005398010835051537,-0.0006173835135996342,-35.3623521,149.1660324,369096.5,1.0,0.0,-152.0,0.0,0.0,-1000.0,4.0,4.0,3.0
12:24:31,177894.0,RTL,-0.0013067640829831362,-0.00046240759547799826,0.6187479496002197,-0.0014588242629542947,-0.0005836047348566353,-0.0004900111234746873,-35.3623521,149.1660324,371042.0,1.0,0.0,-152.0,0.0,0.0,-1000.0,2.0,2.75,2.75
12:24:32,177894.0,RTL,-0.0017815628671087325,-0.0006789412873331457,0.6184723973274231,-0.0017204893520101905,-0.0019134506583213806,-0.001098951674066484,-35.3623521,149.1660324,372207.5,1.0,0.0,-152.0,0.0,0.0,-1000.0,1.5,1.5,2.5
12:24:34,177894.0,RTL,-0.001837738964240998,-0.001433379016816616,0.6186331510543823,-0.00219864584505558,0.0003682812675833702,0.0004668466281145811,-35.3623522,149.1660324,375314.0,2.0,0.0,-152.0,0.0,0.0,-999.0,1.5,4.0,4.5
12:24:35,239101.0,RTL,-0.00138448053621687,-0.001353203522739932,0.618851974606514,0.0010695281671360135,-9.47139342315495e-05,0.0007475974853150547,-35.3623522,149.1660324,377257.75,2.0,0.0,-152.0,0.0,0.0,-1000.0,4.5,3.25,4.5
12:24:36,239101.0,RTL,-0.0011685506906360388,-0.0014539796975441277,0.6191343367099762,0.0001156260259449482,-0.0004149612504988909,0.0010283831506967545,-35.3623522,149.1660324,378424.5,2.0,0.0,-152.0,0.0,0.0,-1000.0,3.5,3.0,5.0
12:24:38,239101.0,RTL,-0.001124625385273248,-0.0009229326678905636,0.6191726326942444,-0.0007466190727427602,-0.0019876628648489714,-0.0011606024345383048,-35.3623522,149.1660324,381529.5,1.0,0.0,-152.0,0.0,0.0,-1000.0,2.5,1.5,2.0
12:24:39,189523.0,RTL,-0.0012992803531233221,-0.0011085991864092648,0.6191317290067673,-0.00117831164970994,-0.00040188495768234134,-0.0005189155926927924,-35.3623522,149.1660324,383469.25,1.0,0.0,-152.0,0.0,0.0,-1000.0,2.0,3.0,3.0
12:24:40,189523.0,RTL,-0.001459746272303164,-0.00112346833338961,0.6188272535800934,-0.00037943979259580374,-0.0008396196644753218,0.0006339775864034891,-35.3623522,149.1660324,384634.5,1.0,0.0,-152.0,0.0,0.0,-999.5,3.0,3.0,4.0
12:24:42,189523.0,RTL,-0.000979354023002088,-0.0013364917249418795,0.6188929080963135,-0.001540828263387084,0.0011485895374789834,-0.00028899824246764183,-35.3623522,149.1660324,387741.5,1.0,0.0,-152.0,0.0,0.0,-999.5,1.5,4.5,3.5
12:24:43,159653.0,RTL,-0.001532960479380563,-0.0009004998719319701,0.6186754703521729,0.000563626759685576,-7.289560744538903e-05,-0.0003589062253013253,-35.3623522,149.1660324,389685.0,1.0,0.0,-152.0,0.0,0.0,-999.75,3.75,3.25,3.25
12:24:44,159653.0,RTL,-0.0011957651004195213,-0.0010090754658449441,0.6188376247882843,-0.0001643531722947955,-0.0007580092642456293,-0.0005454909987747669,-35.3623522,149.1660324,390850.0,1.0,0.0,-152.0,0.0,0.0,-1000.0,3.5,2.5,3.0
12:24:46,159653.0,RTL,-0.001429183699656278,-0.0010788536164909601,0.6186882555484772,-0.00010469334665685892,-0.0013133301981724799,0.00015353690832853317,-35.3623522,149.1660324,393956.5,1.0,0.0,-152.0,0.0,0.0,-1000.0,3.5,2.0,3.5
12:24:47,183153.0,RTL,-0.0013208686432335526,-0.0012049385986756533,0.6186741590499878,-0.0003366200835444033,-0.0009550421382300556,-0.0005915009533055127,-35.3623522,149.1660324,395903.75,1.0,0.0,-152.0,0.0,0.0,-1000.0,3.0,2.25,3.0
12:24:48,183153.0,RTL,-0.0013736897963099182,-0.0011609989451244473,0.6185249388217926,4.853785503655672e-05,-0.00011197070125490427,-0.0009204520611092448,-35.3623522,149.1660324,397070.5,2.0,0.0,-152.0,0.0,0.0,-1000.5,3.5,3.0,2.5
12:24:50,183153.0,RTL,-0.0013849401148036122,-0.0011567905894480646,0.6185910105705261,-0.0002861754037439823,0.0001879242481663823,-0.0010707414476200938,-35.3623522,149.1660324,400177.5,1.5,0.0,-152.0,0.0,0.0,-1000.0,3.0,3.5,2.5
12:24:51,71796.0,RTL,-0.0015567837399430573,-0.0010305006289854646,0.6187170445919037,0.00020612392108887434,-0.0003260097582824528,0.00025218509836122394,-35.3623522,149.1660324,402119.0,1.75,0.0,-152.0,0.0,0.0,-1000.0,3.5,3.0,3.75
12:24:52,71796.0,RTL,-0.0014445044798776507,-0.0012022983864881098,0.6191409230232239,-0.0013568998547270894,-0.001853434951044619,-1.890747807919979e-05,-35.3623522,149.1660324,403284.0,1.5,0.0,-152.0,0.0,0.0,-1000.0,2.0,1.5,3.5
12:24:54,71796.0,RTL,-0.0013730774517171085,-0.0011095288791693747,0.6191126704216003,-0.0023080945247784257,-0.000736924004741013,0.00037695164792239666,-35.3623522,149.1660324,406390.5,1.0,0.0,-152.0,0.0,0.0,-1000.0,1.5,2.5,3.5
12:24:55,88963.0,RTL,-0.0013468603428918868,-0.0011710055987350643,0.6191106140613556,-0.00041046738624572754,0.0004311404190957546,-0.0012867036275565624,-35.3623522,149.1660324,408332.5,1.5,0.0,-152.0,0.0,0.0,-999.5,2.5,3.5,2.0
12:24:56,88963.0,RTL,-0.0015630704001523554,-0.0014804404345341027,0.6193157136440277,-0.0015637895558029413,-0.0025277925305999815,0.00013100507203489542,-35.3623522,149.1660324,409497.5,1.5,0.0,-152.0,0.0,0.0,-1000.0,1.5,1.0,3.5
12:24:58,88963.0,RTL,-0.0014015049091540277,-0.001165054622106254,0.6189759969711304,-0.0002711403649300337,-0.0005078507820144296,-0.0010376609861850739,-35.3623522,149.1660324,412608.5,2.0,0.0,-152.0,0.0,0.0,-1000.0,2.5,2.5,2.5
12:24:59,124488.0,RTL,-0.0013136392226442695,-0.001287068211240694,0.618850827217102,-0.0004058503545820713,-9.413424413651228e-05,-0.0001487537520006299,-35.3623522,149.1660324,414546.25,2.0,0.0,-152.0,0.0,0.0,-999.75,2.75,2.75,3.25
12:25:00,124488.0,RTL,-0.0010729702771641314,-0.0010792253888212144,0.6186609268188477,-6.731110624969006e-05,0.0005147409392520785,-0.0012303156545385718,-35.3623522,149.1660324,415713.5,2.0,0.0,-152.0,0.0,0.0,-1000.0,3.0,3.5,2.5
12:25:02,124488.0,RTL,-0.0006903389294166118,-0.0014468457084149122,0.6187688708305359,-0.0007662813877686858,0.0005763561930507421,-0.0020191173534840345,-35.3623522,149.1660323,418817.5,1.0,0.0,-152.0,0.0,0.0,-1000.5,2.0,4.0,1.5
12:25:03,200.0,RTL,-0.0013613672344945371,-0.000881447340361774,0.6185597032308578,-0.001771292241755873,0.0006012336234562099,-0.0002618702710606158,-35.3623522,149.1660323,420762.75,1.0,0.0,-152.0,0.0,0.0,-999.5,1.25,3.75,3.0
12:25:04,200.0,RTL,-0.0017474341439083219,-0.0007920492789708078,0.618880569934845,8.624442853033543e-05,-0.0005551394424401224,-0.0002670405665412545,-35.3623522,149.1660323,421932.0,1.0,0.0,-152.0,0.0,0.0,-1000.5,3.0,2.0,3.0
12:25:06,200.0,RTL,-0.0016393227851949632,-0.000987042614724487,0.6187483668327332,-0.0008912533521652222,-0.00023750599939376116,-0.001940117683261633,-35.3623522,149.1660324,425034.0,1.0,0.0,-152.0,0.0,0.0,-1000.0,2.0,2.5,1.5
12:25:07,75690.0,RTL,-0.0013655911898240447,-0.0011492226039990783,0.6187867522239685,-0.0007712497608736157,0.0006904523470439017,0.001267724670469761,-35.3623522,149.1660324,426975.75,1.75,0.0,-152.0,0.0,0.0,-999.25,2.5,3.75,4.25
12:25:08,75690.0,RTL,-0.0011831194278784096,-0.001313928107265383,0.6193756759166718,-9.040418080985546e-05,-0.0011095828376710415,-0.001486751134507358,-35.3623522,149.1660324,428140.5,1.0,0.0,-152.0,0.0,0.0,-1000.5,3.0,2.0,2.0
12:25:10,75690.0,RTL,-0.0008292095153592527,-0.0014301250921562314,0.6191692352294922,-0.0019904286600649357,0.0006721410900354385,-0.0009690267033874989,-35.3623522,149.1660323,431256.0,1.5,0.0,-152.0,0.0,0.0,-1000.0,1.5,4.0,2.5
12:25:11,103879.0,RTL,-0.0012805625447072089,-0.0010933401790680364,0.6190616935491562,-0.0005264771752990782,0.0002946142922155559,-0.0006142338388599455,-35.3623522,149.1660323,433196.5,1.25,0.0,-152.0,0.0,0.0,-1000.0,2.25,3.25,2.25
12:25:12,103879.0,RTL,-0.001726719201542437,-0.0005741235509049147,0.6189733445644379,-0.0013977569178678095,0.0013954084133729339,0.00043823104351758957,-35.3623522,149.1660323,434365.0,1.5,0.0,-152.0,0.0,0.0,-999.5,1.5,4.5,3.5
12:25:14,103879.0,RTL,-0.0018445933819748461,-0.0011248982627876103,0.6187132596969604,5.917402449995279e-05,0.00023489550221711397,-0.00032083678524941206,-35.3623522,149.1660324,437467.5,2.0,0.0,-152.0,0.0,0.0,-999.5,2.5,3.0,3.0
12:25:15,32689.0,RTL,-0.001309107115957886,-0.001417338557075709,0.6187490075826645,0.0011909076129086316,-4.71581588499248e-05,-0.00019487040117383003,-35.3623522,149.1660324,439410.0,2.0,0.0,-152.0,0.0,0.0,-1000.0,4.0,2.75,3.0
12:25:16,32689.0,RTL,-0.0009660185314714909,-0.0016545441467314959,0.6190274655818939,0.0003407994518056512,-8.133228402584791e-05,4.1351537220180035e-05,-35.3623522,149.1660324,440574.5,2.0,0.0,-152.0,0.0,0.0,-999.5,3.0,3.0,3.0
12:25:18,32689.0,RTL,-0.0005124620511196554,-0.0015687844133935869,0.6189509034156799,0.0010474077425897121,-0.0005281830672174692,0.0007874640868976712,-35.3623522,149.1660323,443686.0,1.0,0.0,-152.0,0.0,0.0,-1000.0,3.5,2.5,3.5
12:25:19,184066.0,RTL,-0.0009931009262800217,-0.0012214243179187179,0.6186157166957855,-0.001124487753259018,0.0006174321169964969,-0.0015357107622548938,-35.3623522,149.1660323,445624.75,1.0,0.0,-152.0,0.0,0.0,-1000.0,1.75,3.25,1.5
12:25:20,184066.0,RTL,-0.0011369034764356911,-0.0011824312969110906,0.6185964345932007,0.0009034111863002181,0.000266898307017982,-0.0015132089611142874,-35.3623522,149.1660323,446793.0,1.0,0.0,-152.0,0.0,0.0,-1000.5,3.5,3.0,1.5
12:25:22,184066.0,RTL,-0.0014319407055154443,-0.0010020853369496763,0.6186465322971344,0.0017116413218900561,-0.00026761472690850496,0.0005664422642439604,-35.3623522,149.1660323,449894.5,1.0,0.0,-152.0,0.0,0.0,-1000.0,4.5,2.5,3.5
12:25:23,300000.0,RTL,-0.0013767019263468683,-0.0011989270569756627,0.6186680644750595,-0.0009572666021995246,0.0003930198145098984,2.9470305889844894e-05,-35.3623522,149.1660323,451842.25,1.25,0.0,-152.0,0.0,0.0,-1000.0,2.0,3.25,3.25
12:25:24,300000.0,RTL,-0.0017754166037775576,-0.0010594351624604315,0.6190343499183655,2.5402987375855446e-06,-0.001042883493937552,-0.0013731056824326515,-35.3623522,149.1660323,453012.5,1.5,0.0,-152.0,0.0,0.0,-1000.0,3.0,2.0,1.5
12:25:26,300000.0,RTL,-0.0013716411776840687,-0.0012024878524243832,0.6191023886203766,-0.0009008034830912948,-0.00024771643802523613,-0.0021100719459354877,-35.3623522,149.1660323,456116.0,2.0,0.0,-152.0,0.0,0.0,-1000.0,2.0,2.5,1.0
12:25:27,17108.0,RTL,-0.0016071621212176979,-0.001605685509275645,0.6192541569471359,0.00020641472656279802,-0.0007329797954298556,-0.0007514714961871505,-35.3623522,149.1660323,458053.0,2.0,0.0,-152.0,0.0,0.0,-1000.25,2.5,2.0,2.25
12:25:28,17108.0,RTL,-0.0015634834999218583,-0.001470469287596643,0.619178980588913,0.00211995467543602,0.0015526664210483432,0.0004328172653913498,-35.3623522,149.1660323,459218.0,2.0,0.0,-152.0,0.0,0.0,-1000.0,4.5,4.5,3.5
12:25:30,17108.0,RTL,-0.0007196462247520685,-0.0018320101662538946,0.6190229654312134,0.0005438441876322031,0.00022188620641827583,0.00024145387578755617,-35.3623522,149.1660323,462332.0,2.0,0.0,-152.0,0.0,0.0,-1000.0,3.0,3.0,3.0
12:25:31,105897.0,RTL,-0.000890503913979046,-0.0012247418490005657,0.6190187633037567,0.00044517128844745457,0.0006709432927891612,-0.0004108034772798419,-35.3623522,149.1660323,464274.75,2.0,0.0,-152.0,0.0,0.0,-1000.0,3.0,3.25,2.25
12:25:32,105897.0,RTL,-0.0010283317824359983,-0.0008736987947486341,0.6188338398933411,-0.0016308980993926525,0.0008509873878210783,-0.0010340515291318297,-35.3623522,149.1660323,465442.0,2.0,0.0,-152.0,0.0,0.0,-1000.0,1.0,4.0,2.0
12:25:34,105897.0,RTL,-0.0017135431990027428,-0.0008413926407229155,0.6187280118465424,-0.0011170345824211836,0.001262382254935801,6.282527465373278e-05,-35.3623522,149.1660324,468548.0,1.0,0.0,-152.0,0.0,0.0,-999.0,2.0,4.0,3.0
