time_stamp,MODE,lat,lon,relative_alt,roll,pitch,yaw,rollspeed,pitchspeed,yawspeed,xacc,yacc,zacc,xgyro,ygyro,zgyro,vx,vy,vz,RTL_ALT
13:41:55.101,STABILIZE,-35.3632622,149.1652375,8,-0.00045270269038155675,0.0011047484586015344,0.02643655799329281,0.00032089691376313567,0.00035304081393405795,0.0021548476070165634,0,1,-1000,0,0,0,-1,1,0,1500.0
13:41:55.302,STABILIZE,-35.3632622,149.1652375,8,-0.00045270269038155675,0.0011047484586015344,0.02643655799329281,0.00032089691376313567,0.00035304081393405795,0.0021548476070165634,0,1,-1000,0,0,0,-1,1,0,1500.0
13:41:55.503,STABILIZE,-35.3632622,149.1652375,8,-0.00045270269038155675,0.0011047484586015344,0.02643655799329281,0.00032089691376313567,0.00035304081393405795,0.0021548476070165634,0,1,-1000,0,0,0,-1,1,0,1500.0
13:41:55.703,STABILIZE,-35.3632622,149.1652375,8,-0.00045270269038155675,0.0011047484586015344,0.02643655799329281,0.00032089691376313567,0.00035304081393405795,0.0021548476070165634,0,1,-1000,0,0,0,-1,1,0,1500.0
13:41:55.904,STABILIZE,-35.3632622,149.1652375,8,-0.00045270269038155675,0.0011047484586015344,0.02643655799329281,0.00032089691376313567,0.00035304081393405795,0.0021548476070165634,0,1,-1000,0,0,0,-1,1,0,1500.0
13:41:56.104,STABILIZE,-35.3632621,149.1652375,10,-0.0006736427894793451,0.001014068373478949,0.025937246158719063,0.00032604136504232883,0.00029126773006282747,0.0020065708085894585,0,1,-1000,0,0,0,-1,1,0,1500.0
13:41:56.305,STABILIZE,-35.3632621,149.1652375,10,-0.0006736427894793451,0.001014068373478949,0.025937246158719063,0.00032604136504232883,0.00029126773006282747,0.0020065708085894585,0,1,-1000,0,0,0,-1,1,0,1500.0
13:41:56.506,STABILIZE,-35.3632621,149.1652375,11,-0.0004139144148211926,0.0009848411427810788,0.02576366811990738,9.770435281097889e-05,0.00019905745284631848,0.0019929325208067894,0,1,-1000,0,0,0,-1,1,0,1500.0
13:41:56.707,STABILIZE,-35.3632621,149.1652375,11,-0.0004391958937048912,0.0009774805512279272,0.025714518502354622,0.0001878294860944152,0.0003726084833033383,0.002026556758210063,0,1,-1000,0,0,0,-1,1,0,1500.0
13:41:56.909,STABILIZE,-35.3632621,149.1652375,11,-0.0004391958937048912,0.0009774805512279272,0.025714518502354622,0.0001878294860944152,0.0003726084833033383,0.002026556758210063,0,1,-1000,0,0,0,-1,1,0,1500.0
13:41:57.111,STABILIZE,-35.3632621,149.1652375,11,-0.0004391958937048912,0.0009774805512279272,0.025714518502354622,0.0001878294860944152,0.0003726084833033383,0.002026556758210063,0,1,-1000,0,0,0,-1,1,0,1500.0
13:41:57.312,STABILIZE,-35.3632621,149.1652375,11,-0.0004391958937048912,0.0009774805512279272,0.025714518502354622,0.0001878294860944152,0.0003726084833033383,0.002026556758210063,0,1,-1000,0,0,0,-1,1,0,1500.0
13:41:57.514,STABILIZE,-35.3632621,149.1652375,11,-0.0004391958937048912,0.0009774805512279272,0.025714518502354622,0.0001878294860944152,0.0003726084833033383,0.002026556758210063,0,1,-1000,0,0,0,-1,1,0,1500.0
13:41:57.716,STABILIZE,-35.3632621,149.1652375,11,-0.0004391958937048912,0.0009774805512279272,0.025714518502354622,0.0001878294860944152,0.0003726084833033383,0.002026556758210063,0,1,-1000,0,0,0,-1,1,0,1500.0
13:41:57.917,STABILIZE,-35.3632621,149.1652375,13,-0.0005907118320465088,0.0009539535385556519,0.02517043612897396,0.00013765186304226518,0.0002090984780807048,0.0017743137432262301,0,1,-1000,0,0,0,-1,1,0,1500.0
13:41:58.119,STABILIZE,-35.3632621,149.1652375,13,-0.0005907118320465088,0.0009539535385556519,0.02517043612897396,0.00013765186304226518,0.0002090984780807048,0.0017743137432262301,0,1,-1000,0,0,0,-1,1,0,1500.0
13:41:58.320,STABILIZE,-35.3632621,149.1652375,13,-0.0005907118320465088,0.0009539535385556519,0.02517043612897396,0.00013765186304226518,0.0002090984780807048,0.0017743137432262301,0,1,-1000,0,0,0,-1,1,0,1500.0
13:41:58.521,STABILIZE,-35.3632621,149.1652375,13,-0.0005907118320465088,0.0009539535385556519,0.02517043612897396,0.00013765186304226518,0.0002090984780807048,0.0017743137432262301,0,1,-1000,0,0,0,-1,1,0,1500.0
13:41:58.724,STABILIZE,-35.3632621,149.1652375,13,-0.0005907118320465088,0.0009539535385556519,0.02517043612897396,0.00013765186304226518,0.0002090984780807048,0.0017743137432262301,0,1,-1000,0,0,0,-1,1,0,1500.0
13:41:58.925,STABILIZE,-35.3632621,149.1652375,13,-0.0005907118320465088,0.0009539535385556519,0.02517043612897396,0.00013765186304226518,0.0002090984780807048,0.0017743137432262301,0,1,-1000,0,0,0,-1,1,0,1500.0
13:41:59.126,STABILIZE,-35.3632621,149.1652375,13,-0.0005907118320465088,0.0009539535385556519,0.02517043612897396,0.00013765186304226518,0.0002090984780807048,0.0017743137432262301,0,1,-1000,0,0,0,-1,1,0,1500.0
13:41:59.328,STABILIZE,-35.3632621,149.1652375,13,-0.0005907118320465088,0.0009539535385556519,0.02517043612897396,0.00013765186304226518,0.0002090984780807048,0.0017743137432262301,0,1,-1000,0,0,0,-1,1,0,1500.0
13:41:59.529,STABILIZE,-35.3632621,149.1652375,15,-0.0007586745778098702,0.0009335286449640989,0.02455158717930317,0.00045371142914518714,0.0003983013448305428,0.0019197182264178991,0,1,-1000,0,1,0,-1,1,0,1500.0
13:41:59.731,STABILIZE,-35.3632621,149.1652375,15,-0.0007736817933619022,0.0009374141227453947,0.024447448551654816,0.0002893551718443632,0.00028274126816540956,0.0018116927240043879,0,2,-1000,0,1,0,-1,1,0,1500.0
13:41:59.933,STABILIZE,-35.3632621,149.1652375,15,-0.0007736817933619022,0.0009374141227453947,0.024447448551654816,0.0002893551718443632,0.00028274126816540956,0.0018116927240043879,0,2,-1000,0,1,0,-1,1,0,1500.0
13:42:00.135,STABILIZE,-35.3632621,149.1652375,15,-0.0007736817933619022,0.0009374141227453947,0.024447448551654816,0.0002893551718443632,0.00028274126816540956,0.0018116927240043879,0,2,-1000,0,1,0,-1,1,0,1500.0
13:42:00.336,STABILIZE,-35.3632621,149.1652375,15,-0.0007736817933619022,0.0009374141227453947,0.024447448551654816,0.0002893551718443632,0.00028274126816540956,0.0018116927240043879,0,2,-1000,0,1,0,-1,1,0,1500.0
13:42:00.537,STABILIZE,-35.3632621,149.1652375,9,-0.0005549144698306918,0.0009425098542124033,0.024155739694833755,0.00015490339137613773,0.00024695671163499355,0.0018335562199354172,0,1,-1000,0,0,1,-1,2,0,1500.0
13:42:00.739,STABILIZE,-35.3632621,149.1652375,8,-0.0005549144698306918,0.0009425098542124033,0.024155739694833755,0.00015490339137613773,0.00024695671163499355,0.0018335562199354172,0,1,-1000,1,1,0,-1,2,0,1500.0
13:42:00.941,STABILIZE,-35.3632621,149.1652375,8,-0.0005549144698306918,0.0009425098542124033,0.024155739694833755,0.00015490339137613773,0.00024695671163499355,0.0018335562199354172,0,1,-1000,1,1,0,-1,2,0,1500.0
13:42:01.142,STABILIZE,-35.3632621,149.1652375,8,-0.0005549144698306918,0.0009425098542124033,0.024155739694833755,0.00015490339137613773,0.00024695671163499355,0.0018335562199354172,0,1,-1000,1,1,0,-1,2,0,1500.0
13:42:01.344,STABILIZE,-35.3632621,149.1652375,8,-0.0005549144698306918,0.0009425098542124033,0.024155739694833755,0.00015490339137613773,0.00024695671163499355,0.0018335562199354172,0,1,-1000,1,1,0,-1,2,0,1500.0
13:42:01.545,STABILIZE,-35.3632622,149.1652375,6,-0.0007779082516208291,0.0009604135993868113,0.0238032303750515,0.00030737760243937373,0.00026857806369662285,0.0018091071397066116,0,2,-1000,0,1,1,-1,1,0,1500.0
13:42:01.747,STABILIZE,-35.3632622,149.1652375,6,-0.0008245042990893126,0.0009642228833399713,0.023724541068077087,0.0002395609044469893,0.0002776301698759198,0.0017153068911284208,0,1,-1000,0,1,0,-1,1,0,1500.0
13:42:01.948,STABILIZE,-35.3632622,149.1652375,6,-0.0008245042990893126,0.0009642228833399713,0.023724541068077087,0.0002395609044469893,0.0002776301698759198,0.0017153068911284208,0,1,-1000,0,1,0,-1,1,0,1500.0
13:42:02.150,STABILIZE,-35.3632622,149.1652375,6,-0.0008245042990893126,0.0009642228833399713,0.023724541068077087,0.0002395609044469893,0.0002776301698759198,0.0017153068911284208,0,1,-1000,0,1,0,-1,1,0,1500.0
13:42:02.351,STABILIZE,-35.3632622,149.1652375,6,-0.0008245042990893126,0.0009642228833399713,0.023724541068077087,0.0002395609044469893,0.0002776301698759198,0.0017153068911284208,0,1,-1000,0,1,0,-1,1,0,1500.0
13:42:02.553,STABILIZE,-35.3632622,149.1652375,6,-0.0008245042990893126,0.0009642228833399713,0.023724541068077087,0.0002395609044469893,0.0002776301698759198,0.0017153068911284208,0,1,-1000,0,1,0,-1,1,0,1500.0
13:42:02.756,STABILIZE,-35.3632622,149.1652375,6,-0.0009867845801636577,0.0009627866675145924,0.02342013269662857,0.0002502209972590208,0.00022590748267248273,0.0017916403012350202,0,1,-1000,0,1,0,-1,1,0,1500.0
13:42:02.958,STABILIZE,-35.3632622,149.1652375,6,-0.0009867845801636577,0.0009627866675145924,0.02342013269662857,0.0002502209972590208,0.00022590748267248273,0.0017916403012350202,0,1,-1000,0,1,0,-1,1,0,1500.0
13:42:03.159,STABILIZE,-35.3632622,149.1652375,6,-0.0009867845801636577,0.0009627866675145924,0.02342013269662857,0.0002502209972590208,0.00022590748267248273,0.0017916403012350202,0,1,-1000,0,1,0,-1,1,0,1500.0
13:42:03.361,STABILIZE,-35.3632622,149.1652375,7,-0.001058440888300538,0.0009613377042114735,0.023269660770893097,0.0002710007247515023,0.00016880815383046865,0.001662377966567874,0,1,-1000,0,0,1,-1,1,0,1500.0
13:42:03.563,STABILIZE,-35.3632622,149.1652375,7,-0.001058440888300538,0.0009613377042114735,0.023269660770893097,0.0002710007247515023,0.00016880815383046865,0.001662377966567874,0,1,-1000,0,0,1,-1,1,0,1500.0
13:42:03.765,STABILIZE,-35.3632622,149.1652375,2,-0.0007981701055541635,0.0009690411970950663,0.023124242201447487,0.0002740379422903061,0.00026246829656884074,0.0016401337925344706,0,1,-1000,0,1,1,-1,2,1,1500.0
13:42:03.966,STABILIZE,-35.3632622,149.1652375,2,-0.0007981701055541635,0.0009690411970950663,0.023124242201447487,0.0002740379422903061,0.00026246829656884074,0.0016401337925344706,0,1,-1000,0,1,1,-1,2,1,1500.0
13:42:04.169,STABILIZE,-35.3632622,149.1652375,2,-0.0007981701055541635,0.0009690411970950663,0.023124242201447487,0.0002740379422903061,0.00026246829656884074,0.0016401337925344706,0,1,-1000,0,1,1,-1,2,1,1500.0
13:42:04.370,STABILIZE,-35.3632622,149.1652375,2,-0.0007981701055541635,0.0009690411970950663,0.023124242201447487,0.0002740379422903061,0.00026246829656884074,0.0016401337925344706,0,1,-1000,0,1,1,-1,2,1,1500.0
13:42:04.571,STABILIZE,-35.3632622,149.1652375,0,-0.0009467984200455248,0.0009587364038452506,0.02292116917669773,0.0002823753166012466,0.00022978876950219274,0.001755635836161673,0,2,-1000,0,1,0,-1,1,0,1500.0
13:42:04.773,STABILIZE,-35.3632622,149.1652375,0,-0.0009467984200455248,0.0009587364038452506,0.02292116917669773,0.0002823753166012466,0.00022978876950219274,0.001755635836161673,0,2,-1000,0,1,0,-1,1,0,1500.0
13:42:04.974,STABILIZE,-35.3632622,149.1652375,0,-0.0009467984200455248,0.0009587364038452506,0.02292116917669773,0.0002823753166012466,0.00022978876950219274,0.001755635836161673,0,2,-1000,0,1,0,-1,1,0,1500.0
13:42:05.175,STABILIZE,-35.3632622,149.1652375,0,-0.0010378372389823198,0.0009661940857768059,0.02279844880104065,0.0002193463733419776,0.0003619920462369919,0.0015377732925117016,0,2,-1000,0,0,1,-1,1,0,1500.0
13:42:05.376,STABILIZE,-35.3632622,149.1652375,0,-0.0010378372389823198,0.0009661940857768059,0.02279844880104065,0.0002193463733419776,0.0003619920462369919,0.0015377732925117016,0,2,-1000,0,0,1,-1,1,0,1500.0
13:42:05.578,STABILIZE,-35.3632622,149.1652375,0,-0.0010378372389823198,0.0009661940857768059,0.02279844880104065,0.0002193463733419776,0.0003619920462369919,0.0015377732925117016,0,2,-1000,0,0,1,-1,1,0,1500.0
13:42:05.780,STABILIZE,-35.3632622,149.1652375,0,-0.0010378372389823198,0.0009661940857768059,0.02279844880104065,0.0002193463733419776,0.0003619920462369919,0.0015377732925117016,0,2,-1000,0,0,1,-1,1,0,1500.0
13:42:05.993,STABILIZE,-35.3632622,149.1652375,0,-0.0010378372389823198,0.0009661940857768059,0.02279844880104065,0.0002193463733419776,0.0003619920462369919,0.0015377732925117016,0,2,-1000,0,0,1,-1,1,0,1500.0
13:42:06.194,STABILIZE,-35.3632622,149.1652375,0,-0.0010378372389823198,0.0009661940857768059,0.02279844880104065,0.0002193463733419776,0.0003619920462369919,0.0015377732925117016,0,2,-1000,0,0,1,-1,1,0,1500.0
13:42:06.396,STABILIZE,-35.3632622,149.1652375,0,-0.0010378372389823198,0.0009661940857768059,0.02279844880104065,0.0002193463733419776,0.0003619920462369919,0.0015377732925117016,0,2,-1000,0,0,1,-1,1,0,1500.0
13:42:06.597,STABILIZE,-35.3632622,149.1652375,0,-0.0010378372389823198,0.0009661940857768059,0.02279844880104065,0.0002193463733419776,0.0003619920462369919,0.0015377732925117016,0,2,-1000,0,0,1,-1,1,0,1500.0
13:42:06.798,STABILIZE,-35.3632622,149.1652375,2,-0.0012155120493844151,0.0009825193556025624,0.02242363803088665,0.00014660053420811892,0.00031228805892169476,0.0015233519952744246,0,1,-1000,0,0,0,-1,1,0,1500.0
13:42:07.000,STABILIZE,-35.3632622,149.1652375,3,-0.0012390059418976307,0.0009909621439874172,0.02237340435385704,0.00023686676286160946,0.00022553227609023452,0.0014592616353183985,0,2,-1000,1,0,0,-1,1,0,1500.0
13:42:07.201,STABILIZE,-35.3632622,149.1652375,3,-0.0012390059418976307,0.0009909621439874172,0.02237340435385704,0.00023686676286160946,0.00022553227609023452,0.0014592616353183985,0,2,-1000,1,0,0,-1,1,0,1500.0
13:42:07.402,STABILIZE,-35.3632622,149.1652375,3,-0.0012390059418976307,0.0009909621439874172,0.02237340435385704,0.00023686676286160946,0.00022553227609023452,0.0014592616353183985,0,2,-1000,1,0,0,-1,1,0,1500.0
13:42:07.604,STABILIZE,-35.3632622,149.1652375,3,-0.0012390059418976307,0.0009909621439874172,0.02237340435385704,0.00023686676286160946,0.00022553227609023452,0.0014592616353183985,0,1,-1000,0,1,0,-1,1,0,1500.0
13:42:07.805,STABILIZE,-35.3632622,149.1652375,3,-0.0012390059418976307,0.0009909621439874172,0.02237340435385704,0.00023686676286160946,0.00022553227609023452,0.0014592616353183985,0,1,-1000,0,1,0,-1,1,0,1500.0
13:42:08.007,STABILIZE,-35.3632622,149.1652375,3,-0.0012390059418976307,0.0009909621439874172,0.02237340435385704,0.00023686676286160946,0.00022553227609023452,0.0014592616353183985,0,1,-1000,0,1,0,-1,1,0,1500.0
13:42:08.208,STABILIZE,-35.3632622,149.1652375,3,-0.0012390059418976307,0.0009909621439874172,0.02237340435385704,0.00023686676286160946,0.00022553227609023452,0.0014592616353183985,0,1,-1000,0,1,0,-1,1,0,1500.0
13:42:08.410,STABILIZE,-35.3632622,149.1652375,3,-0.0012390059418976307,0.0009909621439874172,0.02237340435385704,0.00023686676286160946,0.00022553227609023452,0.0014592616353183985,0,1,-1000,0,1,0,-1,1,0,1500.0
13:42:08.611,STABILIZE,-35.3632622,149.1652375,3,-0.0012390059418976307,0.0009909621439874172,0.02237340435385704,0.00023686676286160946,0.00022553227609023452,0.0014592616353183985,0,1,-1000,0,1,0,-1,1,0,1500.0
13:42:08.813,STABILIZE,-35.3632622,149.1652375,7,-0.0012477971613407135,0.0010082697262987494,0.022086115553975105,0.0001837455201894045,0.0004468123079277575,0.001529304077848792,0,1,-1000,0,0,0,-1,0,0,1500.0
13:42:09.014,STABILIZE,-35.3632622,149.1652375,8,-0.0012400341220200062,0.0010105594992637634,0.02203984186053276,0.00020482402760535479,0.00019608554430305958,0.0014590297359973192,0,1,-1000,0,0,0,-1,0,0,1500.0
13:42:09.216,STABILIZE,-35.3632622,149.1652375,8,-0.0012400341220200062,0.0010105594992637634,0.02203984186053276,0.00020482402760535479,0.00019608554430305958,0.0014590297359973192,0,1,-1000,0,0,0,-1,0,0,1500.0
13:42:09.417,STABILIZE,-35.3632622,149.1652375,8,-0.0012400341220200062,0.0010105594992637634,0.02203984186053276,0.00020482402760535479,0.00019608554430305958,0.0014590297359973192,0,1,-1000,0,0,0,-1,0,0,1500.0
13:42:09.618,STABILIZE,-35.3632622,149.1652375,8,-0.0012400341220200062,0.0010105594992637634,0.02203984186053276,0.00020482402760535479,0.00019608554430305958,0.0014590297359973192,0,2,-1000,0,0,0,-1,0,0,1500.0
13:42:09.820,STABILIZE,-35.3632622,149.1652375,10,-0.0012400341220200062,0.0010105594992637634,0.02203984186053276,0.00020482402760535479,0.00019608554430305958,0.0014590297359973192,0,1,-1000,1,1,1,-1,0,0,1500.0
13:42:10.022,STABILIZE,-35.3632622,149.1652375,10,-0.0012400341220200062,0.0010105594992637634,0.02203984186053276,0.00020482402760535479,0.00019608554430305958,0.0014590297359973192,0,1,-1000,1,1,1,-1,0,0,1500.0
13:42:10.223,STABILIZE,-35.3632622,149.1652375,10,-0.0012400341220200062,0.0010105594992637634,0.02203984186053276,0.00020482402760535479,0.00019608554430305958,0.0014590297359973192,0,1,-1000,1,1,1,-1,0,0,1500.0
13:42:10.425,STABILIZE,-35.3632622,149.1652375,10,-0.0012400341220200062,0.0010105594992637634,0.02203984186053276,0.00020482402760535479,0.00019608554430305958,0.0014590297359973192,0,1,-1000,1,1,1,-1,0,0,1500.0
13:42:10.626,STABILIZE,-35.3632622,149.1652375,8,-0.0009032750967890024,0.000998658244498074,0.021773645654320717,0.00022805493790656328,0.00022905721561983228,0.0014936496736481786,0,1,-1000,1,1,1,-1,1,0,1500.0
13:42:10.828,STABILIZE,-35.3632622,149.1652375,7,-0.0009296850766986609,0.0010010787518694997,0.02172142267227173,0.00020880455849692225,0.00024804926943033934,0.0014034351333975792,0,2,-1000,1,1,0,-1,1,0,1500.0
13:42:11.029,STABILIZE,-35.3632622,149.1652375,6,-0.0009651430300436914,0.001000849180854857,0.02168154902756214,0.00023616297403350472,0.00033784128027036786,0.0013344761682674289,0,2,-1000,1,1,0,-1,1,0,1500.0
13:42:11.231,STABILIZE,-35.3632622,149.1652375,6,-0.0009651430300436914,0.001000849180854857,0.02168154902756214,0.00023616297403350472,0.00033784128027036786,0.0013344761682674289,0,2,-1000,1,1,0,-1,1,0,1500.0
13:42:11.433,AUTO,-35.3632622,149.1652375,6,-0.0009983050404116511,0.0010016015730798244,0.021628886461257935,0.0002860149252228439,0.00032647146144881845,0.001442604698240757,0,2,-1000,0,1,0,-1,1,0,1500.0
13:42:11.636,AUTO,-35.3632622,149.1652375,6,-0.0010278484551236033,0.000997797236777842,0.021590877324342728,0.0003475653356872499,0.0003053403925150633,0.0014858620706945658,0,1,-1000,1,0,0,-1,1,0,122498.0
13:42:11.838,AUTO,-35.3632622,149.1652375,6,-0.0010448939865455031,0.001001355703920126,0.021561000496149063,0.0003232404123991728,0.0003068608930334449,0.0014369795098900795,0,1,-1000,0,0,0,-1,1,0,122498.0
13:42:12.039,AUTO,-35.3632622,149.1652375,6,-0.0010448939865455031,0.001001355703920126,0.021561000496149063,0.0003232404123991728,0.0003068608930334449,0.0014369795098900795,0,1,-1000,0,0,0,-1,1,0,122498.0
13:42:12.241,AUTO,-35.3632622,149.1652375,6,-0.0010448939865455031,0.001001355703920126,0.021561000496149063,0.0003232404123991728,0.0003068608930334449,0.0014369795098900795,0,1,-1000,0,0,0,-1,1,0,122498.0
13:42:12.444,AUTO,-35.3632622,149.1652375,6,-0.0010448939865455031,0.001001355703920126,0.021561000496149063,0.0003232404123991728,0.0003068608930334449,0.0014369795098900795,0,1,-1000,0,0,0,-1,1,0,122498.0
13:42:12.646,AUTO,-35.3632621,149.1652375,6,-0.0010157842189073563,0.0010592926992103457,0.02144814096391201,0.00029292405815795064,0.0002987569896504283,0.001380748813971877,0,1,-1000,0,0,1,0,0,0,122498.0
13:42:12.848,AUTO,-35.3632621,149.1652375,6,-0.0009773623896762729,0.00110687839332968,0.02139773964881897,0.00028139783535152674,0.0002804900286719203,0.0013451843988150358,0,1,-1000,1,0,1,0,0,0,122498.0
13:42:13.050,AUTO,-35.3632621,149.1652375,7,-0.0009507902432233095,0.0011627780040726066,0.02135164849460125,0.0002300600172020495,0.0001921913935802877,0.0013491155114024878,0,1,-1000,0,1,1,0,0,0,122498.0
13:42:13.251,AUTO,-35.3632621,149.1652375,7,-0.0009165577939711511,0.001226187334395945,0.02130913734436035,0.00027383514679968357,0.00017894059419631958,0.0014018579386174679,0,1,-1000,1,0,1,0,0,0,122498.0
13:42:13.453,AUTO,-35.3632621,149.1652375,7,-0.0009165577939711511,0.001226187334395945,0.02130913734436035,0.00027383514679968357,0.00017894059419631958,0.0014018579386174679,0,1,-1000,1,0,1,0,0,0,122498.0
13:42:13.655,AUTO,-35.3632621,149.1652375,7,-0.0008660805178806186,0.001298746676184237,0.021269027143716812,0.000338298617862165,0.00040481844916939735,0.001418174710124731,0,1,-1000,0,0,1,0,0,0,122498.0
13:42:13.856,AUTO,-35.3632621,149.1652375,8,-0.000657226366456598,0.0013643931597471237,0.021205052733421326,-0.00011594209354370832,0.00023916695499792695,0.001564357546158135,0,-20,-1033,0,1,1,0,-1,-2,122498.0
13:42:14.059,AUTO,-35.3632621,149.1652375,8,-0.000657226366456598,0.0013643931597471237,0.021205052733421326,-0.00011594209354370832,0.00023916695499792695,0.001564357546158135,0,-20,-1033,0,1,1,0,-1,-2,122498.0
13:42:14.261,AUTO,-35.3632621,149.1652375,8,-0.000657226366456598,0.0013643931597471237,0.021205052733421326,-0.00011594209354370832,0.00023916695499792695,0.001564357546158135,0,-20,-1033,0,1,1,0,-1,-2,122498.0
13:42:14.464,AUTO,-35.3632621,149.1652375,8,-0.000657226366456598,0.0013643931597471237,0.021205052733421326,-0.00011594209354370832,0.00023916695499792695,0.001564357546158135,0,-20,-1033,0,1,1,0,-1,-2,95236.0
13:42:14.666,AUTO,-35.3632621,149.1652374,18,-0.0005024254787713289,0.0015839725965633988,0.021049369126558304,0.0003064015763811767,0.000322019390296191,0.0013157324865460396,0,1,-1000,0,1,0,0,-1,-2,95236.0
13:42:14.868,AUTO,-35.3632621,149.1652374,19,-0.00044121951214037836,0.0016576662892475724,0.020998677238821983,0.0003153703873977065,0.0003306186990812421,0.001318418770097196,0,1,-1000,1,0,0,0,0,-2,95236.0
13:42:15.069,AUTO,-35.3632621,149.1652374,20,-0.0003689468721859157,0.0017307611415162683,0.02093876339495182,0.00031346315518021584,0.0003304662532173097,0.0012560239993035793,0,1,-1000,1,0,1,0,0,-2,95236.0
13:42:15.270,AUTO,-35.3632621,149.1652374,42,0.0023192011285573244,6.11220020800829e-05,0.020766060799360275,0.01724100485444069,-0.007947233505547047,0.0013135962653905153,0,0,-1172,17,-7,0,0,0,-27,95236.0
13:42:15.472,AUTO,-35.3632621,149.1652374,42,0.0023192011285573244,6.11220020800829e-05,0.020766060799360275,0.01724100485444069,-0.007947233505547047,0.0013135962653905153,0,0,-1172,17,-7,0,0,0,-27,95236.0
13:42:15.674,AUTO,-35.3632621,149.1652374,161,0.0025718004908412695,-0.00017922934785019606,0.02075606770813465,-0.010601533576846123,0.00403318926692009,0.0013566885609179735,0,0,-1154,-10,4,1,0,0,-67,95236.0
13:42:15.876,AUTO,-35.3632621,149.1652374,369,0.0013267649337649345,0.0008403808460570872,0.020807679742574692,-0.004684338346123695,0.003160078078508377,0.002298742765560746,0,0,-1120,-4,4,2,0,0,-100,95236.0
13:42:16.078,AUTO,-35.3632621,149.1652374,369,0.0013267649337649345,0.0008403808460570872,0.020807679742574692,-0.004684338346123695,0.003160078078508377,0.002298742765560746,0,0,-1120,-4,4,2,0,0,-100,95236.0
13:42:16.279,AUTO,-35.3632621,149.1652374,369,0.0013267649337649345,0.0008403808460570872,0.020807679742574692,-0.004684338346123695,0.003160078078508377,0.002298742765560746,0,0,-1120,-4,4,2,0,0,-100,95236.0
13:42:16.492,AUTO,-35.3632621,149.1652374,1336,0.01088122557848692,0.001259252312593162,0.01840227283537388,0.020601950585842133,-3.7154590245336294e-05,-0.007980654947459698,0,0,-1017,21,0,-8,0,2,-145,95236.0
13:42:16.693,AUTO,-35.3632621,149.1652374,1336,0.01088122557848692,0.001259252312593162,0.01840227283537388,0.020601950585842133,-3.7154590245336294e-05,-0.007980654947459698,0,0,-1017,21,0,-8,0,2,-145,95236.0
13:42:16.894,AUTO,-35.363262,149.1652375,1715,0.014173174276947975,0.001642450108192861,0.015873214229941368,0.008254192769527435,0.0016183091793209314,-0.009331125766038895,0,0,-1007,8,2,-9,0,4,-148,95236.0
13:42:17.096,AUTO,-35.363262,149.1652376,2097,0.01804433763027191,0.001565772108733654,0.013130126520991325,0.025052204728126526,-0.0013463664799928665,-0.01001347042620182,0,0,-1004,25,0,-10,0,8,-149,95236.0
13:42:17.297,AUTO,-35.363262,149.1652378,2481,0.02754221111536026,0.0005518156103789806,0.010819818824529648,0.044044528156518936,-0.007370784413069487,-0.005266168154776096,0,-1,-1002,44,-6,-5,0,12,-150,95236.0
13:42:17.499,AUTO,-35.3632619,149.1652382,2868,0.038323018699884415,-0.0015637249452993274,-0.017406752333045006,0.0420699268579483,-0.010060620494186878,-0.0027078636921942234,0,-3,-1001,42,-9,-3,1,19,-150,138262.0
13:42:17.701,AUTO,-35.3632619,149.1652382,2868,0.038323018699884415,-0.0015637249452993274,-0.017406752333045006,0.0420699268579483,-0.010060620494186878,-0.0027078636921942234,0,-3,-1001,42,-9,-3,1,19,-150,138262.0
13:42:17.903,AUTO,-35.3632619,149.1652389,3255,0.04847739264369011,-0.004411118105053902,-0.018243666738271713,0.03970089927315712,-0.011854005977511406,-0.0006230123108252883,1,-4,-999,40,-11,-1,3,28,-150,138262.0
13:42:18.105,AUTO,-35.3632619,149.1652389,3255,0.04847739264369011,-0.004411118105053902,-0.018243666738271713,0.03970089927315712,-0.011854005977511406,-0.0006230123108252883,1,-4,-999,40,-11,-1,3,28,-150,138262.0
13:42:18.306,AUTO,-35.3632619,149.1652389,3255,0.04847739264369011,-0.004411118105053902,-0.018243666738271713,0.03970089927315712,-0.011854005977511406,-0.0006230123108252883,1,-4,-999,40,-11,-1,3,28,-150,138262.0
13:42:18.508,AUTO,-35.3632613,149.1652422,4398,-0.0032028635032474995,0.014695735648274422,-0.05297069624066353,-0.1918536275625229,0.0012813066132366657,-0.06028040498495102,3,-12,-996,-191,2,-60,7,51,-145,138262.0
13:42:18.710,AUTO,-35.3632613,149.1652422,4398,-0.0032028635032474995,0.014695735648274422,-0.05297069624066353,-0.1918536275625229,0.0012813066132366657,-0.06028040498495102,3,-12,-996,-191,2,-60,7,51,-145,138262.0
13:42:18.911,AUTO,-35.3632611,149.1652435,4772,-0.04648172855377197,0.011068126186728477,-0.0666964203119278,-0.1502811163663864,-0.012970234267413616,-0.052432551980018616,3,-11,-1009,-149,-12,-52,5,41,-146,138262.0
13:42:19.113,AUTO,-35.363261,149.1652443,5151,-0.07301855087280273,0.006913964170962572,-0.07763182371854782,-0.0668431967496872,-0.008554771542549133,-0.046323392540216446,4,-7,-1010,-66,-7,-46,3,23,-148,138262.0
13:42:19.315,AUTO,-35.3632609,149.1652447,5534,-0.08148396015167236,0.004655907396227121,-0.08720292150974274,-0.003548793727532029,-0.0034656664356589317,-0.03968971222639084,1,-4,-1006,-2,-2,-40,1,2,-150,138262.0
13:42:19.517,AUTO,-35.3632609,149.1652445,5918,-0.07537847012281418,0.0033553210087120533,-0.09496445208787918,0.04258031025528908,-0.002380690537393093,-0.02902831882238388,-1,1,-1003,43,-1,-29,0,-17,-150,138262.0
13:42:19.719,AUTO,-35.3632609,149.1652445,5918,-0.07537847012281418,0.0033553210087120533,-0.09496445208787918,0.04258031025528908,-0.002380690537393093,-0.02902831882238388,-1,1,-1003,43,-1,-29,0,-17,-150,138262.0
13:42:19.921,AUTO,-35.3632609,149.1652438,6303,-0.06298764795064926,0.0023532749619334936,-0.10031410306692123,0.05413757637143135,-0.0003490629023872316,-0.020080802962183952,-2,3,-1000,54,0,-20,-2,-34,-150,138262.0
13:42:20.123,AUTO,-35.3632609,149.1652438,6303,-0.06298764795064926,0.0023532749619334936,-0.10031410306692123,0.05413757637143135,-0.0003490629023872316,-0.020080802962183952,-2,3,-1000,54,0,-20,-2,-34,-150,138262.0
13:42:20.326,AUTO,-35.3632609,149.1652438,6303,-0.06298764795064926,0.0023532749619334936,-0.10031410306692123,0.05413757637143135,-0.0003490629023872316,-0.020080802962183952,-2,3,-1000,54,0,-20,-2,-34,-150,138262.0
13:42:20.528,AUTO,-35.3632612,149.1652398,7456,-0.01792099140584469,0.006397981196641922,-0.1077045276761055,0.06587225198745728,0.01007512304931879,-0.004706183448433876,-5,10,-1002,66,10,-5,-10,-58,-150,261906.0
13:42:20.729,AUTO,-35.3632612,149.1652398,7456,-0.01792099140584469,0.006397981196641922,-0.1077045276761055,0.06587225198745728,0.01007512304931879,-0.004706183448433876,-5,10,-1002,66,10,-5,-10,-58,-150,261906.0
13:42:20.931,AUTO,-35.3632614,149.1652381,7843,-0.0012618806213140488,0.009004924446344376,-0.1082308292388916,0.06620506942272186,0.010114587843418121,-0.0021708293352276087,-8,14,-1003,66,10,-2,-13,-57,-151,261906.0
13:42:21.133,AUTO,-35.3632617,149.1652366,8230,0.015458258800208569,0.011395485140383244,-0.10823929309844971,0.06584566086530685,0.00814029574394226,-0.00015637023898307234,-8,14,-1004,66,8,0,-16,-52,-152,261906.0
13:42:21.334,AUTO,-35.3632621,149.1652352,8627,0.032353345304727554,0.013100910931825638,-0.10755377262830734,0.06561724096536636,0.005175955593585968,0.0012792794732376933,-5,13,-1004,66,5,1,-18,-43,-153,261906.0
13:42:21.536,AUTO,-35.3632626,149.1652341,9019,0.04859352484345436,0.01376726757735014,-0.10647331923246384,0.06439273804426193,0.0003999844775535166,0.003365931799635291,-2,10,-1003,65,1,3,-21,-31,-153,261906.0
13:42:21.738,AUTO,-35.3632626,149.1652341,9019,0.04859352484345436,0.01376726757735014,-0.10647331923246384,0.06439273804426193,0.0003999844775535166,0.003365931799635291,-2,10,-1003,65,1,3,-21,-31,-153,261906.0
13:42:21.940,AUTO,-35.363263,149.1652334,9412,0.06346030533313751,0.012578177265822887,-0.10458774864673615,0.0436481237411499,-0.01613186113536358,0.020623018965125084,0,7,-999,44,-15,20,-22,-15,-153,261906.0
13:42:22.142,AUTO,-35.363263,149.1652334,9412,0.06346030533313751,0.012578177265822887,-0.10458774864673615,0.0436481237411499,-0.01613186113536358,0.020623018965125084,0,7,-999,44,-15,20,-22,-15,-153,261906.0
13:42:22.343,AUTO,-35.363263,149.1652334,9412,0.06346030533313751,0.012578177265822887,-0.10458774864673615,0.0436481237411499,-0.01613186113536358,0.020623018965125084,0,7,-999,44,-15,20,-22,-15,-153,261906.0
13:42:22.546,AUTO,-35.3632641,149.1652336,10567,0.03102908469736576,-0.05446602776646614,-0.04508817940950394,-0.10414458066225052,-0.01403637696057558,0.042560216039419174,3,-1,-995,-103,-12,42,0,22,-149,261906.0
13:42:22.747,AUTO,-35.363264,149.1652341,10948,0.00610460015013814,-0.04354071989655495,-0.0474490225315094,-0.08637219667434692,0.07356211543083191,-0.035653598606586456,1,-4,-1001,-85,74,-35,12,24,-148,261906.0
13:42:22.949,AUTO,-35.363264,149.1652341,10948,0.00610460015013814,-0.04354071989655495,-0.0474490225315094,-0.08637219667434692,0.07356211543083191,-0.035653598606586456,1,-4,-1001,-85,74,-35,12,24,-148,261906.0
13:42:23.150,AUTO,-35.3632636,149.1652347,11330,-0.010986929759383202,-0.024967458099126816,-0.061725400388240814,-0.05206870660185814,0.06883498281240463,-0.06413286179304123,0,-7,-1004,-51,69,-64,21,21,-149,261906.0
13:42:23.352,AUTO,-35.3632631,149.1652351,11713,-0.019102029502391815,-0.010286816395819187,-0.08075794577598572,-0.022301238030195236,0.05321640893816948,-0.07558928430080414,-3,-6,-1004,-21,53,-75,25,14,-150,261906.0
13:42:23.554,AUTO,-35.3632626,149.1652354,12098,-0.02158154360949993,-0.00016658729873597622,-0.09983918070793152,-0.0021120342426002026,0.03465636074542999,-0.07009796798229218,-4,-5,-1004,-1,35,-70,25,7,-151,45834.0
13:42:23.757,AUTO,-35.363262,149.1652355,12486,-0.0199995469301939,0.007048923056572676,-0.11732329428195953,0.013159438036382198,0.029031436890363693,-0.06241665035486221,-3,-3,-1003,13,29,-62,23,0,-152,45834.0
13:42:23.959,AUTO,-35.363262,149.1652355,12486,-0.0199995469301939,0.007048923056572676,-0.11732329428195953,0.013159438036382198,0.029031436890363693,-0.06241665035486221,-3,-3,-1003,13,29,-62,23,0,-152,45834.0
13:42:24.160,AUTO,-35.363262,149.1652355,12486,-0.0199995469301939,0.007048923056572676,-0.11732329428195953,0.013159438036382198,0.029031436890363693,-0.06241665035486221,-3,-3,-1003,13,29,-62,23,0,-152,45834.0
13:42:24.362,AUTO,-35.363262,149.1652355,12486,-0.0199995469301939,0.007048923056572676,-0.11732329428195953,0.013159438036382198,0.029031436890363693,-0.06241665035486221,-3,-3,-1003,13,29,-62,23,0,-152,45834.0
13:42:24.564,AUTO,-35.3632608,149.165235,13663,-0.0016878071473911405,0.019336644560098648,-0.1538843959569931,0.02760683000087738,0.009275086224079132,-0.03194211795926094,-4,0,-1000,28,10,-32,9,-9,-153,45834.0
13:42:24.765,AUTO,-35.3632606,149.1652347,14054,0.004521127790212631,0.020190676674246788,-0.1600368469953537,0.02426978386938572,0.002593506360426545,-0.02064797654747963,-3,0,-1000,25,3,-20,4,-8,-153,45834.0
13:42:24.967,AUTO,-35.3632606,149.1652347,14054,0.004521127790212631,0.020190676674246788,-0.1600368469953537,0.02426978386938572,0.002593506360426545,-0.02064797654747963,-3,0,-1000,25,3,-20,4,-8,-153,45834.0
13:42:25.169,AUTO,-35.3632605,149.1652345,14445,0.009219154715538025,0.019977044314146042,-0.16394849121570587,0.017395291477441788,-0.00330928573384881,-0.011238884180784225,-2,0,-999,18,-2,-11,0,-6,-153,45834.0
13:42:25.371,AUTO,-35.3632605,149.1652343,14834,0.012270119041204453,0.018361184746026993,-0.16582338511943817,0.008077463135123253,-0.007694787345826626,-0.006680713966488838,-1,1,-999,8,-7,-7,-3,-3,-152,45834.0
13:42:25.573,AUTO,-35.3632605,149.1652342,15224,0.01356449257582426,0.01589980535209179,-0.16644185781478882,0.004724517464637756,-0.00986300315707922,-0.0024692376609891653,0,1,-1000,5,-9,-2,-6,0,-152,45834.0
13:42:25.776,AUTO,-35.3632606,149.1652342,15613,0.013087620958685875,0.01319849956780672,-0.1666131168603897,-0.0036240513436496258,-0.010288376361131668,-0.001198402140289545,0,0,-999,-3,-9,-1,-8,3,-152,45834.0
13:42:25.977,AUTO,-35.3632606,149.1652342,15613,0.013087620958685875,0.01319849956780672,-0.1666131168603897,-0.0036240513436496258,-0.010288376361131668,-0.001198402140289545,0,0,-999,-3,-9,-1,-8,3,-152,45834.0
13:42:26.179,AUTO,-35.3632606,149.1652342,15613,0.013087620958685875,0.01319849956780672,-0.1666131168603897,-0.0036240513436496258,-0.010288376361131668,-0.001198402140289545,0,0,-999,-3,-9,-1,-8,3,-152,45834.0
13:42:26.381,AUTO,-35.3632606,149.1652342,15613,0.013087620958685875,0.01319849956780672,-0.1666131168603897,-0.0036240513436496258,-0.010288376361131668,-0.001198402140289545,0,0,-999,-3,-9,-1,-8,3,-152,45834.0
13:42:26.582,AUTO,-35.3632611,149.1652346,16777,0.007069205865263939,0.005705422721803188,-0.16946056485176086,-0.009280419908463955,-0.009392783977091312,-0.008391802199184895,2,0,-1000,-8,-8,-8,-10,9,-152,70831.0
13:42:26.784,AUTO,-35.3632613,149.1652348,17166,0.004927785135805607,0.0034791165962815285,-0.1716793328523636,-0.005971740931272507,-0.00557464687153697,-0.011507530696690083,2,0,-1000,-5,-4,-11,-10,10,-152,70831.0
13:42:26.986,AUTO,-35.3632613,149.1652348,17166,0.004927785135805607,0.0034791165962815285,-0.1716793328523636,-0.005971740931272507,-0.00557464687153697,-0.011507530696690083,2,0,-1000,-5,-4,-11,-10,10,-152,70831.0
13:42:27.188,AUTO,-35.3632615,149.165235,17554,0.0030109984800219536,0.002118095988407731,-0.17507705092430115,-0.007611038628965616,-0.0028347456827759743,-0.015713877975940704,2,0,-1000,-7,-1,-16,-9,10,-152,70831.0
13:42:27.390,AUTO,-35.3632616,149.1652352,17946,0.0013979831710457802,0.0007725546602159739,-0.17902807891368866,-0.006455203518271446,-0.005503249820321798,-0.016902245581150055,3,0,-1000,-5,-4,-17,-8,9,-152,70831.0
13:42:27.591,AUTO,-35.3632618,149.1652354,18335,0.00011317873577354476,-0.0004010380362160504,-0.18354901671409607,-0.0018400399712845683,-0.0034162697847932577,-0.021215707063674927,2,0,-1001,0,-2,-21,-7,9,-152,70831.0
13:42:27.793,AUTO,-35.3632619,149.1652356,18724,-0.00039302476216107607,-0.00094385672127828,-0.1887703686952591,-0.0025649971794337034,0.000440909992903471,-0.02200249955058098,2,0,-1000,-2,1,-22,-6,8,-152,70831.0
13:42:27.998,AUTO,-35.3632619,149.1652356,18724,-0.00039302476216107607,-0.00094385672127828,-0.1887703686952591,-0.0025649971794337034,0.000440909992903471,-0.02200249955058098,2,0,-1000,-2,1,-22,-6,8,-152,70831.0
13:42:28.200,AUTO,-35.3632619,149.1652356,18724,-0.00039302476216107607,-0.00094385672127828,-0.1887703686952591,-0.0025649971794337034,0.000440909992903471,-0.02200249955058098,2,0,-1000,-2,1,-22,-6,8,-152,70831.0
13:42:28.402,AUTO,-35.3632619,149.1652356,18724,-0.00039302476216107607,-0.00094385672127828,-0.1887703686952591,-0.0025649971794337034,0.000440909992903471,-0.02200249955058098,2,0,-1000,-2,1,-22,-6,8,-152,70831.0
13:42:28.604,AUTO,-35.3632621,149.165236,19888,5.1418275688774884e-05,-0.0005798087222501636,-0.20686404407024384,0.0009885916952043772,0.0036819190718233585,-0.026637647300958633,0,0,-1000,1,4,-26,-3,4,-152,70831.0
13:42:28.805,AUTO,-35.3632621,149.1652361,20278,0.0005863127298653126,0.00035143946297466755,-0.21360915899276733,0.0014059841632843018,0.0048384228721261024,-0.027168642729520798,0,0,-1000,2,5,-27,-2,4,-153,70831.0
13:42:29.007,AUTO,-35.3632621,149.1652361,20668,0.0012598874745890498,0.000817663676571101,-0.21985775232315063,0.0027923628222197294,0.0013817391591146588,-0.02411690726876259,0,0,-1000,3,2,-24,-1,3,-153,70831.0
13:42:29.208,AUTO,-35.3632621,149.1652361,20668,0.0012598874745890498,0.000817663676571101,-0.21985775232315063,0.0027923628222197294,0.0013817391591146588,-0.02411690726876259,0,0,-1000,3,2,-24,-1,3,-153,70831.0
13:42:29.410,AUTO,-35.3632621,149.1652361,21057,0.0020137031096965075,0.0014346142997965217,-0.2261570394039154,0.0024851649068295956,0.0019449065439403057,-0.023890972137451172,0,0,-999,3,2,-23,-1,3,-153,70831.0
13:42:29.611,AUTO,-35.3632621,149.1652362,21447,0.0025943946093320847,0.0020818235352635384,-0.23235492408275604,0.0023755417205393314,0.0018260595388710499,-0.02345370501279831,0,0,-1000,3,2,-23,-1,2,-153,277733.0
13:42:29.813,AUTO,-35.3632621,149.1652362,21837,0.0029960533138364553,0.0023169717751443386,-0.238066166639328,0.0021215747110545635,0.0011311337584629655,-0.022365279495716095,0,0,-1000,2,2,-22,0,2,-153,277733.0
13:42:30.015,AUTO,-35.3632621,149.1652362,21837,0.0029960533138364553,0.0023169717751443386,-0.238066166639328,0.0021215747110545635,0.0011311337584629655,-0.022365279495716095,0,0,-1000,2,2,-22,0,2,-153,277733.0
13:42:30.216,AUTO,-35.3632621,149.1652362,21837,0.0029960533138364553,0.0023169717751443386,-0.238066166639328,0.0021215747110545635,0.0011311337584629655,-0.022365279495716095,0,0,-1000,2,2,-22,0,2,-153,277733.0
13:42:30.418,AUTO,-35.3632621,149.1652362,21837,0.0029960533138364553,0.0023169717751443386,-0.238066166639328,0.0021215747110545635,0.0011311337584629655,-0.022365279495716095,0,0,-1000,2,2,-22,0,2,-153,277733.0
13:42:30.620,AUTO,-35.3632621,149.1652362,23004,0.0037050440441817045,0.0037535105366259813,-0.2549484372138977,-0.0018075385596603155,0.0010146154090762138,-0.02179596945643425,0,0,-999,0,1,-21,-1,3,-153,277733.0
13:42:30.821,AUTO,-35.3632621,149.1652363,23394,0.0035721042659133673,0.0036018965765833855,-0.25994211435317993,0.0009142920025624335,-6.40891375951469e-05,-0.019292492419481277,0,0,-1000,1,0,-19,-1,3,-153,277733.0
13:42:31.023,AUTO,-35.3632621,149.1652363,23783,0.00339503213763237,0.0035440847277641296,-0.26485446095466614,0.0005721765337511897,0.0010638086823746562,-0.018784906715154648,0,0,-1000,1,1,-19,-1,3,-153,277733.0
13:42:31.224,AUTO,-35.3632621,149.1652363,23783,0.00339503213763237,0.0035440847277641296,-0.26485446095466614,0.0005721765337511897,0.0010638086823746562,-0.018784906715154648,0,0,-1000,1,1,-19,-1,3,-153,277733.0
13:42:31.426,AUTO,-35.3632621,149.1652364,24171,0.0029631038196384907,0.003561858320608735,-0.26975932717323303,-0.002641400322318077,0.0011594010284170508,-0.020983131602406502,0,0,-1000,-1,1,-20,-1,3,-153,277733.0
13:42:31.628,AUTO,-35.3632621,149.1652364,24561,0.0025312642101198435,0.0035773704294115305,-0.2746306359767914,-0.0006631401483900845,0.0007422476192004979,-0.01978318952023983,0,0,-1000,0,1,-19,-1,3,-153,277733.0
13:42:31.829,AUTO,-35.3632621,149.1652365,24951,0.0022150627337396145,0.003277052892372012,-0.2792430520057678,-0.00018815160728991032,0.0007964262622408569,-0.018098006024956703,0,0,-1000,0,1,-18,-1,3,-153,277733.0
13:42:32.031,AUTO,-35.3632621,149.1652365,24951,0.0022150627337396145,0.003277052892372012,-0.2792430520057678,-0.00018815160728991032,0.0007964262622408569,-0.018098006024956703,0,0,-1000,0,1,-18,-1,3,-153,277733.0
13:42:32.232,AUTO,-35.3632621,149.1652365,24951,0.0022150627337396145,0.003277052892372012,-0.2792430520057678,-0.00018815160728991032,0.0007964262622408569,-0.018098006024956703,0,0,-1000,0,1,-18,-1,3,-153,277733.0
13:42:32.434,AUTO,-35.3632621,149.1652365,24951,0.0022150627337396145,0.003277052892372012,-0.2792430520057678,-0.00018815160728991032,0.0007964262622408569,-0.018098006024956703,0,0,-1000,0,1,-18,-1,3,-153,277733.0
13:42:32.636,AUTO,-35.3632621,149.1652365,26112,-0.00012449795030988753,0.006353728473186493,-0.2650779187679291,0.031005192548036575,-0.005623695906251669,0.029023408889770508,0,1,-1002,31,-4,29,-5,0,-153,214393.0
13:42:32.837,AUTO,-35.3632622,149.1652365,26501,0.005927694495767355,0.004603725858032703,-0.25702252984046936,0.018946422263979912,-0.005058630369603634,0.032897692173719406,0,1,-1000,20,-4,32,-5,0,-153,214393.0
13:42:33.039,AUTO,-35.3632623,149.1652365,26895,0.00885128416121006,0.0031551849097013474,-0.24904553592205048,0.008563434705138206,-0.004363730549812317,0.029919994994997978,0,0,-1000,9,-3,29,-5,1,-153,214393.0
13:42:33.240,AUTO,-35.3632623,149.1652365,26895,0.00885128416121006,0.0031551849097013474,-0.24904553592205048,0.008563434705138206,-0.004363730549812317,0.029919994994997978,0,0,-1000,9,-3,29,-5,1,-153,214393.0
13:42:33.441,AUTO,-35.3632623,149.1652365,27283,0.00967580359429121,0.002084075938910246,-0.24173511564731598,-0.00021234905580058694,-0.0052709211595356464,0.026318885385990143,0,0,-1000,0,-3,26,-4,3,-153,214393.0
13:42:33.643,AUTO,-35.3632624,149.1652365,27671,0.009255434386432171,0.0017541541019454598,-0.23505546152591705,-0.002657459117472172,0.0012400613632053137,0.026087380945682526,0,0,-999,-1,2,25,-3,5,-152,214393.0
13:42:33.845,AUTO,-35.3632624,149.1652367,28058,0.00809770543128252,0.0015667241532355547,-0.22896802425384521,-0.002961380872875452,0.0005733726429753006,0.024405445903539658,0,0,-1000,-1,1,24,-3,6,-152,214393.0
13:42:34.047,AUTO,-35.3632624,149.1652367,28058,0.00809770543128252,0.0015667241532355547,-0.22896802425384521,-0.002961380872875452,0.0005733726429753006,0.024405445903539658,0,0,-1000,-1,1,24,-3,6,-152,214393.0
13:42:34.249,AUTO,-35.3632624,149.1652367,28058,0.00809770543128252,0.0015667241532355547,-0.22896802425384521,-0.002961380872875452,0.0005733726429753006,0.024405445903539658,0,0,-1000,-1,1,24,-3,6,-152,214393.0
13:42:34.450,AUTO,-35.3632624,149.1652367,28058,0.00809770543128252,0.0015667241532355547,-0.22896802425384521,-0.002961380872875452,0.0005733726429753006,0.024405445903539658,0,0,-1000,-1,1,24,-3,6,-152,214393.0
13:42:34.653,AUTO,-35.3632624,149.1652371,29218,0.0030113919638097286,0.0013457669410854578,-0.21327129006385803,-0.003893369808793068,0.0009686422417871654,0.020807208493351936,0,-1,-1000,-3,1,20,-1,8,-152,214393.0
13:42:34.854,AUTO,-35.3632624,149.1652373,29606,0.0017672391841188073,0.0016674676444381475,-0.20830325782299042,-0.0025510694831609726,0.002155870897695422,0.0207142923027277,0,-1,-1000,-1,3,20,0,7,-152,214393.0
13:42:35.056,AUTO,-35.3632624,149.1652374,29995,0.0005261609330773354,0.001708592171780765,-0.20362131297588348,-0.005376828834414482,0.000558386673219502,0.019482754170894623,0,-1,-1000,-4,1,19,0,7,-152,214393.0
13:42:35.257,AUTO,-35.3632624,149.1652376,30382,-2.43683134613093e-05,0.0017172665102407336,-0.19929096102714539,-0.0013504945673048496,-0.00030898803379386663,0.01861448958516121,0,-1,-1000,0,0,18,0,6,-152,214393.0
13:42:35.459,AUTO,-35.3632624,149.1652376,30382,-2.43683134613093e-05,0.0017172665102407336,-0.19929096102714539,-0.0013504945673048496,-0.00030898803379386663,0.01861448958516121,0,-1,-1000,0,0,18,0,6,-152,214393.0
13:42:35.660,AUTO,-35.3632624,149.1652377,30770,-0.0005553691298700869,0.0015997349983081222,-0.19489724934101105,-0.002824906725436449,0.00086643744725734,0.019319068640470505,0,0,-999,-1,1,19,0,5,-152,237556.0
13:42:35.862,AUTO,-35.3632624,149.1652378,31158,-0.0007215499645099044,0.0013994512846693397,-0.19050978124141693,0.003435756079852581,6.732286419719458e-05,0.019152119755744934,0,0,-1000,4,1,19,0,4,-152,237556.0
13:42:36.064,AUTO,-35.3632624,149.1652378,31158,-0.0007215499645099044,0.0013994512846693397,-0.19050978124141693,0.003435756079852581,6.732286419719458e-05,0.019152119755744934,0,0,-1000,4,1,19,0,4,-152,237556.0
13:42:36.265,AUTO,-35.3632624,149.1652378,31158,-0.0007215499645099044,0.0013994512846693397,-0.19050978124141693,0.003435756079852581,6.732286419719458e-05,0.019152119755744934,0,0,-1000,4,1,19,0,4,-152,237556.0
13:42:36.468,AUTO,-35.3632624,149.1652378,31158,-0.0007215499645099044,0.0013994512846693397,-0.19050978124141693,0.003435756079852581,6.732286419719458e-05,0.019152119755744934,0,0,-1000,4,1,19,0,4,-152,237556.0
13:42:36.670,AUTO,-35.3632624,149.1652379,32322,-0.00048372987657785416,0.0010510783176869154,-0.17842072248458862,0.00481804134324193,-0.0002457033842802048,0.01587640307843685,0,0,-1001,5,0,15,0,2,-152,237556.0
13:42:36.871,AUTO,-35.3632623,149.1652379,32710,3.342363243064028e-06,0.0012102294713258743,-0.17480018734931946,0.0045583718456327915,0.0003930702805519104,0.01380219217389822,0,0,-1001,5,1,13,0,1,-153,237556.0
13:42:37.074,AUTO,-35.3632623,149.1652379,33099,0.00044790736865252256,0.001053176005370915,-0.17117364704608917,0.003043172415345907,-0.0008341937209479511,0.013709993101656437,0,0,-1001,3,0,13,0,1,-153,237556.0
13:42:37.275,AUTO,-35.3632623,149.1652379,33488,0.000633448304142803,0.0008897916995920241,-0.16777575016021729,-0.0013835241552442312,-0.0016514244489371777,0.013944395817816257,0,0,-1000,0,0,13,0,0,-153,237556.0
13:42:37.477,AUTO,-35.3632623,149.1652379,33488,0.000633448304142803,0.0008897916995920241,-0.16777575016021729,-0.0013835241552442312,-0.0016514244489371777,0.013944395817816257,0,0,-1000,0,0,13,0,0,-153,237556.0
13:42:37.679,AUTO,-35.3632623,149.1652379,33876,0.001037206850014627,0.0010247958125546575,-0.1644725203514099,0.0015031663933768868,0.002030633855611086,0.01297159492969513,0,0,-999,2,3,13,0,0,-153,237556.0
13:42:37.881,AUTO,-35.3632623,149.1652379,34264,0.0013695871457457542,0.0014011256862431765,-0.16104429960250854,0.000363694503903389,0.0008700941689312458,0.012466305866837502,0,0,-1000,1,1,12,0,0,-152,237556.0
13:42:38.082,AUTO,-35.3632623,149.1652379,34264,0.0013695871457457542,0.0014011256862431765,-0.16104429960250854,0.000363694503903389,0.0008700941689312458,0.012466305866837502,0,0,-1000,1,1,12,0,0,-152,237556.0
13:42:38.284,AUTO,-35.3632623,149.1652379,34264,0.0013695871457457542,0.0014011256862431765,-0.16104429960250854,0.000363694503903389,0.0008700941689312458,0.012466305866837502,0,0,-1000,1,1,12,0,0,-152,237556.0
13:42:38.486,AUTO,-35.3632623,149.1652379,34264,0.0013695871457457542,0.0014011256862431765,-0.16104429960250854,0.000363694503903389,0.0008700941689312458,0.012466305866837502,0,0,-1000,1,1,12,0,0,-152,237556.0
13:42:38.687,AUTO,-35.3632622,149.1652378,35428,0.001680159941315651,0.0013171385508030653,-0.15217219293117523,0.004716134630143642,0.00016780511941760778,0.011705338954925537,0,0,-1001,5,1,11,0,0,-153,297660.0
13:42:38.889,AUTO,-35.3632622,149.1652377,35816,0.0019461079500615597,0.0012898324057459831,-0.1495397835969925,0.004935217089951038,0.0006635098252445459,0.012031800113618374,0,0,-1000,5,1,12,0,0,-153,297660.0
13:42:39.090,AUTO,-35.3632622,149.1652377,36209,0.0021953752730041742,0.001171266776509583,-0.1468152105808258,-0.0010403095511719584,0.0009063705801963806,0.011365551501512527,0,0,-999,0,2,11,0,0,-152,297660.0
13:42:39.292,AUTO,-35.3632622,149.1652376,36597,0.0024138076696544886,0.001136884093284607,-0.14437101781368256,0.003635893575847149,0.0001745428889989853,0.01182902418076992,0,0,-1000,4,1,11,0,0,-153,297660.0
13:42:39.493,AUTO,-35.3632622,149.1652376,36984,0.0023511156905442476,0.0011015362106263638,-0.14193134009838104,-0.002002180088311434,0.0001635103253647685,0.009619902819395065,0,0,-1000,0,1,9,0,0,-152,297660.0
13:42:39.695,AUTO,-35.3632622,149.1652376,36984,0.0023511156905442476,0.0011015362106263638,-0.14193134009838104,-0.002002180088311434,0.0001635103253647685,0.009619902819395065,0,0,-1000,0,1,9,0,0,-152,297660.0
13:42:39.897,AUTO,-35.3632622,149.1652375,37373,0.002662098966538906,0.0014277552254498005,-0.13951361179351807,0.002976283198222518,0.002515000756829977,0.009736266918480396,0,0,-1000,4,3,9,0,0,-152,297660.0
13:42:40.103,AUTO,-35.3632622,149.1652375,37373,0.002662098966538906,0.0014277552254498005,-0.13951361179351807,0.002976283198222518,0.002515000756829977,0.009736266918480396,0,0,-1000,4,3,9,0,0,-152,297660.0
13:42:40.309,AUTO,-35.3632622,149.1652375,37373,0.002662098966538906,0.0014277552254498005,-0.13951361179351807,0.002976283198222518,0.002515000756829977,0.009736266918480396,0,0,-1000,4,3,9,0,0,-152,297660.0
13:42:40.511,AUTO,-35.3632621,149.1652374,38537,0.0023551892954856157,0.0014319870388135314,-0.1325778365135193,-0.0012238421477377415,0.0012026551412418485,0.009541444480419159,0,0,-1000,0,2,9,0,0,-152,297660.0
13:42:40.712,AUTO,-35.3632621,149.1652374,38537,0.0023551892954856157,0.0014319870388135314,-0.1325778365135193,-0.0012238421477377415,0.0012026551412418485,0.009541444480419159,0,0,-1000,0,2,9,0,0,-152,297660.0
13:42:40.914,AUTO,-35.3632621,149.1652374,38926,0.002287249080836773,0.0018667759140953422,-0.13041812181472778,0.0005747586255893111,0.002122728619724512,0.0058291032910346985,0,0,-1000,1,3,5,0,0,-152,297660.0
13:42:41.115,AUTO,-35.3632621,149.1652374,39314,0.0023683039471507072,0.001851764158345759,-0.1282641440629959,0.00041387672536075115,-0.0008216315181925893,0.0062600974924862385,0,0,-1000,1,0,6,0,1,-152,297660.0
13:42:41.317,AUTO,-35.3632621,149.1652373,39701,0.002311056712642312,0.00181967718526721,-0.12662261724472046,-0.003192759118974209,-0.0011274090502411127,0.007171296980232,0,0,-1000,-2,0,7,0,1,-152,297660.0
13:42:41.518,AUTO,-35.3632621,149.1652373,40090,0.00219766516238451,0.0018337331712245941,-0.12475810199975967,-0.0005073307547718287,0.0013278938131406903,0.007675607223063707,0,0,-1000,0,2,7,0,1,-152,297660.0
13:42:41.720,AUTO,-35.3632621,149.1652373,40090,0.00219766516238451,0.0018337331712245941,-0.12475810199975967,-0.0005073307547718287,0.0013278938131406903,0.007675607223063707,0,0,-1000,0,2,7,0,1,-152,190969.0
13:42:41.922,AUTO,-35.3632621,149.1652373,40478,0.002279878593981266,0.0017394295427948236,-0.12284082174301147,1.2310221791267395e-05,-0.0008282226044684649,0.00671338988468051,0,0,-1000,0,0,7,0,1,-152,190969.0
13:42:42.125,AUTO,-35.3632621,149.1652373,40478,0.002279878593981266,0.0017394295427948236,-0.12284082174301147,1.2310221791267395e-05,-0.0008282226044684649,0.00671338988468051,0,0,-1000,0,0,7,0,1,-152,190969.0
13:42:42.326,AUTO,-35.3632621,149.1652373,40478,0.002279878593981266,0.0017394295427948236,-0.12284082174301147,1.2310221791267395e-05,-0.0008282226044684649,0.00671338988468051,0,0,-1000,0,0,7,0,1,-152,190969.0
13:42:42.528,AUTO,-35.3632621,149.1652372,41643,0.0023029588628560305,0.001820446108467877,-0.11781782656908035,-0.001984313363209367,-0.0005535604432225227,0.00675218878313899,0,0,-1000,-1,0,6,-1,1,-152,190969.0
13:42:42.730,AUTO,-35.3632621,149.1652372,41643,0.0023029588628560305,0.001820446108467877,-0.11781782656908035,-0.001984313363209367,-0.0005535604432225227,0.00675218878313899,0,0,-1000,-1,0,6,-1,1,-152,190969.0
13:42:42.932,AUTO,-35.363262,149.1652372,42028,-0.006712180562317371,0.0098810326308012,-0.0986318290233612,-0.10694791376590729,0.10551534593105316,0.22548793256282806,-1,-1,-957,-105,106,225,-1,1,-148,190969.0
13:42:43.133,AUTO,-35.363262,149.1652371,42390,-0.045751817524433136,0.053107451647520065,0.0066598751582205296,-0.20149531960487366,0.17780175805091858,0.6000179648399353,-2,-1,-956,-200,178,600,-8,-5,-136,190969.0
13:42:43.334,AUTO,-35.3632623,149.1652367,42719,-0.065274178981781,0.0765489861369133,0.14646440744400024,0.004217592999339104,-0.09749941527843475,0.42738980054855347,2,4,-920,5,-96,427,-23,-20,-119,190969.0
13:42:43.536,AUTO,-35.363263,149.1652359,43005,-0.04289419203996658,0.03159124776721001,0.2241969257593155,0.09661661088466644,-0.21843844652175903,0.20383580029010773,4,7,-928,97,-217,204,-32,-33,-100,190969.0
13:42:43.738,AUTO,-35.363263,149.1652359,43005,-0.04289419203996658,0.03159124776721001,0.2241969257593155,0.09661661088466644,-0.21843844652175903,0.20383580029010773,4,7,-928,97,-217,204,-32,-33,-100,190969.0
13:42:43.939,AUTO,-35.3632636,149.1652349,43241,-0.013153932988643646,-0.015421664342284203,0.257775217294693,0.11958865821361542,-0.15456706285476685,0.081063412129879,4,11,-941,120,-153,81,-31,-37,-84,190969.0
13:42:44.141,AUTO,-35.3632636,149.1652349,43241,-0.013153932988643646,-0.015421664342284203,0.257775217294693,0.11958865821361542,-0.15456706285476685,0.081063412129879,4,11,-941,120,-153,81,-31,-37,-84,190969.0
13:42:44.343,AUTO,-35.3632636,149.1652349,43241,-0.013153932988643646,-0.015421664342284203,0.257775217294693,0.11958865821361542,-0.15456706285476685,0.081063412129879,4,11,-941,120,-153,81,-31,-37,-84,190969.0
13:42:44.545,AUTO,-35.3632648,149.1652326,43746,0.036515962332487106,-0.05313362926244736,0.2585326135158539,-0.01193036325275898,0.013841932639479637,-0.031141387298703194,0,4,-971,-10,14,-31,-4,-11,-51,190969.0
13:42:44.747,AUTO,-35.3632648,149.1652324,43870,0.04240715503692627,-0.04642540588974953,0.24960707128047943,0.16899745166301727,0.03406071290373802,-0.035549938678741455,-2,6,-991,170,35,-35,4,0,-46,41293.0
13:42:44.949,AUTO,-35.3632648,149.1652324,43870,0.04240715503692627,-0.04642540588974953,0.24960707128047943,0.16899745166301727,0.03406071290373802,-0.035549938678741455,-2,6,-991,170,35,-35,4,0,-46,41293.0
13:42:45.151,AUTO,-35.3632647,149.1652324,43984,0.03650885075330734,-0.03632056713104248,0.2406051605939865,-0.31766846776008606,0.04365124553442001,-0.03554153069853783,-1,-18,-990,-317,44,-35,12,10,-44,41293.0
13:42:45.353,AUTO,-35.3632644,149.1652328,44089,0.02419859915971756,-0.02511419542133808,0.23140035569667816,-0.4558454751968384,0.04573562741279602,-0.03174124285578728,-4,-13,-993,-454,46,-31,17,19,-40,41293.0
13:42:45.555,AUTO,-35.3632639,149.1652333,44185,0.026066765189170837,-0.014277497306466103,0.2229873687028885,0.2260805070400238,0.03859398514032364,-0.025521371513605118,-2,14,-995,228,39,-25,20,26,-37,41293.0
13:42:45.756,AUTO,-35.3632634,149.165234,44276,0.027168361470103264,-0.004585997201502323,0.21517319977283478,0.3600081503391266,0.03504118323326111,-0.028239740058779716,-2,2,-989,360,36,-27,21,29,-34,41293.0
13:42:45.959,AUTO,-35.3632634,149.165234,44276,0.027168361470103264,-0.004585997201502323,0.21517319977283478,0.3600081503391266,0.03504118323326111,-0.028239740058779716,-2,2,-989,360,36,-27,21,29,-34,41293.0
13:42:46.160,AUTO,-35.3632634,149.165234,44276,0.027168361470103264,-0.004585997201502323,0.21517319977283478,0.3600081503391266,0.03504118323326111,-0.028239740058779716,-2,2,-989,360,36,-27,21,29,-34,41293.0
13:42:46.362,AUTO,-35.3632634,149.165234,44276,0.027168361470103264,-0.004585997201502323,0.21517319977283478,0.3600081503391266,0.03504118323326111,-0.028239740058779716,-2,2,-989,360,36,-27,21,29,-34,41293.0
13:42:46.565,AUTO,-35.363262,149.1652365,44464,-0.000622331746853888,0.01427124161273241,0.19644640386104584,0.3396666944026947,0.012490694411098957,-0.01921786740422249,0,23,-979,341,13,-18,16,28,-13,41293.0
13:42:46.767,AUTO,-35.3632617,149.1652372,44481,-0.012413051910698414,0.039899006485939026,0.18575403094291687,0.7808329463005066,0.12745699286460876,0.017045781016349792,0,34,-941,782,128,17,11,23,0,41293.0
13:42:46.968,AUTO,-35.3632617,149.1652372,44481,-0.012413051910698414,0.039899006485939026,0.18575403094291687,0.7808329463005066,0.12745699286460876,0.017045781016349792,0,34,-941,782,128,17,11,23,0,41293.0
13:42:47.170,AUTO,-35.3632615,149.1652378,44466,-0.02237910032272339,0.03943502530455589,0.18089771270751953,0.7206997275352478,-0.08097736537456512,-0.0023144513834267855,1,17,-1011,721,-79,-1,3,13,6,41293.0
13:42:47.372,AUTO,-35.3632614,149.1652381,44446,-0.031165745109319687,0.013996440917253494,0.17761379480361938,0.062083370983600616,-0.0999545082449913,-0.004045436158776283,1,-19,-1002,62,-98,-3,0,2,6,41293.0
13:42:47.575,AUTO,-35.3632615,149.1652382,44431,-0.04601023346185684,-0.0054570757783949375,0.17407257854938507,-0.664470911026001,-0.06273827701807022,-0.012330441735684872,0,-35,-1008,-664,-61,-12,0,-6,2,41293.0
13:42:47.778,AUTO,-35.3632614,149.165238,44425,-0.05115422233939171,-0.01814253441989422,0.17022106051445007,-0.5425535440444946,-0.04038023203611374,-0.016797441989183426,0,-11,-1013,-540,-39,-16,5,-15,0,245928.0
13:42:47.981,AUTO,-35.3632614,149.165238,44425,-0.05115422233939171,-0.01814253441989422,0.17022106051445007,-0.5425535440444946,-0.04038023203611374,-0.016797441989183426,0,-11,-1013,-540,-39,-16,5,-15,0,245928.0
13:42:48.182,AUTO,-35.3632614,149.165238,44425,-0.05115422233939171,-0.01814253441989422,0.17022106051445007,-0.5425535440444946,-0.04038023203611374,-0.016797441989183426,0,-11,-1013,-540,-39,-16,5,-15,0,245928.0
13:42:48.384,AUTO,-35.3632614,149.165238,44425,-0.05115422233939171,-0.01814253441989422,0.17022106051445007,-0.5425535440444946,-0.04038023203611374,-0.016797441989183426,0,-11,-1013,-540,-39,-16,5,-15,0,245928.0
13:42:48.586,AUTO,-35.3632605,149.1652363,44417,-0.04095404967665672,-0.04519113898277283,0.15644954144954681,0.6885528564453125,-0.030261628329753876,-0.017283715307712555,-8,32,-1001,689,-28,-16,28,-39,-1,245928.0
13:42:48.787,AUTO,-35.3632599,149.1652353,44417,-0.049759216606616974,-0.05274499952793121,0.13692037761211395,-0.026424646377563477,-0.022137878462672234,-0.2162124067544937,-11,-12,-1001,-26,-20,-216,39,-49,-3,245928.0
13:42:48.989,AUTO,-35.3632599,149.1652353,44417,-0.049759216606616974,-0.05274499952793121,0.13692037761211395,-0.026424646377563477,-0.022137878462672234,-0.2162124067544937,-11,-12,-1001,-26,-20,-216,39,-49,-3,245928.0
13:42:49.191,AUTO,-35.3632589,149.165234,44419,-0.050801172852516174,-0.06517601013183594,0.009502683766186237,-0.6337300539016724,0.006035627331584692,-0.703191876411438,-16,-34,-1006,-633,7,-703,50,-59,-3,245928.0
13:42:49.393,AUTO,-35.3632578,149.1652324,44421,-0.042228877544403076,-0.08097425848245621,-0.19309155642986298,-0.6648661494255066,-0.011660630814731121,-0.8537768125534058,-22,-15,-1012,-663,-10,-853,62,-68,-3,245928.0
13:42:49.594,AUTO,-35.3632563,149.1652306,44424,-0.017896225675940514,-0.09729739278554916,-0.41057538986206055,0.18569111824035645,-0.04638220742344856,-0.8712549209594727,-23,18,-1005,187,-45,-870,76,-78,-4,245928.0
13:42:49.796,AUTO,-35.3632546,149.1652284,44428,0.008327091112732887,-0.10743722319602966,-0.5928739905357361,0.6189011931419373,-0.02990742400288582,-0.5399923324584961,-23,12,-1006,620,-28,-539,90,-90,-4,245928.0
13:42:49.998,AUTO,-35.3632546,149.1652284,44428,0.008327091112732887,-0.10743722319602966,-0.5928739905357361,0.6189011931419373,-0.02990742400288582,-0.5399923324584961,-23,12,-1006,620,-28,-539,90,-90,-4,245928.0
13:42:50.202,AUTO,-35.3632546,149.1652284,44428,0.008327091112732887,-0.10743722319602966,-0.5928739905357361,0.6189011931419373,-0.02990742400288582,-0.5399923324584961,-23,12,-1006,620,-28,-539,90,-90,-4,245928.0
13:42:50.408,AUTO,-35.3632546,149.1652284,44428,0.008327091112732887,-0.10743722319602966,-0.5928739905357361,0.6189011931419373,-0.02990742400288582,-0.5399923324584961,-23,12,-1006,620,-28,-539,90,-90,-4,245928.0
13:42:50.609,AUTO,-35.3632474,149.1652197,44441,0.005611662287265062,-0.14054548740386963,-0.6441060304641724,-0.653200626373291,-0.043345436453819275,0.10528409481048584,-41,-45,-989,-652,-42,105,136,-134,-2,108584.0
13:42:50.811,AUTO,-35.3632443,149.165216,44443,0.004705538507550955,-0.15178914368152618,-0.6275346279144287,-0.2789948582649231,-0.04456208646297455,0.04259778559207916,-48,-23,-1007,-277,-43,42,154,-150,-3,108584.0
13:42:51.013,AUTO,-35.3632407,149.1652117,44450,0.01566421240568161,-0.16333171725273132,-0.6200209259986877,0.4357391893863678,-0.044177524745464325,-0.0013115962501615286,-50,-1,-1010,437,-42,-1,174,-167,-4,108584.0
13:42:51.214,AUTO,-35.3632407,149.1652117,44450,0.01566421240568161,-0.16333171725273132,-0.6200209259986877,0.4357391893863678,-0.044177524745464325,-0.0013115962501615286,-50,-1,-1010,437,-42,-1,174,-167,-4,108584.0
13:42:51.416,AUTO,-35.3632367,149.1652071,44457,0.01926375739276409,-0.1735469102859497,-0.6179869771003723,0.2350507378578186,-0.02771073393523693,0.003015087451785803,-56,-26,-1005,235,-26,3,194,-186,-4,108584.0
13:42:51.618,AUTO,-35.3632322,149.1652019,44465,0.015612590126693249,-0.17531412839889526,-0.6203209757804871,-0.350879043340683,0.014299691654741764,0.001801611389964819,-64,-53,-999,-350,15,2,214,-205,-4,108584.0
