time_stamp,MODE,lat,lon,relative_alt,roll,pitch,yaw,rollspeed,pitchspeed,yawspeed,xacc,yacc,zacc,xgyro,ygyro,zgyro,vx,vy,vz,RTL_ALT
11:22:57.867,STABILIZE,-35.3632622,149.1652375,0,-0.0003038944851141423,0.0013914150185883045,0.02615910954773426,0.00023970796610228717,0.00029129377799108624,0.002181269694119692,0,1,-1000,0,0,0,-2,1,0,1500.0
11:22:58.068,STABILIZE,-35.3632622,149.1652375,0,-0.0003038944851141423,0.0013914150185883045,0.02615910954773426,0.00023970796610228717,0.00029129377799108624,0.002181269694119692,0,1,-1000,0,0,0,-2,1,0,1500.0
11:22:58.269,STABILIZE,-35.3632622,149.1652375,0,-0.0003038944851141423,0.0013914150185883045,0.02615910954773426,0.00023970796610228717,0.00029129377799108624,0.002181269694119692,0,1,-1000,0,0,0,-2,1,0,1500.0
11:22:58.470,STABILIZE,-35.3632622,149.1652375,0,-0.0003038944851141423,0.0013914150185883045,0.02615910954773426,0.00023970796610228717,0.00029129377799108624,0.002181269694119692,0,1,-1000,0,0,0,-2,1,0,1500.0
11:22:58.671,STABILIZE,-35.3632622,149.1652375,0,-0.0005765756359323859,0.0011718840105459094,0.02568855509161949,0.0002217248547822237,0.00029239768628031015,0.0020335770677775145,0,1,-1000,0,0,0,-1,1,0,1500.0
11:22:58.872,STABILIZE,-35.3632622,149.1652375,0,-0.000637001299764961,0.001126962131820619,0.025580281391739845,0.0002639030572026968,0.0002672928385436535,0.0019983842503279448,0,1,-1000,0,0,0,-1,1,0,1500.0
11:22:59.074,STABILIZE,-35.3632622,149.1652375,0,-0.000637001299764961,0.001126962131820619,0.025580281391739845,0.0002639030572026968,0.0002672928385436535,0.0019983842503279448,0,1,-1000,0,0,0,-1,1,0,1500.0
11:22:59.276,STABILIZE,-35.3632622,149.1652375,0,-0.0007280522841028869,0.0010679459664970636,0.025363624095916748,0.00018035591347143054,0.00029745977371931076,0.002105595078319311,0,1,-1000,0,0,1,-1,1,0,1500.0
11:22:59.479,STABILIZE,-35.3632622,149.1652374,0,-0.00078101473627612,0.001035440363921225,0.02526497282087803,0.00018090801313519478,0.00023330387193709612,0.0020962266717106104,0,1,-1000,0,0,0,-1,1,0,1500.0
11:22:59.680,STABILIZE,-35.3632622,149.1652374,0,-0.00078101473627612,0.001035440363921225,0.02526497282087803,0.00018090801313519478,0.00023330387193709612,0.0020962266717106104,0,1,-1000,0,0,0,-1,1,0,1500.0
11:22:59.881,STABILIZE,-35.3632622,149.1652374,0,-0.00078101473627612,0.001035440363921225,0.02526497282087803,0.00018090801313519478,0.00023330387193709612,0.0020962266717106104,0,1,-1000,0,0,0,-1,1,0,1500.0
11:23:00.083,STABILIZE,-35.3632622,149.1652374,0,-0.00078101473627612,0.001035440363921225,0.02526497282087803,0.00018090801313519478,0.00023330387193709612,0.0020962266717106104,0,1,-1000,0,0,0,-1,1,0,1500.0
11:23:00.284,STABILIZE,-35.3632622,149.1652374,0,-0.00078101473627612,0.001035440363921225,0.02526497282087803,0.00018090801313519478,0.00023330387193709612,0.0020962266717106104,0,1,-1000,0,0,0,-1,1,0,1500.0
11:23:00.486,STABILIZE,-35.3632622,149.1652374,0,-0.00078101473627612,0.001035440363921225,0.02526497282087803,0.00018090801313519478,0.00023330387193709612,0.0020962266717106104,0,1,-1000,0,0,0,-1,1,0,1500.0
11:23:00.687,STABILIZE,-35.3632622,149.1652374,0,-0.00078101473627612,0.001035440363921225,0.02526497282087803,0.00018090801313519478,0.00023330387193709612,0.0020962266717106104,0,1,-1000,0,0,0,-1,1,0,1500.0
11:23:00.888,STABILIZE,-35.3632622,149.1652374,0,-0.00078101473627612,0.001035440363921225,0.02526497282087803,0.00018090801313519478,0.00023330387193709612,0.0020962266717106104,0,1,-1000,0,0,0,-1,1,0,1500.0
11:23:01.090,STABILIZE,-35.3632621,149.1652375,0,-0.00078101473627612,0.001035440363921225,0.02526497282087803,0.00018090801313519478,0.00023330387193709612,0.0020962266717106104,0,1,-1000,0,0,0,-1,2,1,1500.0
11:23:01.291,STABILIZE,-35.3632621,149.1652375,0,-0.00078101473627612,0.001035440363921225,0.02526497282087803,0.00018090801313519478,0.00023330387193709612,0.0020962266717106104,0,1,-1000,0,0,0,-1,2,1,1500.0
11:23:01.492,STABILIZE,-35.3632621,149.1652375,0,-0.00078101473627612,0.001035440363921225,0.02526497282087803,0.00018090801313519478,0.00023330387193709612,0.0020962266717106104,0,1,-1000,1,0,0,-1,1,1,1500.0
11:23:01.693,STABILIZE,-35.3632621,149.1652375,0,-0.00078101473627612,0.001035440363921225,0.02526497282087803,0.00018090801313519478,0.00023330387193709612,0.0020962266717106104,0,1,-1000,1,0,0,-1,1,1,1500.0
11:23:01.895,STABILIZE,-35.3632621,149.1652375,0,-0.00078101473627612,0.001035440363921225,0.02526497282087803,0.00018090801313519478,0.00023330387193709612,0.0020962266717106104,0,1,-1000,1,0,0,-1,1,1,1500.0
11:23:02.096,STABILIZE,-35.3632621,149.1652375,0,-0.00078101473627612,0.001035440363921225,0.02526497282087803,0.00018090801313519478,0.00023330387193709612,0.0020962266717106104,0,1,-1000,1,0,0,-1,1,1,1500.0
11:23:02.298,STABILIZE,-35.3632621,149.1652375,0,-0.00078101473627612,0.001035440363921225,0.02526497282087803,0.00018090801313519478,0.00023330387193709612,0.0020962266717106104,0,1,-1000,1,0,0,-1,1,1,1500.0
11:23:02.500,STABILIZE,-35.3632621,149.1652375,0,-0.00109394162427634,0.0009351837798021734,0.024195993319153786,0.00015280710067600012,0.00022355286637321115,0.0017573698423802853,0,1,-1000,1,0,0,-1,1,0,1500.0
11:23:02.701,STABILIZE,-35.3632621,149.1652375,0,-0.00109394162427634,0.0009351837798021734,0.024195993319153786,0.00015280710067600012,0.00022355286637321115,0.0017573698423802853,0,1,-1000,1,0,0,-1,1,0,1500.0
11:23:02.902,STABILIZE,-35.3632621,149.1652375,0,-0.00109394162427634,0.0009351837798021734,0.024195993319153786,0.00015280710067600012,0.00022355286637321115,0.0017573698423802853,0,1,-1000,0,0,0,-1,1,0,1500.0
11:23:03.104,STABILIZE,-35.3632621,149.1652375,0,-0.0011413204483687878,0.0009361820411868393,0.02406618557870388,0.0002457121736370027,0.00027300266083329916,0.0019046571105718613,0,1,-1000,0,0,0,-1,1,0,1500.0
11:23:03.306,STABILIZE,-35.3632621,149.1652375,0,-0.001154010882601142,0.0009359960095025599,0.023991335183382034,0.00017940392717719078,0.0003056931309401989,0.0018543389160186052,0,1,-1000,0,0,0,-1,1,0,1500.0
11:23:03.508,STABILIZE,-35.3632621,149.1652375,0,-0.001154010882601142,0.0009359960095025599,0.023991335183382034,0.00017940392717719078,0.0003056931309401989,0.0018543389160186052,0,2,-1000,0,0,0,-1,1,0,1500.0
11:23:03.710,STABILIZE,-35.3632621,149.1652375,0,-0.001154010882601142,0.0009359960095025599,0.023991335183382034,0.00017940392717719078,0.0003056931309401989,0.0018543389160186052,0,2,-1000,0,0,0,-1,1,0,1500.0
11:23:03.911,STABILIZE,-35.3632621,149.1652375,0,-0.001154010882601142,0.0009359960095025599,0.023991335183382034,0.00017940392717719078,0.0003056931309401989,0.0018543389160186052,0,2,-1000,0,0,0,-1,1,0,1500.0
11:23:04.113,STABILIZE,-35.3632621,149.1652375,0,-0.001154010882601142,0.0009359960095025599,0.023991335183382034,0.00017940392717719078,0.0003056931309401989,0.0018543389160186052,0,2,-1000,0,0,0,-1,1,0,1500.0
11:23:04.315,STABILIZE,-35.3632621,149.1652375,0,-0.0009806312154978514,0.0009502885513938963,0.02368822693824768,0.0003291976172477007,0.0002508381730876863,0.001686283154413104,0,1,-1000,0,0,0,-1,0,-1,1500.0
11:23:04.516,STABILIZE,-35.3632621,149.1652375,0,-0.0009806312154978514,0.0009502885513938963,0.02368822693824768,0.0003291976172477007,0.0002508381730876863,0.001686283154413104,0,1,-1000,0,0,0,-1,0,-1,1500.0
11:23:04.717,STABILIZE,-35.3632621,149.1652375,0,-0.0009806312154978514,0.0009502885513938963,0.02368822693824768,0.0003291976172477007,0.0002508381730876863,0.001686283154413104,0,1,-1000,0,0,0,-1,0,-1,1500.0
11:23:04.918,STABILIZE,-35.3632621,149.1652375,0,-0.0009449762292206287,0.0009536814759485424,0.023580925539135933,0.00024701107759028673,0.0003020651056431234,0.0017305181827396154,0,1,-1000,0,1,0,-1,0,-1,1500.0
11:23:05.120,STABILIZE,-35.3632621,149.1652375,0,-0.0009134400170296431,0.0009520627208985388,0.023505978286266327,0.0003489264054223895,0.00018406397430226207,0.0018218513578176498,0,1,-1000,0,1,0,-1,0,-1,1500.0
11:23:05.322,STABILIZE,-35.3632621,149.1652375,0,-0.0009036699775606394,0.0009617070318199694,0.023434748873114586,0.00017731013940647244,0.0003179220948368311,0.0017527744639664888,0,1,-1000,0,0,0,-1,0,-1,1500.0
11:23:05.523,STABILIZE,-35.3632621,149.1652375,0,-0.0008964663720689714,0.0009663153323344886,0.02336677350103855,0.00022375897970050573,0.0002620919840410352,0.001779724843800068,0,1,-1000,0,0,0,-1,0,-1,1500.0
11:23:05.725,STABILIZE,-35.3632621,149.1652375,0,-0.0008964663720689714,0.0009663153323344886,0.02336677350103855,0.00022375897970050573,0.0002620919840410352,0.001779724843800068,0,1,-1000,0,0,0,-1,0,-1,1500.0
11:23:05.929,STABILIZE,-35.3632621,149.1652375,0,-0.0008964663720689714,0.0009663153323344886,0.02336677350103855,0.00022375897970050573,0.0002620919840410352,0.001779724843800068,0,1,-1000,0,0,0,-1,0,-1,1500.0
11:23:06.133,STABILIZE,-35.3632621,149.1652375,0,-0.0008964663720689714,0.0009663153323344886,0.02336677350103855,0.00022375897970050573,0.0002620919840410352,0.001779724843800068,0,1,-1000,0,0,0,-1,0,-1,1500.0
11:23:06.335,STABILIZE,-35.3632621,149.1652375,0,-0.0008964663720689714,0.0009663153323344886,0.02336677350103855,0.00022375897970050573,0.0002620919840410352,0.001779724843800068,0,1,-1000,0,0,0,-1,0,-1,1500.0
11:23:06.536,STABILIZE,-35.3632621,149.1652375,0,-0.0008937029633671045,0.0009733560145832598,0.023081675171852112,0.00018992729019373655,0.00025004998315125704,0.0016997207421809435,0,1,-1000,0,0,0,-1,0,-1,1500.0
11:23:06.737,STABILIZE,-35.3632621,149.1652375,0,-0.0008937029633671045,0.0009733560145832598,0.023081675171852112,0.00018992729019373655,0.00025004998315125704,0.0016997207421809435,0,1,-1000,0,0,0,-1,0,-1,1500.0
11:23:06.938,STABILIZE,-35.3632621,149.1652375,0,-0.0008937029633671045,0.0009733560145832598,0.023081675171852112,0.00018992729019373655,0.00025004998315125704,0.0016997207421809435,0,1,-1000,0,0,0,-1,0,-1,1500.0
11:23:07.140,STABILIZE,-35.3632621,149.1652375,0,-0.0008937029633671045,0.0009733560145832598,0.023081675171852112,0.00018992729019373655,0.00025004998315125704,0.0016997207421809435,0,1,-1000,0,0,0,-1,0,-1,1500.0
11:23:07.341,STABILIZE,-35.3632621,149.1652375,0,-0.0008937029633671045,0.0009733560145832598,0.023081675171852112,0.00018992729019373655,0.00025004998315125704,0.0016997207421809435,0,1,-1000,0,0,0,-1,0,-1,1500.0
11:23:07.543,STABILIZE,-35.3632621,149.1652375,0,-0.0008937029633671045,0.0009733560145832598,0.023081675171852112,0.00018992729019373655,0.00025004998315125704,0.0016997207421809435,0,1,-1000,0,0,0,-1,0,-1,1500.0
11:23:07.744,STABILIZE,-35.3632621,149.1652375,0,-0.0008937029633671045,0.0009733560145832598,0.023081675171852112,0.00018992729019373655,0.00025004998315125704,0.0016997207421809435,0,1,-1000,0,0,0,-1,0,-1,1500.0
11:23:07.945,STABILIZE,-35.3632621,149.1652375,0,-0.0008937029633671045,0.0009733560145832598,0.023081675171852112,0.00018992729019373655,0.00025004998315125704,0.0016997207421809435,0,1,-1000,0,0,0,-1,0,-1,1500.0
11:23:08.146,STABILIZE,-35.3632621,149.1652375,0,-0.0008937029633671045,0.0009733560145832598,0.023081675171852112,0.00018992729019373655,0.00025004998315125704,0.0016997207421809435,0,1,-1000,0,0,0,-1,0,-1,1500.0
11:23:08.348,STABILIZE,-35.3632622,149.1652375,0,-0.0008710111142136157,0.000972749141510576,0.02256968803703785,0.0003164258087053895,0.0002918654936365783,0.0017237060237675905,0,2,-1000,0,1,0,-1,2,0,1500.0
11:23:08.549,STABILIZE,-35.3632622,149.1652375,0,-0.0008710111142136157,0.000972749141510576,0.02256968803703785,0.0003164258087053895,0.0002918654936365783,0.0017237060237675905,0,2,-1000,0,1,0,-1,1,0,1500.0
11:23:08.750,STABILIZE,-35.3632622,149.1652375,0,-0.0009497496648691595,0.0009686927078291774,0.02244410291314125,0.0002329528797417879,0.0002023107372224331,0.0015931923408061266,0,2,-1000,0,1,0,-1,1,0,1500.0
11:23:08.951,STABILIZE,-35.3632622,149.1652375,0,-0.0009497496648691595,0.0009686927078291774,0.02244410291314125,0.0002329528797417879,0.0002023107372224331,0.0015931923408061266,0,2,-1000,0,1,0,-1,1,0,1500.0
11:23:09.152,STABILIZE,-35.3632622,149.1652375,0,-0.0009497496648691595,0.0009686927078291774,0.02244410291314125,0.0002329528797417879,0.0002023107372224331,0.0015931923408061266,0,2,-1000,0,1,0,-1,1,0,1500.0
11:23:09.354,STABILIZE,-35.3632622,149.1652375,0,-0.0009497496648691595,0.0009686927078291774,0.02244410291314125,0.0002329528797417879,0.0002023107372224331,0.0015931923408061266,0,1,-1000,0,0,1,-1,1,0,1500.0
11:23:09.555,STABILIZE,-35.3632622,149.1652375,0,-0.0009497496648691595,0.0009686927078291774,0.02244410291314125,0.0002329528797417879,0.0002023107372224331,0.0015931923408061266,0,1,-1000,1,0,0,-1,1,0,1500.0
11:23:09.756,STABILIZE,-35.3632622,149.1652375,0,-0.0009497496648691595,0.0009686927078291774,0.02244410291314125,0.0002329528797417879,0.0002023107372224331,0.0015931923408061266,0,1,-1000,1,0,0,-1,1,0,1500.0
11:23:09.957,STABILIZE,-35.3632622,149.1652375,0,-0.0009497496648691595,0.0009686927078291774,0.02244410291314125,0.0002329528797417879,0.0002023107372224331,0.0015931923408061266,0,1,-1000,1,0,0,-1,1,0,1500.0
11:23:10.163,STABILIZE,-35.3632622,149.1652375,0,-0.0009497496648691595,0.0009686927078291774,0.02244410291314125,0.0002329528797417879,0.0002023107372224331,0.0015931923408061266,0,1,-1000,1,0,0,-1,1,0,1500.0
11:23:10.365,STABILIZE,-35.3632622,149.1652375,0,-0.0010945108952000737,0.0009859715355560184,0.022091791033744812,0.0003327853628434241,0.0002455030335113406,0.0017200859729200602,0,1,-1000,1,0,0,-1,1,0,1500.0
11:23:10.566,STABILIZE,-35.3632622,149.1652375,0,-0.0010945108952000737,0.0009859715355560184,0.022091791033744812,0.0003327853628434241,0.0002455030335113406,0.0017200859729200602,0,2,-1000,0,1,1,-1,1,0,1500.0
11:23:10.767,STABILIZE,-35.3632622,149.1652375,0,-0.0010945108952000737,0.0009859715355560184,0.022091791033744812,0.0003327853628434241,0.0002455030335113406,0.0017200859729200602,0,2,-1000,0,1,1,-1,1,0,1500.0
11:23:10.968,STABILIZE,-35.3632622,149.1652375,0,-0.0010945108952000737,0.0009859715355560184,0.022091791033744812,0.0003327853628434241,0.0002455030335113406,0.0017200859729200602,0,2,-1000,0,1,1,-1,1,0,1500.0
11:23:11.170,STABILIZE,-35.3632622,149.1652375,0,-0.0008803654345683753,0.000990031287074089,0.021932819858193398,0.0003253195318393409,0.00017602078150957823,0.0014284055214375257,0,1,-1000,0,1,0,-1,2,1,1500.0
11:23:11.371,STABILIZE,-35.3632622,149.1652375,0,-0.0008803654345683753,0.000990031287074089,0.021932819858193398,0.0003253195318393409,0.00017602078150957823,0.0014284055214375257,0,1,-1000,1,1,1,-1,2,1,1500.0
11:23:11.573,STABILIZE,-35.3632622,149.1652375,0,-0.0009996776934713125,0.000989008927717805,0.021814219653606415,0.00015853880904614925,0.000244701630435884,0.0014516990631818771,0,1,-1000,0,1,1,-1,2,1,1500.0
11:23:11.775,AUTO,-35.3632622,149.1652375,0,-0.0009996776934713125,0.000989008927717805,0.021814219653606415,0.00015853880904614925,0.000244701630435884,0.0014516990631818771,0,1,-1000,0,1,1,-1,2,1,1500.0
11:23:11.977,AUTO,-35.3632622,149.1652375,0,-0.0009996776934713125,0.000989008927717805,0.021814219653606415,0.00015853880904614925,0.000244701630435884,0.0014516990631818771,0,1,-1000,0,1,1,-1,2,1,224606.0
11:23:12.179,AUTO,-35.3632622,149.1652375,0,-0.0009996776934713125,0.000989008927717805,0.021814219653606415,0.00015853880904614925,0.000244701630435884,0.0014516990631818771,0,1,-1000,0,1,1,-1,2,1,224606.0
11:23:12.380,AUTO,-35.3632622,149.1652375,0,-0.0011170603102073073,0.0010072635486721992,0.021685993298888206,0.00027307705022394657,0.00031733931973576546,0.001509278081357479,0,1,-1000,0,0,0,-1,1,1,224606.0
11:23:12.582,AUTO,-35.3632622,149.1652375,0,-0.0011391497682780027,0.001009410829283297,0.021641802042722702,0.00025509914848953485,0.0002888761810027063,0.001563917612656951,0,1,-1000,0,1,1,-1,1,0,224606.0
11:23:12.783,AUTO,-35.3632621,149.1652375,0,-0.0011523667490109801,0.0010191511828452349,0.021587101742625237,0.00031141750514507294,0.0002742895158007741,0.0014410314615815878,0,2,-1000,0,0,0,0,0,0,224606.0
11:23:12.984,AUTO,-35.3632621,149.1652375,0,-0.0011361025972291827,0.001051237341016531,0.02154463529586792,0.00030705606332048774,0.00023965112632140517,0.00162399688269943,0,1,-1000,1,1,0,0,0,0,224606.0
11:23:13.186,AUTO,-35.3632621,149.1652375,0,-0.0011361025972291827,0.001051237341016531,0.02154463529586792,0.00030705606332048774,0.00023965112632140517,0.00162399688269943,0,1,-1000,1,1,0,0,0,0,224606.0
11:23:13.388,AUTO,-35.3632621,149.1652375,0,-0.0011091342894360423,0.0010983503889292479,0.02148600108921528,0.00031350651988759637,0.0002899778191931546,0.0013875467702746391,0,2,-1000,0,1,1,0,0,0,224606.0
11:23:13.589,AUTO,-35.3632621,149.1652375,0,-0.0010761814191937447,0.0011565875029191375,0.02144044078886509,0.00019369088113307953,0.0003357153618708253,0.001459870720282197,0,2,-1000,0,1,1,0,0,0,224606.0
11:23:13.792,AUTO,-35.3632621,149.1652375,0,-0.0010761814191937447,0.0011565875029191375,0.02144044078886509,0.00019369088113307953,0.0003357153618708253,0.001459870720282197,0,2,-1000,0,1,1,0,0,0,224606.0
11:23:13.993,AUTO,-35.3632621,149.1652375,0,-0.0010761814191937447,0.0011565875029191375,0.02144044078886509,0.00019369088113307953,0.0003357153618708253,0.001459870720282197,0,2,-1000,0,1,1,0,0,0,224606.0
11:23:14.194,AUTO,-35.3632621,149.1652375,0,-0.0010761814191937447,0.0011565875029191375,0.02144044078886509,0.00019369088113307953,0.0003357153618708253,0.001459870720282197,0,2,-1000,0,1,1,0,0,0,224606.0
11:23:14.396,AUTO,-35.3632621,149.1652374,4,-0.0009434160310775042,0.001347373821772635,0.021311353892087936,0.00021309504518285394,0.000243459886405617,0.0013322007143869996,0,1,-1000,0,1,0,0,-1,-1,224606.0
11:23:14.597,AUTO,-35.3632621,149.1652374,6,-0.000892577925696969,0.0014178286073729396,0.021264465525746346,0.00030240684282034636,0.0003294514608569443,0.0013954954920336604,0,1,-1000,0,0,1,0,-1,-1,224606.0
11:23:14.799,AUTO,-35.3632621,149.1652374,7,-0.0008431758033111691,0.001492344425059855,0.02122119814157486,0.0002947409520857036,0.0003447919152677059,0.0014196083648130298,0,1,-1000,0,0,1,0,-1,-1,15987.0
11:23:15.001,AUTO,-35.3632621,149.1652374,8,-0.0007881925557740033,0.0015653235604986548,0.02117014490067959,0.0002420271630398929,0.0002554693492129445,0.0014373371377587318,0,1,-1000,0,1,0,0,0,-1,15987.0
11:23:15.203,AUTO,-35.3632621,149.1652374,8,-0.0007881925557740033,0.0015653235604986548,0.02117014490067959,0.0002420271630398929,0.0002554693492129445,0.0014373371377587318,0,1,-1000,0,1,0,0,0,-1,15987.0
11:23:15.405,AUTO,-35.3632621,149.1652374,8,-0.0007306230254471302,0.0016331423539668322,0.02111753076314926,0.000347008288372308,0.0002472982741892338,0.0014315502485260367,0,1,-1000,1,0,1,0,0,-1,15987.0
11:23:15.607,AUTO,-35.3632621,149.1652374,9,-0.00066777114989236,0.001706484123133123,0.021062767133116722,0.000352631788700819,0.000298148428555578,0.0013879695907235146,0,1,-1000,0,1,1,0,0,-1,15987.0
11:23:15.808,AUTO,-35.3632621,149.1652374,9,-0.00066777114989236,0.001706484123133123,0.021062767133116722,0.000352631788700819,0.000298148428555578,0.0013879695907235146,0,1,-1000,0,1,1,0,0,-1,15987.0
11:23:16.011,AUTO,-35.3632621,149.1652374,9,-0.00066777114989236,0.001706484123133123,0.021062767133116722,0.000352631788700819,0.000298148428555578,0.0013879695907235146,0,1,-1000,0,1,1,0,0,-1,15987.0
11:23:16.213,AUTO,-35.3632621,149.1652374,9,-0.00066777114989236,0.001706484123133123,0.021062767133116722,0.000352631788700819,0.000298148428555578,0.0013879695907235146,0,1,-1000,0,1,1,0,0,-1,15987.0
11:23:16.416,AUTO,-35.3632621,149.1652375,213,0.002066701417788863,0.00027594034327194095,0.02101932466030121,-0.002506409538909793,0.005120234563946724,0.0009310106979683042,0,0,-1129,-1,5,0,0,0,-73,15987.0
11:23:16.618,AUTO,-35.3632621,149.1652375,432,0.0009570501861162484,0.001234853290952742,0.02074001543223858,-0.006929650902748108,0.0024136477150022984,0.0005400232039391994,0,0,-1108,-6,3,0,0,0,-102,15987.0
11:23:16.820,AUTO,-35.3632621,149.1652375,715,0.0005526496679522097,0.0015647358959540725,0.020583994686603546,0.004076411947607994,2.7947244234383106e-05,0.00023260415764525533,0,0,-1088,4,0,0,0,0,-125,15987.0
11:23:17.021,AUTO,-35.3632621,149.1652375,1052,0.00984023418277502,0.0006442781304940581,0.020263971760869026,0.04788364842534065,-0.006103336811065674,0.0011894661001861095,0,0,-1041,48,-5,0,0,1,-140,15987.0
11:23:17.223,AUTO,-35.3632621,149.1652375,1052,0.00984023418277502,0.0006442781304940581,0.020263971760869026,0.04788364842534065,-0.006103336811065674,0.0011894661001861095,0,0,-1041,48,-5,0,0,1,-140,15987.0
11:23:17.425,AUTO,-35.3632621,149.1652375,1418,0.02170822024345398,-0.0010481595527380705,0.02023482881486416,0.04657486081123352,-0.007060543168336153,0.0019926419481635094,0,0,-1017,47,-6,1,1,4,-146,15987.0
11:23:17.627,AUTO,-35.363262,149.1652376,1799,0.0333317406475544,-0.002946211490780115,0.02037142962217331,0.04528611898422241,-0.0077211493626236916,0.0028354860842227936,0,-1,-1007,45,-7,2,1,11,-148,15987.0
11:23:17.842,AUTO,-35.363262,149.1652376,1799,0.0333317406475544,-0.002946211490780115,0.02037142962217331,0.04528611898422241,-0.0077211493626236916,0.0028354860842227936,0,-1,-1007,45,-7,2,1,11,-148,244366.0
11:23:18.043,AUTO,-35.363262,149.1652376,1799,0.0333317406475544,-0.002946211490780115,0.02037142962217331,0.04528611898422241,-0.0077211493626236916,0.0028354860842227936,0,-1,-1007,45,-7,2,1,11,-148,244366.0
11:23:18.251,AUTO,-35.3632616,149.1652396,2948,0.061577148735523224,-0.0091227563098073,-0.006782426964491606,-0.009812237694859505,0.020158035680651665,-0.04023294150829315,1,-6,-992,-9,20,-40,8,43,-149,244366.0
11:23:18.453,AUTO,-35.3632616,149.1652396,2948,0.061577148735523224,-0.0091227563098073,-0.006782426964491606,-0.009812237694859505,0.020158035680651665,-0.04023294150829315,1,-6,-992,-9,20,-40,8,43,-149,244366.0
11:23:18.654,AUTO,-35.3632614,149.1652409,3328,0.04155232012271881,0.012580204755067825,-0.029194394126534462,-0.13586650788784027,0.09869375079870224,-0.10191714763641357,3,-11,-991,-135,99,-102,9,52,-146,244366.0
11:23:18.856,AUTO,-35.3632612,149.1652424,3703,-0.0014481650432571769,0.02376522123813629,-0.04922158643603325,-0.14592890441417694,0.0015498772263526917,-0.07047025859355927,3,-11,-1006,-145,2,-70,6,54,-145,244366.0
11:23:19.058,AUTO,-35.363261,149.1652437,4081,-0.023403171449899673,0.019674167037010193,-0.06239154934883118,-0.051314353942871094,-0.018566209822893143,-0.052822526544332504,4,-9,-1010,-50,-17,-53,3,47,-148,244366.0
11:23:19.260,AUTO,-35.3632609,149.1652449,4463,-0.031049169600009918,0.01419433206319809,-0.07232276350259781,-0.01990707591176033,-0.016052987426519394,-0.042995817959308624,4,-8,-1006,-19,-15,-43,0,37,-150,244366.0
11:23:19.462,AUTO,-35.3632609,149.1652449,4463,-0.031049169600009918,0.01419433206319809,-0.07232276350259781,-0.01990707591176033,-0.016052987426519394,-0.042995817959308624,4,-8,-1006,-19,-15,-43,0,37,-150,244366.0
11:23:19.664,AUTO,-35.3632609,149.1652457,4849,-0.04112352803349495,0.008847328834235668,-0.07954087853431702,-0.056032147258520126,-0.021710794419050217,-0.029110407456755638,4,-7,-1000,-55,-21,-29,-1,27,-150,244366.0
11:23:19.866,AUTO,-35.3632609,149.1652457,4849,-0.04112352803349495,0.008847328834235668,-0.07954087853431702,-0.056032147258520126,-0.021710794419050217,-0.029110407456755638,4,-7,-1000,-55,-21,-29,-1,27,-150,244366.0
11:23:20.068,AUTO,-35.3632609,149.1652457,4849,-0.04112352803349495,0.008847328834235668,-0.07954087853431702,-0.056032147258520126,-0.021710794419050217,-0.029110407456755638,4,-7,-1000,-55,-21,-29,-1,27,-150,244366.0
11:23:20.270,AUTO,-35.3632609,149.165246,6000,-0.07425513863563538,-0.0064794449135661125,-0.08898044377565384,0.04723692685365677,-0.005204745568335056,-0.009689577855169773,0,2,-1003,47,-4,-9,-2,-24,-149,244366.0
11:23:20.471,AUTO,-35.3632609,149.165246,6000,-0.07425513863563538,-0.0064794449135661125,-0.08898044377565384,0.04723692685365677,-0.005204745568335056,-0.009689577855169773,0,2,-1003,47,-4,-9,-2,-24,-149,244366.0
11:23:20.673,AUTO,-35.363261,149.1652452,6388,-0.0609247051179409,-0.007139669731259346,-0.09115011990070343,0.05535443499684334,0.0004434596048668027,-0.005714769475162029,-4,7,-1001,56,1,-5,-2,-40,-149,244366.0
11:23:20.875,AUTO,-35.3632611,149.1652439,6770,-0.04624210298061371,-0.006204796489328146,-0.09300269931554794,0.061136264353990555,0.006754041649401188,-0.0030627408996224403,-5,9,-1001,61,7,-3,-2,-52,-149,47774.0
11:23:21.078,AUTO,-35.3632611,149.1652423,7153,-0.03075278364121914,-0.003970235586166382,-0.09416031837463379,0.06308476626873016,0.010498170740902424,-0.0006998187745921314,-6,8,-1002,63,11,0,-3,-59,-150,47774.0
11:23:21.280,AUTO,-35.3632612,149.1652406,7538,-0.014350293204188347,-0.0007826971705071628,-0.0946323350071907,0.06516281515359879,0.013346166349947453,0.0007922558579593897,-8,13,-1003,65,14,0,-4,-62,-150,47774.0
11:23:21.482,AUTO,-35.3632613,149.1652389,7925,0.002289891242980957,0.0027252021245658398,-0.09446553140878677,0.06821274757385254,0.014453246258199215,0.002177000278607011,-6,11,-1003,69,14,2,-5,-61,-151,47774.0
11:23:21.684,AUTO,-35.3632613,149.1652389,7925,0.002289891242980957,0.0027252021245658398,-0.09446553140878677,0.06821274757385254,0.014453246258199215,0.002177000278607011,-6,11,-1003,69,14,2,-5,-61,-151,47774.0
11:23:21.886,AUTO,-35.3632613,149.1652389,7925,0.002289891242980957,0.0027252021245658398,-0.09446553140878677,0.06821274757385254,0.014453246258199215,0.002177000278607011,-6,11,-1003,69,14,2,-5,-61,-151,47774.0
11:23:22.088,AUTO,-35.3632613,149.1652389,7925,0.002289891242980957,0.0027252021245658398,-0.09446553140878677,0.06821274757385254,0.014453246258199215,0.002177000278607011,-6,11,-1003,69,14,2,-5,-61,-151,47774.0
11:23:22.290,AUTO,-35.3632619,149.1652346,9096,0.05144282802939415,0.01082434132695198,-0.09180410951375961,0.06334290653467178,0.005552004091441631,0.004228505305945873,-3,10,-1003,64,6,3,-11,-34,-154,47774.0
11:23:22.492,AUTO,-35.3632622,149.1652338,9489,0.06661029905080795,0.011325688101351261,-0.09065848588943481,0.0593688078224659,-0.00021549867233261466,0.004316980019211769,-2,8,-1001,59,0,3,-13,-18,-154,47774.0
11:23:22.694,AUTO,-35.3632622,149.1652338,9489,0.06661029905080795,0.011325688101351261,-0.09065848588943481,0.0593688078224659,-0.00021549867233261466,0.004316980019211769,-2,8,-1001,59,0,3,-13,-18,-154,47774.0
11:23:22.896,AUTO,-35.3632625,149.1652335,9882,0.07890758663415909,0.008876617066562176,-0.08786483854055405,0.01988089829683304,-0.031166324391961098,0.036235589534044266,1,3,-996,20,-30,35,-13,0,-153,47774.0
11:23:23.098,AUTO,-35.3632628,149.1652337,10271,0.06918073445558548,-0.011913210153579712,-0.0726211667060852,-0.08413626253604889,-0.08749093115329742,0.06680934876203537,3,1,-991,-83,-86,66,-11,18,-150,47774.0
11:23:23.300,AUTO,-35.3632629,149.1652344,10653,0.038238365203142166,-0.022833216935396194,-0.06470858305692673,-0.13622914254665375,-0.0044908300042152405,0.011499271728098392,3,-3,-994,-135,-3,10,-3,30,-148,47774.0
11:23:23.502,AUTO,-35.363263,149.1652351,11035,0.007725655101239681,-0.018765360116958618,-0.06761673837900162,-0.10478297621011734,0.026116175577044487,-0.026427369564771652,3,-6,-1002,-103,26,-26,3,33,-148,47774.0
11:23:23.706,AUTO,-35.363263,149.1652351,11035,0.007725655101239681,-0.018765360116958618,-0.06761673837900162,-0.10478297621011734,0.026116175577044487,-0.026427369564771652,3,-6,-1002,-103,26,-26,3,33,-148,47774.0
11:23:23.909,AUTO,-35.363263,149.1652351,11035,0.007725655101239681,-0.018765360116958618,-0.06761673837900162,-0.10478297621011734,0.026116175577044487,-0.026427369564771652,3,-6,-1002,-103,26,-26,3,33,-148,230480.0
11:23:24.111,AUTO,-35.363263,149.1652351,11035,0.007725655101239681,-0.018765360116958618,-0.06761673837900162,-0.10478297621011734,0.026116175577044487,-0.026427369564771652,3,-6,-1002,-103,26,-26,3,33,-148,230480.0
11:23:24.313,AUTO,-35.3632624,149.1652371,12183,-0.02943122200667858,-0.003131997538730502,-0.10163713991641998,-0.006842827890068293,0.016114385798573494,-0.05007375404238701,0,-5,-1004,-6,16,-50,11,13,-151,230480.0
11:23:24.515,AUTO,-35.3632622,149.1652373,12571,-0.027974920347332954,-4.222001734888181e-06,-0.11386483907699585,0.016276715323328972,0.012333318591117859,-0.042887795716524124,-1,-3,-1002,17,12,-42,11,4,-152,230480.0
11:23:24.717,AUTO,-35.3632622,149.1652373,12571,-0.027974920347332954,-4.222001734888181e-06,-0.11386483907699585,0.016276715323328972,0.012333318591117859,-0.042887795716524124,-1,-3,-1002,17,12,-42,11,4,-152,230480.0
11:23:24.918,AUTO,-35.3632619,149.1652373,12960,-0.022705400362610817,0.0026896146591752768,-0.12486910820007324,0.02592434547841549,0.011399611830711365,-0.04025649651885033,-2,-1,-1001,26,11,-40,10,-2,-152,230480.0
11:23:25.120,AUTO,-35.3632617,149.1652372,13350,-0.01559425424784422,0.004928744398057461,-0.134029358625412,0.030302148312330246,0.00923564936965704,-0.03241683170199394,-2,0,-1000,30,9,-32,8,-7,-153,230480.0
11:23:25.321,AUTO,-35.3632615,149.165237,13741,-0.008289096876978874,0.007464637514203787,-0.14206048846244812,0.02811524085700512,0.009575164876878262,-0.027326662093400955,-3,0,-1000,28,10,-27,6,-10,-153,230480.0
11:23:25.523,AUTO,-35.3632614,149.1652366,14131,-0.0014280667528510094,0.00907938927412033,-0.14806601405143738,0.025472573935985565,0.005058580078184605,-0.019382791593670845,-3,1,-1000,26,6,-19,4,-11,-153,230480.0
11:23:25.725,AUTO,-35.3632614,149.1652366,14131,-0.0014280667528510094,0.00907938927412033,-0.14806601405143738,0.025472573935985565,0.005058580078184605,-0.019382791593670845,-3,1,-1000,26,6,-19,4,-11,-153,230480.0
11:23:25.926,AUTO,-35.3632614,149.1652366,14131,-0.0014280667528510094,0.00907938927412033,-0.14806601405143738,0.025472573935985565,0.005058580078184605,-0.019382791593670845,-3,1,-1000,26,6,-19,4,-11,-153,230480.0
11:23:26.128,AUTO,-35.3632614,149.1652366,14131,-0.0014280667528510094,0.00907938927412033,-0.14806601405143738,0.025472573935985565,0.005058580078184605,-0.019382791593670845,-3,1,-1000,26,6,-19,4,-11,-153,230480.0
11:23:26.332,AUTO,-35.3632612,149.1652357,15301,0.011531105265021324,0.010263003408908844,-0.15809506177902222,0.006599889136850834,-0.0002919773105531931,-0.008162658661603928,-1,1,-999,7,0,-8,-2,-6,-153,230480.0
11:23:26.533,AUTO,-35.3632612,149.1652355,15695,0.012311110273003578,0.009582499042153358,-0.15976175665855408,0.002660167869180441,-0.0035092546604573727,-0.005816125310957432,0,1,-999,3,-2,-6,-3,-3,-153,230480.0
11:23:26.734,AUTO,-35.3632612,149.1652354,16084,0.012280602008104324,0.008553566411137581,-0.16120173037052155,-0.0004039558698423207,-0.004862646106630564,-0.006234900560230017,0,0,-999,0,-4,-6,-5,0,-152,230480.0
11:23:26.936,AUTO,-35.3632612,149.1652354,16084,0.012280602008104324,0.008553566411137581,-0.16120173037052155,-0.0004039558698423207,-0.004862646106630564,-0.006234900560230017,0,0,-999,0,-4,-6,-5,0,-152,249347.0
11:23:27.138,AUTO,-35.3632612,149.1652353,16473,0.01111284177750349,0.007398996967822313,-0.16276802122592926,-0.0064939470030367374,-0.003212159965187311,-0.00686236098408699,0,0,-999,-6,-2,-7,-5,1,-152,249347.0
11:23:27.340,AUTO,-35.3632613,149.1652353,16863,0.009438971057534218,0.006180859636515379,-0.16453209519386292,-0.005984470713883638,-0.004273413680493832,-0.007593198679387569,0,0,-1000,-5,-3,-8,-6,3,-152,249347.0
11:23:27.541,AUTO,-35.3632614,149.1652353,17251,0.007689981255680323,0.00504893995821476,-0.16683019697666168,-0.006177210249006748,-0.0036458726972341537,-0.010860654525458813,0,0,-1000,-5,-2,-11,-6,5,-152,249347.0
11:23:27.745,AUTO,-35.3632614,149.1652353,17251,0.007689981255680323,0.00504893995821476,-0.16683019697666168,-0.006177210249006748,-0.0036458726972341537,-0.010860654525458813,0,0,-1000,-5,-2,-11,-6,5,-152,249347.0
11:23:27.946,AUTO,-35.3632614,149.1652353,17251,0.007689981255680323,0.00504893995821476,-0.16683019697666168,-0.006177210249006748,-0.0036458726972341537,-0.010860654525458813,0,0,-1000,-5,-2,-11,-6,5,-152,249347.0
11:23:28.148,AUTO,-35.3632614,149.1652353,17251,0.007689981255680323,0.00504893995821476,-0.16683019697666168,-0.006177210249006748,-0.0036458726972341537,-0.010860654525458813,0,0,-1000,-5,-2,-11,-6,5,-152,249347.0
11:23:28.350,AUTO,-35.3632616,149.1652356,18413,0.00321045215241611,0.002291751792654395,-0.17654050886631012,-0.0053560188971459866,-0.0021158242598176003,-0.01585959456861019,1,0,-1000,-4,-1,-16,-5,6,-152,249347.0
11:23:28.551,AUTO,-35.3632617,149.1652357,18801,0.002177593531087041,0.0017685621278360486,-0.18073953688144684,-0.002787195611745119,-0.001387737225741148,-0.017071448266506195,1,0,-1000,-2,0,-17,-4,6,-152,249347.0
11:23:28.753,AUTO,-35.3632618,149.1652358,19190,0.0015397239476442337,0.0015397751703858376,-0.18547707796096802,-0.00043422484304755926,-0.000790558522567153,-0.020564964041113853,0,0,-1000,0,0,-20,-4,6,-153,249347.0
11:23:28.955,AUTO,-35.3632618,149.1652358,19190,0.0015397239476442337,0.0015397751703858376,-0.18547707796096802,-0.00043422484304755926,-0.000790558522567153,-0.020564964041113853,0,0,-1000,0,0,-20,-4,6,-153,249347.0
11:23:29.157,AUTO,-35.3632618,149.1652359,19580,0.0012847359757870436,0.0014751609414815903,-0.19051872193813324,0.00020963960560038686,0.0002726484090089798,-0.020766444504261017,0,0,-1000,0,1,-20,-3,5,-153,249347.0
11:23:29.358,AUTO,-35.3632618,149.165236,19969,0.0011967116734012961,0.0014331027632579207,-0.19569876790046692,0.0017765596276149154,-0.00015551288379356265,-0.021026121452450752,0,0,-1000,2,0,-21,-3,5,-153,249347.0
11:23:29.560,AUTO,-35.3632619,149.1652361,20363,0.0011612143134698272,0.0015650572022423148,-0.2011329084634781,0.0009162802016362548,0.0012608279939740896,-0.020926449447870255,0,0,-1000,1,1,-21,-2,4,-153,249347.0
11:23:29.762,AUTO,-35.3632619,149.1652361,20363,0.0011612143134698272,0.0015650572022423148,-0.2011329084634781,0.0009162802016362548,0.0012608279939740896,-0.020926449447870255,0,0,-1000,1,1,-21,-2,4,-153,249347.0
11:23:29.963,AUTO,-35.3632619,149.1652361,20363,0.0011612143134698272,0.0015650572022423148,-0.2011329084634781,0.0009162802016362548,0.0012608279939740896,-0.020926449447870255,0,0,-1000,1,1,-21,-2,4,-153,81162.0
11:23:30.165,AUTO,-35.3632619,149.1652361,20363,0.0011612143134698272,0.0015650572022423148,-0.2011329084634781,0.0009162802016362548,0.0012608279939740896,-0.020926449447870255,0,0,-1000,1,1,-21,-2,4,-153,81162.0
11:23:30.366,AUTO,-35.3632619,149.165236,21523,-0.040185876190662384,0.008461971767246723,-0.20745112001895905,-0.06021337956190109,0.06434092670679092,0.10551335662603378,0,0,-983,-59,64,105,-4,-6,-149,81162.0
11:23:30.568,AUTO,-35.363262,149.1652358,21896,-0.046975601464509964,0.03384505584836006,-0.14859847724437714,-0.023376135155558586,0.09803982079029083,0.3579826056957245,-1,2,-981,-22,98,357,-11,-16,-144,81162.0
11:23:30.769,AUTO,-35.3632624,149.1652352,22255,-0.049179449677467346,0.05745021253824234,-0.030243003740906715,-0.004101336933672428,0.008858250454068184,0.4927856922149658,0,6,-969,-3,9,492,-22,-26,-138,81162.0
11:23:30.971,AUTO,-35.3632624,149.1652352,22255,-0.049179449677467346,0.05745021253824234,-0.030243003740906715,-0.004101336933672428,0.008858250454068184,0.4927856922149658,0,6,-969,-3,9,492,-22,-26,-138,81162.0
11:23:31.172,AUTO,-35.363263,149.1652343,22599,-0.025447234511375427,0.03126945719122887,0.061533890664577484,0.11987408250570297,-0.18198469281196594,0.2370631843805313,2,9,-953,120,-181,237,-33,-34,-127,81162.0
11:23:31.374,AUTO,-35.3632637,149.1652333,22908,0.006874494254589081,-0.01204115804284811,0.09418338537216187,0.12114547193050385,-0.145447239279747,0.048611268401145935,2,10,-956,121,-144,48,-33,-34,-115,81162.0
11:23:31.576,AUTO,-35.3632644,149.1652324,23190,0.0331343375146389,-0.036885686218738556,0.09332994371652603,0.0885278731584549,-0.06653264164924622,-0.03633242845535278,3,9,-959,89,-65,-36,-26,-26,-105,81162.0
11:23:31.778,AUTO,-35.3632644,149.1652324,23190,0.0331343375146389,-0.036885686218738556,0.09332994371652603,0.0885278731584549,-0.06653264164924622,-0.03633242845535278,3,9,-959,89,-65,-36,-26,-26,-105,81162.0
11:23:31.980,AUTO,-35.3632644,149.1652324,23190,0.0331343375146389,-0.036885686218738556,0.09332994371652603,0.0885278731584549,-0.06653264164924622,-0.03633242845535278,3,9,-959,89,-65,-36,-26,-26,-105,81162.0
11:23:32.182,AUTO,-35.3632644,149.1652324,23190,0.0331343375146389,-0.036885686218738556,0.09332994371652603,0.0885278731584549,-0.06653264164924622,-0.03633242845535278,3,9,-959,89,-65,-36,-26,-26,-105,81162.0
11:23:32.384,AUTO,-35.3632651,149.1652316,23876,0.05312769114971161,-0.03753691911697388,0.06481342762708664,-0.01889033243060112,0.02958114631474018,-0.017266971990466118,0,-1,-970,-17,30,-17,2,12,-77,81162.0
11:23:32.586,AUTO,-35.363265,149.1652319,24063,0.04573914408683777,-0.02899477817118168,0.06204132363200188,-0.03495046868920326,0.03730948641896248,-0.005753099452704191,0,-4,-973,-33,38,-6,10,23,-70,81162.0
11:23:32.788,AUTO,-35.3632647,149.1652325,24232,0.03608546778559685,-0.019464608281850815,0.06108446419239044,-0.03699929267168045,0.03861193731427193,0.0025437402073293924,0,-7,-976,-36,39,2,15,30,-63,81162.0
11:23:32.990,AUTO,-35.3632643,149.1652334,24385,0.026157785207033157,-0.010280626825988293,0.06050215661525726,-0.03920518979430199,0.03501793369650841,0.0018102313624694943,0,-9,-976,-38,36,1,19,35,-57,137758.0
11:23:33.193,AUTO,-35.3632643,149.1652334,24385,0.026157785207033157,-0.010280626825988293,0.06050215661525726,-0.03920518979430199,0.03501793369650841,0.0018102313624694943,0,-9,-976,-38,36,1,19,35,-57,137758.0
11:23:33.395,AUTO,-35.3632639,149.1652343,24523,0.016418371349573135,-0.002343516331166029,0.059886276721954346,-0.03778798505663872,0.03187556192278862,0.0009512483957223594,0,-10,-978,-37,32,0,20,37,-52,137758.0
11:23:33.597,AUTO,-35.3632634,149.1652352,24646,0.007709978148341179,0.00499052694067359,0.05904730036854744,-0.02634854055941105,0.02557920292019844,0.0018527505453675985,0,-9,-978,-25,26,1,20,37,-46,137758.0
11:23:33.799,AUTO,-35.3632634,149.1652352,24646,0.007709978148341179,0.00499052694067359,0.05904730036854744,-0.02634854055941105,0.02557920292019844,0.0018527505453675985,0,-9,-978,-25,26,1,20,37,-46,137758.0
11:23:34.001,AUTO,-35.3632634,149.1652352,24646,0.007709978148341179,0.00499052694067359,0.05904730036854744,-0.02634854055941105,0.02557920292019844,0.0018527505453675985,0,-9,-978,-25,26,1,20,37,-46,137758.0
11:23:34.204,AUTO,-35.3632634,149.1652352,24646,0.007709978148341179,0.00499052694067359,0.05904730036854744,-0.02634854055941105,0.02557920292019844,0.0018527505453675985,0,-9,-978,-25,26,1,20,37,-46,137758.0
11:23:34.407,AUTO,-35.363262,149.1652378,24928,-0.007821229286491871,0.015276794321835041,0.05616195872426033,-0.0063666352070868015,0.006784326862543821,-0.002008506329730153,0,-7,-976,-5,7,-2,14,27,-29,137758.0
11:23:34.609,AUTO,-35.3632617,149.1652385,24991,-0.009918192401528358,0.015930697321891785,0.0552859865128994,0.002572979312390089,0.0009150253608822823,-0.002527442295104265,0,-6,-974,3,1,-2,11,22,-22,137758.0
11:23:34.811,AUTO,-35.3632614,149.165239,25039,-0.011697490699589252,0.015733620151877403,0.054317377507686615,-0.034629251807928085,-0.0026647564955055714,-0.0035332576371729374,0,-6,-1051,-33,-1,-3,8,18,-21,137758.0
11:23:35.012,AUTO,-35.3632612,149.1652394,25082,-0.011036781594157219,0.014336404390633106,0.05329122394323349,0.06459879130125046,-0.004448581486940384,-0.0034424567129462957,0,0,-963,65,-3,-3,5,14,-14,137758.0
11:23:35.214,AUTO,-35.3632612,149.1652394,25082,-0.011036781594157219,0.014336404390633106,0.05329122394323349,0.06459879130125046,-0.004448581486940384,-0.0034424567129462957,0,0,-963,65,-3,-3,5,14,-14,137758.0
11:23:35.417,AUTO,-35.3632611,149.1652397,25101,-0.025405675172805786,0.023699352517724037,0.05177650228142738,0.001429042429663241,0.10017521679401398,0.0009491376113146544,3,-1,-895,2,101,0,2,8,0,137758.0
11:23:35.619,AUTO,-35.3632611,149.1652398,25063,-0.045018527656793594,0.028050636872649193,0.05078302323818207,-0.6799106597900391,-0.05185040459036827,-0.004305398091673851,0,-46,-919,-679,-50,-4,-2,-2,23,137758.0
11:23:35.821,AUTO,-35.3632611,149.1652398,25063,-0.045018527656793594,0.028050636872649193,0.05078302323818207,-0.6799106597900391,-0.05185040459036827,-0.004305398091673851,0,-46,-919,-679,-50,-4,-2,-2,23,137758.0
11:23:36.023,AUTO,-35.3632611,149.1652398,25063,-0.045018527656793594,0.028050636872649193,0.05078302323818207,-0.6799106597900391,-0.05185040459036827,-0.004305398091673851,0,-46,-919,-679,-50,-4,-2,-2,23,142129.0
11:23:36.225,AUTO,-35.3632611,149.1652398,25063,-0.045018527656793594,0.028050636872649193,0.05078302323818207,-0.6799106597900391,-0.05185040459036827,-0.004305398091673851,0,-46,-919,-679,-50,-4,-2,-2,23,142129.0
11:23:36.427,AUTO,-35.3632612,149.1652394,24879,0.031053714454174042,-0.027603620663285255,0.04728960990905762,0.3532801568508148,-0.04005845636129379,-0.007843030616641045,0,33,-1026,355,-39,-7,0,0,15,142129.0
11:23:36.628,AUTO,-35.363261,149.1652395,24842,0.05875221639871597,-0.03698781132698059,0.045901887118816376,0.8307966589927673,-0.032986078411340714,-0.00292684487067163,0,33,-1042,832,-32,-3,8,8,9,142129.0
11:23:36.830,AUTO,-35.3632608,149.1652398,24817,0.07264524698257446,-0.04466523230075836,0.04375329241156578,0.22196133434772491,-0.03476211056113243,-0.0035208656918257475,0,-18,-1019,222,-33,-3,18,21,4,142129.0
11:23:37.032,AUTO,-35.3632603,149.1652405,24801,0.06988275796175003,-0.052385300397872925,0.04929276928305626,-0.5275481343269348,-0.042935214936733246,0.12515991926193237,-3,-45,-1013,-527,-41,125,29,36,2,142129.0
11:23:37.233,AUTO,-35.3632603,149.1652405,24801,0.06988275796175003,-0.052385300397872925,0.04929276928305626,-0.5275481343269348,-0.042935214936733246,0.12515991926193237,-3,-45,-1013,-527,-41,125,29,36,2,142129.0
11:23:37.435,AUTO,-35.3632595,149.1652417,24789,0.07117005437612534,-0.06730949878692627,0.15399649739265442,-0.5133622288703918,-0.05545338615775108,0.6911217570304871,-2,-29,-1002,-511,-54,690,41,53,2,142129.0
11:23:37.639,AUTO,-35.3632584,149.1652433,24778,0.06895242631435394,-0.0880792886018753,0.3576144874095917,0.17952631413936615,-0.024191930890083313,0.8635584115982056,-8,7,-990,181,-23,863,54,71,3,142129.0
11:23:37.842,AUTO,-35.3632584,149.1652433,24778,0.06895242631435394,-0.0880792886018753,0.3576144874095917,0.17952631413936615,-0.024191930890083313,0.8635584115982056,-8,7,-990,181,-23,863,54,71,3,142129.0
11:23:38.044,AUTO,-35.3632584,149.1652433,24778,0.06895242631435394,-0.0880792886018753,0.3576144874095917,0.17952631413936615,-0.024191930890083313,0.8635584115982056,-8,7,-990,181,-23,863,54,71,3,142129.0
11:23:38.252,AUTO,-35.3632533,149.1652511,24739,0.02138894982635975,-0.15011586248874664,0.9547870755195618,-0.5511512756347656,-0.051288288086652756,0.6768385767936707,-28,-53,-992,-550,-50,676,99,132,4,142129.0
11:23:38.454,AUTO,-35.3632533,149.1652511,24739,0.02138894982635975,-0.15011586248874664,0.9547870755195618,-0.5511512756347656,-0.051288288086652756,0.6768385767936707,-28,-53,-992,-550,-50,676,99,132,4,142129.0
11:23:38.655,AUTO,-35.3632509,149.1652549,24719,0.009612314403057098,-0.16266468167304993,1.0558544397354126,-0.19898255169391632,-0.0368262380361557,0.20448070764541626,-39,-12,-1000,-197,-35,204,114,156,6,142129.0
11:23:38.863,AUTO,-35.3632482,149.1652593,24696,0.018051858991384506,-0.1746010184288025,1.0671541690826416,0.45685192942619324,-0.057585593312978745,-0.061705123633146286,-46,7,-993,458,-56,-61,130,180,9,142129.0
11:23:39.065,AUTO,-35.3632451,149.1652644,24668,0.02132245898246765,-0.19107528030872345,1.044569969177246,0.281843364238739,-0.07389689236879349,-0.0908060073852539,-53,-19,-997,282,-72,-90,147,206,11,228455.0
11:23:39.266,AUTO,-35.3632416,149.1652702,24635,0.019571451470255852,-0.20160216093063354,1.0190051794052124,-0.3551581799983978,-0.012571276165544987,-0.07250941544771194,-58,-62,-999,-354,-11,-72,168,232,12,228455.0
11:23:39.468,AUTO,-35.3632416,149.1652702,24635,0.019571451470255852,-0.20160216093063354,1.0190051794052124,-0.3551581799983978,-0.012571276165544987,-0.07250941544771194,-58,-62,-999,-354,-11,-72,168,232,12,228455.0
11:23:39.670,AUTO,-35.3632377,149.1652768,24598,0.0227282103151083,-0.19893333315849304,1.0025579929351807,-0.2822398841381073,0.00796129833906889,-0.04743924364447594,-64,-36,-1000,-280,8,-47,186,259,14,228455.0
11:23:39.872,AUTO,-35.3632377,149.1652768,24598,0.0227282103151083,-0.19893333315849304,1.0025579929351807,-0.2822398841381073,0.00796129833906889,-0.04743924364447594,-64,-36,-1000,-280,8,-47,186,259,14,228455.0
11:23:40.074,AUTO,-35.3632377,149.1652768,24598,0.0227282103151083,-0.19893333315849304,1.0025579929351807,-0.2822398841381073,0.00796129833906889,-0.04743924364447594,-64,-36,-1000,-280,8,-47,186,259,14,228455.0
11:23:40.276,AUTO,-35.3632237,149.1653006,24480,0.034433141350746155,-0.20183639228343964,0.9975362420082092,-0.37266308069229126,-0.0315525084733963,0.029167983680963516,-86,-64,-997,-371,-30,29,237,329,17,228455.0
11:23:40.478,AUTO,-35.3632237,149.1653006,24480,0.034433141350746155,-0.20183639228343964,0.9975362420082092,-0.37266308069229126,-0.0315525084733963,0.029167983680963516,-86,-64,-997,-371,-30,29,237,329,17,228455.0
11:23:40.680,AUTO,-35.3632183,149.1653099,24433,0.03917407616972923,-0.20613475143909454,0.996481716632843,-0.019820615649223328,-0.0015458145644515753,-0.028580548241734505,-90,-43,-1001,-17,0,-28,253,351,18,228455.0
11:23:40.882,AUTO,-35.3632125,149.1653199,24383,0.04844357818365097,-0.20597440004348755,0.9954192042350769,0.3099172115325928,0.012706679292023182,-0.01182149164378643,-94,-41,-999,311,13,-11,269,374,19,228455.0
11:23:41.084,AUTO,-35.3632064,149.1653304,24329,0.0443614162504673,-0.2105839103460312,0.9949126243591309,-0.13997100293636322,-0.030179452151060104,0.022254949435591698,-95,-67,-992,-139,-29,22,286,396,21,228455.0
11:23:41.285,AUTO,-35.3631999,149.1653415,24270,0.046753618866205215,-0.21727782487869263,0.992509126663208,-0.1692916303873062,-0.01888408325612545,-0.01619843952357769,-93,-63,-994,-167,-17,-16,303,418,23,228455.0
11:23:41.487,AUTO,-35.3631999,149.1653415,24270,0.046753618866205215,-0.21727782487869263,0.992509126663208,-0.1692916303873062,-0.01888408325612545,-0.01619843952357769,-93,-63,-994,-167,-17,-16,303,418,23,228455.0
11:23:41.689,AUTO,-35.363193,149.1653533,24209,0.053176041692495346,-0.21840043365955353,0.9909633994102478,0.19024193286895752,0.036917466670274734,-0.009786625392735004,-97,-49,-996,191,37,-10,318,441,24,228455.0
11:23:41.891,AUTO,-35.363193,149.1653533,24209,0.053176041692495346,-0.21840043365955353,0.9909633994102478,0.19024193286895752,0.036917466670274734,-0.009786625392735004,-97,-49,-996,191,37,-10,318,441,24,219686.0
11:23:42.093,AUTO,-35.363193,149.1653533,24209,0.053176041692495346,-0.21840043365955353,0.9909633994102478,0.19024193286895752,0.036917466670274734,-0.009786625392735004,-97,-49,-996,191,37,-10,318,441,24,219686.0
11:23:42.295,AUTO,-35.3631704,149.165392,24038,0.06272543221712112,-0.19229385256767273,0.9879793524742126,0.2192617803812027,0.012536873109638691,-0.017910251393914223,-127,-76,-997,220,13,-17,355,492,21,219686.0
11:23:42.497,AUTO,-35.3631624,149.1654058,23983,0.06444450467824936,-0.1864994913339615,0.9874318838119507,-0.08026675879955292,0.01143315713852644,0.0012514865957200527,-132,-81,-995,-79,12,1,364,504,21,219686.0
11:23:42.699,AUTO,-35.3631624,149.1654058,23983,0.06444450467824936,-0.1864994913339615,0.9874318838119507,-0.08026675879955292,0.01143315713852644,0.0012514865957200527,-132,-81,-995,-79,12,1,364,504,21,219686.0
11:23:42.901,AUTO,-35.363154,149.1654201,23926,0.06296303868293762,-0.17873288691043854,0.9862545728683472,-0.10894681513309479,0.0479855053126812,-0.01194205041974783,-124,-70,-991,-107,48,-11,371,517,21,219686.0
11:23:43.102,AUTO,-35.3631455,149.1654345,23869,0.07236740738153458,-0.17193910479545593,0.9845860004425049,0.21692411601543427,0.01975671388208866,-0.011208705604076385,-128,-61,-989,218,20,-11,378,527,22,219686.0
11:23:43.304,AUTO,-35.363137,149.1654491,23810,0.0703994408249855,-0.16925348341464996,0.9845332503318787,-0.1363242119550705,0.009316056966781616,0.00829590018838644,-122,-75,-976,-135,10,8,384,535,24,219686.0
11:23:43.507,AUTO,-35.3631283,149.1654638,23749,0.07514795660972595,-0.16996650397777557,0.9838380813598633,-0.07360655069351196,-0.012637186795473099,-0.02246074192225933,-139,-76,-978,-72,-11,-22,388,540,25,219686.0
11:23:43.709,AUTO,-35.3631283,149.1654638,23749,0.07514795660972595,-0.16996650397777557,0.9838380813598633,-0.07360655069351196,-0.012637186795473099,-0.02246074192225933,-139,-76,-978,-72,-11,-22,388,540,25,219686.0
11:23:43.911,AUTO,-35.3631283,149.1654638,23749,0.07514795660972595,-0.16996650397777557,0.9838380813598633,-0.07360655069351196,-0.012637186795473099,-0.02246074192225933,-139,-76,-978,-72,-11,-22,388,540,25,219686.0
11:23:44.113,AUTO,-35.3631283,149.1654638,23749,0.07514795660972595,-0.16996650397777557,0.9838380813598633,-0.07360655069351196,-0.012637186795473099,-0.02246074192225933,-139,-76,-978,-72,-11,-22,388,540,25,219686.0
11:23:44.315,AUTO,-35.3631019,149.1655091,23549,0.07310245931148529,-0.15574634075164795,0.983906626701355,-0.037877168506383896,-0.0008158896234817803,-0.0014925404684618115,-140,-71,-984,-36,0,-1,394,557,26,219686.0
11:23:44.517,AUTO,-35.363093,149.1655244,23480,0.07931602001190186,-0.14946132898330688,0.9823287725448608,0.19904471933841705,0.023636676371097565,-0.01110178790986538,-136,-65,-982,200,24,-11,396,559,27,219686.0
11:23:44.719,AUTO,-35.363093,149.1655244,23480,0.07931602001190186,-0.14946132898330688,0.9823287725448608,0.19904471933841705,0.023636676371097565,-0.01110178790986538,-136,-65,-982,200,24,-11,396,559,27,219686.0
11:23:44.920,AUTO,-35.363084,149.16554,23411,0.0749436542391777,-0.13458657264709473,0.9818933606147766,-0.2667604386806488,0.04420609399676323,0.015180274844169617,-143,-109,-998,-266,45,14,398,559,24,267499.0
11:23:45.122,AUTO,-35.3630749,149.1655556,23347,0.08301166445016861,-0.12235908210277557,0.9797425866127014,0.1601472795009613,0.04808364436030388,-0.02995283342897892,-139,-73,-995,161,48,-29,397,559,24,267499.0
11:23:45.324,AUTO,-35.363066,149.1655711,23282,0.08919039368629456,-0.11947206407785416,0.9794642925262451,0.20985469222068787,-0.008443938568234444,0.017922505736351013,-135,-82,-974,210,-7,18,396,556,25,267499.0
11:23:45.526,AUTO,-35.3630571,149.1655865,23211,0.07214399427175522,-0.13047392666339874,0.9808154106140137,-0.45487985014915466,-0.05891807749867439,0.04370756074786186,-130,-99,-966,-454,-57,43,392,555,29,267499.0
11:23:45.728,AUTO,-35.3630571,149.1655865,23211,0.07214399427175522,-0.13047392666339874,0.9808154106140137,-0.45487985014915466,-0.05891807749867439,0.04370756074786186,-130,-99,-966,-454,-57,43,392,555,29,267499.0
11:23:45.930,AUTO,-35.3630571,149.1655865,23211,0.07214399427175522,-0.13047392666339874,0.9808154106140137,-0.45487985014915466,-0.05891807749867439,0.04370756074786186,-130,-99,-966,-454,-57,43,392,555,29,267499.0
11:23:46.132,AUTO,-35.3630571,149.1655865,23211,0.07214399427175522,-0.13047392666339874,0.9808154106140137,-0.45487985014915466,-0.05891807749867439,0.04370756074786186,-130,-99,-966,-454,-57,43,392,555,29,267499.0
11:23:46.401,AUTO,-35.3630305,149.165633,22965,0.07448544353246689,-0.13593049347400665,0.9796826839447021,-0.11612416803836823,-0.003956512548029423,0.03134271875023842,-129,-82,-983,-115,-3,31,395,557,32,267499.0
11:23:46.603,AUTO,-35.3630217,149.1656484,22884,0.06688142567873001,-0.13777165114879608,0.9796818494796753,-0.2657856047153473,-0.051480162888765335,0.004509550053626299,-144,-81,-996,-264,-50,4,395,556,31,267499.0
11:23:46.805,AUTO,-35.3630128,149.1656639,22805,0.0767458826303482,-0.14282284677028656,0.9780405163764954,0.35098883509635925,-0.011796091683208942,-0.0378955639898777,-133,-59,-983,352,-10,-37,397,556,32,267499.0
11:23:47.008,AUTO,-35.3630039,149.1656794,22725,0.07227621972560883,-0.14194688200950623,0.9769251346588135,-0.0880713015794754,0.00614297715947032,0.016182448714971542,-134,-93,-988,-87,7,16,398,557,31,267499.0
11:23:47.210,AUTO,-35.3630039,149.1656794,22725,0.07227621972560883,-0.14194688200950623,0.9769251346588135,-0.0880713015794754,0.00614297715947032,0.016182448714971542,-134,-93,-988,-87,7,16,398,557,31,267499.0
11:23:47.412,AUTO,-35.362995,149.1656949,22648,0.06715518236160278,-0.13871259987354279,0.9756066799163818,-0.23758408427238464,0.015873894095420837,-0.005361819174140692,-133,-102,-992,-236,16,-5,401,557,29,267499.0
11:23:47.615,AUTO,-35.362986,149.1657104,22574,0.07816246896982193,-0.136978417634964,0.9737242460250854,0.3068719506263733,0.0074747647158801556,-0.025477426126599312,-139,-51,-989,308,8,-25,400,558,29,267499.0
11:23:47.818,AUTO,-35.362986,149.1657104,22574,0.07816246896982193,-0.136978417634964,0.9737242460250854,0.3068719506263733,0.0074747647158801556,-0.025477426126599312,-139,-51,-989,308,8,-25,400,558,29,267499.0
11:23:48.020,AUTO,-35.362986,149.1657104,22574,0.07816246896982193,-0.136978417634964,0.9737242460250854,0.3068719506263733,0.0074747647158801556,-0.025477426126599312,-139,-51,-989,308,8,-25,400,558,29,29528.0
11:23:48.222,AUTO,-35.362986,149.1657104,22574,0.07816246896982193,-0.136978417634964,0.9737242460250854,0.3068719506263733,0.0074747647158801556,-0.025477426126599312,-139,-51,-989,308,8,-25,400,558,29,29528.0
11:23:48.424,AUTO,-35.3629592,149.165757,22355,0.06924011558294296,-0.13380567729473114,0.9740504622459412,0.24783161282539368,0.0013745693722739816,-0.02908382937312126,-138,-65,-992,249,2,-29,401,557,27,29528.0
11:23:48.626,AUTO,-35.3629502,149.1657725,22284,0.07267463207244873,-0.136038675904274,0.9738187789916992,0.09639669954776764,-0.0005973096122033894,0.02348344773054123,-133,-89,-979,96,0,23,403,556,28,29528.0
11:23:48.828,AUTO,-35.3629412,149.1657882,22211,0.06603613495826721,-0.1315026730298996,0.973018229007721,-0.35018402338027954,0.02381863072514534,0.02111200802028179,-138,-108,-1002,-349,24,21,404,556,27,29528.0
11:23:49.029,AUTO,-35.3629322,149.1658037,22141,0.07144317775964737,-0.13302277028560638,0.9724875092506409,0.1218019500374794,-0.003105608280748129,-0.02496357075870037,-143,-61,-988,123,-1,-24,403,555,27,29528.0
11:23:49.231,AUTO,-35.3629322,149.1658037,22141,0.07144317775964737,-0.13302277028560638,0.9724875092506409,0.1218019500374794,-0.003105608280748129,-0.02496357075870037,-143,-61,-988,123,-1,-24,403,555,27,29528.0
11:23:49.433,AUTO,-35.3629232,149.1658192,22071,0.07414772361516953,-0.13235963881015778,0.9727864861488342,0.2855188846588135,0.006050596944987774,0.011845116503536701,-141,-70,-985,286,7,11,403,554,28,29528.0
11:23:49.635,AUTO,-35.3629142,149.1658346,22000,0.06728138774633408,-0.13303528726100922,0.9730476140975952,-0.3317098617553711,-0.005594382528215647,0.01235549058765173,-137,-101,-987,-330,-4,12,404,552,27,29528.0
11:23:49.848,AUTO,-35.3629142,149.1658346,22000,0.06728138774633408,-0.13303528726100922,0.9730476140975952,-0.3317098617553711,-0.005594382528215647,0.01235549058765173,-137,-101,-987,-330,-4,12,404,552,27,29528.0
11:23:50.050,AUTO,-35.3629142,149.1658346,22000,0.06728138774633408,-0.13303528726100922,0.9730476140975952,-0.3317098617553711,-0.005594382528215647,0.01235549058765173,-137,-101,-987,-330,-4,12,404,552,27,29528.0
11:23:50.252,AUTO,-35.3628876,149.1658808,21795,0.06793801486492157,-0.09667596220970154,0.970956563949585,-0.2883453667163849,0.055657465010881424,0.03388966992497444,-143,-102,-1004,-288,56,34,400,544,23,29528.0
11:23:50.454,AUTO,-35.3628876,149.1658808,21795,0.06793801486492157,-0.09667596220970154,0.970956563949585,-0.2883453667163849,0.055657465010881424,0.03388966992497444,-143,-102,-1004,-288,56,34,400,544,23,29528.0
11:23:50.655,AUTO,-35.3628789,149.1658959,21737,0.06188845634460449,-0.08695712685585022,0.9707507491111755,-0.2506795823574066,0.03893379122018814,-0.011572757735848427,-128,-81,-985,-248,40,-11,393,535,22,29528.0
11:23:50.857,AUTO,-35.3628703,149.1659108,21680,0.07245387881994247,-0.07484817504882812,0.9700475335121155,0.4830925762653351,0.045378178358078,-0.04011278599500656,-129,-60,-994,484,46,-39,387,525,22,29528.0
11:23:51.059,AUTO,-35.3628619,149.1659253,21622,0.07364601641893387,-0.06364215165376663,0.9716182351112366,0.22935271263122559,0.036625590175390244,0.013936747796833515,-129,-82,-988,229,37,14,379,513,23,135010.0
11:23:51.261,AUTO,-35.3628537,149.1659396,21562,0.05861081928014755,-0.04984041675925255,0.9711281657218933,-0.46689072251319885,0.07579251378774643,0.051454488188028336,-121,-112,-987,-467,76,52,370,500,25,135010.0
11:23:51.462,AUTO,-35.3628537,149.1659396,21562,0.05861081928014755,-0.04984041675925255,0.9711281657218933,-0.46689072251319885,0.07579251378774643,0.051454488188028336,-121,-112,-987,-467,76,52,370,500,25,135010.0
11:23:51.664,AUTO,-35.3628457,149.1659534,21503,0.05613609775900841,-0.03790322318673134,0.9692547917366028,-0.6429497003555298,0.02429775334894657,0.022449513897299767,-114,-97,-985,-641,25,22,361,483,24,135010.0
11:23:51.866,AUTO,-35.3628457,149.1659534,21503,0.05613609775900841,-0.03790322318673134,0.9692547917366028,-0.6429497003555298,0.02429775334894657,0.022449513897299767,-114,-97,-985,-641,25,22,361,483,24,135010.0
11:23:52.068,AUTO,-35.3628457,149.1659534,21503,0.05613609775900841,-0.03790322318673134,0.9692547917366028,-0.6429497003555298,0.02429775334894657,0.022449513897299767,-114,-97,-985,-641,25,22,361,483,24,135010.0
11:23:52.270,AUTO,-35.3628234,149.1659922,21321,0.06889630854129791,-0.00840049423277378,0.9695663452148438,0.4154951572418213,0.03958609327673912,0.010863433592021465,-110,-79,-992,415,40,11,322,429,26,135010.0
11:23:52.472,AUTO,-35.3628234,149.1659922,21321,0.06889630854129791,-0.00840049423277378,0.9695663452148438,0.4154951572418213,0.03958609327673912,0.010863433592021465,-110,-79,-992,415,40,11,322,429,26,135010.0
11:23:52.674,AUTO,-35.3628165,149.166004,21261,0.05595606192946434,0.002478183014318347,0.9709186553955078,-0.49171262979507446,0.03313150629401207,0.05477560684084892,-100,-117,-987,-492,34,55,308,408,24,135010.0
11:23:52.876,AUTO,-35.3628101,149.1660153,21202,0.04367448389530182,0.014120572246611118,0.970039963722229,-0.9336965680122375,0.035891417413949966,0.03136919438838959,-89,-91,-997,-933,36,31,292,387,24,135010.0
11:23:53.078,AUTO,-35.3628041,149.166026,21146,0.03885941579937935,0.02631370909512043,0.9679261445999146,-0.4946720600128174,0.05547747761011124,0.002487113466486335,-96,-52,-1009,-492,56,3,274,365,23,135010.0
11:23:53.279,AUTO,-35.3627983,149.1660363,21094,0.04801759123802185,0.038672301918268204,0.9679538607597351,0.6815274357795715,0.05032464861869812,-0.0185056384652853,-94,-6,-1003,683,51,-17,255,340,21,135010.0
11:23:53.482,AUTO,-35.3627983,149.1660363,21094,0.04801759123802185,0.038672301918268204,0.9679538607597351,0.6815274357795715,0.05032464861869812,-0.0185056384652853,-94,-6,-1003,683,51,-17,255,340,21,135010.0
11:23:53.684,AUTO,-35.362793,149.1660457,21046,0.05182502046227455,0.046910710632801056,0.9676403403282166,0.8035174012184143,0.02552725188434124,-0.0024552897084504366,-82,-34,-1012,803,26,-1,239,314,19,135010.0
11:23:53.886,AUTO,-35.362793,149.1660457,21046,0.05182502046227455,0.046910710632801056,0.9676403403282166,0.8035174012184143,0.02552725188434124,-0.0024552897084504366,-82,-34,-1012,803,26,-1,239,314,19,135010.0
11:23:54.088,AUTO,-35.362793,149.1660457,21046,0.05182502046227455,0.046910710632801056,0.9676403403282166,0.8035174012184143,0.02552725188434124,-0.0024552897084504366,-82,-34,-1012,803,26,-1,239,314,19,132989.0
11:23:54.290,AUTO,-35.3627796,149.1660696,20910,0.01569005660712719,0.04879523068666458,0.9684775471687317,-0.9309384226799011,0.024051960557699203,0.02522638998925686,-70,-83,-1016,-930,25,26,190,242,17,132989.0
11:23:54.492,AUTO,-35.3627796,149.1660696,20910,0.01569005660712719,0.04879523068666458,0.9684775471687317,-0.9309384226799011,0.024051960557699203,0.02522638998925686,-70,-83,-1016,-930,25,26,190,242,17,132989.0
