time_stamp,MODE,lat,lon,relative_alt,roll,pitch,yaw,rollspeed,pitchspeed,yawspeed,xacc,yacc,zacc,xgyro,ygyro,zgyro,vx,vy,vz,RTL_ALT
12:39:16.154,STABILIZE,-35.3632622,149.1652375,0,0.0002969714405480772,0.0014645359478890896,0.026892004534602165,0.00019179689115844667,0.00018601582269184291,0.0022262041456997395,0,1,-1000,0,0,0,-2,1,-1,1500.0
12:39:16.355,STABILIZE,-35.3632622,149.1652375,0,0.00023275252897292376,0.0014176302356645465,0.026738498359918594,0.0001598871313035488,0.0003122955095022917,0.002118638250976801,0,1,-1000,0,0,0,-2,1,-1,1500.0
12:39:16.556,STABILIZE,-35.3632622,149.1652375,0,0.00017254216072615236,0.001368278288282454,0.02657870389521122,0.00023796418099664152,0.0003732050827238709,0.002167690545320511,0,1,-1000,0,0,0,-2,1,-1,1500.0
12:39:16.756,STABILIZE,-35.3632622,149.1652375,0,0.00017254216072615236,0.001368278288282454,0.02657870389521122,0.00023796418099664152,0.0003732050827238709,0.002167690545320511,0,1,-1000,0,0,0,-2,1,-1,1500.0
12:39:16.957,STABILIZE,-35.3632622,149.1652375,0,0.00017254216072615236,0.001368278288282454,0.02657870389521122,0.00023796418099664152,0.0003732050827238709,0.002167690545320511,0,1,-1000,0,0,0,-2,1,-1,1500.0
12:39:17.158,STABILIZE,-35.3632622,149.1652375,0,0.00017254216072615236,0.001368278288282454,0.02657870389521122,0.00023796418099664152,0.0003732050827238709,0.002167690545320511,0,1,-1000,0,0,0,-2,1,-1,1500.0
12:39:17.359,STABILIZE,-35.3632622,149.1652375,0,0.00017254216072615236,0.001368278288282454,0.02657870389521122,0.00023796418099664152,0.0003732050827238709,0.002167690545320511,0,1,-1000,0,0,0,-2,1,-1,1500.0
12:39:17.560,STABILIZE,-35.3632622,149.1652375,0,-0.00011097429523942992,0.0011608717031776905,0.02596437558531761,0.0002470696344971657,0.00024417618988081813,0.0020899518858641386,0,1,-1000,0,0,0,-2,1,-1,1500.0
12:39:17.761,STABILIZE,-35.3632622,149.1652375,0,-0.00011097429523942992,0.0011608717031776905,0.02596437558531761,0.0002470696344971657,0.00024417618988081813,0.0020899518858641386,0,1,-1000,0,0,0,-2,1,-1,1500.0
12:39:17.961,STABILIZE,-35.3632622,149.1652375,0,-0.0001794832933228463,0.001117692212574184,0.025822317227721214,0.0002536332467570901,0.00022223632549867034,0.0020194118842482567,0,1,-1000,0,0,0,-1,1,0,1500.0
12:39:18.162,STABILIZE,-35.3632622,149.1652375,0,-0.0001794832933228463,0.001117692212574184,0.025822317227721214,0.0002536332467570901,0.00022223632549867034,0.0020194118842482567,0,1,-1000,0,0,0,-1,1,0,1500.0
12:39:18.364,STABILIZE,-35.3632622,149.1652375,0,-0.00030081800650805235,0.0010624007554724813,0.025566205382347107,0.0002175021218135953,0.0003171792486682534,0.001996005419641733,0,1,-1000,0,0,0,-1,1,0,1500.0
12:39:18.565,STABILIZE,-35.3632622,149.1652375,0,-0.00030081800650805235,0.0010624007554724813,0.025566205382347107,0.0002175021218135953,0.0003171792486682534,0.001996005419641733,0,1,-1000,0,0,0,-1,1,0,1500.0
12:39:18.766,STABILIZE,-35.3632622,149.1652375,0,-0.00030081800650805235,0.0010624007554724813,0.025566205382347107,0.0002175021218135953,0.0003171792486682534,0.001996005419641733,0,1,-1000,0,0,0,-1,1,0,1500.0
12:39:18.968,STABILIZE,-35.3632622,149.1652375,0,-0.00030081800650805235,0.0010624007554724813,0.025566205382347107,0.0002175021218135953,0.0003171792486682534,0.001996005419641733,0,1,-1000,0,0,0,-1,1,0,1500.0
12:39:19.169,STABILIZE,-35.3632622,149.1652375,0,-0.00030081800650805235,0.0010624007554724813,0.025566205382347107,0.0002175021218135953,0.0003171792486682534,0.001996005419641733,0,1,-1000,0,0,0,-1,1,0,1500.0
12:39:19.371,STABILIZE,-35.3632622,149.1652375,0,-0.00030081800650805235,0.0010624007554724813,0.025566205382347107,0.0002175021218135953,0.0003171792486682534,0.001996005419641733,0,1,-1000,0,0,0,-1,1,0,1500.0
12:39:19.572,STABILIZE,-35.3632622,149.1652375,0,-0.00030081800650805235,0.0010624007554724813,0.025566205382347107,0.0002175021218135953,0.0003171792486682534,0.001996005419641733,0,1,-1000,0,0,0,-1,1,0,1500.0
12:39:19.774,STABILIZE,-35.3632621,149.1652375,0,-0.0005008975858800113,0.0009668467682786286,0.02490304969251156,0.00036923401057720184,0.000284017703961581,0.0019511310383677483,0,1,-1000,0,0,0,-1,0,-2,1500.0
12:39:19.975,STABILIZE,-35.3632621,149.1652375,0,-0.0005008975858800113,0.0009668467682786286,0.02490304969251156,0.00036923401057720184,0.000284017703961581,0.0019511310383677483,0,1,-1000,0,0,0,-1,0,-2,1500.0
12:39:20.177,STABILIZE,-35.3632621,149.1652375,0,-0.0005008975858800113,0.0009668467682786286,0.02490304969251156,0.00036923401057720184,0.000284017703961581,0.0019511310383677483,0,1,-1000,0,0,0,-1,0,-2,1500.0
12:39:20.379,STABILIZE,-35.3632621,149.1652375,0,-0.00043650204315781593,0.0009636992472223938,0.024689938873052597,0.00030452763894572854,0.0001379376626573503,0.001957075670361519,0,1,-1000,0,0,0,-1,0,-2,1500.0
12:39:20.580,STABILIZE,-35.3632621,149.1652375,0,-0.0004181960830464959,0.0009605354862287641,0.024613071233034134,0.00019594619516283274,0.0003584088699426502,0.0018291701562702656,0,1,-1000,0,0,0,-1,0,-1,1500.0
12:39:20.782,STABILIZE,-35.3632621,149.1652375,0,-0.0004181960830464959,0.0009605354862287641,0.024613071233034134,0.00019594619516283274,0.0003584088699426502,0.0018291701562702656,0,1,-1000,0,0,0,-1,0,-1,1500.0
12:39:20.987,STABILIZE,-35.3632621,149.1652375,0,-0.0004181960830464959,0.0009605354862287641,0.024613071233034134,0.00019594619516283274,0.0003584088699426502,0.0018291701562702656,0,1,-1000,0,0,0,-1,0,-1,1500.0
12:39:21.188,STABILIZE,-35.3632621,149.1652375,0,-0.0004181960830464959,0.0009605354862287641,0.024613071233034134,0.00019594619516283274,0.0003584088699426502,0.0018291701562702656,0,1,-1000,0,0,0,-1,0,-1,1500.0
12:39:21.389,STABILIZE,-35.3632621,149.1652375,0,-0.0004181960830464959,0.0009605354862287641,0.024613071233034134,0.00019594619516283274,0.0003584088699426502,0.0018291701562702656,0,1,-1000,0,0,0,-1,0,-1,1500.0
12:39:21.591,STABILIZE,-35.3632621,149.1652375,0,-0.0004079614009242505,0.00094059226103127,0.024196628481149673,0.00023167324252426624,0.000214711093576625,0.0018056102562695742,0,1,-1000,0,0,0,-1,0,-1,1500.0
12:39:21.792,STABILIZE,-35.3632621,149.1652375,0,-0.00042804842814803123,0.0009361958946101367,0.024088284000754356,0.0002465302823111415,0.00026375241577625275,0.0018355115316808224,0,1,-1000,0,1,0,-1,1,0,1500.0
12:39:21.993,STABILIZE,-35.3632621,149.1652375,0,-0.00042804842814803123,0.0009361958946101367,0.024088284000754356,0.0002465302823111415,0.00026375241577625275,0.0018355115316808224,0,1,-1000,0,1,0,-1,1,0,1500.0
12:39:22.194,STABILIZE,-35.3632621,149.1652375,0,-0.00042804842814803123,0.0009361958946101367,0.024088284000754356,0.0002465302823111415,0.00026375241577625275,0.0018355115316808224,0,1,-1000,0,1,0,-1,1,0,1500.0
12:39:22.396,STABILIZE,-35.3632621,149.1652375,0,-0.00043805979657918215,0.0009409480262547731,0.0239108819514513,9.933265391737223e-05,0.0003514276468195021,0.0018138145096600056,0,1,-1000,0,0,0,-1,1,0,1500.0
12:39:22.598,STABILIZE,-35.3632621,149.1652375,0,-0.00045155672705732286,0.0009382329299114645,0.023798422887921333,0.00020076142391189933,0.0002712347195483744,0.0017986351158469915,0,1,-1000,0,1,0,-1,1,0,1500.0
12:39:22.799,STABILIZE,-35.3632621,149.1652375,0,-0.00045155672705732286,0.0009382329299114645,0.023798422887921333,0.00020076142391189933,0.0002712347195483744,0.0017986351158469915,0,1,-1000,0,1,0,-1,1,0,1500.0
12:39:23.000,STABILIZE,-35.3632621,149.1652375,0,-0.00045155672705732286,0.0009382329299114645,0.023798422887921333,0.00020076142391189933,0.0002712347195483744,0.0017986351158469915,0,1,-1000,0,1,0,-1,1,0,1500.0
12:39:23.203,STABILIZE,-35.3632621,149.1652375,0,-0.00045155672705732286,0.0009382329299114645,0.023798422887921333,0.00020076142391189933,0.0002712347195483744,0.0017986351158469915,0,1,-1000,0,1,0,-1,1,0,1500.0
12:39:23.405,STABILIZE,-35.3632621,149.1652375,0,-0.00023073093325365335,0.000946911342907697,0.02348259650170803,0.00034447561483830214,0.0002414289047010243,0.0017191278748214245,0,1,-1000,0,1,0,-1,2,1,1500.0
12:39:23.607,STABILIZE,-35.3632621,149.1652375,0,-0.00023073093325365335,0.000946911342907697,0.02348259650170803,0.00034447561483830214,0.0002414289047010243,0.0017191278748214245,0,1,-1000,0,1,0,-1,2,1,1500.0
12:39:23.808,STABILIZE,-35.3632621,149.1652375,0,-0.00023073093325365335,0.000946911342907697,0.02348259650170803,0.00034447561483830214,0.0002414289047010243,0.0017191278748214245,0,1,-1000,0,1,0,-1,2,1,1500.0
12:39:24.009,STABILIZE,-35.3632621,149.1652375,0,-0.00023073093325365335,0.000946911342907697,0.02348259650170803,0.00034447561483830214,0.0002414289047010243,0.0017191278748214245,0,1,-1000,0,1,0,-1,2,1,1500.0
12:39:24.211,STABILIZE,-35.3632621,149.1652375,0,-0.0004286813782528043,0.0009562911000102758,0.023193297907710075,0.0003035403206013143,0.0002794517786242068,0.0018007127800956368,0,1,-1000,0,0,1,-1,2,1,1500.0
12:39:24.412,STABILIZE,-35.3632621,149.1652375,0,-0.0004286813782528043,0.0009562911000102758,0.023193297907710075,0.0003035403206013143,0.0002794517786242068,0.0018007127800956368,0,1,-1000,0,0,1,-1,2,1,1500.0
12:39:24.614,STABILIZE,-35.3632622,149.1652375,0,-0.0004286813782528043,0.0009562911000102758,0.023193297907710075,0.0003035403206013143,0.0002794517786242068,0.0018007127800956368,0,1,-1000,0,0,1,-1,2,1,1500.0
12:39:24.815,STABILIZE,-35.3632622,149.1652375,0,-0.0004286813782528043,0.0009562911000102758,0.023193297907710075,0.0003035403206013143,0.0002794517786242068,0.0018007127800956368,0,1,-1000,0,0,1,-1,2,1,1500.0
12:39:25.017,STABILIZE,-35.3632622,149.1652375,0,-0.0004286813782528043,0.0009562911000102758,0.023193297907710075,0.0003035403206013143,0.0002794517786242068,0.0018007127800956368,0,1,-1000,0,0,1,-1,2,1,1500.0
12:39:25.218,STABILIZE,-35.3632622,149.1652375,0,-0.0004286813782528043,0.0009562911000102758,0.023193297907710075,0.0003035403206013143,0.0002794517786242068,0.0018007127800956368,0,1,-1000,0,0,1,-1,2,1,1500.0
12:39:25.419,STABILIZE,-35.3632622,149.1652375,0,-0.000713538785930723,0.0009675895562395453,0.022753020748496056,0.00020619691349565983,0.0003024166217073798,0.0015500467270612717,0,2,-1000,0,0,0,-1,2,1,1500.0
12:39:25.621,STABILIZE,-35.3632622,149.1652375,0,-0.0007640664698556066,0.0009677948546595871,0.02269788272678852,0.0001636948436498642,0.00023824896197766066,0.001739696366712451,0,2,-1000,0,0,0,-1,2,1,1500.0
12:39:25.823,STABILIZE,-35.3632622,149.1652375,0,-0.0008218107977882028,0.0009674705215729773,0.022613447159528732,0.00024367618607357144,0.00024334958288818598,0.001585750374943018,0,2,-1000,0,0,0,-1,1,1,1500.0
12:39:26.024,STABILIZE,-35.3632622,149.1652375,0,-0.0008218107977882028,0.0009674705215729773,0.022613447159528732,0.00024367618607357144,0.00024334958288818598,0.001585750374943018,0,2,-1000,0,0,0,-1,1,1,1500.0
12:39:26.226,STABILIZE,-35.3632622,149.1652375,0,-0.0008218107977882028,0.0009674705215729773,0.022613447159528732,0.00024367618607357144,0.00024334958288818598,0.001585750374943018,0,2,-1000,0,0,0,-1,1,1,1500.0
12:39:26.427,STABILIZE,-35.3632622,149.1652375,0,-0.0008218107977882028,0.0009674705215729773,0.022613447159528732,0.00024367618607357144,0.00024334958288818598,0.001585750374943018,0,2,-1000,0,0,0,-1,1,1,1500.0
12:39:26.629,STABILIZE,-35.3632622,149.1652376,0,-0.0006303904228843749,0.0009726460557430983,0.022398218512535095,0.00023415510077029467,0.0002156570553779602,0.0016442800406366587,0,2,-1000,0,0,0,-1,2,2,1500.0
12:39:26.831,STABILIZE,-35.3632622,149.1652376,0,-0.0006303904228843749,0.0009726460557430983,0.022398218512535095,0.00023415510077029467,0.0002156570553779602,0.0016442800406366587,0,2,-1000,0,0,0,-1,2,2,1500.0
12:39:27.032,STABILIZE,-35.3632622,149.1652376,0,-0.0006303904228843749,0.0009726460557430983,0.022398218512535095,0.00023415510077029467,0.0002156570553779602,0.0016442800406366587,0,2,-1000,0,0,0,-1,2,2,1500.0
12:39:27.234,STABILIZE,-35.3632622,149.1652376,0,-0.0006303904228843749,0.0009726460557430983,0.022398218512535095,0.00023415510077029467,0.0002156570553779602,0.0016442800406366587,0,2,-1000,0,0,0,-1,2,2,1500.0
12:39:27.435,STABILIZE,-35.3632622,149.1652376,0,-0.0006303904228843749,0.0009726460557430983,0.022398218512535095,0.00023415510077029467,0.0002156570553779602,0.0016442800406366587,0,2,-1000,0,0,0,-1,2,2,1500.0
12:39:27.636,STABILIZE,-35.3632622,149.1652376,0,-0.0008706894586794078,0.0009732665494084358,0.022123971953988075,0.0003049043007194996,0.00032800500048324466,0.0017461676616221666,0,2,-1000,0,0,0,-1,2,2,1500.0
12:39:27.838,STABILIZE,-35.3632622,149.1652375,0,-0.0009310176828876138,0.0009696721099317074,0.022064438089728355,0.0002919190446846187,0.0002824424300342798,0.0016135519836097956,0,1,-1000,0,0,0,-1,1,2,1500.0
12:39:28.039,STABILIZE,-35.3632622,149.1652375,0,-0.0009700515656732023,0.0009711315506137908,0.02202049270272255,0.0003089008969254792,0.00020630087237805128,0.0016176728531718254,0,1,-1000,0,1,1,-1,1,2,1500.0
12:39:28.241,STABILIZE,-35.3632622,149.1652375,0,-0.0009700515656732023,0.0009711315506137908,0.02202049270272255,0.0003089008969254792,0.00020630087237805128,0.0016176728531718254,0,1,-1000,0,1,1,-1,1,2,1500.0
12:39:28.442,STABILIZE,-35.3632622,149.1652375,0,-0.0010114796459674835,0.0009703806135803461,0.021960821002721786,0.00023602944565936923,0.00036732235457748175,0.0015392899513244629,0,2,-1000,0,1,0,-1,1,2,1500.0
12:39:28.644,STABILIZE,-35.3632622,149.1652375,0,-0.0010114796459674835,0.0009703806135803461,0.021960821002721786,0.00023602944565936923,0.00036732235457748175,0.0015392899513244629,0,1,-1000,0,1,0,-1,1,2,1500.0
12:39:28.846,STABILIZE,-35.3632622,149.1652375,0,-0.0010114796459674835,0.0009703806135803461,0.021960821002721786,0.00023602944565936923,0.00036732235457748175,0.0015392899513244629,0,1,-1000,0,1,0,-1,1,2,1500.0
12:39:29.048,STABILIZE,-35.3632622,149.1652375,0,-0.0010114796459674835,0.0009703806135803461,0.021960821002721786,0.00023602944565936923,0.00036732235457748175,0.0015392899513244629,0,1,-1000,0,1,0,-1,1,2,1500.0
12:39:29.250,STABILIZE,-35.3632622,149.1652375,0,-0.0010114796459674835,0.0009703806135803461,0.021960821002721786,0.00023602944565936923,0.00036732235457748175,0.0015392899513244629,0,1,-1000,0,1,0,-1,1,2,1500.0
12:39:29.452,STABILIZE,-35.3632622,149.1652375,0,-0.0011370168067514896,0.0009868752676993608,0.02176189422607422,0.00023072032490745187,0.00019969843560829759,0.001713357400149107,0,2,-1000,0,1,1,-1,1,1,1500.0
12:39:29.653,STABILIZE,-35.3632622,149.1652375,0,-0.0011603375896811485,0.000985402031801641,0.021719839423894882,0.00023162231082096696,0.0002793727908283472,0.0015851968200877309,0,2,-1000,0,1,1,-1,1,1,1500.0
12:39:29.855,STABILIZE,-35.3632622,149.1652375,0,-0.0008783821249380708,0.000986106344498694,0.021689556539058685,0.0003394502564333379,0.0002115757088176906,0.0014935133513063192,0,2,-1000,0,1,0,-1,2,2,1500.0
12:39:30.056,STABILIZE,-35.3632622,149.1652375,0,-0.0009237694903276861,0.0009859278798103333,0.021627197042107582,0.00023645971668884158,0.00027053203666582704,0.0014571016654372215,0,1,-1000,0,0,0,-1,2,2,1500.0
12:39:30.257,STABILIZE,-35.3632622,149.1652375,0,-0.0009237694903276861,0.0009859278798103333,0.021627197042107582,0.00023645971668884158,0.00027053203666582704,0.0014571016654372215,0,1,-1000,0,0,0,-1,2,2,1500.0
12:39:30.459,STABILIZE,-35.3632622,149.1652375,0,-0.0009237694903276861,0.0009859278798103333,0.021627197042107582,0.00023645971668884158,0.00027053203666582704,0.0014571016654372215,0,2,-1000,1,0,0,-1,2,2,1500.0
12:39:30.660,STABILIZE,-35.3632622,149.1652375,0,-0.0009237694903276861,0.0009859278798103333,0.021627197042107582,0.00023645971668884158,0.00027053203666582704,0.0014571016654372215,0,2,-1000,1,0,0,-1,2,2,1500.0
12:39:30.864,AUTO,-35.3632622,149.1652375,0,-0.0009237694903276861,0.0009859278798103333,0.021627197042107582,0.00023645971668884158,0.00027053203666582704,0.0014571016654372215,0,2,-1000,1,0,0,-1,2,2,1500.0
12:39:31.066,AUTO,-35.3632622,149.1652375,0,-0.0009237694903276861,0.0009859278798103333,0.021627197042107582,0.00023645971668884158,0.00027053203666582704,0.0014571016654372215,0,2,-1000,1,0,0,-1,2,2,1500.0
12:39:31.268,AUTO,-35.3632622,149.1652375,0,-0.0009237694903276861,0.0009859278798103333,0.021627197042107582,0.00023645971668884158,0.00027053203666582704,0.0014571016654372215,0,2,-1000,1,0,0,-1,2,2,1500.0
12:39:31.469,AUTO,-35.3632622,149.1652375,3,-0.0011054188944399357,0.0010083562228828669,0.02141355350613594,0.00036649720277637243,0.0002776586334221065,0.0014842585660517216,0,1,-1000,0,0,0,-1,1,1,174205.0
12:39:31.670,AUTO,-35.3632622,149.1652375,2,-0.0011275607394054532,0.0010194977512583137,0.021375471726059914,0.00026135542429983616,0.0003365300945006311,0.001583235221914947,0,1,-1000,1,0,1,-1,1,1,174205.0
12:39:31.872,AUTO,-35.3632621,149.1652375,2,-0.001133213983848691,0.0010344821494072676,0.021324248984456062,0.00033132516546174884,0.000250973564106971,0.0013690167106688023,0,1,-1000,0,1,1,0,0,1,174205.0
12:39:32.073,AUTO,-35.3632621,149.1652375,1,-0.0011210112133994699,0.0010694500524550676,0.021286407485604286,0.00021332723554223776,0.00026888021966442466,0.0015394038055092096,0,1,-1000,1,0,0,0,0,1,174205.0
12:39:32.275,AUTO,-35.3632621,149.1652375,1,-0.0011210112133994699,0.0010694500524550676,0.021286407485604286,0.00021332723554223776,0.00026888021966442466,0.0015394038055092096,0,1,-1000,1,0,0,0,0,1,174205.0
12:39:32.477,AUTO,-35.3632621,149.1652375,1,-0.0010936069302260876,0.0011216005077585578,0.02123565971851349,0.00025650247698649764,0.000288964482024312,0.0014076533261686563,0,2,-1000,1,0,0,0,0,1,174205.0
12:39:32.679,AUTO,-35.3632621,149.1652375,0,-0.0010674394434317946,0.001179904560558498,0.02119201049208641,0.0001714768586680293,0.00024606159422546625,0.001406664727255702,0,1,-1000,0,1,1,0,0,1,174205.0
12:39:32.894,AUTO,-35.3632621,149.1652375,0,-0.0010674394434317946,0.001179904560558498,0.02119201049208641,0.0001714768586680293,0.00024606159422546625,0.001406664727255702,0,1,-1000,0,1,1,0,0,1,174205.0
12:39:33.096,AUTO,-35.3632621,149.1652375,0,-0.0010674394434317946,0.001179904560558498,0.02119201049208641,0.0001714768586680293,0.00024606159422546625,0.001406664727255702,0,1,-1000,0,1,1,0,0,1,174205.0
12:39:33.297,AUTO,-35.3632621,149.1652375,1,-0.000935145013500005,0.0013642918784171343,0.021056611090898514,0.00021840620320290327,0.00033546570921316743,0.001330708502791822,0,1,-1000,0,0,0,0,0,1,174205.0
12:39:33.499,AUTO,-35.3632621,149.1652375,1,-0.000935145013500005,0.0013642918784171343,0.021056611090898514,0.00021840620320290327,0.00033546570921316743,0.001330708502791822,0,1,-1000,0,0,0,0,0,1,174205.0
12:39:33.702,AUTO,-35.3632621,149.1652375,1,-0.0008859533118084073,0.0014364008093252778,0.02101198211312294,0.00031502521596848965,0.00029123364947736263,0.0014097326202318072,0,2,-1000,0,0,0,0,0,0,174205.0
12:39:33.903,AUTO,-35.3632621,149.1652374,2,-0.0008407977875322104,0.0015114558627828956,0.020969942212104797,0.00022644910495728254,0.00037578988121822476,0.0014341454952955246,0,2,-1000,0,1,1,0,0,0,174205.0
12:39:34.104,AUTO,-35.3632621,149.1652374,2,-0.0007920991047285497,0.0015858366386964917,0.020920582115650177,0.00021242437651380897,0.0003229306894354522,0.0014109741896390915,0,1,-1000,1,0,1,0,0,0,174205.0
12:39:34.306,AUTO,-35.3632621,149.1652374,3,-0.0007355355774052441,0.0016569141298532486,0.0208699032664299,0.00035482191015034914,0.0002409638254903257,0.0014767065877094865,0,2,-1000,1,0,0,0,0,0,174205.0
12:39:34.508,AUTO,-35.3632621,149.1652374,3,-0.0007355355774052441,0.0016569141298532486,0.0208699032664299,0.00035482191015034914,0.0002409638254903257,0.0014767065877094865,0,2,-1000,1,0,0,0,0,0,174205.0
12:39:34.710,AUTO,-35.3632621,149.1652374,4,-0.0006719171651639044,0.0017324365908280015,0.020819295197725296,0.00031890999525785446,0.0002578914281912148,0.0014140403363853693,0,1,-1000,0,1,0,0,0,0,174205.0
12:39:34.912,AUTO,-35.3632621,149.1652374,4,-0.0006719171651639044,0.0017324365908280015,0.020819295197725296,0.00031890999525785446,0.0002578914281912148,0.0014140403363853693,0,1,-1000,0,1,0,0,0,0,174205.0
12:39:35.113,AUTO,-35.3632621,149.1652374,4,-0.0006719171651639044,0.0017324365908280015,0.020819295197725296,0.00031890999525785446,0.0002578914281912148,0.0014140403363853693,0,1,-1000,0,1,0,0,0,0,174205.0
12:39:35.315,AUTO,-35.3632621,149.1652375,192,0.003236448857933283,0.0001135268175858073,0.020597251132130623,0.005268296226859093,0.005322854965925217,0.0008592015947215259,0,0,-1130,5,6,0,0,0,-69,174205.0
12:39:35.517,AUTO,-35.3632621,149.1652375,192,0.003236448857933283,0.0001135268175858073,0.020597251132130623,0.005268296226859093,0.005322854965925217,0.0008592015947215259,0,0,-1130,5,6,0,0,0,-69,136121.0
12:39:35.718,AUTO,-35.3632621,149.1652375,404,0.0015511928359046578,0.0012637506006285548,0.020474642515182495,-0.01166172418743372,0.003983605187386274,0.0012657565530389547,0,0,-1109,-11,4,0,0,1,-98,136121.0
12:39:35.920,AUTO,-35.3632621,149.1652375,683,0.0007056426256895065,0.0017379922792315483,0.02041155844926834,-0.0049411943182349205,2.3023749236017466e-05,0.002241430338472128,0,0,-1089,-4,0,1,0,0,-122,136121.0
12:39:36.121,AUTO,-35.3632621,149.1652375,1018,0.008443261496722698,0.0010657147504389286,0.020129218697547913,0.046769674867391586,-0.005918262060731649,0.0012514723930507898,0,0,-1045,47,-5,0,0,1,-137,136121.0
12:39:36.323,AUTO,-35.363262,149.1652375,1384,0.02025664411485195,-0.0006484445184469223,0.020121043547987938,0.04713336005806923,-0.0071001211181283,0.002083753701299429,0,0,-1019,47,-6,1,0,4,-144,136121.0
12:39:36.525,AUTO,-35.363262,149.1652375,1384,0.02025664411485195,-0.0006484445184469223,0.020121043547987938,0.04713336005806923,-0.0071001211181283,0.002083753701299429,0,0,-1019,47,-6,1,0,4,-144,136121.0
12:39:36.727,AUTO,-35.363262,149.1652377,1763,0.03168614208698273,-0.002571436343714595,0.02026621624827385,0.04486893489956856,-0.007855548523366451,0.0027673409786075354,0,-1,-1008,45,-7,2,1,10,-147,136121.0
12:39:36.929,AUTO,-35.363262,149.1652377,1763,0.03168614208698273,-0.002571436343714595,0.02026621624827385,0.04486893489956856,-0.007855548523366451,0.0027673409786075354,0,-1,-1008,45,-7,2,1,10,-147,136121.0
12:39:37.131,AUTO,-35.363262,149.1652377,1763,0.03168614208698273,-0.002571436343714595,0.02026621624827385,0.04486893489956856,-0.007855548523366451,0.0027673409786075354,0,-1,-1008,45,-7,2,1,10,-147,136121.0
12:39:37.334,AUTO,-35.3632616,149.1652396,2920,0.061272140592336655,-0.009692995809018612,-0.004983966704457998,0.00874714832752943,0.004185698926448822,-0.03153526037931442,1,-8,-994,9,5,-31,8,41,-148,136121.0
12:39:37.535,AUTO,-35.3632614,149.1652409,3302,0.04496252164244652,0.009686672128736973,-0.0258509311825037,-0.12182418256998062,0.11095839738845825,-0.10859108716249466,2,-11,-990,-121,111,-108,10,51,-146,136121.0
12:39:37.737,AUTO,-35.3632614,149.1652409,3302,0.04496252164244652,0.009686672128736973,-0.0258509311825037,-0.12182418256998062,0.11095839738845825,-0.10859108716249466,2,-11,-990,-121,111,-108,10,51,-146,136121.0
12:39:37.938,AUTO,-35.3632612,149.1652423,3679,0.0023120231926441193,0.024254627525806427,-0.047366462647914886,-0.17920179665088654,0.007488726172596216,-0.07356739789247513,4,-13,-998,-178,8,-74,7,54,-144,136121.0
12:39:38.140,AUTO,-35.363261,149.1652437,4064,-0.02571311593055725,0.02197076939046383,-0.0635334923863411,-0.0637076124548912,-0.014355691149830818,-0.061444804072380066,5,-11,-1011,-62,-13,-61,3,47,-147,136121.0
12:39:38.342,AUTO,-35.3632609,149.1652449,4448,-0.034800298511981964,0.017743725329637527,-0.0760556161403656,-0.020672056823968887,-0.012907184660434723,-0.051048967987298965,4,-9,-1007,-20,-11,-51,0,36,-149,136121.0
12:39:38.544,AUTO,-35.3632609,149.1652457,4834,-0.039935436099767685,0.01307733915746212,-0.08574455231428146,-0.03119904175400734,-0.022020919248461723,-0.031114893034100533,5,-6,-1001,-30,-21,-31,-2,25,-150,136121.0
12:39:38.746,AUTO,-35.3632609,149.1652457,4834,-0.039935436099767685,0.01307733915746212,-0.08574455231428146,-0.03119904175400734,-0.022020919248461723,-0.031114893034100533,5,-6,-1001,-30,-21,-31,-2,25,-150,136121.0
12:39:38.948,AUTO,-35.3632609,149.1652457,4834,-0.039935436099767685,0.01307733915746212,-0.08574455231428146,-0.03119904175400734,-0.022020919248461723,-0.031114893034100533,5,-6,-1001,-30,-21,-31,-2,25,-150,136121.0
12:39:39.150,AUTO,-35.3632609,149.1652457,4834,-0.039935436099767685,0.01307733915746212,-0.08574455231428146,-0.03119904175400734,-0.022020919248461723,-0.031114893034100533,5,-6,-1001,-30,-21,-31,-2,25,-150,136121.0
12:39:39.352,AUTO,-35.3632611,149.1652461,5981,-0.07316794246435165,-0.010858220979571342,-0.08889923989772797,0.032755296677351,-0.0033067180775105953,-0.005492097232490778,0,2,-1004,33,-2,-5,-3,-20,-149,136121.0
12:39:39.554,AUTO,-35.3632611,149.1652454,6366,-0.06106170639395714,-0.01134765986353159,-0.08987109363079071,0.054347071796655655,-0.0006721168174408376,-0.000908837653696537,-3,6,-1001,54,0,-1,-2,-36,-149,156768.0
12:39:39.756,AUTO,-35.3632611,149.1652454,6366,-0.06106170639395714,-0.01134765986353159,-0.08987109363079071,0.054347071796655655,-0.0006721168174408376,-0.000908837653696537,-3,6,-1001,54,0,-1,-2,-36,-149,156768.0
12:39:39.958,AUTO,-35.3632612,149.1652443,6749,-0.04671627655625343,-0.010750889778137207,-0.09062459319829941,0.06037091091275215,0.005340126343071461,0.0004720161377917975,-5,11,-1001,61,6,0,-1,-48,-149,156768.0
12:39:40.160,AUTO,-35.3632612,149.1652428,7133,-0.03129546716809273,-0.008697697892785072,-0.09107125550508499,0.06194557994604111,0.010198807343840599,0.0017459815135225654,-7,12,-1002,62,10,1,0,-56,-150,156768.0
12:39:40.362,AUTO,-35.3632613,149.1652412,7519,-0.015358753502368927,-0.005640477407723665,-0.0911058634519577,0.06615134328603745,0.013842429965734482,0.0025973604060709476,-6,9,-1003,67,14,2,0,-59,-150,156768.0
12:39:40.565,AUTO,-35.3632613,149.1652396,7906,0.0008571735816076398,-0.00200306111946702,-0.09061683714389801,0.06460539251565933,0.014822082594037056,0.00347898225300014,-7,10,-1003,65,15,3,-1,-59,-151,156768.0
12:39:40.767,AUTO,-35.3632613,149.1652396,7906,0.0008571735816076398,-0.00200306111946702,-0.09061683714389801,0.06460539251565933,0.014822082594037056,0.00347898225300014,-7,10,-1003,65,15,3,-1,-59,-151,156768.0
12:39:40.969,AUTO,-35.3632613,149.1652396,7906,0.0008571735816076398,-0.00200306111946702,-0.09061683714389801,0.06460539251565933,0.014822082594037056,0.00347898225300014,-7,10,-1003,65,15,3,-1,-59,-151,156768.0
12:39:41.171,AUTO,-35.3632613,149.1652396,7906,0.0008571735816076398,-0.00200306111946702,-0.09061683714389801,0.06460539251565933,0.014822082594037056,0.00347898225300014,-7,10,-1003,65,15,3,-1,-59,-151,156768.0
12:39:41.372,AUTO,-35.3632615,149.1652354,9089,0.0493411161005497,0.007708017248660326,-0.08772144466638565,0.06131422519683838,0.008548794314265251,0.004264592658728361,-5,10,-1003,61,9,4,-5,-33,-153,156768.0
12:39:41.574,AUTO,-35.3632616,149.1652346,9482,0.06408564746379852,0.009042413905262947,-0.08677101135253906,0.05654619634151459,0.0038861872162669897,0.00012033569510094821,-2,5,-1001,57,4,0,-6,-18,-153,156768.0
12:39:41.775,AUTO,-35.3632616,149.1652346,9482,0.06408564746379852,0.009042413905262947,-0.08677101135253906,0.05654619634151459,0.0038861872162669897,0.00012033569510094821,-2,5,-1001,57,4,0,-6,-18,-153,156768.0
12:39:41.977,AUTO,-35.3632618,149.1652342,9875,0.06540384888648987,0.01185462437570095,-0.08829477429389954,-0.045050814747810364,0.0010974761098623276,0.0004298874409869313,0,2,-992,-44,1,0,-7,-1,-152,156768.0
12:39:42.179,AUTO,-35.3632619,149.1652343,10262,0.046795472502708435,0.008937404491007328,-0.08786243945360184,-0.0860852524638176,-0.019377121701836586,0.005990542937070131,1,0,-994,-85,-18,5,-7,11,-150,156768.0
12:39:42.381,AUTO,-35.3632621,149.1652347,10645,0.024972965940833092,0.003582450794056058,-0.08739058673381805,-0.08078828454017639,-0.01906135305762291,0.0016316495602950454,3,-1,-999,-80,-18,1,-7,19,-149,156768.0
12:39:42.583,AUTO,-35.3632622,149.1652351,11027,0.007242987398058176,-0.0005304038641043007,-0.0884009525179863,-0.06347459554672241,-0.013555191457271576,-0.005409291945397854,3,-2,-1002,-62,-12,-5,-6,21,-149,156768.0
12:39:42.796,AUTO,-35.3632622,149.1652351,11027,0.007242987398058176,-0.0005304038641043007,-0.0884009525179863,-0.06347459554672241,-0.013555191457271576,-0.005409291945397854,3,-2,-1002,-62,-12,-5,-6,21,-149,156768.0
12:39:42.998,AUTO,-35.3632622,149.1652351,11027,0.007242987398058176,-0.0005304038641043007,-0.0884009525179863,-0.06347459554672241,-0.013555191457271576,-0.005409291945397854,3,-2,-1002,-62,-12,-5,-6,21,-149,156768.0
12:39:43.199,AUTO,-35.3632622,149.1652351,11027,0.007242987398058176,-0.0005304038641043007,-0.0884009525179863,-0.06347459554672241,-0.013555191457271576,-0.005409291945397854,3,-2,-1002,-62,-12,-5,-6,21,-149,156768.0
12:39:43.401,AUTO,-35.3632624,149.1652364,12185,-0.015842638909816742,-0.005364114418625832,-0.10039932280778885,-0.004973734728991985,0.0002066342276521027,-0.022369375452399254,2,-2,-1002,-4,1,-22,0,11,-151,156768.0
12:39:43.603,AUTO,-35.3632624,149.1652366,12574,-0.01562783122062683,-0.005213011056184769,-0.10643044859170914,0.004270669538527727,0.002211635932326317,-0.023629095405340195,1,-1,-1001,5,3,-23,1,6,-152,235510.0
12:39:43.804,AUTO,-35.3632624,149.1652367,12963,-0.013090482912957668,-0.0041589438915252686,-0.11310072243213654,0.013767145574092865,0.004621696658432484,-0.02282380871474743,0,-1,-1001,14,5,-23,2,1,-152,235510.0
12:39:44.006,AUTO,-35.3632624,149.1652367,12963,-0.013090482912957668,-0.0041589438915252686,-0.11310072243213654,0.013767145574092865,0.004621696658432484,-0.02282380871474743,0,-1,-1001,14,5,-23,2,1,-152,235510.0
12:39:44.207,AUTO,-35.3632624,149.1652367,13356,-0.009177682921290398,-0.0031250815372914076,-0.11940016597509384,0.016438880935311317,0.003937427885830402,-0.02224230207502842,0,0,-1000,17,4,-22,3,-2,-152,235510.0
12:39:44.409,AUTO,-35.3632623,149.1652365,13747,-0.005079754628241062,-0.0017337461467832327,-0.12556599080562592,0.0174506027251482,0.009398498572409153,-0.0251734871417284,-1,0,-1000,18,10,-25,3,-4,-152,235510.0
12:39:44.611,AUTO,-35.3632622,149.1652365,14137,-0.0009515361161902547,0.0004575994680635631,-0.1317654699087143,0.016497677192091942,0.008277819491922855,-0.022795619443058968,-2,0,-1000,17,8,-23,4,-5,-152,235510.0
12:39:44.812,AUTO,-35.3632622,149.1652365,14137,-0.0009515361161902547,0.0004575994680635631,-0.1317654699087143,0.016497677192091942,0.008277819491922855,-0.022795619443058968,-2,0,-1000,17,8,-23,4,-5,-152,235510.0
12:39:45.015,AUTO,-35.3632622,149.1652365,14137,-0.0009515361161902547,0.0004575994680635631,-0.1317654699087143,0.016497677192091942,0.008277819491922855,-0.022795619443058968,-2,0,-1000,17,8,-23,4,-5,-152,235510.0
12:39:45.216,AUTO,-35.3632622,149.1652365,14137,-0.0009515361161902547,0.0004575994680635631,-0.1317654699087143,0.016497677192091942,0.008277819491922855,-0.022795619443058968,-2,0,-1000,17,8,-23,4,-5,-152,235510.0
12:39:45.418,AUTO,-35.3632619,149.1652359,15302,0.00682664941996336,0.004970359615981579,-0.14754265546798706,0.006249017547816038,0.0038357910234481096,-0.017908737063407898,-2,0,-1000,6,4,-18,2,-4,-152,235510.0
12:39:45.620,AUTO,-35.3632618,149.1652358,15692,0.008048336952924728,0.005817428696900606,-0.15183769166469574,0.004586509428918362,0.003990974277257919,-0.01730341650545597,-1,0,-1000,5,4,-17,1,-2,-153,235510.0
12:39:45.822,AUTO,-35.3632618,149.1652356,16081,0.008661691099405289,0.0067411563359200954,-0.1559942215681076,0.002690444467589259,0.0006288574077188969,-0.013016637414693832,-1,0,-1000,3,1,-13,0,-1,-152,235510.0
12:39:46.023,AUTO,-35.3632618,149.1652356,16081,0.008661691099405289,0.0067411563359200954,-0.1559942215681076,0.002690444467589259,0.0006288574077188969,-0.013016637414693832,-1,0,-1000,3,1,-13,0,-1,-152,235510.0
12:39:46.225,AUTO,-35.3632617,149.1652356,16471,0.008643251843750477,0.006841206923127174,-0.15973062813282013,-5.14741986989975e-06,0.00016411993419751525,-0.013354741968214512,0,0,-1000,0,0,-13,0,0,-152,235510.0
12:39:46.427,AUTO,-35.3632617,149.1652356,16861,0.008075208403170109,0.006399135105311871,-0.16285331547260284,-0.0019410125678405166,-0.0019852982368320227,-0.010101855732500553,0,0,-1000,0,-1,-10,-1,1,-152,235510.0
12:39:46.629,AUTO,-35.3632616,149.1652355,17250,0.007231499534100294,0.005877024494111538,-0.16598543524742126,-0.0032493125181645155,-0.00031545478850603104,-0.013428804464638233,0,0,-1000,-2,0,-13,-1,3,-152,235510.0
12:39:46.830,AUTO,-35.3632616,149.1652355,17250,0.007231499534100294,0.005877024494111538,-0.16598543524742126,-0.0032493125181645155,-0.00031545478850603104,-0.013428804464638233,0,0,-1000,-2,0,-13,-1,3,-152,235510.0
12:39:47.032,AUTO,-35.3632616,149.1652355,17250,0.007231499534100294,0.005877024494111538,-0.16598543524742126,-0.0032493125181645155,-0.00031545478850603104,-0.013428804464638233,0,0,-1000,-2,0,-13,-1,3,-152,235510.0
12:39:47.234,AUTO,-35.3632616,149.1652355,17250,0.007231499534100294,0.005877024494111538,-0.16598543524742126,-0.0032493125181645155,-0.00031545478850603104,-0.013428804464638233,0,0,-1000,-2,0,-13,-1,3,-152,235510.0
12:39:47.437,AUTO,-35.3632616,149.1652357,18418,0.004533297382295132,0.004898907151073217,-0.17659227550029755,-0.0015992834232747555,-0.0005636748974211514,-0.015504149720072746,0,0,-1000,-1,0,-15,-2,5,-153,235510.0
12:39:47.639,AUTO,-35.3632616,149.1652358,18808,0.003745987080037594,0.004608761984854937,-0.18051248788833618,-0.0011313783470541239,-0.00013553083408623934,-0.015480986796319485,0,0,-1000,0,0,-15,-2,5,-153,300000.0
12:39:47.841,AUTO,-35.3632616,149.1652359,19197,0.0031627812422811985,0.004285640083253384,-0.18455879390239716,-0.0004981182282790542,-0.0005705586518160999,-0.015018230304121971,0,0,-1000,0,0,-15,-3,5,-153,300000.0
12:39:48.042,AUTO,-35.3632616,149.1652359,19586,0.002709292806684971,0.004064411390572786,-0.18896976113319397,-0.001977079315111041,0.0009341394761577249,-0.019864697009325027,0,0,-1000,-1,1,-20,-3,5,-153,300000.0
12:39:48.244,AUTO,-35.3632616,149.1652359,19586,0.002709292806684971,0.004064411390572786,-0.18896976113319397,-0.001977079315111041,0.0009341394761577249,-0.019864697009325027,0,0,-1000,-1,1,-20,-3,5,-153,300000.0
12:39:48.446,AUTO,-35.3632617,149.165236,19976,-0.0005066949524916708,0.003862672485411167,-0.19346202909946442,-0.04008587822318077,-0.00023372640134766698,-0.019149864092469215,0,-1,-996,-39,0,-19,-3,5,-152,300000.0
12:39:48.647,AUTO,-35.3632617,149.1652361,20363,-0.019361210986971855,0.0035095049533993006,-0.19825094938278198,-0.09493204206228256,0.00113624834921211,-0.02060285210609436,0,0,-995,-93,1,-20,-3,2,-151,300000.0
12:39:48.849,AUTO,-35.3632617,149.1652361,20363,-0.019361210986971855,0.0035095049533993006,-0.19825094938278198,-0.09493204206228256,0.00113624834921211,-0.02060285210609436,0,0,-995,-93,1,-20,-3,2,-151,300000.0
12:39:49.052,AUTO,-35.3632617,149.1652361,20363,-0.019361210986971855,0.0035095049533993006,-0.19825094938278198,-0.09493204206228256,0.00113624834921211,-0.02060285210609436,0,0,-995,-93,1,-20,-3,2,-151,300000.0
12:39:49.255,AUTO,-35.3632617,149.1652361,20363,-0.019361210986971855,0.0035095049533993006,-0.19825094938278198,-0.09493204206228256,0.00113624834921211,-0.02060285210609436,0,0,-995,-93,1,-20,-3,2,-151,300000.0
12:39:49.456,AUTO,-35.3632622,149.1652351,21483,-0.04871376231312752,0.05667394772171974,-0.028043288737535477,0.0014451977331191301,0.020680945366621017,0.48287925124168396,0,6,-970,2,21,482,-22,-26,-139,300000.0
12:39:49.658,AUTO,-35.3632627,149.1652342,21823,-0.02542358823120594,0.03370031714439392,0.06149442121386528,0.11729203164577484,-0.17397132515907288,0.23917585611343384,3,10,-955,118,-173,238,-32,-33,-128,300000.0
12:39:49.859,AUTO,-35.3632634,149.1652333,22134,0.007120294962078333,-0.008786913007497787,0.09565556794404984,0.13054974377155304,-0.14905786514282227,0.0524887815117836,3,12,-956,131,-148,52,-34,-34,-117,300000.0
12:39:50.061,AUTO,-35.3632641,149.1652324,22421,0.03396851196885109,-0.03489544987678528,0.0953444093465805,0.08730843663215637,-0.06737390905618668,-0.03424818068742752,2,10,-960,88,-66,-34,-27,-26,-106,300000.0
12:39:50.263,AUTO,-35.3632641,149.1652324,22421,0.03396851196885109,-0.03489544987678528,0.0953444093465805,0.08730843663215637,-0.06737390905618668,-0.03424818068742752,2,10,-960,88,-66,-34,-27,-26,-106,300000.0
12:39:50.465,AUTO,-35.3632646,149.1652318,22680,0.050395093858242035,-0.04357912018895149,0.08370742201805115,0.046600066125392914,-0.015432309359312057,-0.05078643932938576,2,7,-962,47,-14,-51,-18,-13,-96,300000.0
12:39:50.667,AUTO,-35.3632648,149.1652315,22914,0.056093957275152206,-0.04300052300095558,0.07316158711910248,0.009173339232802391,0.011516867205500603,-0.03510385379195213,1,2,-966,10,12,-35,-8,0,-87,300000.0
12:39:50.869,AUTO,-35.3632648,149.1652315,22914,0.056093957275152206,-0.04300052300095558,0.07316158711910248,0.009173339232802391,0.011516867205500603,-0.03510385379195213,1,2,-966,10,12,-35,-8,0,-87,300000.0
12:39:51.071,AUTO,-35.3632648,149.1652315,22914,0.056093957275152206,-0.04300052300095558,0.07316158711910248,0.009173339232802391,0.011516867205500603,-0.03510385379195213,1,2,-966,10,12,-35,-8,0,-87,100722.0
12:39:51.272,AUTO,-35.3632648,149.1652315,22914,0.056093957275152206,-0.04300052300095558,0.07316158711910248,0.009173339232802391,0.011516867205500603,-0.03510385379195213,1,2,-966,10,12,-35,-8,0,-87,100722.0
12:39:51.475,AUTO,-35.3632646,149.1652326,23485,0.035502709448337555,-0.018982501700520515,0.06333620846271515,-0.037723906338214874,0.03816957026720047,0.00044105577399022877,0,-6,-975,-36,38,0,14,31,-65,100722.0
12:39:51.676,AUTO,-35.3632642,149.1652335,23641,0.025001246482133865,-0.010006195865571499,0.06274592876434326,-0.040509145706892014,0.03376220911741257,0.002668078988790512,0,-9,-976,-39,34,2,17,36,-58,100722.0
12:39:51.878,AUTO,-35.3632638,149.1652344,23783,0.015758659690618515,-0.002082275692373514,0.06209155172109604,-0.035943616181612015,0.02986542135477066,0.00028452929109334946,-2,-8,-976,-34,31,0,19,38,-53,100722.0
12:39:52.080,AUTO,-35.3632633,149.1652354,23908,0.007739898283034563,0.0042814407497644424,0.061356332153081894,-0.024437593296170235,0.023238515481352806,0.0012078721774742007,0,-9,-977,-23,24,0,19,37,-47,100722.0
12:39:52.282,AUTO,-35.3632633,149.1652354,23908,0.007739898283034563,0.0042814407497644424,0.061356332153081894,-0.024437593296170235,0.023238515481352806,0.0012078721774742007,0,-9,-977,-23,24,0,19,37,-47,100722.0
12:39:52.484,AUTO,-35.3632628,149.1652363,24018,0.00046128476969897747,0.00963264424353838,0.06047099456191063,-0.030312972143292427,0.017407381907105446,-9.544855856802315e-05,0,-9,-978,-29,18,0,18,35,-41,100722.0
12:39:52.686,AUTO,-35.3632624,149.1652372,24114,-0.0049864063039422035,0.012812033295631409,0.05950689688324928,-0.017264291644096375,0.01037768553942442,-0.0024204424116760492,0,-8,-977,-16,11,-2,16,32,-36,100722.0
12:39:52.891,AUTO,-35.3632624,149.1652372,24114,-0.0049864063039422035,0.012812033295631409,0.05950689688324928,-0.017264291644096375,0.01037768553942442,-0.0024204424116760492,0,-8,-977,-16,11,-2,16,32,-36,100722.0
12:39:53.092,AUTO,-35.3632624,149.1652372,24114,-0.0049864063039422035,0.012812033295631409,0.05950689688324928,-0.017264291644096375,0.01037768553942442,-0.0024204424116760492,0,-8,-977,-16,11,-2,16,32,-36,100722.0
12:39:53.301,AUTO,-35.3632624,149.1652372,24114,-0.0049864063039422035,0.012812033295631409,0.05950689688324928,-0.017264291644096375,0.01037768553942442,-0.0024204424116760492,0,-8,-977,-16,11,-2,16,32,-36,100722.0
12:39:53.505,AUTO,-35.3632615,149.1652392,24309,-0.011818617582321167,0.014931201934814453,0.05691305547952652,-0.0008354214951395988,-0.0021904129534959793,-0.004475458059459925,0,-4,-973,0,-1,-4,8,18,-17,100722.0
12:39:53.707,AUTO,-35.3632613,149.1652396,24340,-0.01114500593394041,0.013755321502685547,0.05599556118249893,0.03672710433602333,-0.005581720266491175,-0.003638738300651312,0,-2,-969,37,-4,-3,5,13,-9,100722.0
12:39:53.908,AUTO,-35.3632612,149.1652399,24350,-0.02357669733464718,0.017433471977710724,0.05452800914645195,-0.44991335272789,0.15632055699825287,-0.0126948868855834,-4,-17,-943,-449,157,-13,2,9,0,100722.0
12:39:54.110,AUTO,-35.3632611,149.16524,24325,-0.04399929195642471,0.028036339208483696,0.05335341393947601,0.21917998790740967,-0.025574639439582825,-0.006311596371233463,0,24,-965,221,-24,-6,-2,0,14,100722.0
12:39:54.312,AUTO,-35.3632612,149.1652398,24272,-0.008418367244303226,0.013663952238857746,0.052864640951156616,0.976779043674469,-0.06374204158782959,-0.0075504896230995655,0,42,-996,978,-62,-7,-6,-6,21,100722.0
12:39:54.514,AUTO,-35.3632612,149.1652398,24272,-0.008418367244303226,0.013663952238857746,0.052864640951156616,0.976779043674469,-0.06374204158782959,-0.0075504896230995655,0,42,-996,978,-62,-7,-6,-6,21,100722.0
12:39:54.718,AUTO,-35.3632612,149.1652397,24215,0.022893832996487617,-0.0011481974506750703,0.052407048642635345,0.48066017031669617,-0.0507129468023777,-0.0038066967390477657,0,-7,-1027,480,-49,-3,-7,-8,18,100722.0
12:39:54.920,AUTO,-35.3632612,149.1652397,24215,0.022893832996487617,-0.0011481974506750703,0.052407048642635345,0.48066017031669617,-0.0507129468023777,-0.0038066967390477657,0,-7,-1027,480,-49,-3,-7,-8,18,100722.0
12:39:55.122,AUTO,-35.3632612,149.1652397,24215,0.022893832996487617,-0.0011481974506750703,0.052407048642635345,0.48066017031669617,-0.0507129468023777,-0.0038066967390477657,0,-7,-1027,480,-49,-3,-7,-8,18,220222.0
12:39:55.324,AUTO,-35.3632613,149.1652399,24111,0.07377792149782181,-0.019926251843571663,0.04832848906517029,0.31317612528800964,-0.014356560073792934,-0.005318071227520704,1,21,-1011,314,-13,-5,2,27,6,220222.0
12:39:55.526,AUTO,-35.3632613,149.1652399,24111,0.07377792149782181,-0.019926251843571663,0.04832848906517029,0.31317612528800964,-0.014356560073792934,-0.005318071227520704,1,21,-1011,314,-13,-5,2,27,6,220222.0
12:39:55.727,AUTO,-35.3632613,149.1652408,24093,0.09663403779268265,-0.02246207185089588,0.049434565007686615,0.6315138339996338,-0.005414463579654694,0.05381155014038086,3,9,-1012,632,-4,53,7,44,3,220222.0
12:39:55.929,AUTO,-35.363261,149.1652422,24080,0.0963752344250679,-0.03186763450503349,0.1270645260810852,-0.31027501821517944,-0.026203440502285957,0.5740717649459839,6,-41,-1004,-310,-25,574,14,63,2,220222.0
12:39:56.131,AUTO,-35.3632606,149.1652442,24070,0.08918076753616333,-0.05302529036998749,0.33328676223754883,-0.4417315721511841,-0.02759278379380703,0.9543917775154114,1,-31,-1000,-440,-26,954,20,85,1,220222.0
12:39:56.334,AUTO,-35.3632601,149.1652468,24060,0.09190009534358978,-0.07900004833936691,0.578843355178833,0.389205664396286,-0.012385492213070393,0.98486328125,-11,3,-1005,390,-11,984,26,108,1,220222.0
12:39:56.537,AUTO,-35.3632594,149.16525,24050,0.08577654510736465,-0.1049763634800911,0.8164897561073303,0.5343437790870667,-0.01033252477645874,0.9272783398628235,-11,3,-1005,390,-11,984,33,130,3,220222.0
12:39:56.741,AUTO,-35.3632594,149.16525,24050,0.08577654510736465,-0.1049763634800911,0.8164897561073303,0.5343437790870667,-0.01033252477645874,0.9272783398628235,-14,-15,-998,534,-9,927,33,130,3,220222.0
12:39:56.943,AUTO,-35.3632594,149.16525,24050,0.08577654510736465,-0.1049763634800911,0.8164897561073303,0.5343437790870667,-0.01033252477645874,0.9272783398628235,-14,-15,-998,534,-9,927,33,130,3,220222.0
12:39:57.145,AUTO,-35.3632594,149.16525,24050,0.08577654510736465,-0.1049763634800911,0.8164897561073303,0.5343437790870667,-0.01033252477645874,0.9272783398628235,-14,-15,-998,534,-9,927,33,130,3,220222.0
12:39:57.347,AUTO,-35.3632565,149.1652638,24003,0.021578140556812286,-0.1627943366765976,1.4100208282470703,0.4222370386123657,-0.054850973188877106,0.4304017722606659,-44,0,-1004,423,-53,429,54,208,4,220222.0
12:39:57.549,AUTO,-35.3632552,149.1652699,23984,0.014928117394447327,-0.17524130642414093,1.4636026620864868,0.06395668536424637,-0.048962775617837906,0.07525096833705902,-52,-29,-997,64,-47,75,61,237,5,220222.0
12:39:57.751,AUTO,-35.3632552,149.1652699,23984,0.014928117394447327,-0.17524130642414093,1.4636026620864868,0.06395668536424637,-0.048962775617837906,0.07525096833705902,-52,-29,-997,64,-47,75,61,237,5,220222.0
12:39:57.953,AUTO,-35.3632538,149.1652769,23961,0.007294724229723215,-0.18440021574497223,1.4528144598007202,-0.4390188753604889,-0.02504422329366207,-0.09267600625753403,-62,-52,-1001,-438,-23,-92,68,266,7,220222.0
12:39:58.155,AUTO,-35.3632522,149.1652846,23936,0.019364668056368828,-0.18812181055545807,1.4199873208999634,0.08287394791841507,-0.0036105180624872446,-0.13878247141838074,-65,-17,-1006,84,-2,-138,75,296,7,220222.0
12:39:58.357,AUTO,-35.3632505,149.1652931,23911,0.028404192999005318,-0.19075234234333038,1.3945565223693848,0.26246190071105957,-0.024601342156529427,-0.07633709162473679,-73,-27,-1000,263,-23,-76,82,324,8,220222.0
12:39:58.559,AUTO,-35.3632485,149.1653024,23883,0.028667906299233437,-0.1949486881494522,1.3807015419006348,-0.23275625705718994,-0.00608211662620306,-0.03426414355635643,-78,-57,-1001,-231,-5,-34,90,352,9,220222.0
12:39:58.761,AUTO,-35.3632485,149.1653024,23883,0.028667906299233437,-0.1949486881494522,1.3807015419006348,-0.23275625705718994,-0.00608211662620306,-0.03426414355635643,-78,-57,-1001,-231,-5,-34,90,352,9,220222.0
12:39:58.963,AUTO,-35.3632485,149.1653024,23883,0.028667906299233437,-0.1949486881494522,1.3807015419006348,-0.23275625705718994,-0.00608211662620306,-0.03426414355635643,-78,-57,-1001,-231,-5,-34,90,352,9,220222.0
12:39:59.165,AUTO,-35.3632485,149.1653024,23883,0.028667906299233437,-0.1949486881494522,1.3807015419006348,-0.23275625705718994,-0.00608211662620306,-0.03426414355635643,-78,-57,-1001,-231,-5,-34,90,352,9,86758.0
12:39:59.367,AUTO,-35.3632417,149.165335,23790,0.04747830331325531,-0.19097527861595154,1.3755683898925781,-0.15505249798297882,0.025169426575303078,0.010238702408969402,-92,-60,-1004,-154,26,10,110,433,10,86758.0
12:39:59.569,AUTO,-35.3632392,149.1653473,23761,0.05303487181663513,-0.18319697678089142,1.3758118152618408,0.03664163127541542,0.0332336388528347,-0.00313201523385942,-108,-46,-1005,37,33,-3,114,456,9,86758.0
12:39:59.771,AUTO,-35.3632392,149.1653473,23761,0.05303487181663513,-0.18319697678089142,1.3758118152618408,0.03664163127541542,0.0332336388528347,-0.00313201523385942,-108,-46,-1005,37,33,-3,114,456,9,86758.0
12:39:59.973,AUTO,-35.3632365,149.1653602,23734,0.05818646401166916,-0.1760815680027008,1.3754515647888184,0.07852751016616821,0.034800633788108826,-0.005357117857784033,-102,-50,-998,79,35,-5,118,475,8,86758.0
12:40:00.175,AUTO,-35.3632337,149.1653736,23708,0.060067109763622284,-0.16455499827861786,1.3751581907272339,-0.02663041092455387,0.04349227622151375,-0.0016724469605833292,-103,-62,-1001,-25,44,-1,121,493,7,86758.0
12:40:00.377,AUTO,-35.3632309,149.1653877,23685,0.06545843929052353,-0.15796709060668945,1.3740763664245605,0.03548165410757065,-0.0035608550533652306,-0.0030430476181209087,-109,-63,-994,36,-2,-3,124,507,6,86758.0
12:40:00.579,AUTO,-35.363228,149.165402,23660,0.06522886455059052,-0.15703457593917847,1.3735510110855103,-0.012175077572464943,0.020777855068445206,-0.006463225930929184,-108,-61,-992,-11,22,-6,125,520,8,86758.0
12:40:00.781,AUTO,-35.363228,149.165402,23660,0.06522886455059052,-0.15703457593917847,1.3735510110855103,-0.012175077572464943,0.020777855068445206,-0.006463225930929184,-108,-61,-992,-11,22,-6,125,520,8,86758.0
12:40:00.983,AUTO,-35.363228,149.165402,23660,0.06522886455059052,-0.15703457593917847,1.3735510110855103,-0.012175077572464943,0.020777855068445206,-0.006463225930929184,-108,-61,-992,-11,22,-6,125,520,8,86758.0
12:40:01.185,AUTO,-35.363228,149.165402,23660,0.06522886455059052,-0.15703457593917847,1.3735510110855103,-0.012175077572464943,0.020777855068445206,-0.006463225930929184,-108,-61,-992,-11,22,-6,125,520,8,86758.0
12:40:01.388,AUTO,-35.3632193,149.1654462,23578,0.06770030409097672,-0.15042904019355774,1.3709615468978882,-0.002604733221232891,-0.02627899870276451,-0.0015812000492587686,-105,-70,-977,-1,-25,-1,128,548,11,86758.0
12:40:01.590,AUTO,-35.3632163,149.1654615,23543,0.06945078819990158,-0.14622512459754944,1.3704495429992676,0.019191818311810493,0.04410090669989586,-0.0012354501523077488,-112,-78,-994,20,45,-1,131,556,12,86758.0
12:40:01.791,AUTO,-35.3632133,149.165477,23509,0.07187042385339737,-0.13449133932590485,1.3694640398025513,-0.014137511141598225,0.056266602128744125,-0.002490891609340906,-114,-71,-996,-13,57,-2,132,563,11,86758.0
12:40:01.993,AUTO,-35.3632133,149.165477,23509,0.07187042385339737,-0.13449133932590485,1.3694640398025513,-0.014137511141598225,0.056266602128744125,-0.002490891609340906,-114,-71,-996,-13,57,-2,132,563,11,86758.0
12:40:02.196,AUTO,-35.3632102,149.1654928,23477,0.07343395799398422,-0.12444575130939484,1.3693979978561401,0.01741957664489746,0.03817684203386307,-0.005433731712400913,-116,-68,-994,18,39,-5,133,567,10,86758.0
12:40:02.399,AUTO,-35.3632072,149.1655085,23446,0.0735958144068718,-0.11919940263032913,1.3692004680633545,-0.011692330241203308,0.013175061903893948,0.002170249819755554,-121,-70,-992,-10,14,1,133,568,10,86758.0
12:40:02.602,AUTO,-35.3632041,149.1655242,23415,0.07356295734643936,-0.11663705855607986,1.3690112829208374,-0.008215554058551788,0.019923150539398193,0.000491431332193315,-110,-66,-983,-7,20,0,132,569,11,86758.0
12:40:02.804,AUTO,-35.3632041,149.1655242,23415,0.07356295734643936,-0.11663705855607986,1.3690112829208374,-0.008215554058551788,0.019923150539398193,0.000491431332193315,-110,-66,-983,-7,20,0,132,569,11,86758.0
12:40:03.008,AUTO,-35.3632041,149.1655242,23415,0.07356295734643936,-0.11663705855607986,1.3690112829208374,-0.008215554058551788,0.019923150539398193,0.000491431332193315,-110,-66,-983,-7,20,0,132,569,11,86758.0
12:40:03.210,AUTO,-35.3632041,149.1655242,23415,0.07356295734643936,-0.11663705855607986,1.3690112829208374,-0.008215554058551788,0.019923150539398193,0.000491431332193315,-110,-66,-983,-7,20,0,132,569,11,300000.0
12:40:03.412,AUTO,-35.3631951,149.1655717,23309,0.07114531099796295,-0.11306409537792206,1.3665645122528076,0.053934454917907715,-0.016823187470436096,-0.005785840563476086,-109,-62,-976,55,-15,-5,130,564,14,300000.0
12:40:03.614,AUTO,-35.3631921,149.1655873,23267,0.07319793850183487,-0.10854095220565796,1.3661404848098755,0.0422913134098053,0.04153476282954216,-0.008114079013466835,-121,-66,-994,43,42,-8,131,563,15,300000.0
12:40:03.816,AUTO,-35.3631891,149.1656028,23226,0.07283460348844528,-0.0900144949555397,1.3662277460098267,-0.04609077796339989,0.0755661353468895,-0.004362047649919987,-112,-71,-1005,-44,76,-4,131,560,12,300000.0
12:40:04.018,AUTO,-35.3631891,149.1656028,23226,0.07283460348844528,-0.0900144949555397,1.3662277460098267,-0.04609077796339989,0.0755661353468895,-0.004362047649919987,-112,-71,-1005,-44,76,-4,131,560,12,300000.0
12:40:04.220,AUTO,-35.3631861,149.1656183,23192,0.07311338931322098,-0.07153306156396866,1.3666077852249146,-0.005713867023587227,0.05617625638842583,-0.0026041273958981037,-119,-60,-1006,-4,57,-2,128,554,10,300000.0
12:40:04.422,AUTO,-35.3631832,149.1656335,23163,0.07283192127943039,-0.06174250692129135,1.3662986755371094,0.05432918667793274,0.03379414975643158,-0.008375313133001328,-119,-64,-996,55,34,-8,126,543,9,300000.0
12:40:04.623,AUTO,-35.3631803,149.1656482,23135,0.07233457267284393,-0.05371520668268204,1.3662686347961426,-0.04670106992125511,0.031832996755838394,-0.004424794111400843,-113,-62,-992,-45,32,-4,123,530,9,300000.0
12:40:04.825,AUTO,-35.3631803,149.1656482,23135,0.07233457267284393,-0.05371520668268204,1.3662686347961426,-0.04670106992125511,0.031832996755838394,-0.004424794111400843,-113,-62,-992,-45,32,-4,123,530,9,300000.0
12:40:05.027,AUTO,-35.3631803,149.1656482,23135,0.07233457267284393,-0.05371520668268204,1.3662686347961426,-0.04670106992125511,0.031832996755838394,-0.004424794111400843,-113,-62,-992,-45,32,-4,123,530,9,300000.0
12:40:05.229,AUTO,-35.3631803,149.1656482,23135,0.07233457267284393,-0.05371520668268204,1.3662686347961426,-0.04670106992125511,0.031832996755838394,-0.004424794111400843,-113,-62,-992,-45,32,-4,123,530,9,300000.0
12:40:05.432,AUTO,-35.3631722,149.1656904,23053,0.07342476397752762,-0.016198880970478058,1.365110993385315,-0.1410326361656189,0.0394221730530262,0.006262412294745445,-97,-90,-990,-140,40,6,112,480,10,300000.0
12:40:05.634,AUTO,-35.3631697,149.1657034,23022,0.06062079593539238,-0.004842026624828577,1.365688443183899,-0.6812310218811035,0.05272606760263443,0.003982869442552328,-85,-82,-984,-679,53,3,106,460,13,300000.0
12:40:05.835,AUTO,-35.3631674,149.1657158,22985,0.06405583769083023,0.008261037990450859,1.364553689956665,0.23893913626670837,0.046203240752220154,-0.03582199662923813,-91,-24,-998,241,47,-35,99,438,14,300000.0
12:40:06.037,AUTO,-35.3631674,149.1657158,22985,0.06405583769083023,0.008261037990450859,1.364553689956665,0.23893913626670837,0.046203240752220154,-0.03582199662923813,-91,-24,-998,241,47,-35,99,438,14,300000.0
12:40:06.241,AUTO,-35.3631652,149.1657276,22947,0.07275553047657013,0.023508410900831223,1.3644965887069702,0.7333184480667114,0.06348366290330887,-0.02200285531580448,-83,-18,-1013,734,64,-22,93,414,13,300000.0
12:40:06.443,AUTO,-35.3631631,149.1657387,22913,0.06952134519815445,0.03430776670575142,1.3648349046707153,0.07212585210800171,0.03896180912852287,0.021698541939258575,-80,-63,-999,72,39,21,88,387,11,300000.0
12:40:06.645,AUTO,-35.3631612,149.165749,22882,0.05154067650437355,0.04597565159201622,1.3653432130813599,-0.6930302381515503,0.04740168899297714,0.027014227584004402,-69,-94,-1005,-693,48,26,82,359,11,300000.0
12:40:06.847,AUTO,-35.3631612,149.165749,22882,0.05154067650437355,0.04597565159201622,1.3653432130813599,-0.6930302381515503,0.04740168899297714,0.027014227584004402,-69,-94,-1005,-693,48,26,82,359,11,300000.0
12:40:07.049,AUTO,-35.3631612,149.165749,22882,0.05154067650437355,0.04597565159201622,1.3653432130813599,-0.6930302381515503,0.04740168899297714,0.027014227584004402,-69,-94,-1005,-693,48,26,82,359,11,300000.0
12:40:07.250,AUTO,-35.3631612,149.165749,22882,0.05154067650437355,0.04597565159201622,1.3653432130813599,-0.6930302381515503,0.04740168899297714,0.027014227584004402,-69,-94,-1005,-693,48,26,82,359,11,144261.0
12:40:07.452,AUTO,-35.3631564,149.1657751,22800,0.051971860229969025,0.07062597572803497,1.3634780645370483,0.8055883049964905,-0.00545823760330677,-0.02647799625992775,-63,9,-1014,807,-4,-26,57,268,9,144261.0
12:40:07.654,AUTO,-35.3631551,149.1657822,22772,0.052741508930921555,0.07047300040721893,1.3630903959274292,0.7449730038642883,0.0008123947773128748,-0.012649502605199814,-55,-19,-1037,745,2,-12,51,239,9,144261.0
12:40:07.856,AUTO,-35.363154,149.1657884,22749,0.04400942102074623,0.07331103086471558,1.3629788160324097,-0.09160179644823074,0.017263120040297508,0.01176445558667183,-46,-59,-998,-92,18,11,46,212,9,144261.0
12:40:08.058,AUTO,-35.363153,149.165794,22730,0.02817501872777939,0.07914496213197708,1.3628541231155396,-0.6949051022529602,0.016404971480369568,0.011755670420825481,-36,-61,-1014,-694,17,11,38,184,6,144261.0
12:40:08.260,AUTO,-35.363153,149.165794,22730,0.02817501872777939,0.07914496213197708,1.3628541231155396,-0.6949051022529602,0.016404971480369568,0.011755670420825481,-36,-61,-1014,-694,17,11,38,184,6,144261.0
12:40:08.462,AUTO,-35.3631522,149.1657988,22717,0.016694406047463417,0.08427711576223373,1.362701654434204,-0.44744300842285156,0.005980954505503178,-0.006503929849714041,-32,-38,-1004,-445,7,-6,31,157,6,144261.0
12:40:08.664,AUTO,-35.3631516,149.1658029,22704,0.02583611011505127,0.08012022823095322,1.3616364002227783,0.49880367517471313,-0.029431944712996483,-0.013231512159109116,-24,9,-1013,500,-28,-13,25,131,4,144261.0
12:40:08.866,AUTO,-35.3631516,149.1658029,22704,0.02583611011505127,0.08012022823095322,1.3616364002227783,0.49880367517471313,-0.029431944712996483,-0.013231512159109116,-24,9,-1013,500,-28,-13,25,131,4,144261.0
12:40:09.068,AUTO,-35.3631516,149.1658029,22704,0.02583611011505127,0.08012022823095322,1.3616364002227783,0.49880367517471313,-0.029431944712996483,-0.013231512159109116,-24,9,-1013,500,-28,-13,25,131,4,144261.0
12:40:09.270,AUTO,-35.3631516,149.1658029,22704,0.02583611011505127,0.08012022823095322,1.3616364002227783,0.49880367517471313,-0.029431944712996483,-0.013231512159109116,-24,9,-1013,500,-28,-13,25,131,4,144261.0
12:40:09.472,AUTO,-35.3631506,149.1658115,22679,-0.00490279495716095,0.05823278799653053,1.359666109085083,-0.644152820110321,-0.014662113972008228,-0.0002112730435328558,-14,-33,-1006,-643,-13,0,14,71,3,144261.0
12:40:09.674,AUTO,-35.3631505,149.1658135,22674,-0.005575275048613548,0.05465362221002579,1.3596357107162476,0.10329388082027435,-0.009726472198963165,-0.00426483154296875,-11,7,-1012,105,-8,-4,11,55,2,144261.0
12:40:09.876,AUTO,-35.3631504,149.165815,22674,-0.0003106438380200416,0.051340214908123016,1.359075665473938,0.6485602855682373,-0.008606972172856331,-0.002699219388887286,-7,18,-1009,649,-7,-2,11,40,1,144261.0
12:40:10.078,AUTO,-35.3631504,149.1658161,22674,-0.003410777309909463,0.04717341065406799,1.3587968349456787,0.02902100421488285,-0.018625015392899513,0.0013390762032940984,-5,-21,-1004,29,-17,1,11,27,1,144261.0
12:40:10.280,AUTO,-35.3631504,149.1658161,22674,-0.003410777309909463,0.04717341065406799,1.3587968349456787,0.02902100421488285,-0.018625015392899513,0.0013390762032940984,-5,-21,-1004,29,-17,1,11,27,1,144261.0
12:40:10.481,AUTO,-35.3631504,149.165817,22677,-0.020963013172149658,0.042974524199962616,1.3586536645889282,-0.6000306606292725,-0.016966890543699265,-0.0027542889583855867,-2,-30,-1005,-599,-15,-3,11,16,0,144261.0
12:40:10.684,AUTO,-35.3631505,149.1658176,22680,-0.018047675490379333,0.03867541253566742,1.3584266901016235,0.05477188155055046,-0.011653757654130459,-0.0063188038766384125,-2,16,-996,56,-10,-6,11,6,0,144261.0
12:40:10.886,AUTO,-35.3631505,149.1658176,22680,-0.018047675490379333,0.03867541253566742,1.3584266901016235,0.05477188155055046,-0.011653757654130459,-0.0063188038766384125,-2,16,-996,56,-10,-6,11,6,0,144261.0
12:40:11.088,AUTO,-35.3631505,149.1658176,22680,-0.018047675490379333,0.03867541253566742,1.3584266901016235,0.05477188155055046,-0.011653757654130459,-0.0063188038766384125,-2,16,-996,56,-10,-6,11,6,0,144261.0
12:40:11.290,AUTO,-35.3631505,149.1658176,22680,-0.018047675490379333,0.03867541253566742,1.3584266901016235,0.05477188155055046,-0.011653757654130459,-0.0063188038766384125,-2,16,-996,56,-10,-6,11,6,0,41541.0
12:40:11.492,AUTO,-35.3631507,149.165818,22690,-0.021599017083644867,0.019209371879696846,1.3585705757141113,-0.5545187592506409,-0.029999373480677605,-0.006154567468911409,0,-23,-1006,-554,-28,-6,14,-12,0,41541.0
12:40:11.694,AUTO,-35.3631507,149.1658179,22693,-0.02671484649181366,0.010663103312253952,1.3585925102233887,-0.47196149826049805,-0.03142881765961647,-0.008328193798661232,0,-8,-1000,-470,-30,-8,15,-15,1,41541.0
12:40:11.895,AUTO,-35.3631507,149.1658179,22696,-0.017134012654423714,0.0020455855410546064,1.3579758405685425,0.32423847913742065,-0.028542373329401016,-0.010532893240451813,0,30,-997,325,-27,-10,15,-15,0,41541.0
12:40:12.097,AUTO,-35.3631506,149.1658178,22699,-0.006565786432474852,-0.004293063655495644,1.358030080795288,0.5372809767723083,-0.007474558427929878,-0.008156073279678822,0,18,-1002,537,-6,-8,17,-14,0,41541.0
12:40:12.300,AUTO,-35.3631505,149.1658176,22701,-0.009380706585943699,-0.0037139079067856073,1.3575851917266846,-0.29698312282562256,-0.0036096330732107162,-0.004418878350406885,-2,-24,-992,-297,-2,-4,19,-13,1,41541.0
12:40:12.502,AUTO,-35.3631505,149.1658176,22701,-0.009380706585943699,-0.0037139079067856073,1.3575851917266846,-0.29698312282562256,-0.0036096330732107162,-0.004418878350406885,-2,-24,-992,-297,-2,-4,19,-13,1,41541.0
12:40:12.704,AUTO,-35.3631503,149.1658176,22700,-0.01323075219988823,-0.01161324791610241,1.3571809530258179,-0.5185420513153076,-0.04488470032811165,-0.00690988264977932,-2,-9,-1001,-517,-43,-6,18,-10,0,41541.0
