time_stamp,MODE,lat,lon,relative_alt,roll,pitch,yaw,rollspeed,pitchspeed,yawspeed,xacc,yacc,zacc,xgyro,ygyro,zgyro,vx,vy,vz,RTL_ALT
04:02:24.610,STABILIZE,-35.3632622,149.1652376,11,-0.00013971036241855472,0.0013133541215211153,0.026212994009256363,0.0001529572473373264,0.0002832041645888239,0.002127743326127529,0,1,-1000,0,0,0,-2,2,1,1500.0
04:02:24.811,STABILIZE,-35.3632622,149.1652376,11,-0.00013971036241855472,0.0013133541215211153,0.026212994009256363,0.0001529572473373264,0.0002832041645888239,0.002127743326127529,0,1,-1000,0,0,0,-2,2,1,1500.0
04:02:25.011,STABILIZE,-35.3632622,149.1652376,6,-0.0003287981962785125,0.0012215651804581285,0.02600259892642498,0.0003385563613846898,0.00022509435075335205,0.002040732651948929,0,1,-1000,0,0,0,-1,2,1,1500.0
04:02:25.212,STABILIZE,-35.3632622,149.1652375,5,-0.0003287981962785125,0.0012215651804581285,0.02600259892642498,0.0003385563613846898,0.00022509435075335205,0.002040732651948929,0,1,-1000,0,0,0,-1,2,1,1500.0
04:02:25.413,STABILIZE,-35.3632622,149.1652375,5,-0.0003287981962785125,0.0012215651804581285,0.02600259892642498,0.0003385563613846898,0.00022509435075335205,0.002040732651948929,0,1,-1000,0,0,0,-1,2,1,1500.0
04:02:25.613,STABILIZE,-35.3632622,149.1652375,0,-0.0003287981962785125,0.0012215651804581285,0.02600259892642498,0.0003385563613846898,0.00022509435075335205,0.002040732651948929,0,1,-1000,0,0,0,-1,1,1,1500.0
04:02:25.815,STABILIZE,-35.3632622,149.1652375,0,-0.0003287981962785125,0.0012215651804581285,0.02600259892642498,0.0003385563613846898,0.00022509435075335205,0.002040732651948929,0,1,-1000,0,0,0,-1,1,1,1500.0
04:02:26.016,STABILIZE,-35.3632622,149.1652375,0,-0.0003287981962785125,0.0012215651804581285,0.02600259892642498,0.0003385563613846898,0.00022509435075335205,0.002040732651948929,0,1,-1000,0,0,0,-1,1,1,1500.0
04:02:26.218,STABILIZE,-35.3632622,149.1652375,0,-0.0007297800038941205,0.001050983089953661,0.02546669729053974,0.0003090150421485305,3.5182631108909845e-05,0.001958037493750453,0,1,-1000,0,0,0,-1,1,1,1500.0
04:02:26.419,STABILIZE,-35.3632622,149.1652375,0,-0.0007297800038941205,0.001050983089953661,0.02546669729053974,0.0003090150421485305,3.5182631108909845e-05,0.001958037493750453,0,1,-1000,0,0,0,-1,1,1,1500.0
04:02:26.620,STABILIZE,-35.3632622,149.1652375,0,-0.0007297800038941205,0.001050983089953661,0.02546669729053974,0.0003090150421485305,3.5182631108909845e-05,0.001958037493750453,0,1,-1000,0,0,0,-1,1,1,1500.0
04:02:26.821,STABILIZE,-35.3632622,149.1652375,0,-0.0007297800038941205,0.001050983089953661,0.02546669729053974,0.0003090150421485305,3.5182631108909845e-05,0.001958037493750453,0,1,-1000,0,0,0,-1,1,1,1500.0
04:02:27.022,STABILIZE,-35.3632622,149.1652375,0,-0.0007297800038941205,0.001050983089953661,0.02546669729053974,0.0003090150421485305,3.5182631108909845e-05,0.001958037493750453,0,1,-1000,0,0,0,-1,1,1,1500.0
04:02:27.225,STABILIZE,-35.3632622,149.1652375,0,-0.0007807526853866875,0.0009791122283786535,0.025051115080714226,0.00020522664999589324,0.00035390356788411736,0.001970337238162756,0,1,-1000,0,0,0,-1,1,1,1500.0
04:02:27.427,STABILIZE,-35.3632622,149.1652375,0,-0.0007807526853866875,0.0009791122283786535,0.025051115080714226,0.00020522664999589324,0.00035390356788411736,0.001970337238162756,0,1,-1000,0,0,0,-1,1,1,1500.0
04:02:27.628,STABILIZE,-35.3632622,149.1652375,0,-0.0008060417603701353,0.0009719912777654827,0.024966875091195107,0.00024593237321823835,0.00017981036216951907,0.0020073680207133293,0,1,-1000,0,1,1,-1,1,1,1500.0
04:02:27.829,STABILIZE,-35.3632621,149.1652375,0,-0.0008220815798267722,0.0009710140875540674,0.024876516312360764,0.00027402472915127873,0.00021934491815045476,0.001998169580474496,0,1,-1000,0,1,0,-1,1,1,1500.0
04:02:28.030,STABILIZE,-35.3632621,149.1652375,0,-0.0008220815798267722,0.0009710140875540674,0.024876516312360764,0.00027402472915127873,0.00021934491815045476,0.001998169580474496,0,1,-1000,0,1,0,-1,1,1,1500.0
04:02:28.232,STABILIZE,-35.3632621,149.1652375,0,-0.0008220815798267722,0.0009710140875540674,0.024876516312360764,0.00027402472915127873,0.00021934491815045476,0.001998169580474496,0,1,-1000,0,1,0,-1,1,1,1500.0
04:02:28.433,STABILIZE,-35.3632621,149.1652375,0,-0.0008220815798267722,0.0009710140875540674,0.024876516312360764,0.00027402472915127873,0.00021934491815045476,0.001998169580474496,0,1,-1000,0,1,0,-1,1,1,1500.0
04:02:28.634,STABILIZE,-35.3632621,149.1652375,0,-0.0008220815798267722,0.0009710140875540674,0.024876516312360764,0.00027402472915127873,0.00021934491815045476,0.001998169580474496,0,1,-1000,0,1,0,-1,1,1,1500.0
04:02:28.836,STABILIZE,-35.3632621,149.1652375,0,-0.0008220815798267722,0.0009710140875540674,0.024876516312360764,0.00027402472915127873,0.00021934491815045476,0.001998169580474496,0,1,-1000,0,1,0,-1,1,1,1500.0
04:02:29.037,STABILIZE,-35.3632621,149.1652375,0,-0.0008220815798267722,0.0009710140875540674,0.024876516312360764,0.00027402472915127873,0.00021934491815045476,0.001998169580474496,0,1,-1000,0,1,0,-1,1,1,1500.0
04:02:29.239,STABILIZE,-35.3632621,149.1652375,0,-0.0008220815798267722,0.0009710140875540674,0.024876516312360764,0.00027402472915127873,0.00021934491815045476,0.001998169580474496,0,1,-1000,0,1,0,-1,1,1,1500.0
04:02:29.440,STABILIZE,-35.3632621,149.1652375,0,-0.0008220815798267722,0.0009710140875540674,0.024876516312360764,0.00027402472915127873,0.00021934491815045476,0.001998169580474496,0,1,-1000,0,1,0,-1,1,1,1500.0
04:02:29.641,STABILIZE,-35.3632621,149.1652375,0,-0.0009152687271125615,0.0009248559363186359,0.024275917559862137,0.00022012100089341402,0.00021000223932787776,0.001868271385319531,0,1,-1000,0,0,0,-1,1,1,1500.0
04:02:29.843,STABILIZE,-35.3632621,149.1652375,0,-0.0009233273449353874,0.0009308088920079172,0.024203605949878693,0.0003053763066418469,0.0003446015762165189,0.0019229776225984097,0,1,-1000,0,1,0,-1,1,1,1500.0
04:02:30.044,STABILIZE,-35.3632621,149.1652375,0,-0.0009233273449353874,0.0009308088920079172,0.024203605949878693,0.0003053763066418469,0.0003446015762165189,0.0019229776225984097,0,1,-1000,0,1,0,-1,1,1,1500.0
04:02:30.246,STABILIZE,-35.3632621,149.1652375,0,-0.0009233273449353874,0.0009308088920079172,0.024203605949878693,0.0003053763066418469,0.0003446015762165189,0.0019229776225984097,0,1,-1000,0,1,0,-1,1,1,1500.0
04:02:30.448,STABILIZE,-35.3632621,149.1652375,0,-0.0009233273449353874,0.0009308088920079172,0.024203605949878693,0.0003053763066418469,0.0003446015762165189,0.0019229776225984097,0,1,-1000,0,1,0,-1,1,1,1500.0
04:02:30.649,STABILIZE,-35.3632621,149.1652375,0,-0.0009233273449353874,0.0009308088920079172,0.024203605949878693,0.0003053763066418469,0.0003446015762165189,0.0019229776225984097,0,1,-1000,0,1,0,-1,1,1,1500.0
04:02:30.851,STABILIZE,-35.3632621,149.1652375,0,-0.0009233273449353874,0.0009308088920079172,0.024203605949878693,0.0003053763066418469,0.0003446015762165189,0.0019229776225984097,0,1,-1000,0,1,0,-1,1,1,1500.0
04:02:31.053,STABILIZE,-35.3632621,149.1652375,0,-0.0007244596490636468,0.0009392642532475293,0.023794831708073616,0.0003522199112921953,0.0002136442344635725,0.0017438704380765557,0,1,-1000,0,0,0,-1,0,0,1500.0
04:02:31.254,STABILIZE,-35.3632621,149.1652375,0,-0.0007244596490636468,0.0009392642532475293,0.023794831708073616,0.0003522199112921953,0.0002136442344635725,0.0017438704380765557,0,1,-1000,0,1,0,-1,0,0,1500.0
04:02:31.456,STABILIZE,-35.3632621,149.1652375,0,-0.0007244596490636468,0.0009392642532475293,0.023794831708073616,0.0003522199112921953,0.0002136442344635725,0.0017438704380765557,0,1,-1000,0,1,0,-1,0,0,1500.0
04:02:31.657,STABILIZE,-35.3632621,149.1652375,0,-0.0007244596490636468,0.0009392642532475293,0.023794831708073616,0.0003522199112921953,0.0002136442344635725,0.0017438704380765557,0,1,-1000,0,1,0,-1,0,0,1500.0
04:02:31.858,STABILIZE,-35.3632621,149.1652375,0,-0.0007244596490636468,0.0009392642532475293,0.023794831708073616,0.0003522199112921953,0.0002136442344635725,0.0017438704380765557,0,1,-1000,0,0,0,-1,0,0,1500.0
04:02:32.060,STABILIZE,-35.3632622,149.1652375,0,-0.0007244596490636468,0.0009392642532475293,0.023794831708073616,0.0003522199112921953,0.0002136442344635725,0.0017438704380765557,0,1,-1000,0,0,0,-1,1,0,1500.0
04:02:32.262,STABILIZE,-35.3632621,149.1652375,0,-0.0006461240700446069,0.0009566810913383961,0.023390822112560272,0.00016817462164908648,0.00032941135577857494,0.0017747583333402872,0,1,-1000,0,0,0,-1,1,0,1500.0
04:02:32.463,STABILIZE,-35.3632621,149.1652375,0,-0.0006461240700446069,0.0009566810913383961,0.023390822112560272,0.00016817462164908648,0.00032941135577857494,0.0017747583333402872,0,1,-1000,0,0,0,-1,1,0,1500.0
04:02:32.664,STABILIZE,-35.3632621,149.1652375,0,-0.0006461240700446069,0.0009566810913383961,0.023390822112560272,0.00016817462164908648,0.00032941135577857494,0.0017747583333402872,0,1,-1000,0,0,0,-1,1,0,1500.0
04:02:32.866,STABILIZE,-35.3632621,149.1652375,0,-0.0006461240700446069,0.0009566810913383961,0.023390822112560272,0.00016817462164908648,0.00032941135577857494,0.0017747583333402872,0,1,-1000,0,0,0,-1,1,0,1500.0
04:02:33.067,STABILIZE,-35.3632622,149.1652375,0,-0.0006472596433013678,0.0009568165405653417,0.023131661117076874,0.00021822511916980147,0.00030361401150003076,0.0016064457595348358,0,2,-1000,0,0,0,-1,1,0,1500.0
04:02:33.268,STABILIZE,-35.3632622,149.1652375,0,-0.0006472596433013678,0.0009568165405653417,0.023131661117076874,0.00021822511916980147,0.00030361401150003076,0.0016064457595348358,0,2,-1000,0,0,0,-1,1,0,1500.0
04:02:33.470,STABILIZE,-35.3632622,149.1652375,0,-0.0006472596433013678,0.0009568165405653417,0.023131661117076874,0.00021822511916980147,0.00030361401150003076,0.0016064457595348358,0,2,-1000,0,0,0,-1,1,0,1500.0
04:02:33.671,STABILIZE,-35.3632622,149.1652375,0,-0.0006804012809880078,0.0009647926199249923,0.022960219532251358,0.000280469364952296,0.00022661307593807578,0.0016336545813828707,0,2,-1000,0,0,0,-1,1,0,1500.0
04:02:33.872,STABILIZE,-35.3632622,149.1652375,0,-0.0006927953218109906,0.0009585840743966401,0.022880002856254578,0.00025712454225867987,0.00023553502978757024,0.0015940628945827484,0,2,-1000,0,0,0,-1,1,0,1500.0
04:02:34.074,STABILIZE,-35.3632622,149.1652375,0,-0.0006927953218109906,0.0009585840743966401,0.022880002856254578,0.00025712454225867987,0.00023553502978757024,0.0015940628945827484,0,2,-1000,0,0,0,-1,1,0,1500.0
04:02:34.276,STABILIZE,-35.3632622,149.1652376,0,-0.00044890932622365654,0.0009651121217757463,0.022712942212820053,0.0002594966208562255,0.00019558158237487078,0.0016504134982824326,0,1,-1000,0,0,0,-1,3,3,1500.0
04:02:34.477,STABILIZE,-35.3632622,149.1652376,0,-0.00044890932622365654,0.0009651121217757463,0.022712942212820053,0.0002594966208562255,0.00019558158237487078,0.0016504134982824326,0,1,-1000,0,0,0,-1,3,3,1500.0
04:02:34.687,STABILIZE,-35.3632622,149.1652376,0,-0.00044890932622365654,0.0009651121217757463,0.022712942212820053,0.0002594966208562255,0.00019558158237487078,0.0016504134982824326,0,1,-1000,0,0,0,-1,3,3,1500.0
04:02:34.897,STABILIZE,-35.3632622,149.1652376,0,-0.00044890932622365654,0.0009651121217757463,0.022712942212820053,0.0002594966208562255,0.00019558158237487078,0.0016504134982824326,0,1,-1000,0,0,0,-1,3,3,1500.0
04:02:35.098,STABILIZE,-35.3632622,149.1652376,0,-0.00044890932622365654,0.0009651121217757463,0.022712942212820053,0.0002594966208562255,0.00019558158237487078,0.0016504134982824326,0,1,-1000,0,0,0,-1,3,3,1500.0
04:02:35.299,STABILIZE,-35.3632622,149.1652376,0,-0.000767657533288002,0.0009575851145200431,0.02240295149385929,0.00038024544483050704,0.00031703768763691187,0.0016806720523163676,0,1,-1000,0,0,0,-1,3,3,1500.0
04:02:35.501,STABILIZE,-35.3632622,149.1652376,0,-0.0008404849213548005,0.000951035472098738,0.02233261428773403,0.00029033079044893384,0.00027738790959119797,0.001577570103108883,0,1,-1000,0,0,0,-1,3,3,1500.0
04:02:35.702,STABILIZE,-35.3632622,149.1652376,0,-0.0008404849213548005,0.000951035472098738,0.02233261428773403,0.00029033079044893384,0.00027738790959119797,0.001577570103108883,0,1,-1000,0,0,0,-1,3,3,1500.0
04:02:35.903,STABILIZE,-35.3632622,149.1652376,0,-0.0008404849213548005,0.000951035472098738,0.02233261428773403,0.00029033079044893384,0.00027738790959119797,0.001577570103108883,0,1,-1000,0,0,0,-1,3,3,1500.0
04:02:36.105,STABILIZE,-35.3632622,149.1652376,0,-0.0008404849213548005,0.000951035472098738,0.02233261428773403,0.00029033079044893384,0.00027738790959119797,0.001577570103108883,0,1,-1000,0,0,0,-1,2,1,1500.0
04:02:36.306,STABILIZE,-35.3632622,149.1652375,0,-0.0009960544994100928,0.0009524728520773351,0.022138403728604317,0.00026908458676189184,0.00026477337814867496,0.00159954815171659,0,1,-1000,0,1,0,-1,2,1,1500.0
04:02:36.507,STABILIZE,-35.3632622,149.1652375,0,-0.0009960544994100928,0.0009524728520773351,0.022138403728604317,0.00026908458676189184,0.00026477337814867496,0.00159954815171659,0,1,-1000,0,1,0,-1,2,1,1500.0
04:02:36.708,STABILIZE,-35.3632622,149.1652375,0,-0.0009960544994100928,0.0009524728520773351,0.022138403728604317,0.00026908458676189184,0.00026477337814867496,0.00159954815171659,0,1,-1000,0,1,0,-1,2,1,1500.0
04:02:36.909,STABILIZE,-35.3632622,149.1652375,0,-0.0009960544994100928,0.0009524728520773351,0.022138403728604317,0.00026908458676189184,0.00026477337814867496,0.00159954815171659,0,1,-1000,0,1,0,-1,2,1,1500.0
04:02:37.111,STABILIZE,-35.3632622,149.1652375,0,-0.0011107419850304723,0.0009713465697132051,0.021969562396407127,0.00023802887881174684,0.00025466090301051736,0.0015992572298273444,0,2,-1000,0,0,1,-1,1,1,1500.0
04:02:37.312,STABILIZE,-35.3632622,149.1652375,0,-0.0011107419850304723,0.0009713465697132051,0.021969562396407127,0.00023802887881174684,0.00025466090301051736,0.0015992572298273444,0,2,-1000,0,0,0,-1,1,1,1500.0
04:02:37.513,STABILIZE,-35.3632622,149.1652375,0,-0.0008573777740821242,0.0009817713871598244,0.021870240569114685,0.00031103461515158415,0.00022213277406990528,0.001529359957203269,0,1,-1000,0,1,0,-1,1,1,1500.0
04:02:37.715,STABILIZE,-35.3632622,149.1652375,0,-0.0008573777740821242,0.0009817713871598244,0.021870240569114685,0.00031103461515158415,0.00022213277406990528,0.001529359957203269,0,1,-1000,0,1,0,-1,1,1,1500.0
04:02:37.916,STABILIZE,-35.3632622,149.1652375,0,-0.0009009320056065917,0.000975448579993099,0.021818578243255615,0.00030826160218566656,0.000298160535749048,0.0014218920841813087,0,1,-1000,0,0,0,-1,1,1,1500.0
04:02:38.117,STABILIZE,-35.3632622,149.1652375,0,-0.0009343723650090396,0.0009737851214595139,0.021766001358628273,0.00023359432816505432,0.0001760431914590299,0.0014630836667492986,0,1,-1000,0,0,0,-1,1,1,1500.0
04:02:38.319,STABILIZE,-35.3632622,149.1652375,0,-0.0009717350476421416,0.0009749805321916938,0.02171671763062477,0.00018617097521200776,0.00025165016995742917,0.0014339311746880412,0,1,-1000,0,0,1,-1,1,1,1500.0
04:02:38.521,STABILIZE,-35.3632622,149.1652375,0,-0.0009717350476421416,0.0009749805321916938,0.02171671763062477,0.00018617097521200776,0.00025165016995742917,0.0014339311746880412,0,1,-1000,0,0,1,-1,1,1,1500.0
04:02:38.722,STABILIZE,-35.3632622,149.1652375,0,-0.0009717350476421416,0.0009749805321916938,0.02171671763062477,0.00018617097521200776,0.00025165016995742917,0.0014339311746880412,0,1,-1000,0,0,1,-1,1,1,1500.0
04:02:38.924,STABILIZE,-35.3632622,149.1652375,0,-0.0009717350476421416,0.0009749805321916938,0.02171671763062477,0.00018617097521200776,0.00025165016995742917,0.0014339311746880412,0,1,-1000,0,0,1,-1,1,1,1500.0
04:02:39.125,STABILIZE,-35.3632622,149.1652375,0,-0.0009717350476421416,0.0009749805321916938,0.02171671763062477,0.00018617097521200776,0.00025165016995742917,0.0014339311746880412,0,1,-1000,0,0,1,-1,1,1,1500.0
04:02:39.326,STABILIZE,-35.3632622,149.1652375,0,-0.0010584554402157664,0.001001090626232326,0.0215295497328043,0.00026408268604427576,0.0003853751695714891,0.0015850439667701721,0,1,-1000,0,0,1,-1,1,1,1500.0
04:02:39.528,AUTO,-35.3632622,149.1652375,0,-0.001079609734006226,0.0010010566329583526,0.021481825038790703,0.00032621598802506924,0.00022159283980727196,0.001461513340473175,0,1,-1000,0,1,1,-1,1,0,1500.0
04:02:39.730,AUTO,-35.3632622,149.1652375,6,-0.0010998756624758244,0.0009991367114707828,0.021430324763059616,0.00025982188526540995,0.00030921667348593473,0.0014636833220720291,0,1,-1000,1,0,0,-1,1,0,1500.0
04:02:39.931,AUTO,-35.3632622,149.1652375,6,-0.0010998756624758244,0.0009991367114707828,0.021430324763059616,0.00025982188526540995,0.00030921667348593473,0.0014636833220720291,0,1,-1000,1,0,0,-1,1,0,1500.0
04:02:40.133,AUTO,-35.3632622,149.1652375,5,-0.0011104982113465667,0.0010071885772049427,0.02140105701982975,0.00024101760936900973,0.00021896744146943092,0.0015057164710015059,0,1,-1000,1,0,1,-1,1,0,1500.0
04:02:40.335,AUTO,-35.3632622,149.1652375,5,-0.0011171792866662145,0.0010125474072992802,0.021348584443330765,0.0002822300884872675,0.00018877594266086817,0.0013634015340358019,0,2,-1000,0,1,0,-1,0,0,1500.0
04:02:40.536,AUTO,-35.3632622,149.1652375,5,-0.0011171792866662145,0.0010125474072992802,0.021348584443330765,0.0002822300884872675,0.00018877594266086817,0.0013634015340358019,0,2,-1000,0,1,0,-1,0,0,1500.0
04:02:40.738,AUTO,-35.3632622,149.1652375,5,-0.0011171792866662145,0.0010125474072992802,0.021348584443330765,0.0002822300884872675,0.00018877594266086817,0.0013634015340358019,0,2,-1000,0,1,0,-1,0,0,1500.0
04:02:40.940,AUTO,-35.3632622,149.1652375,5,-0.0011171792866662145,0.0010125474072992802,0.021348584443330765,0.0002822300884872675,0.00018877594266086817,0.0013634015340358019,0,2,-1000,0,1,0,-1,0,0,1500.0
04:02:41.142,AUTO,-35.3632621,149.1652375,1,-0.0007425556541420519,0.0010925706010311842,0.02123171091079712,0.00026035436894744635,0.0002501941053196788,0.0013707902980968356,0,1,-1000,1,0,0,0,1,1,69038.0
04:02:41.343,AUTO,-35.3632621,149.1652375,0,-0.0007067776750773191,0.001146237482316792,0.02117951400578022,0.00023460463853552938,0.0002089637564495206,0.0015331828035414219,0,1,-1000,0,1,0,0,0,1,69038.0
04:02:41.544,AUTO,-35.3632621,149.1652375,0,-0.0006728577427566051,0.0012100072344765067,0.02113417163491249,0.00024292460875585675,0.00026187062030658126,0.0013666979502886534,0,1,-1000,0,1,1,0,0,1,69038.0
04:02:41.746,AUTO,-35.3632621,149.1652375,0,-0.000626223161816597,0.001274238107725978,0.02107490599155426,0.00024528318317607045,0.0002863135887309909,0.0013704648008570075,0,1,-1000,1,1,1,0,0,1,69038.0
04:02:41.947,AUTO,-35.3632621,149.1652375,0,-0.000626223161816597,0.001274238107725978,0.02107490599155426,0.00024528318317607045,0.0002863135887309909,0.0013704648008570075,0,1,-1000,1,1,1,0,0,1,69038.0
04:02:42.148,AUTO,-35.3632621,149.1652375,0,-0.0005767860566265881,0.001340621616691351,0.02101808227598667,0.00027484813472256064,0.000379128847271204,0.0013895148877054453,0,2,-1000,1,1,0,0,0,1,69038.0
04:02:42.351,AUTO,-35.3632621,149.1652375,0,-0.0005264930077828467,0.001412531710229814,0.02096712216734886,0.00025797373382374644,0.0002463985001668334,0.0014135597739368677,0,2,-1000,1,1,1,0,0,1,69038.0
04:02:42.553,AUTO,-35.3632621,149.1652375,0,-0.0005264930077828467,0.001412531710229814,0.02096712216734886,0.00025797373382374644,0.0002463985001668334,0.0014135597739368677,0,2,-1000,1,1,1,0,0,1,69038.0
04:02:42.755,AUTO,-35.3632621,149.1652375,0,-0.0005264930077828467,0.001412531710229814,0.02096712216734886,0.00025797373382374644,0.0002463985001668334,0.0014135597739368677,0,2,-1000,1,1,1,0,0,1,69038.0
04:02:42.957,AUTO,-35.3632621,149.1652375,0,-0.0005264930077828467,0.001412531710229814,0.02096712216734886,0.00025797373382374644,0.0002463985001668334,0.0014135597739368677,0,2,-1000,1,1,1,0,0,1,69038.0
04:02:43.158,AUTO,-35.3632621,149.1652374,0,-0.0003438273852225393,0.0016299509443342686,0.020778588950634003,0.0003684005350805819,0.00027432997012510896,0.0013865882065147161,0,2,-1000,0,1,0,0,0,0,69038.0
04:02:43.360,AUTO,-35.3632621,149.1652374,1,-0.00027396317454986274,0.0017083479324355721,0.02072494849562645,0.0003262452082708478,0.0003061742172576487,0.0013220286928117275,0,1,-1000,1,0,1,0,0,0,69038.0
04:02:43.562,AUTO,-35.3632621,149.1652374,3,0.000985663733445108,0.0011848525609821081,0.020708933472633362,0.008401002734899521,-0.0113758509978652,0.0030414354987442493,0,0,-1081,8,-10,2,0,0,-4,69038.0
04:02:43.765,AUTO,-35.3632621,149.1652374,57,0.004391700029373169,-0.0005795061006210744,0.020742202177643776,0.010583817958831787,-0.0009567839442752302,0.0014153753872960806,0,0,-1140,11,0,0,0,0,-37,69038.0
04:02:43.966,AUTO,-35.3632621,149.1652374,57,0.004391700029373169,-0.0005795061006210744,0.020742202177643776,0.010583817958831787,-0.0009567839442752302,0.0014153753872960806,0,0,-1140,11,0,0,0,0,-37,69038.0
04:02:44.168,AUTO,-35.3632621,149.1652375,196,0.003616333706304431,0.0002848735894076526,0.020597117021679878,-0.0005077060777693987,0.005681059323251247,0.0022353725507855415,0,0,-1129,0,6,1,0,0,-70,69038.0
04:02:44.371,AUTO,-35.3632621,149.1652375,415,0.0020592801738530397,0.0011838003993034363,0.02057412825524807,-0.011187002062797546,0.0016699591651558876,0.0005975980893708766,0,0,-1107,-10,2,0,0,1,-100,69038.0
04:02:44.587,AUTO,-35.3632621,149.1652375,415,0.0020592801738530397,0.0011838003993034363,0.02057412825524807,-0.011187002062797546,0.0016699591651558876,0.0005975980893708766,0,0,-1107,-10,2,0,0,1,-100,69038.0
04:02:44.789,AUTO,-35.3632621,149.1652375,415,0.0020592801738530397,0.0011838003993034363,0.02057412825524807,-0.011187002062797546,0.0016699591651558876,0.0005975980893708766,0,0,-1107,-10,2,0,0,1,-100,69038.0
04:02:44.990,AUTO,-35.3632621,149.1652375,1395,0.021627716720104218,-0.0007378577720373869,0.020000513643026352,0.04681563377380371,-0.007234485819935799,0.0019575313199311495,0,0,-1018,47,-6,1,0,5,-144,69038.0
04:02:45.192,AUTO,-35.3632621,149.1652375,1395,0.021627716720104218,-0.0007378577720373869,0.020000513643026352,0.04681563377380371,-0.007234485819935799,0.0019575313199311495,0,0,-1018,47,-6,1,0,5,-144,200.0
04:02:45.393,AUTO,-35.363262,149.1652377,1774,0.03302784636616707,-0.002680479548871517,0.020088836550712585,0.04505176097154617,-0.007936022244393826,0.002614503726363182,0,-1,-1007,45,-7,2,1,11,-147,200.0
04:02:45.595,AUTO,-35.3632619,149.1652381,2159,0.04389188438653946,-0.004923418629914522,0.020284036174416542,0.04297735169529915,-0.009390542283654213,0.003356445115059614,0,-2,-1002,43,-8,2,3,19,-148,200.0
04:02:45.797,AUTO,-35.3632618,149.1652388,2545,0.054046615958213806,-0.007547082379460335,0.020582467317581177,0.038605667650699615,-0.011113172397017479,0.0034868307411670685,1,-4,-1000,39,-10,3,5,30,-149,200.0
04:02:45.999,AUTO,-35.3632616,149.1652397,2931,0.06205316632986069,-0.009736071340739727,-0.007275490090250969,0.0006385192973539233,0.009572555311024189,-0.03756941109895706,0,-9,-993,1,10,-37,8,42,-148,200.0
04:02:46.200,AUTO,-35.3632616,149.1652397,2931,0.06205316632986069,-0.009736071340739727,-0.007275490090250969,0.0006385192973539233,0.009572555311024189,-0.03756941109895706,0,-9,-993,1,10,-37,8,42,-148,200.0
04:02:46.402,AUTO,-35.3632614,149.165241,3313,0.043707381933927536,0.010725942440330982,-0.028395546600222588,-0.1342967003583908,0.10558678209781647,-0.10415994375944138,2,-11,-990,-133,106,-104,10,52,-146,200.0
04:02:46.604,AUTO,-35.3632614,149.165241,3313,0.043707381933927536,0.010725942440330982,-0.028395546600222588,-0.1342967003583908,0.10558678209781647,-0.10415994375944138,2,-11,-990,-133,106,-104,10,52,-146,200.0
04:02:46.807,AUTO,-35.3632614,149.165241,3313,0.043707381933927536,0.010725942440330982,-0.028395546600222588,-0.1342967003583908,0.10558678209781647,-0.10415994375944138,2,-11,-990,-133,106,-104,10,52,-146,200.0
04:02:47.010,AUTO,-35.3632609,149.165245,4451,-0.036397818475961685,0.025454634800553322,-0.086821049451828,-0.019859042018651962,-0.0015227620024234056,-0.069395050406456,5,-7,-1007,-19,0,-69,-2,36,-149,200.0
04:02:47.212,AUTO,-35.3632609,149.165245,4451,-0.036397818475961685,0.025454634800553322,-0.086821049451828,-0.019859042018651962,-0.0015227620024234056,-0.069395050406456,5,-7,-1007,-19,0,-69,-2,36,-149,200.0
04:02:47.414,AUTO,-35.3632609,149.1652458,4845,-0.04440492019057274,0.01912587694823742,-0.09708783775568008,-0.045788854360580444,-0.048932742327451706,-0.014828860759735107,4,-6,-1000,-45,-48,-15,-6,24,-150,200.0
04:02:47.616,AUTO,-35.3632611,149.1652463,5230,-0.05916529893875122,0.002152143744751811,-0.09391891211271286,-0.06682074815034866,-0.0806097686290741,0.030120979994535446,4,-2,-999,-65,-79,29,-9,10,-149,200.0
04:02:47.818,AUTO,-35.3632613,149.1652464,5615,-0.0733669325709343,-0.015790285542607307,-0.0845007672905922,-0.021427752450108528,-0.044656962156295776,0.016746653243899345,1,0,-1004,-20,-44,16,-7,-6,-149,200.0
04:02:48.020,AUTO,-35.3632614,149.165246,5999,-0.06894819438457489,-0.01815134286880493,-0.08389821648597717,0.03781091794371605,0.0035129839088767767,0.0022809593938291073,0,3,-1002,38,4,1,-3,-24,-149,200.0
04:02:48.222,AUTO,-35.3632614,149.165246,5999,-0.06894819438457489,-0.01815134286880493,-0.08389821648597717,0.03781091794371605,0.0035129839088767767,0.0022809593938291073,0,3,-1002,38,4,1,-3,-24,-149,200.0
04:02:48.424,AUTO,-35.3632615,149.1652452,6383,-0.05694865807890892,-0.01707243174314499,-0.08451612293720245,0.05497623607516289,0.0029562856070697308,0.004128831904381514,-3,7,-1001,55,3,3,-1,-39,-149,200.0
04:02:48.626,AUTO,-35.3632615,149.1652452,6383,-0.05694865807890892,-0.01707243174314499,-0.08451612293720245,0.05497623607516289,0.0029562856070697308,0.004128831904381514,-3,7,-1001,55,3,3,-1,-39,-149,200.0
04:02:48.828,AUTO,-35.3632615,149.1652452,6383,-0.05694865807890892,-0.01707243174314499,-0.08451612293720245,0.05497623607516289,0.0029562856070697308,0.004128831904381514,-3,7,-1001,55,3,3,-1,-39,-149,200.0
04:02:49.030,AUTO,-35.3632614,149.1652409,7539,-0.011420727707445621,-0.009836385026574135,-0.08373633772134781,0.06495098769664764,0.01570555940270424,0.004598570521920919,-8,10,-1003,65,16,4,3,-59,-151,200.0
04:02:49.234,AUTO,-35.3632614,149.1652392,7926,0.004698452539741993,-0.005637067370116711,-0.08313694596290588,0.06479272991418839,0.017429199069738388,0.004642556421458721,-8,11,-1003,65,18,4,3,-58,-151,17836.0
04:02:49.436,AUTO,-35.3632614,149.1652392,7926,0.004698452539741993,-0.005637067370116711,-0.08313694596290588,0.06479272991418839,0.017429199069738388,0.004642556421458721,-8,11,-1003,65,18,4,3,-58,-151,17836.0
04:02:49.637,AUTO,-35.3632614,149.1652377,8317,0.020795192569494247,-0.001307830447331071,-0.08227582275867462,0.06517700850963593,0.016969718039035797,0.004617847036570311,-8,7,-1004,65,17,4,3,-53,-152,17836.0
04:02:49.840,AUTO,-35.3632613,149.1652363,8709,0.03665902093052864,0.002692204900085926,-0.081336110830307,0.062114037573337555,0.014936970546841621,0.004651094786822796,-7,10,-1003,62,15,4,2,-44,-153,17836.0
04:02:50.042,AUTO,-35.3632613,149.1652351,9103,0.05091049522161484,0.0066119530238211155,-0.08136988431215286,0.04560881480574608,0.022679883986711502,-0.008857635781168938,-6,8,-1001,46,23,-9,1,-32,-154,17836.0
04:02:50.244,AUTO,-35.3632613,149.1652344,9500,0.05761926248669624,0.016628338024020195,-0.08790482580661774,0.016983017325401306,0.047514352947473526,-0.038826506584882736,-4,6,-999,17,48,-38,-1,-17,-153,17836.0
04:02:50.446,AUTO,-35.3632613,149.1652344,9500,0.05761926248669624,0.016628338024020195,-0.08790482580661774,0.016983017325401306,0.047514352947473526,-0.038826506584882736,-4,6,-999,17,48,-38,-1,-17,-153,17836.0
04:02:50.648,AUTO,-35.3632613,149.1652344,9500,0.05761926248669624,0.016628338024020195,-0.08790482580661774,0.016983017325401306,0.047514352947473526,-0.038826506584882736,-4,6,-999,17,48,-38,-1,-17,-153,17836.0
04:02:50.850,AUTO,-35.3632613,149.1652344,9500,0.05761926248669624,0.016628338024020195,-0.08790482580661774,0.016983017325401306,0.047514352947473526,-0.038826506584882736,-4,6,-999,17,48,-38,-1,-17,-153,17836.0
04:02:51.053,AUTO,-35.3632617,149.1652344,10659,0.028536148369312286,0.014447071589529514,-0.09912567585706711,-0.07457572966814041,-0.04434109106659889,0.014084993861615658,3,-1,-998,-74,-43,13,-13,19,-149,17836.0
04:02:51.256,AUTO,-35.363262,149.1652348,11042,0.011361743323504925,0.004596703220158815,-0.09646444022655487,-0.06279478222131729,-0.031576115638017654,0.012341562658548355,5,0,-1001,-62,-30,12,-13,22,-150,17836.0
04:02:51.458,AUTO,-35.363262,149.1652348,11042,0.011361743323504925,0.004596703220158815,-0.09646444022655487,-0.06279478222131729,-0.031576115638017654,0.012341562658548355,5,0,-1001,-62,-30,12,-13,22,-150,17836.0
04:02:51.659,AUTO,-35.3632622,149.1652354,11426,-0.001414567232131958,-0.0020409678108990192,-0.09507615864276886,-0.03825819119811058,-0.02234637923538685,0.004235600586980581,5,-2,-1003,-37,-21,3,-11,21,-150,17836.0
04:02:51.861,AUTO,-35.3632624,149.1652359,11811,-0.010183076374232769,-0.0061922078020870686,-0.09554367512464523,-0.025103392079472542,-0.01281757839024067,-0.004826136399060488,4,-2,-1003,-24,-12,-5,-9,18,-151,17836.0
04:02:52.062,AUTO,-35.3632626,149.1652363,12199,-0.014143853448331356,-0.008638234809041023,-0.09787748754024506,-0.011226105503737926,-0.005632273852825165,-0.013282488100230694,3,-1,-1002,-10,-4,-13,-6,14,-152,17836.0
04:02:52.264,AUTO,-35.3632627,149.1652366,12587,-0.014893941581249237,-0.009277207776904106,-0.10207173973321915,0.002832614816725254,-0.00021483917953446507,-0.019036773592233658,2,-1,-1002,3,0,-19,-3,9,-152,17836.0
04:02:52.466,AUTO,-35.3632627,149.1652366,12587,-0.014893941581249237,-0.009277207776904106,-0.10207173973321915,0.002832614816725254,-0.00021483917953446507,-0.019036773592233658,2,-1,-1002,3,0,-19,-3,9,-152,17836.0
04:02:52.669,AUTO,-35.3632627,149.1652366,12587,-0.014893941581249237,-0.009277207776904106,-0.10207173973321915,0.002832614816725254,-0.00021483917953446507,-0.019036773592233658,2,-1,-1002,3,0,-19,-3,9,-152,17836.0
04:02:52.870,AUTO,-35.3632627,149.1652366,12587,-0.014893941581249237,-0.009277207776904106,-0.10207173973321915,0.002832614816725254,-0.00021483917953446507,-0.019036773592233658,2,-1,-1002,3,0,-19,-3,9,-152,17836.0
04:02:53.072,AUTO,-35.3632626,149.1652368,13754,-0.0075775678269565105,-0.006254659965634346,-0.1203792616724968,0.012761539779603481,0.007738680113106966,-0.02422799915075302,0,0,-1000,13,8,-24,3,-2,-153,17836.0
04:02:53.273,AUTO,-35.3632626,149.1652368,14148,-0.004113140981644392,-0.004204843658953905,-0.1270418018102646,0.015006756410002708,0.008627924136817455,-0.02477162703871727,-2,0,-1000,15,9,-25,4,-5,-153,88352.0
04:02:53.475,AUTO,-35.3632626,149.1652368,14148,-0.004113140981644392,-0.004204843658953905,-0.1270418018102646,0.015006756410002708,0.008627924136817455,-0.02477162703871727,-2,0,-1000,15,9,-25,4,-5,-153,88352.0
04:02:53.676,AUTO,-35.3632625,149.1652366,14537,-0.0005532033974304795,-0.001824841252528131,-0.13374346494674683,0.014129851013422012,0.010773563757538795,-0.027612879872322083,-2,0,-1000,14,11,-27,5,-6,-153,88352.0
04:02:53.878,AUTO,-35.3632623,149.1652364,14928,0.0026596556417644024,0.0005307035171426833,-0.13999921083450317,0.0123025206848979,0.008374215103685856,-0.022911977022886276,-2,0,-1000,13,8,-23,5,-6,-153,88352.0
04:02:54.081,AUTO,-35.3632622,149.1652362,15319,0.005459333769977093,0.00243395590223372,-0.14567770063877106,0.012075116857886314,0.008089384995400906,-0.021595194935798645,-2,0,-1000,13,8,-21,5,-6,-153,88352.0
04:02:54.283,AUTO,-35.3632621,149.165236,15708,0.007478312123566866,0.004225040785968304,-0.1509561389684677,0.007056102156639099,0.0074259331449866295,-0.020180385559797287,-2,0,-1000,7,8,-20,4,-5,-153,88352.0
04:02:54.495,AUTO,-35.3632621,149.165236,15708,0.007478312123566866,0.004225040785968304,-0.1509561389684677,0.007056102156639099,0.0074259331449866295,-0.020180385559797287,-2,0,-1000,7,8,-20,4,-5,-153,88352.0
04:02:54.700,AUTO,-35.3632621,149.165236,15708,0.007478312123566866,0.004225040785968304,-0.1509561389684677,0.007056102156639099,0.0074259331449866295,-0.020180385559797287,-2,0,-1000,7,8,-20,4,-5,-153,88352.0
04:02:54.901,AUTO,-35.3632621,149.165236,15708,0.007478312123566866,0.004225040785968304,-0.1509561389684677,0.007056102156639099,0.0074259331449866295,-0.020180385559797287,-2,0,-1000,7,8,-20,4,-5,-153,88352.0
04:02:55.103,AUTO,-35.3632617,149.1652356,16874,0.009465189650654793,0.007310817018151283,-0.16424094140529633,-0.00011280481703579426,0.002087769564241171,-0.013013901188969612,-1,0,-1000,0,2,-13,1,0,-153,88352.0
04:02:55.305,AUTO,-35.3632617,149.1652356,17264,0.009041656740009785,0.007279057987034321,-0.1676924228668213,-0.003106035990640521,-0.0008916711085475981,-0.011464049108326435,-1,0,-999,-2,0,-11,0,1,-153,88352.0
04:02:55.507,AUTO,-35.3632616,149.1652356,17652,0.008119369857013226,0.007282079663127661,-0.1712869256734848,-0.0017356851603835821,0.0009611546411179006,-0.014708706177771091,0,0,-1000,0,1,-14,0,3,-153,88352.0
04:02:55.708,AUTO,-35.3632616,149.1652356,17652,0.008119369857013226,0.007282079663127661,-0.1712869256734848,-0.0017356851603835821,0.0009611546411179006,-0.014708706177771091,0,0,-1000,0,1,-14,0,3,-153,88352.0
04:02:55.910,AUTO,-35.3632616,149.1652356,18041,0.00719692325219512,0.007059255614876747,-0.17463523149490356,-0.0024751820601522923,-0.002265398623421788,-0.010812376625835896,0,0,-1000,-1,-1,-10,-1,4,-153,88352.0
04:02:56.112,AUTO,-35.3632616,149.1652356,18431,0.0061612725257873535,0.0064138551242649555,-0.17795009911060333,-0.0037506669759750366,-0.0004916967591270804,-0.014542807824909687,0,0,-1000,-3,0,-14,-1,5,-153,88352.0
04:02:56.314,AUTO,-35.3632616,149.1652357,18825,0.005215077195316553,0.0060049244202673435,-0.18144609034061432,-0.001177328173071146,-0.0010390186216682196,-0.012715433724224567,0,0,-1000,0,0,-13,-2,5,-153,88352.0
04:02:56.515,AUTO,-35.3632616,149.1652357,18825,0.005215077195316553,0.0060049244202673435,-0.18144609034061432,-0.001177328173071146,-0.0010390186216682196,-0.012715433724224567,0,0,-1000,0,0,-13,-2,5,-153,88352.0
04:02:56.717,AUTO,-35.3632616,149.1652357,18825,0.005215077195316553,0.0060049244202673435,-0.18144609034061432,-0.001177328173071146,-0.0010390186216682196,-0.012715433724224567,0,0,-1000,0,0,-13,-2,5,-153,88352.0
04:02:56.919,AUTO,-35.3632616,149.1652357,18825,0.005215077195316553,0.0060049244202673435,-0.18144609034061432,-0.001177328173071146,-0.0010390186216682196,-0.012715433724224567,0,0,-1000,0,0,-13,-2,5,-153,88352.0
04:02:57.125,AUTO,-35.3632616,149.165236,19989,0.003163785906508565,0.004563978407531977,-0.19291530549526215,-0.00019574712496250868,1.626031007617712e-06,-0.0160104688256979,0,0,-1000,0,0,-16,-3,6,-153,88352.0
04:02:57.328,AUTO,-35.3632616,149.1652361,20378,0.0024952939711511135,0.004125114530324936,-0.197007954120636,-0.0014389073476195335,-0.0015593841671943665,-0.014060872606933117,0,0,-1000,0,0,-14,-3,6,-153,257044.0
04:02:57.529,AUTO,-35.3632616,149.1652362,20767,0.002055724849924445,0.003893844084814191,-0.20152415335178375,-0.0017309596296399832,0.0001252185320481658,-0.018938962370157242,0,0,-1000,0,0,-19,-3,5,-153,257044.0
04:02:57.731,AUTO,-35.3632616,149.1652363,21157,0.0015731315361335874,0.0037102028727531433,-0.20622757077217102,0.0014516094233840704,0.000456756679341197,-0.02049793116748333,0,0,-1000,2,1,-20,-3,5,-153,257044.0
04:02:57.933,AUTO,-35.3632616,149.1652363,21157,0.0015731315361335874,0.0037102028727531433,-0.20622757077217102,0.0014516094233840704,0.000456756679341197,-0.02049793116748333,0,0,-1000,2,1,-20,-3,5,-153,257044.0
04:02:58.134,AUTO,-35.3632616,149.1652364,21546,0.001641400158405304,0.0034369982313364744,-0.21088159084320068,0.0020907071884721518,-0.000883432396221906,-0.019253943115472794,0,0,-1000,3,0,-19,-3,4,-153,257044.0
04:02:58.336,AUTO,-35.3632617,149.1652364,21936,0.0016406240174546838,0.0030481305439025164,-0.2154707908630371,-5.643873009830713e-05,-0.0009972047992050648,-0.017222844064235687,0,0,-1000,0,0,-17,-3,4,-153,257044.0
04:02:58.538,AUTO,-35.3632617,149.1652364,21936,0.0016406240174546838,0.0030481305439025164,-0.2154707908630371,-5.643873009830713e-05,-0.0009972047992050648,-0.017222844064235687,0,0,-1000,0,0,-17,-3,4,-153,257044.0
04:02:58.740,AUTO,-35.3632617,149.1652364,21936,0.0016406240174546838,0.0030481305439025164,-0.2154707908630371,-5.643873009830713e-05,-0.0009972047992050648,-0.017222844064235687,0,0,-1000,0,0,-17,-3,4,-153,257044.0
04:02:58.941,AUTO,-35.3632617,149.1652364,21936,0.0016406240174546838,0.0030481305439025164,-0.2154707908630371,-5.643873009830713e-05,-0.0009972047992050648,-0.017222844064235687,0,0,-1000,0,0,-17,-3,4,-153,257044.0
04:02:59.143,AUTO,-35.3632617,149.1652366,23105,0.0016235894290730357,0.0026127181481570005,-0.22990496456623077,0.0008243518532253802,0.0006724357372149825,-0.01993829570710659,0,0,-1000,1,1,-20,-3,3,-153,257044.0
04:02:59.344,AUTO,-35.3632618,149.1652367,23498,0.001874765264801681,0.0026007189881056547,-0.2348538637161255,0.0022659911774098873,8.654955308884382e-06,-0.0189190860837698,0,0,-1000,3,1,-19,-3,3,-153,257044.0
04:02:59.546,AUTO,-35.3632618,149.1652367,23888,0.0018935456173494458,0.002599437953904271,-0.2398235946893692,0.0009532292606309056,0.0005880208336748183,-0.020147809758782387,0,0,-1000,1,1,-20,-2,3,-153,257044.0
04:02:59.748,AUTO,-35.3632618,149.1652367,24278,0.0020318320021033287,0.002779026050120592,-0.24500861763954163,0.001044834265485406,0.002919639926403761,-0.023138146847486496,0,0,-1000,2,3,-23,-2,2,-153,257044.0
04:02:59.950,AUTO,-35.3632618,149.1652367,24278,0.0020318320021033287,0.002779026050120592,-0.24500861763954163,0.001044834265485406,0.002919639926403761,-0.023138146847486496,0,0,-1000,2,3,-23,-2,2,-153,257044.0
04:03:00.152,AUTO,-35.3632618,149.1652367,24667,0.0023569129407405853,0.0028353796806186438,-0.24998100101947784,0.0025988982524722815,-9.858258999884129e-05,-0.020215988159179688,0,0,-1000,3,0,-20,-2,2,-153,257044.0
04:03:00.354,AUTO,-35.3632618,149.1652368,25057,0.0024204417131841183,0.002582002431154251,-0.2547745108604431,0.00029535958310589194,0.0003446607734076679,-0.0194123275578022,0,0,-1000,1,1,-19,-2,2,-153,257044.0
04:03:00.556,AUTO,-35.3632618,149.1652368,25057,0.0024204417131841183,0.002582002431154251,-0.2547745108604431,0.00029535958310589194,0.0003446607734076679,-0.0194123275578022,0,0,-1000,1,1,-19,-2,2,-153,257044.0
04:03:00.757,AUTO,-35.3632618,149.1652368,25057,0.0024204417131841183,0.002582002431154251,-0.2547745108604431,0.00029535958310589194,0.0003446607734076679,-0.0194123275578022,0,0,-1000,1,1,-19,-2,2,-153,257044.0
04:03:00.959,AUTO,-35.3632618,149.1652368,25057,0.0024204417131841183,0.002582002431154251,-0.2547745108604431,0.00029535958310589194,0.0003446607734076679,-0.0194123275578022,0,0,-1000,1,1,-19,-2,2,-153,257044.0
04:03:01.161,AUTO,-35.363262,149.1652367,26215,0.0025159134529531,0.004897445905953646,-0.24767659604549408,0.031966205686330795,-0.0038205645978450775,0.022728709504008293,0,0,-1001,33,-2,22,-5,-2,-153,200.0
04:03:01.362,AUTO,-35.3632621,149.1652366,26606,0.008591460064053535,0.003767402609810233,-0.24146470427513123,0.01811317726969719,-0.005575335584580898,0.025709304958581924,0,1,-1000,19,-4,25,-5,0,-153,200.0
04:03:01.564,AUTO,-35.3632622,149.1652365,26994,0.01114647462964058,0.002527340315282345,-0.2350229173898697,0.00519587704911828,-0.005414406768977642,0.02460680529475212,0,1,-1000,6,-4,24,-5,1,-153,200.0
04:03:01.765,AUTO,-35.3632623,149.1652366,27383,0.011239136569201946,0.0015916542615741491,-0.2283944934606552,-0.00844915397465229,8.437468204647303e-05,0.03919155150651932,0,0,-995,-7,0,39,-4,3,-153,200.0
04:03:01.967,AUTO,-35.3632623,149.1652366,27383,0.011239136569201946,0.0015916542615741491,-0.2283944934606552,-0.00844915397465229,8.437468204647303e-05,0.03919155150651932,0,0,-995,-7,0,39,-4,3,-153,200.0
04:03:02.170,AUTO,-35.3632623,149.1652366,27768,-0.004485809709876776,0.015378285199403763,-0.18926282227039337,-0.09450185298919678,0.09146256744861603,0.2571626901626587,0,-1,-973,-93,92,256,-5,4,-147,200.0
04:03:02.372,AUTO,-35.3632625,149.1652366,28133,-0.03139626979827881,0.043500564992427826,-0.09046198427677155,-0.13600791990756989,0.10698851943016052,0.5204166173934937,1,0,-975,-135,107,520,-12,0,-141,200.0
04:03:02.573,AUTO,-35.3632625,149.1652366,28133,-0.03139626979827881,0.043500564992427826,-0.09046198427677155,-0.13600791990756989,0.10698851943016052,0.5204166173934937,1,0,-975,-135,107,520,-12,0,-141,200.0
04:03:02.775,AUTO,-35.3632625,149.1652366,28133,-0.03139626979827881,0.043500564992427826,-0.09046198427677155,-0.13600791990756989,0.10698851943016052,0.5204166173934937,1,0,-975,-135,107,520,-12,0,-141,200.0
04:03:02.978,AUTO,-35.3632625,149.1652366,28133,-0.03139626979827881,0.043500564992427826,-0.09046198427677155,-0.13600791990756989,0.10698851943016052,0.5204166173934937,1,0,-975,-135,107,520,-12,0,-141,200.0
04:03:03.180,AUTO,-35.3632642,149.1652353,29085,-0.013652190566062927,-0.013975264504551888,0.1616937220096588,0.11935237050056458,-0.14423666894435883,0.03435168042778969,4,9,-951,120,-143,34,-32,-27,-106,200.0
04:03:03.382,AUTO,-35.3632648,149.1652345,29340,0.011040564626455307,-0.039478205144405365,0.160299152135849,0.07562188804149628,-0.06854351609945297,-0.030287526547908783,2,8,-957,76,-67,-30,-25,-24,-95,200.0
04:03:03.584,AUTO,-35.3632653,149.1652339,29572,0.029200658202171326,-0.04941584914922714,0.14947058260440826,0.0677342340350151,-0.018503066152334213,-0.04482300579547882,1,6,-963,68,-17,-44,-14,-16,-84,200.0
04:03:03.787,AUTO,-35.3632655,149.1652335,29775,0.038014005869627,-0.04944673553109169,0.13836172223091125,0.012724054977297783,0.010772478766739368,-0.04032598435878754,0,2,-968,13,11,-40,-3,-6,-75,200.0
04:03:03.988,AUTO,-35.3632655,149.1652334,29956,0.039944931864738464,-0.04332119598984718,0.1299489438533783,-0.024797942489385605,0.031330276280641556,-0.027393871918320656,-1,0,-971,-23,32,-27,5,4,-68,200.0
04:03:04.190,AUTO,-35.3632655,149.1652334,29956,0.039944931864738464,-0.04332119598984718,0.1299489438533783,-0.024797942489385605,0.031330276280641556,-0.027393871918320656,-1,0,-971,-23,32,-27,5,4,-68,200.0
04:03:04.393,AUTO,-35.3632654,149.1652335,30118,0.039138615131378174,-0.033885810524225235,0.12444865703582764,0.06385263800621033,0.04145956411957741,-0.01653851941227913,-1,0,-975,64,42,-16,13,13,-61,200.0
04:03:04.597,AUTO,-35.3632654,149.1652335,30118,0.039138615131378174,-0.033885810524225235,0.12444865703582764,0.06385263800621033,0.04145956411957741,-0.01653851941227913,-1,0,-975,64,42,-16,13,13,-61,200.0
04:03:04.807,AUTO,-35.3632654,149.1652335,30118,0.039138615131378174,-0.033885810524225235,0.12444865703582764,0.06385263800621033,0.04145956411957741,-0.01653851941227913,-1,0,-975,64,42,-16,13,13,-61,200.0
04:03:05.009,AUTO,-35.3632639,149.1652351,30508,0.025015750899910927,-0.004845939110964537,0.11654253304004669,0.37744441628456116,0.030671533197164536,-0.006203419528901577,-3,2,-975,378,31,-6,24,27,-44,200.0
04:03:05.211,AUTO,-35.3632639,149.1652351,30508,0.025015750899910927,-0.004845939110964537,0.11654253304004669,0.37744441628456116,0.030671533197164536,-0.006203419528901577,-3,2,-975,378,31,-6,24,27,-44,128985.0
04:03:05.413,AUTO,-35.3632634,149.1652358,30608,0.015266874805092812,0.0021694290917366743,0.11449777334928513,-0.14280320703983307,0.032114360481500626,-0.009200097993016243,-1,-28,-971,-142,33,-9,24,28,-37,128985.0
04:03:05.615,AUTO,-35.3632628,149.1652365,30692,-0.0006018715794198215,0.009138109162449837,0.11278899013996124,-0.5581581592559814,0.023329494521021843,-0.003608858212828636,-2,-27,-982,-556,24,-3,22,28,-32,128985.0
04:03:05.816,AUTO,-35.3632623,149.1652372,30764,-0.0012504616752266884,0.013038773089647293,0.11072258651256561,0.04876584932208061,0.00999525561928749,-0.0037220639642328024,-2,8,-976,50,10,-3,19,26,-27,128985.0
04:03:06.018,AUTO,-35.3632619,149.1652379,30823,0.004753997549414635,0.015521597117185593,0.10829033702611923,0.6659436225891113,0.008327043615281582,-0.007130886428058147,0,21,-976,667,9,-7,16,23,-21,128985.0
04:03:06.220,AUTO,-35.3632619,149.1652379,30823,0.004753997549414635,0.015521597117185593,0.10829033702611923,0.6659436225891113,0.008327043615281582,-0.007130886428058147,0,21,-976,667,9,-7,16,23,-21,128985.0
04:03:06.421,AUTO,-35.3632615,149.1652385,30865,0.002874164143577218,0.01746448501944542,0.10608576983213425,0.4146603047847748,0.002942467574030161,-0.008642515167593956,0,-4,-973,414,4,-8,13,19,-15,128985.0
04:03:06.623,AUTO,-35.3632615,149.1652385,30865,0.002874164143577218,0.01746448501944542,0.10608576983213425,0.4146603047847748,0.002942467574030161,-0.008642515167593956,0,-4,-973,414,4,-8,13,19,-15,128985.0
04:03:06.825,AUTO,-35.3632615,149.1652385,30865,0.002874164143577218,0.01746448501944542,0.10608576983213425,0.4146603047847748,0.002942467574030161,-0.008642515167593956,0,-4,-973,414,4,-8,13,19,-15,128985.0
04:03:07.028,AUTO,-35.3632609,149.1652395,30860,-0.049654439091682434,0.041601747274398804,0.10053756088018417,-0.0448366142809391,-0.013975534588098526,-0.01505231112241745,0,22,-970,-42,-12,-14,-1,1,16,128985.0
04:03:07.230,AUTO,-35.3632609,149.1652395,30860,-0.049654439091682434,0.041601747274398804,0.10053756088018417,-0.0448366142809391,-0.013975534588098526,-0.01505231112241745,0,22,-970,-42,-12,-14,-1,1,16,128985.0
04:03:07.431,AUTO,-35.3632611,149.1652394,30814,-0.029845774173736572,0.032113078981637955,0.09868615865707397,0.7424953579902649,-0.03860324248671532,-0.004224845208227634,0,44,-1020,744,-37,-4,-9,-9,15,128985.0
04:03:07.633,AUTO,-35.3632612,149.165239,30773,-0.014514214359223843,0.024396970868110657,0.09689237922430038,0.7941160798072815,-0.026940392330288887,-0.005761586129665375,1,25,-1016,794,-25,-5,-15,-17,11,128985.0
04:03:07.835,AUTO,-35.3632616,149.1652384,30741,-0.01526995562016964,0.01889408379793167,0.09519535303115845,-0.01926259696483612,-0.023155948147177696,-0.0084605747833848,3,-13,-1020,-19,-22,-8,-19,-23,7,128985.0
04:03:08.036,AUTO,-35.3632621,149.1652377,30720,-0.025034943595528603,0.016181545332074165,0.09350349754095078,-0.6914408802986145,-0.005491900257766247,-0.00826134905219078,1,-22,-1023,-691,-4,-8,-23,-26,2,128985.0
04:03:08.238,AUTO,-35.3632627,149.1652369,30711,-0.02746991626918316,0.016418125480413437,0.09195662289857864,-0.48525765538215637,0.007979858666658401,-0.00668665487319231,0,9,-1007,-483,8,-6,-26,-28,0,128985.0
04:03:08.440,AUTO,-35.3632627,149.1652369,30711,-0.02746991626918316,0.016418125480413437,0.09195662289857864,-0.48525765538215637,0.007979858666658401,-0.00668665487319231,0,9,-1007,-483,8,-6,-26,-28,0,128985.0
04:03:08.642,AUTO,-35.3632627,149.1652369,30711,-0.02746991626918316,0.016418125480413437,0.09195662289857864,-0.48525765538215637,0.007979858666658401,-0.00668665487319231,0,9,-1007,-483,8,-6,-26,-28,0,128985.0
04:03:08.844,AUTO,-35.3632627,149.1652369,30711,-0.02746991626918316,0.016418125480413437,0.09195662289857864,-0.48525765538215637,0.007979858666658401,-0.00668665487319231,0,9,-1007,-483,8,-6,-26,-28,0,128985.0
04:03:09.045,AUTO,-35.363265,149.1652337,30724,-0.03616875410079956,0.03596044331789017,0.07798054814338684,0.09673330187797546,0.037667978554964066,-0.14514438807964325,1,8,-1009,97,38,-145,-41,-44,-8,128985.0
04:03:09.248,AUTO,-35.3632661,149.1652323,30742,-0.059586551040410995,0.03681156039237976,-0.030955685302615166,-0.6159018278121948,0.0601336695253849,-0.6835728883743286,0,-8,-1011,-615,61,-683,-50,-52,-11,300000.0
04:03:09.450,AUTO,-35.3632661,149.1652323,30742,-0.059586551040410995,0.03681156039237976,-0.030955685302615166,-0.6159018278121948,0.0601336695253849,-0.6835728883743286,0,-8,-1011,-615,61,-683,-50,-52,-11,300000.0
04:03:09.651,AUTO,-35.3632674,149.1652306,30765,-0.07445169240236282,0.027936169877648354,-0.23662611842155457,-0.24958445131778717,0.01639648899435997,-0.8609845042228699,0,25,-999,-247,17,-861,-59,-61,-12,300000.0
04:03:09.853,AUTO,-35.363269,149.1652287,30793,-0.0807124674320221,0.012203044258058071,-0.4531433880329132,0.4331762194633484,-0.004641481209546328,-0.8624585866928101,-7,55,-1016,434,-3,-862,-70,-72,-15,300000.0
04:03:10.055,AUTO,-35.3632708,149.1652264,30829,-0.09477538615465164,-0.00636146729812026,-0.6579935550689697,0.16980934143066406,-0.004852417390793562,-0.7887770533561707,-13,24,-1014,170,-3,-788,-83,-86,-17,300000.0
04:03:10.258,AUTO,-35.3632729,149.1652237,30871,-0.11087282001972198,-0.02839483879506588,-0.8478369116783142,-0.4675130248069763,-0.007604216691106558,-0.7362000346183777,-21,1,-1012,-466,-6,-735,-97,-101,-20,300000.0
04:03:10.459,AUTO,-35.3632729,149.1652237,30871,-0.11087282001972198,-0.02839483879506588,-0.8478369116783142,-0.4675130248069763,-0.007604216691106558,-0.7362000346183777,-21,1,-1012,-466,-6,-735,-97,-101,-20,300000.0
04:03:10.661,AUTO,-35.3632729,149.1652237,30871,-0.11087282001972198,-0.02839483879506588,-0.8478369116783142,-0.4675130248069763,-0.007604216691106558,-0.7362000346183777,-21,1,-1012,-466,-6,-735,-97,-101,-20,300000.0
04:03:10.863,AUTO,-35.3632729,149.1652237,30871,-0.11087282001972198,-0.02839483879506588,-0.8478369116783142,-0.4675130248069763,-0.007604216691106558,-0.7362000346183777,-21,1,-1012,-466,-6,-735,-97,-101,-20,300000.0
04:03:11.065,AUTO,-35.3632813,149.165213,31034,-0.09465408325195312,-0.10807805508375168,-1.384426236152649,0.10564456135034561,-0.050411418080329895,-0.6960887312889099,-45,14,-1015,106,-49,-695,-145,-153,-28,300000.0
04:03:11.267,AUTO,-35.3632848,149.1652084,31104,-0.08624877780675888,-0.1354297399520874,-1.561344861984253,-0.3266410827636719,-0.02964029088616371,-0.700345516204834,-50,-2,-1016,-325,-28,-700,-163,-173,-31,300000.0
04:03:11.469,AUTO,-35.3632848,149.1652084,31104,-0.08624877780675888,-0.1354297399520874,-1.561344861984253,-0.3266410827636719,-0.02964029088616371,-0.700345516204834,-50,-2,-1016,-325,-28,-700,-163,-173,-31,300000.0
04:03:11.671,AUTO,-35.3632888,149.1652033,31182,-0.05900820344686508,-0.15623320639133453,-1.7411519289016724,0.08643653243780136,-0.02262808196246624,-0.7294015884399414,-63,13,-1021,88,-21,-729,-182,-195,-35,300000.0
04:03:11.873,AUTO,-35.3632932,149.1651975,31270,-0.02334028296172619,-0.16356806457042694,-1.923072338104248,0.14884155988693237,0.014122148044407368,-0.7153214812278748,-69,-5,-1022,149,14,-715,-201,-216,-39,300000.0
04:03:12.075,AUTO,-35.363298,149.1651912,31370,0.0076223877258598804,-0.15984642505645752,-2.1059060096740723,-0.13740989565849304,0.039323076605796814,-0.7179784774780273,-66,-29,-1022,-136,40,-717,-219,-236,-43,300000.0
04:03:12.277,AUTO,-35.3633031,149.1651844,31484,0.039535630494356155,-0.13032913208007812,-2.2593159675598145,0.11925256252288818,0.17306937277317047,-0.4290037155151367,-71,-24,-1028,120,173,-429,-232,-251,-50,300000.0
04:03:12.479,AUTO,-35.3633031,149.1651844,31484,0.039535630494356155,-0.13032913208007812,-2.2593159675598145,0.11925256252288818,0.17306937277317047,-0.4290037155151367,-71,-24,-1028,120,173,-429,-232,-251,-50,300000.0
04:03:12.682,AUTO,-35.3633031,149.1651844,31484,0.039535630494356155,-0.13032913208007812,-2.2593159675598145,0.11925256252288818,0.17306937277317047,-0.4290037155151367,-71,-24,-1028,120,173,-429,-232,-251,-50,300000.0
04:03:12.885,AUTO,-35.3633031,149.1651844,31484,0.039535630494356155,-0.13032913208007812,-2.2593159675598145,0.11925256252288818,0.17306937277317047,-0.4290037155151367,-71,-24,-1028,120,173,-429,-232,-251,-50,300000.0
04:03:13.089,AUTO,-35.3633191,149.1651631,31925,0.059179291129112244,0.018546124920248985,-2.275656223297119,0.3554105758666992,0.05550063028931618,0.08538714051246643,-68,-28,-991,356,56,85,-221,-244,-64,300000.0
04:03:13.291,AUTO,-35.363324,149.1651564,32079,0.05306226760149002,0.019554242491722107,-2.2568256855010986,-0.13319449126720428,0.004593017511069775,0.07826691120862961,-55,-54,-966,-132,5,78,-207,-232,-58,224489.0
04:03:13.493,AUTO,-35.3633286,149.1651501,32216,0.040912922471761703,0.016759416088461876,-2.2489089965820312,-0.4260912239551544,-0.019450586289167404,0.01842080056667328,-58,-50,-974,-424,-18,18,-193,-220,-52,224489.0
04:03:13.696,AUTO,-35.3633286,149.1651501,32216,0.040912922471761703,0.016759416088461876,-2.2489089965820312,-0.4260912239551544,-0.019450586289167404,0.01842080056667328,-58,-50,-974,-424,-18,18,-193,-220,-52,224489.0
04:03:13.897,AUTO,-35.3633328,149.165144,32339,0.040360987186431885,0.014762291684746742,-2.249288558959961,0.02957288548350334,0.0034863180480897427,-0.02600366435945034,-57,-14,-975,31,4,-26,-181,-210,-45,224489.0
04:03:14.099,AUTO,-35.3633369,149.1651383,32447,0.046238988637924194,0.012650334276258945,-2.250582695007324,0.4592339098453522,-0.01285421010106802,-0.008861090987920761,-55,-18,-989,460,-11,-8,-170,-199,-41,224489.0
04:03:14.301,AUTO,-35.3633406,149.1651329,32545,0.03862514719367027,0.010114979930222034,-2.252413749694824,-0.16696882247924805,-0.007343352306634188,0.008486744947731495,-51,-49,-976,-166,-6,8,-161,-188,-36,224489.0
04:03:14.503,AUTO,-35.3633406,149.1651329,32545,0.03862514719367027,0.010114979930222034,-2.252413749694824,-0.16696882247924805,-0.007343352306634188,0.008486744947731495,-51,-49,-976,-166,-6,8,-161,-188,-36,224489.0
04:03:14.705,AUTO,-35.3633406,149.1651329,32545,0.03862514719367027,0.010114979930222034,-2.252413749694824,-0.16696882247924805,-0.007343352306634188,0.008486744947731495,-51,-49,-976,-166,-6,8,-161,-188,-36,224489.0
04:03:14.907,AUTO,-35.3633406,149.1651329,32545,0.03862514719367027,0.010114979930222034,-2.252413749694824,-0.16696882247924805,-0.007343352306634188,0.008486744947731495,-51,-49,-976,-166,-6,8,-161,-188,-36,224489.0
04:03:15.110,AUTO,-35.3633505,149.1651185,32786,0.03453880548477173,0.018264535814523697,-2.2568764686584473,0.5560782551765442,0.020940566435456276,-0.0065221237018704414,-43,-6,-995,557,21,-6,-134,-158,-27,224489.0
04:03:15.312,AUTO,-35.3633533,149.1651143,32852,0.029070207849144936,0.022961163893342018,-2.2580647468566895,-0.007993018254637718,0.022952863946557045,0.0025033215060830116,-38,-42,-984,-7,23,2,-126,-147,-24,224489.0
04:03:15.513,AUTO,-35.363356,149.1651103,32912,0.01420145109295845,0.029170218855142593,-2.2594034671783447,-0.5928146243095398,0.02409856580197811,0.0027886657044291496,-37,-37,-1001,-592,24,2,-115,-135,-22,224489.0
04:03:15.715,AUTO,-35.363356,149.1651103,32912,0.01420145109295845,0.029170218855142593,-2.2594034671783447,-0.5928146243095398,0.02409856580197811,0.0027886657044291496,-37,-37,-1001,-592,24,2,-115,-135,-22,224489.0
04:03:15.917,AUTO,-35.3633584,149.1651067,32962,0.010124758817255497,0.036559492349624634,-2.2601726055145264,-0.3737606704235077,0.03489724174141884,-0.0002113933296641335,-33,-25,-998,-371,36,0,-105,-123,-17,224489.0
04:03:16.119,AUTO,-35.3633606,149.1651035,33006,0.01754208840429783,0.044426966458559036,-2.2608084678649902,0.2451540231704712,0.030019370838999748,-0.01235209684818983,-27,11,-993,247,30,-12,-94,-110,-16,224489.0
04:03:16.321,AUTO,-35.3633625,149.1651005,33045,0.022799642756581306,0.051428236067295074,-2.2619869709014893,0.6300749778747559,0.022237561643123627,-0.00612036045640707,-25,11,-999,631,23,-5,-83,-97,-14,224489.0
04:03:16.523,AUTO,-35.3633625,149.1651005,33045,0.022799642756581306,0.051428236067295074,-2.2619869709014893,0.6300749778747559,0.022237561643123627,-0.00612036045640707,-25,11,-999,631,23,-5,-83,-97,-14,224489.0
04:03:16.724,AUTO,-35.3633625,149.1651005,33045,0.022799642756581306,0.051428236067295074,-2.2619869709014893,0.6300749778747559,0.022237561643123627,-0.00612036045640707,-25,11,-999,631,23,-5,-83,-97,-14,224489.0
04:03:16.926,AUTO,-35.3633625,149.1651005,33045,0.022799642756581306,0.051428236067295074,-2.2619869709014893,0.6300749778747559,0.022237561643123627,-0.00612036045640707,-25,11,-999,631,23,-5,-83,-97,-14,224489.0
04:03:17.129,AUTO,-35.3633667,149.1650942,33124,-0.0014542817370966077,0.07039925456047058,-2.2639389038085938,-0.6536807417869568,0.027107009664177895,-0.0001229080226039514,-17,-26,-1003,-652,28,0,-48,-52,-6,224489.0
04:03:17.330,AUTO,-35.3633675,149.1650929,33136,0.0009898594580590725,0.075173020362854,-2.264394998550415,0.12902815639972687,0.023986980319023132,-0.005996229592710733,-12,18,-983,131,25,-5,-34,-37,-3,70977.0
04:03:17.532,AUTO,-35.3633681,149.165092,33140,0.012288986705243587,0.07951748371124268,-2.265101432800293,0.698245644569397,-0.010809552855789661,0.0031214391347020864,-5,24,-1003,699,-9,3,-21,-21,0,70977.0
04:03:17.734,AUTO,-35.3633681,149.165092,33140,0.012288986705243587,0.07951748371124268,-2.265101432800293,0.698245644569397,-0.010809552855789661,0.0031214391347020864,-5,24,-1003,699,-9,3,-21,-21,0,70977.0
04:03:17.935,AUTO,-35.3633684,149.1650915,33139,0.005964646115899086,0.04473983123898506,-2.2651171684265137,0.12092141062021255,-0.214732825756073,0.037140198051929474,-2,-13,-991,121,-213,37,-11,-8,1,70977.0
04:03:18.138,AUTO,-35.3633686,149.1650912,33134,-0.009275403805077076,-0.013533271849155426,-2.2652246952056885,-0.630521297454834,-0.22553202509880066,0.01863345503807068,-2,-35,-994,-630,-224,18,-9,-5,1,70977.0
04:03:18.340,AUTO,-35.3633688,149.1650909,33130,-0.015771135687828064,-0.06325133889913559,-2.265918493270874,-0.45108386874198914,-0.1774486005306244,-0.01894940249621868,-5,-11,-1008,-449,-176,-18,-16,-12,0,70977.0
04:03:18.542,AUTO,-35.3633688,149.1650909,33130,-0.015771135687828064,-0.06325133889913559,-2.265918493270874,-0.45108386874198914,-0.1774486005306244,-0.01894940249621868,-5,-11,-1008,-449,-176,-18,-16,-12,0,70977.0
04:03:18.743,AUTO,-35.3633688,149.1650909,33130,-0.015771135687828064,-0.06325133889913559,-2.265918493270874,-0.45108386874198914,-0.1774486005306244,-0.01894940249621868,-5,-11,-1008,-449,-176,-18,-16,-12,0,70977.0
04:03:18.945,AUTO,-35.3633688,149.1650909,33130,-0.015771135687828064,-0.06325133889913559,-2.265918493270874,-0.45108386874198914,-0.1774486005306244,-0.01894940249621868,-5,-11,-1008,-449,-176,-18,-16,-12,0,70977.0
04:03:19.147,AUTO,-35.3633715,149.1650877,33141,0.0032261491287499666,-0.1700098067522049,-2.267735719680786,-0.020841576159000397,-0.06184159219264984,-0.0076512559317052364,-22,-24,-1017,-20,-60,-7,-76,-70,-6,70977.0
04:03:19.349,AUTO,-35.3633734,149.1650854,33160,-0.0008712186827324331,-0.15814907848834991,-2.26979398727417,-0.4613863229751587,0.1129036471247673,-0.004557597450911999,-30,-38,-1024,-460,113,-4,-101,-96,-9,70977.0
04:03:19.552,AUTO,-35.3633759,149.1650825,33191,0.006484013516455889,-0.12950171530246735,-2.271888256072998,-0.07991170883178711,0.10376758873462677,-0.008150817826390266,-37,-10,-1022,-78,104,-8,-119,-116,-15,70977.0
04:03:19.754,AUTO,-35.3633788,149.1650791,33235,0.02309388294816017,-0.11041121929883957,-2.2734436988830566,0.444563627243042,0.060628656297922134,-0.011773265898227692,-40,-5,-1027,445,61,-11,-134,-132,-20,70977.0
04:03:19.955,AUTO,-35.3633788,149.1650791,33235,0.02309388294816017,-0.11041121929883957,-2.2734436988830566,0.444563627243042,0.060628656297922134,-0.011773265898227692,-40,-5,-1027,445,61,-11,-134,-132,-20,70977.0
04:03:20.157,AUTO,-35.3633819,149.1650753,33291,0.028840091079473495,-0.10039100795984268,-2.2746315002441406,-0.02701694704592228,0.024462217465043068,0.0023380371276289225,-39,-33,-1012,-26,25,2,-146,-143,-24,70977.0
04:03:20.359,AUTO,-35.3633854,149.1650712,33356,0.024578405544161797,-0.09690895676612854,-2.2752537727355957,-0.3788639307022095,0.0005809766007587314,0.002645535161718726,-46,-35,-1012,-377,1,2,-154,-155,-28,70977.0
04:03:20.561,AUTO,-35.3633854,149.1650712,33356,0.024578405544161797,-0.09690895676612854,-2.2752537727355957,-0.3788639307022095,0.0005809766007587314,0.002645535161718726,-46,-35,-1012,-377,1,2,-154,-155,-28,70977.0
04:03:20.763,AUTO,-35.3633854,149.1650712,33356,0.024578405544161797,-0.09690895676612854,-2.2752537727355957,-0.3788639307022095,0.0005809766007587314,0.002645535161718726,-46,-35,-1012,-377,1,2,-154,-155,-28,70977.0
04:03:20.966,AUTO,-35.3633854,149.1650712,33356,0.024578405544161797,-0.09690895676612854,-2.2752537727355957,-0.3788639307022095,0.0005809766007587314,0.002645535161718726,-46,-35,-1012,-377,1,2,-154,-155,-28,70977.0
04:03:21.168,AUTO,-35.3633968,149.165057,33597,0.03605528920888901,-0.10652793198823929,-2.2782561779022217,-0.2778707444667816,0.06720650941133499,0.0017625086475163698,-61,-46,-1010,-276,68,2,-178,-189,-36,70977.0
