time_stamp,MODE,lat,lon,relative_alt,roll,pitch,yaw,rollspeed,pitchspeed,yawspeed,xacc,yacc,zacc,xgyro,ygyro,zgyro,vx,vy,vz,RTL_ALT,LAND_SPEED
23:00:56.127,GUIDED,-35.3632621,149.1652374,2,0.00017999197007156909,0.0013863419881090522,0.02832900360226631,0.00030825583962723613,0.0003709587035700679,0.002471522893756628,0,1,-1000,0,0,0,0,0,-2,1500.0,50.0
23:00:56.328,GUIDED,-35.3632621,149.1652374,0,0.0003836435789708048,0.0014457236975431442,0.028133874759078026,0.00026961034745909274,0.00018145531066693366,0.002479548566043377,0,1,-1000,0,0,0,0,1,-1,1500.0,50.0
23:00:56.529,GUIDED,-35.3632621,149.1652374,0,0.0004169259045738727,0.001506262575276196,0.027964189648628235,0.00025255780201405287,0.0002260044275317341,0.0023187673650681973,0,1,-1000,0,0,0,0,1,-1,1500.0,50.0
23:00:56.730,GUIDED,-35.3632621,149.1652374,0,0.0004169259045738727,0.001506262575276196,0.027964189648628235,0.00025255780201405287,0.0002260044275317341,0.0023187673650681973,0,1,-1000,0,0,0,0,1,-1,1500.0,50.0
23:00:56.931,GUIDED,-35.3632621,149.1652374,0,0.0004337100253906101,0.0015544402413070202,0.027769634500145912,0.00024369813036173582,0.00021733215544372797,0.002360460814088583,0,1,-1000,0,0,0,-1,1,0,1500.0,50.0
23:00:57.132,GUIDED,-35.3632621,149.1652374,0,0.00043986891978420317,0.0015853428049013019,0.027553170919418335,0.0004065131361130625,0.00034296195372007787,0.002362643601372838,0,1,-1000,0,0,0,-1,2,0,1500.0,50.0
23:00:57.332,GUIDED,-35.3632621,149.1652375,0,0.00042349909199401736,0.0016081181820482016,0.02735886164009571,0.0003538522869348526,0.0003081193135585636,0.002272081095725298,0,1,-1000,0,0,0,-1,2,0,1500.0,50.0
23:00:57.533,GUIDED,-35.3632621,149.1652375,0,0.00042349909199401736,0.0016081181820482016,0.02735886164009571,0.0003538522869348526,0.0003081193135585636,0.002272081095725298,0,1,-1000,0,0,0,-1,2,0,1500.0,50.0
23:00:57.734,GUIDED,-35.3632621,149.1652375,0,0.00042349909199401736,0.0016081181820482016,0.02735886164009571,0.0003538522869348526,0.0003081193135585636,0.002272081095725298,0,1,-1000,0,0,0,-1,2,0,1500.0,50.0
23:00:57.935,GUIDED,-35.3632621,149.1652375,0,0.00042349909199401736,0.0016081181820482016,0.02735886164009571,0.0003538522869348526,0.0003081193135585636,0.002272081095725298,0,1,-1000,0,0,0,-1,2,0,1500.0,50.0
23:00:58.136,GUIDED,-35.3632621,149.1652375,0,0.00028904282953590155,0.0016010728431865573,0.026804259046912193,0.0002570397628005594,0.00032225128961727023,0.002393175847828388,0,1,-1000,0,0,0,-1,2,0,1500.0,50.0
23:00:58.337,GUIDED,-35.3632621,149.1652375,0,0.00021190001280047,0.0015730642480775714,0.026652660220861435,0.0003858576819766313,0.00021350450697354972,0.0021931601222604513,0,1,-1000,0,0,0,-2,2,0,1500.0,50.0
23:00:58.538,GUIDED,-35.3632621,149.1652375,9,0.0001277824630960822,0.0015338457887992263,0.026502370834350586,0.00028910557739436626,0.00034290910116396844,0.0021534222178161144,0,1,-1000,0,1,0,-2,2,0,1500.0,50.0
23:00:58.738,GUIDED,-35.3632621,149.1652375,9,0.0001277824630960822,0.0015338457887992263,0.026502370834350586,0.00028910557739436626,0.00034290910116396844,0.0021534222178161144,0,1,-1000,0,1,0,-2,2,0,1500.0,50.0
23:00:58.939,GUIDED,-35.3632622,149.1652375,8,3.328063030494377e-05,0.0014886441640555859,0.02632836066186428,0.00015111229731701314,0.00024706742260605097,0.0021234219893813133,0,2,-1000,1,0,0,-2,2,0,1500.0,50.0
23:00:59.140,GUIDED,-35.3632622,149.1652375,7,-5.108557525090873e-05,0.0014544312143698335,0.026187893003225327,0.0002181344898417592,0.0003280752571299672,0.002167396480217576,0,1,-1000,0,0,0,-1,2,0,1500.0,50.0
23:00:59.341,GUIDED,-35.3632622,149.1652375,7,-0.0001208880275953561,0.0014272984117269516,0.026029186323285103,0.0002352871815674007,0.0002857230429071933,0.002248989185318351,0,1,-1000,0,0,0,-1,1,0,1500.0,50.0
23:00:59.541,GUIDED,-35.3632622,149.1652375,7,-0.0001208880275953561,0.0014272984117269516,0.026029186323285103,0.0002352871815674007,0.0002857230429071933,0.002248989185318351,0,1,-1000,0,0,0,-1,1,0,1500.0,50.0
23:00:59.742,GUIDED,-35.3632622,149.1652375,7,-0.0001208880275953561,0.0014272984117269516,0.026029186323285103,0.0002352871815674007,0.0002857230429071933,0.002248989185318351,0,1,-1000,0,0,0,-1,1,0,1500.0,50.0
23:00:59.943,GUIDED,-35.3632622,149.1652375,7,-0.0001208880275953561,0.0014272984117269516,0.026029186323285103,0.0002352871815674007,0.0002857230429071933,0.002248989185318351,0,1,-1000,0,0,0,-1,1,0,1500.0,50.0
23:01:00.144,GUIDED,-35.3632621,149.1652375,3,-9.512710676062852e-06,0.0014550430933013558,0.025635477155447006,0.00012709147995337844,0.00028357122209854424,0.002098984085023403,0,1,-1000,0,0,0,0,1,1,1500.0,50.0
23:01:00.345,GUIDED,-35.3632621,149.1652375,1,5.2294985835033e-06,0.0015002820873633027,0.025505095720291138,0.0001709277566988021,0.00018836752860806882,0.0020478107035160065,0,1,-1000,0,0,0,0,0,1,1500.0,50.0
23:01:00.546,GUIDED,-35.3632621,149.1652375,0,3.4269098250661045e-05,0.0015623423969373107,0.025344055145978928,0.00032621208811178803,0.0003252040478400886,0.002161547541618347,0,1,-1000,0,0,0,0,0,1,1500.0,50.0
23:01:00.746,GUIDED,-35.3632621,149.1652375,0,6.876133556943387e-05,0.0016255645314231515,0.025191335007548332,0.00022575107868760824,0.00047338861622847617,0.0020390693098306656,0,1,-1000,0,1,0,0,0,1,1500.0,50.0
23:01:00.947,GUIDED,-35.3632621,149.1652375,0,0.00010562695388216525,0.0016938867047429085,0.025065070018172264,0.00020767937530763447,0.0002656248689163476,0.002075961558148265,0,1,-1000,0,0,0,0,0,1,1500.0,50.0
23:01:01.148,GUIDED,-35.3632621,149.1652375,0,0.00010562695388216525,0.0016938867047429085,0.025065070018172264,0.00020767937530763447,0.0002656248689163476,0.002075961558148265,0,1,-1000,0,0,0,0,0,1,1500.0,50.0
23:01:01.349,GUIDED,-35.3632621,149.1652375,0,0.000152510532643646,0.0017657557036727667,0.024904830381274223,0.0002714220609050244,0.00023806202807463706,0.0020859423093497753,0,1,-1000,0,0,0,0,0,1,1500.0,50.0
23:01:01.549,GUIDED,-35.3632621,149.1652375,0,0.000152510532643646,0.0017657557036727667,0.024904830381274223,0.0002714220609050244,0.00023806202807463706,0.0020859423093497753,0,1,-1000,0,0,0,0,0,1,1500.0,50.0
23:01:01.750,GUIDED,-35.3632621,149.1652375,0,0.000152510532643646,0.0017657557036727667,0.024904830381274223,0.0002714220609050244,0.00023806202807463706,0.0020859423093497753,0,1,-1000,0,0,0,0,0,1,1500.0,50.0
23:01:01.951,GUIDED,-35.3632621,149.1652375,0,0.000152510532643646,0.0017657557036727667,0.024904830381274223,0.0002714220609050244,0.00023806202807463706,0.0020859423093497753,0,1,-1000,0,0,0,0,0,1,1500.0,50.0
23:01:02.152,GUIDED,-35.3632621,149.1652374,0,0.0003331982297822833,0.002020562067627907,0.024399183690547943,0.00036120801814831793,0.0003217384510207921,0.0019176634959876537,0,1,-1000,0,0,0,0,0,1,1500.0,50.0
23:01:02.353,GUIDED,-35.3632621,149.1652374,0,0.0003922059840988368,0.002099878154695034,0.024257710203528404,0.00037095919833518565,0.000299539155093953,0.001885275705717504,0,1,-1000,0,1,0,0,0,0,1500.0,50.0
23:01:02.554,GUIDED,-35.3632621,149.1652374,0,0.00046268492587842047,0.002174641704186797,0.02410774677991867,0.00035605335142463446,0.00037106676609255373,0.0018806904554367065,0,1,-1000,1,0,0,0,0,0,1500.0,50.0
23:01:02.755,GUIDED,-35.3632621,149.1652374,0,0.00046268492587842047,0.002174641704186797,0.02410774677991867,0.00035605335142463446,0.00037106676609255373,0.0018806904554367065,0,1,-1000,1,0,0,0,0,0,1500.0,50.0
23:01:02.956,GUIDED,-35.3632621,149.1652374,0,0.0005450061871670187,0.0022466378286480904,0.023933568969368935,0.00038506006239913404,0.0002968201006297022,0.0018637118628248572,0,1,-1000,0,0,0,0,0,0,1500.0,50.0
23:01:03.156,GUIDED,-35.3632621,149.1652374,8,0.003177657723426819,-3.269185253884643e-05,0.023905081674456596,0.0206077229231596,-0.010597480461001396,0.0034555704332888126,0,0,-1140,21,-10,2,0,0,-18,1500.0,50.0
23:01:03.357,GUIDED,-35.3632621,149.1652374,100,0.004004711750894785,-0.0006613315199501812,0.02396678924560547,-0.003989902790635824,0.0037705993745476007,0.0023082979023456573,0,0,-1139,-3,4,0,0,0,-52,1500.0,50.0
23:01:03.558,GUIDED,-35.3632621,149.1652374,100,0.004004711750894785,-0.0006613315199501812,0.02396678924560547,-0.003989902790635824,0.0037705993745476007,0.0023082979023456573,0,0,-1139,-3,4,0,0,0,-52,1500.0,50.0
23:01:03.758,GUIDED,-35.3632621,149.1652374,100,0.004004711750894785,-0.0006613315199501812,0.02396678924560547,-0.003989902790635824,0.0037705993745476007,0.0023082979023456573,0,0,-1139,-3,4,0,0,0,-52,1500.0,50.0
23:01:03.959,GUIDED,-35.3632621,149.1652374,100,0.004004711750894785,-0.0006613315199501812,0.02396678924560547,-0.003989902790635824,0.0037705993745476007,0.0023082979023456573,0,0,-1139,-3,4,0,0,0,-52,1500.0,50.0
23:01:04.163,GUIDED,-35.3632621,149.1652375,820,0.0044450839050114155,0.002210182137787342,0.02385466918349266,0.03579040616750717,-0.0017350856214761734,0.0011940551921725273,0,0,-1067,36,-1,0,0,0,-130,1500.0,50.0
23:01:04.364,GUIDED,-35.363262,149.1652375,1170,0.015911243855953217,0.0009169204859063029,0.023689337074756622,0.04768623039126396,-0.006638126447796822,0.0022125672549009323,0,0,-1029,48,-5,1,0,2,-141,1500.0,50.0
23:01:04.565,GUIDED,-35.363262,149.1652375,1541,0.027628472074866295,-0.0008458540542051196,0.023671643808484077,0.046140559017658234,-0.006879052612930536,0.0029755663126707077,0,-1,-1012,46,-6,2,1,7,-145,1500.0,50.0
23:01:04.766,GUIDED,-35.363262,149.1652375,1541,0.027628472074866295,-0.0008458540542051196,0.023671643808484077,0.046140559017658234,-0.006879052612930536,0.0029755663126707077,0,-1,-1012,46,-6,2,1,7,-145,1500.0,50.0
23:01:04.966,GUIDED,-35.3632619,149.1652378,1921,0.03887242078781128,-0.002829908626154065,0.023784957826137543,0.04411337897181511,-0.008548649959266186,0.003434494137763977,0,-2,-1005,44,-7,2,2,14,-147,1500.0,50.0
23:01:05.167,GUIDED,-35.3632618,149.1652383,2304,0.04949064925312996,-0.005089552141726017,0.023974336683750153,0.041302863508462906,-0.009545156732201576,0.003961246460676193,0,-3,-1001,41,-9,2,3,23,-148,1500.0,50.0
23:01:05.368,GUIDED,-35.3632617,149.1652391,2697,0.05948954448103905,-0.007991818711161613,0.024106932803988457,0.03758625686168671,-0.011554480530321598,0.0045695798471570015,2,-6,-999,38,-11,3,6,35,-148,1500.0,50.0
23:01:05.568,GUIDED,-35.3632617,149.1652391,2697,0.05948954448103905,-0.007991818711161613,0.024106932803988457,0.03758625686168671,-0.011554480530321598,0.0045695798471570015,2,-6,-999,38,-11,3,6,35,-148,1500.0,50.0
23:01:05.770,GUIDED,-35.3632617,149.1652391,2697,0.05948954448103905,-0.007991818711161613,0.024106932803988457,0.03758625686168671,-0.011554480530321598,0.0045695798471570015,2,-6,-999,38,-11,3,6,35,-148,1500.0,50.0
23:01:05.972,GUIDED,-35.3632617,149.1652391,2697,0.05948954448103905,-0.007991818711161613,0.024106932803988457,0.03758625686168671,-0.011554480530321598,0.0045695798471570015,2,-6,-999,38,-11,3,6,35,-148,1500.0,50.0
23:01:06.173,GUIDED,-35.3632611,149.1652424,3681,0.0004636661906260997,0.024376779794692993,-0.05032527074217796,-0.14866767823696136,0.0074604349210858345,-0.07538483291864395,3,-10,-1005,-148,7,-76,6,55,-144,1500.0,50.0
23:01:06.374,GUIDED,-35.363261,149.1652438,4058,-0.02135070040822029,0.02044135332107544,-0.06391848623752594,-0.05025691166520119,-0.021377181634306908,-0.05357080698013306,5,-12,-1010,-49,-21,-54,2,48,-146,1500.0,50.0
23:01:06.575,GUIDED,-35.3632609,149.165245,4441,-0.029257241636514664,0.014849900268018246,-0.07423485815525055,-0.0197678804397583,-0.016370758414268494,-0.043383654206991196,3,-9,-1006,-19,-15,-44,0,38,-148,1500.0,50.0
23:01:06.776,GUIDED,-35.3632609,149.1652459,4827,-0.034153107553720474,0.0102212680503726,-0.08303315192461014,-0.03849068284034729,-0.016771463677287102,-0.031423311680555344,5,-7,-1000,-38,-16,-32,-1,28,-149,1500.0,50.0
23:01:06.977,GUIDED,-35.3632609,149.1652466,5211,-0.050455138087272644,0.004320754669606686,-0.08851847052574158,-0.0765557587146759,-0.025726180523633957,-0.015953294932842255,3,-3,-998,-75,-25,-16,-2,16,-148,1500.0,50.0
23:01:07.177,GUIDED,-35.3632609,149.1652466,5211,-0.050455138087272644,0.004320754669606686,-0.08851847052574158,-0.0765557587146759,-0.025726180523633957,-0.015953294932842255,3,-3,-998,-75,-25,-16,-2,16,-148,1500.0,50.0
23:01:07.378,GUIDED,-35.3632609,149.1652468,5595,-0.07064858078956604,-0.0027510018553584814,-0.09062919020652771,-0.08110058307647705,-0.026643788442015648,-0.005288786254823208,2,-2,-998,-80,-26,-6,-2,0,-148,1500.0,50.0
23:01:07.579,GUIDED,-35.3632609,149.1652468,5595,-0.07064858078956604,-0.0027510018553584814,-0.09062919020652771,-0.08110058307647705,-0.026643788442015648,-0.005288786254823208,2,-2,-998,-80,-26,-6,-2,0,-148,1500.0,50.0
23:01:07.780,GUIDED,-35.3632609,149.1652468,5595,-0.07064858078956604,-0.0027510018553584814,-0.09062919020652771,-0.08110058307647705,-0.026643788442015648,-0.005288786254823208,2,-2,-998,-80,-26,-6,-2,0,-148,1500.0,50.0
23:01:07.980,GUIDED,-35.3632609,149.1652468,5595,-0.07064858078956604,-0.0027510018553584814,-0.09062919020652771,-0.08110058307647705,-0.026643788442015648,-0.005288786254823208,2,-2,-998,-80,-26,-6,-2,0,-148,1500.0,50.0
23:01:08.181,GUIDED,-35.3632611,149.1652432,7127,-0.03619690611958504,-0.005483400542289019,-0.09890395402908325,0.06392873078584671,0.01089601218700409,0.0002786167897284031,-5,8,-1001,59,5,-3,-2,-58,-148,1500.0,50.0
23:01:08.382,GUIDED,-35.3632611,149.1652432,7127,-0.03619690611958504,-0.005483400542289019,-0.09890395402908325,0.06392873078584671,0.01089601218700409,0.0002786167897284031,-7,13,-1002,64,11,0,-2,-58,-148,1500.0,50.0
23:01:08.583,GUIDED,-35.3632612,149.1652415,7511,-0.020082492381334305,-0.0024101678282022476,-0.0993976891040802,0.06659505516290665,0.013753624632954597,0.001174814417026937,-7,12,-1003,67,14,0,-3,-63,-149,1500.0,50.0
23:01:08.783,GUIDED,-35.3632613,149.1652397,7896,-0.0033298288471996784,0.001327562378719449,-0.09920565038919449,0.06625262647867203,0.015080083161592484,0.0023477599024772644,-9,14,-1004,66,15,1,-5,-63,-150,1500.0,50.0
23:01:08.985,GUIDED,-35.3632614,149.1652379,8288,0.013753727078437805,0.005159091204404831,-0.09856956452131271,0.06960005313158035,0.015486343763768673,0.004253829829394817,-7,14,-1004,70,16,3,-6,-60,-151,1500.0,50.0
23:01:09.185,GUIDED,-35.3632616,149.1652363,8679,0.03057408519089222,0.008597400039434433,-0.09751353412866592,0.06665544956922531,0.011947586201131344,0.003589315339922905,-7,14,-1004,70,16,3,-9,-52,-152,1500.0,50.0
23:01:09.386,GUIDED,-35.3632616,149.1652363,8679,0.03057408519089222,0.008597400039434433,-0.09751353412866592,0.06665544956922531,0.011947586201131344,0.003589315339922905,-5,10,-1004,67,12,2,-9,-52,-152,1500.0,50.0
23:01:09.587,GUIDED,-35.3632616,149.1652363,8679,0.03057408519089222,0.008597400039434433,-0.09751353412866592,0.06665544956922531,0.011947586201131344,0.003589315339922905,-5,10,-1004,67,12,2,-9,-52,-152,1500.0,50.0
23:01:09.788,GUIDED,-35.3632616,149.1652363,8679,0.03057408519089222,0.008597400039434433,-0.09751353412866592,0.06665544956922531,0.011947586201131344,0.003589315339922905,-5,10,-1004,67,12,2,-9,-52,-152,1500.0,50.0
23:01:09.989,GUIDED,-35.3632616,149.1652363,8679,0.03057408519089222,0.008597400039434433,-0.09751353412866592,0.06665544956922531,0.011947586201131344,0.003589315339922905,-5,10,-1004,67,12,2,-9,-52,-152,1500.0,50.0
23:01:10.189,GUIDED,-35.3632625,149.1652333,10012,0.08272282779216766,0.011348234489560127,-0.09282282739877701,0.05200603976845741,-0.008557727560400963,0.013154665939509869,1,4,-999,52,-8,12,-14,0,-152,1500.0,50.0
23:01:10.390,GUIDED,-35.3632628,149.1652335,10402,0.07960743457078934,-0.005654708947986364,-0.07881639152765274,-0.06074884161353111,-0.11036136001348495,0.09235844016075134,3,0,-991,-60,-109,91,-12,19,-150,1500.0,50.0
23:01:10.591,GUIDED,-35.363263,149.1652341,10786,0.04964682087302208,-0.02477422170341015,-0.065926693379879,-0.1479804962873459,-0.03062177076935768,0.03050084598362446,4,-4,-992,-147,-29,29,-5,33,-147,1500.0,50.0
23:01:10.792,GUIDED,-35.3632631,149.165235,11164,0.014880778267979622,-0.022857634350657463,-0.0662156492471695,-0.12491848319768906,0.027385231107473373,-0.019461672753095627,4,-5,-1002,-124,28,-20,2,38,-147,1500.0,50.0
23:01:10.992,GUIDED,-35.3632631,149.165235,11164,0.014880778267979622,-0.022857634350657463,-0.0662156492471695,-0.12491848319768906,0.027385231107473373,-0.019461672753095627,4,-5,-1002,-124,28,-20,2,38,-147,1500.0,50.0
23:01:11.193,GUIDED,-35.363263,149.1652359,11544,-0.010062660090625286,-0.015124976634979248,-0.07467813789844513,-0.07648235559463501,0.03059256263077259,-0.04302940517663956,4,-7,-1006,-75,31,-43,8,35,-148,1500.0,50.0
23:01:11.394,GUIDED,-35.3632628,149.1652368,11928,-0.02456071227788925,-0.008607695810496807,-0.08717606216669083,-0.041865307837724686,0.022939957678318024,-0.052206482738256454,2,-7,-1006,-41,23,-53,12,27,-150,1500.0,50.0
23:01:11.595,GUIDED,-35.3632628,149.1652368,11928,-0.02456071227788925,-0.008607695810496807,-0.08717606216669083,-0.041865307837724686,0.022939957678318024,-0.052206482738256454,2,-7,-1006,-41,23,-53,12,27,-150,1500.0,50.0
23:01:11.795,GUIDED,-35.3632628,149.1652368,11928,-0.02456071227788925,-0.008607695810496807,-0.08717606216669083,-0.041865307837724686,0.022939957678318024,-0.052206482738256454,2,-7,-1006,-41,23,-53,12,27,-150,1500.0,50.0
23:01:11.996,GUIDED,-35.3632628,149.1652368,11928,-0.02456071227788925,-0.008607695810496807,-0.08717606216669083,-0.041865307837724686,0.022939957678318024,-0.052206482738256454,2,-7,-1006,-41,23,-53,12,27,-150,1500.0,50.0
23:01:12.197,GUIDED,-35.3632619,149.1652378,13088,-0.026575446128845215,0.0026559527032077312,-0.12572546303272247,0.02327745035290718,0.012956730090081692,-0.04229758679866791,-2,-2,-1002,23,13,-43,12,0,-152,1500.0,50.0
23:01:12.398,GUIDED,-35.3632617,149.1652377,13478,-0.019260475412011147,0.0053110686130821705,-0.13594789803028107,0.03179258108139038,0.012392902746796608,-0.03697836399078369,-3,0,-1001,32,12,-37,10,-7,-152,1500.0,50.0
23:01:12.598,GUIDED,-35.3632614,149.1652374,13869,-0.010860346257686615,0.00818050280213356,-0.14490185678005219,0.034454021602869034,0.011470132507383823,-0.03203941136598587,-3,0,-1000,35,12,-32,7,-11,-152,1500.0,50.0
23:01:12.800,GUIDED,-35.3632613,149.165237,14261,-0.002397695789113641,0.010483208112418652,-0.15195640921592712,0.03415490686893463,0.008459987118840218,-0.0261266827583313,-3,1,-1000,34,8,-26,5,-13,-153,1500.0,50.0
23:01:13.001,GUIDED,-35.3632613,149.165237,14261,-0.002397695789113641,0.010483208112418652,-0.15195640921592712,0.03415490686893463,0.008459987118840218,-0.0261266827583313,-3,1,-1000,34,8,-26,5,-13,-153,1500.0,50.0
23:01:13.203,GUIDED,-35.3632612,149.1652367,14653,0.004849210847169161,0.01167995110154152,-0.15672245621681213,0.024652443826198578,0.0020182079169899225,-0.012860138900578022,-3,1,-999,25,2,-13,2,-13,-153,1500.0,50.0
23:01:13.403,GUIDED,-35.3632611,149.1652363,15043,0.009957462549209595,0.011865486390888691,-0.15984369814395905,0.017382463440299034,0.0007093425374478102,-0.010023697279393673,-2,2,-999,18,1,-10,0,-11,-152,1500.0,50.0
23:01:13.604,GUIDED,-35.3632611,149.1652363,15043,0.009957462549209595,0.011865486390888691,-0.15984369814395905,0.017382463440299034,0.0007093425374478102,-0.010023697279393673,-2,2,-999,18,1,-10,0,-11,-152,1500.0,50.0
23:01:13.804,GUIDED,-35.3632611,149.1652363,15043,0.009957462549209595,0.011865486390888691,-0.15984369814395905,0.017382463440299034,0.0007093425374478102,-0.010023697279393673,-2,2,-999,18,1,-10,0,-11,-152,1500.0,50.0
23:01:14.005,GUIDED,-35.3632611,149.1652363,15043,0.009957462549209595,0.011865486390888691,-0.15984369814395905,0.017382463440299034,0.0007093425374478102,-0.010023697279393673,-2,2,-999,18,1,-10,0,-11,-152,1500.0,50.0
23:01:14.207,GUIDED,-35.3632611,149.1652356,16221,0.014084435068070889,0.009153644554316998,-0.16353994607925415,-0.0011177026899531484,-0.004259620793163776,-0.0028962024953216314,0,1,-999,0,-3,-3,-5,-1,-152,1500.0,50.0
23:01:14.407,GUIDED,-35.3632612,149.1652355,16610,0.013036026619374752,0.007803711574524641,-0.16431130468845367,-0.004981950391083956,-0.004026194103062153,-0.0033661597408354282,0,0,-999,-4,-3,-4,-6,0,-152,1500.0,50.0
23:01:14.608,GUIDED,-35.3632613,149.1652355,17000,0.01119820773601532,0.006742596160620451,-0.16577132046222687,-0.007217499893158674,-0.005092781502753496,-0.007435385137796402,0,0,-1000,-6,-4,-8,-6,3,-152,1500.0,50.0
23:01:14.809,GUIDED,-35.3632614,149.1652355,17390,0.008976412005722523,0.005644702352583408,-0.16783137619495392,-0.006771167740225792,-0.0024998909793794155,-0.010572323575615883,1,0,-1000,-5,-1,-11,-6,4,-152,1500.0,50.0
23:01:15.010,GUIDED,-35.3632614,149.1652355,17390,0.008976412005722523,0.005644702352583408,-0.16783137619495392,-0.006771167740225792,-0.0024998909793794155,-0.010572323575615883,1,0,-1000,-5,-1,-11,-6,4,-152,1500.0,50.0
23:01:15.210,GUIDED,-35.3632615,149.1652355,17780,0.006949303671717644,0.004568765871226788,-0.17030225694179535,-0.007415984757244587,-0.002978747710585594,-0.010706759057939053,1,0,-1000,-6,-2,-11,-6,5,-152,1500.0,50.0
23:01:15.411,GUIDED,-35.3632615,149.1652356,18176,0.00553009333088994,0.0036783860996365547,-0.1734417825937271,-0.00281633366830647,-0.0033890751656144857,-0.013377096503973007,0,0,-1000,-2,-2,-14,-6,6,-152,1500.0,50.0
23:01:15.612,GUIDED,-35.3632615,149.1652356,18176,0.00553009333088994,0.0036783860996365547,-0.1734417825937271,-0.00281633366830647,-0.0033890751656144857,-0.013377096503973007,0,0,-1000,-2,-2,-14,-6,6,-152,1500.0,50.0
23:01:15.813,GUIDED,-35.3632615,149.1652356,18176,0.00553009333088994,0.0036783860996365547,-0.1734417825937271,-0.00281633366830647,-0.0033890751656144857,-0.013377096503973007,0,0,-1000,-2,-2,-14,-6,6,-152,1500.0,50.0
23:01:16.014,GUIDED,-35.3632615,149.1652356,18176,0.00553009333088994,0.0036783860996365547,-0.1734417825937271,-0.00281633366830647,-0.0033890751656144857,-0.013377096503973007,0,0,-1000,-2,-2,-14,-6,6,-152,1500.0,50.0
23:01:16.215,GUIDED,-35.3632618,149.1652359,19336,0.0029642987065017223,0.0019508985569700599,-0.18541857600212097,0.0005016615614295006,8.329516276717186e-06,-0.01785406284034252,1,0,-1000,1,0,-19,-4,6,-152,1500.0,50.0
23:01:16.416,GUIDED,-35.3632618,149.165236,19726,0.002669808454811573,0.0017544834408909082,-0.1902662068605423,-0.00021114206174388528,0.0007771964883431792,-0.02224721945822239,0,0,-1000,0,1,-23,-4,5,-153,1500.0,50.0
23:01:16.617,GUIDED,-35.3632618,149.1652361,20116,0.0021736067719757557,0.0019867841619998217,-0.19558168947696686,-0.0018886745674535632,0.0019254970829933882,-0.022166848182678223,0,0,-1000,-1,2,-22,-3,5,-153,1500.0,50.0
23:01:16.818,GUIDED,-35.3632619,149.1652362,20506,0.002113000024110079,0.0018840405391529202,-0.20077063143253326,-0.0013810594100505114,0.0011461139656603336,-0.021232184022665024,0,0,-1000,0,1,-22,-3,4,-153,1500.0,50.0
23:01:17.018,GUIDED,-35.3632619,149.1652362,20506,0.002113000024110079,0.0018840405391529202,-0.20077063143253326,-0.0013810594100505114,0.0011461139656603336,-0.021232184022665024,0,0,-1000,0,1,-22,-3,4,-153,1500.0,50.0
23:01:17.219,GUIDED,-35.3632619,149.1652362,20897,0.0019467147067189217,0.002185587538406253,-0.2063174992799759,0.0002907378366217017,0.002164485165849328,-0.0214631799608469,0,0,-1000,0,2,-22,-2,4,-153,1500.0,50.0
23:01:17.419,GUIDED,-35.3632619,149.1652363,21287,0.0021310795564204454,0.0025207391008734703,-0.21189773082733154,0.001605622936040163,0.0022081939969211817,-0.02170938067138195,0,0,-1000,2,2,-22,-2,3,-153,1500.0,50.0
23:01:17.620,GUIDED,-35.3632619,149.1652363,21287,0.0021310795564204454,0.0025207391008734703,-0.21189773082733154,0.001605622936040163,0.0022081939969211817,-0.02170938067138195,0,0,-1000,2,2,-22,-2,3,-153,1500.0,50.0
23:01:17.821,GUIDED,-35.3632619,149.1652363,21287,0.0021310795564204454,0.0025207391008734703,-0.21189773082733154,0.001605622936040163,0.0022081939969211817,-0.02170938067138195,0,0,-1000,2,2,-22,-2,3,-153,1500.0,50.0
23:01:18.022,GUIDED,-35.3632619,149.1652363,21287,0.0021310795564204454,0.0025207391008734703,-0.21189773082733154,0.001605622936040163,0.0022081939969211817,-0.02170938067138195,0,0,-1000,2,2,-22,-2,3,-153,1500.0,50.0
23:01:18.223,GUIDED,-35.3632619,149.1652364,22458,0.003086002543568611,0.0034090878907591105,-0.22859424352645874,4.339631414040923e-05,0.0020578985568135977,-0.021430250257253647,0,0,-1000,0,2,-22,-2,3,-153,1500.0,50.0
23:01:18.424,GUIDED,-35.3632619,149.1652364,22855,0.0032587237656116486,0.0033011846244335175,-0.2337384670972824,0.0024230496492236853,0.000140825635753572,-0.020203471183776855,0,0,-1000,3,0,-20,-2,3,-153,1500.0,50.0
23:01:18.625,GUIDED,-35.3632619,149.1652365,23244,0.0035351524129509926,0.00311954109929502,-0.23860256373882294,0.0020487112924456596,-0.00041658099507912993,-0.01940431445837021,0,0,-1000,2,0,-20,-2,3,-153,1500.0,50.0
23:01:18.825,GUIDED,-35.3632619,149.1652365,23636,0.0034197308123111725,0.002777734072878957,-0.24324661493301392,-3.7762802094221115e-06,0.0007898827898316085,-0.018881306052207947,0,0,-1000,0,1,-19,-2,3,-153,1500.0,50.0
23:01:19.026,GUIDED,-35.3632619,149.1652365,23636,0.0034197308123111725,0.002777734072878957,-0.24324661493301392,-3.7762802094221115e-06,0.0007898827898316085,-0.018881306052207947,0,0,-1000,0,1,-19,-2,3,-153,1500.0,50.0
23:01:19.227,GUIDED,-35.3632619,149.1652365,24026,0.0030450457707047462,0.002596821403130889,-0.24784699082374573,-0.0007598085794597864,0.0008863644325174391,-0.018716862425208092,0,0,-1000,0,1,-19,-2,3,-153,1500.0,50.0
23:01:19.428,GUIDED,-35.3632619,149.1652366,24416,0.0028968211263418198,0.0025668074376881123,-0.25247445702552795,-0.0013811576645821333,0.000272432342171669,-0.017720622941851616,0,0,-1000,0,0,-18,-1,3,-153,1500.0,50.0
23:01:19.629,GUIDED,-35.3632619,149.1652366,24416,0.0028968211263418198,0.0025668074376881123,-0.25247445702552795,-0.0013811576645821333,0.000272432342171669,-0.017720622941851616,0,0,-1000,0,0,-18,-1,3,-153,1500.0,50.0
23:01:19.830,GUIDED,-35.3632619,149.1652366,24416,0.0028968211263418198,0.0025668074376881123,-0.25247445702552795,-0.0013811576645821333,0.000272432342171669,-0.017720622941851616,0,0,-1000,0,0,-18,-1,3,-153,1500.0,50.0
23:01:20.031,GUIDED,-35.3632619,149.1652366,24416,0.0028968211263418198,0.0025668074376881123,-0.25247445702552795,-0.0013811576645821333,0.000272432342171669,-0.017720622941851616,0,0,-1000,0,0,-18,-1,3,-153,1500.0,50.0
23:01:20.232,GUIDED,-35.363262,149.1652366,25575,-0.012104910798370838,0.004152127541601658,-0.26386961340904236,0.02056659758090973,0.006434853654354811,-0.004026469308882952,0,0,-1005,21,6,-4,-2,0,-152,1500.0,50.0
23:01:20.433,GUIDED,-35.363262,149.1652366,25964,-0.003247734857723117,0.005287792533636093,-0.26289501786231995,0.03895386680960655,0.003817413467913866,0.008378226310014725,0,0,-1002,39,4,7,-4,-2,-153,1500.0,50.0
23:01:20.635,GUIDED,-35.3632621,149.1652365,26354,0.005399850197136402,0.005603080615401268,-0.2593231797218323,0.02700311318039894,-0.0014424462569877505,0.017876211553812027,0,1,-1000,27,0,17,-4,-2,-153,1500.0,50.0
23:01:20.836,GUIDED,-35.3632621,149.1652364,26744,0.010687513276934624,0.004708479158580303,-0.25377732515335083,0.016359815374016762,-0.0024784868583083153,0.023983653634786606,0,1,-1000,17,-1,23,-4,0,-153,1500.0,50.0
23:01:21.036,GUIDED,-35.3632622,149.1652364,27134,0.012784204445779324,0.0036835968494415283,-0.2478475719690323,0.0058712707832455635,-0.0019402545876801014,0.02341671660542488,0,0,-999,6,-1,22,-4,1,-153,1500.0,50.0
23:01:21.237,GUIDED,-35.3632622,149.1652364,27134,0.012784204445779324,0.0036835968494415283,-0.2478475719690323,0.0058712707832455635,-0.0019402545876801014,0.02341671660542488,0,0,-999,6,-1,22,-4,1,-153,1500.0,50.0
23:01:21.438,GUIDED,-35.3632623,149.1652364,27531,0.01267488393932581,0.0027741440571844578,-0.24140307307243347,-0.004886247683316469,-0.0018118300940841436,0.024973619729280472,0,0,-999,-3,-1,24,-4,4,-153,1500.0,50.0
23:01:21.639,GUIDED,-35.3632623,149.1652364,27531,0.01267488393932581,0.0027741440571844578,-0.24140307307243347,-0.004886247683316469,-0.0018118300940841436,0.024973619729280472,0,0,-999,-3,-1,24,-4,4,-153,1500.0,50.0
23:01:21.840,GUIDED,-35.3632623,149.1652364,27531,0.01267488393932581,0.0027741440571844578,-0.24140307307243347,-0.004886247683316469,-0.0018118300940841436,0.024973619729280472,0,0,-999,-3,-1,24,-4,4,-153,1500.0,50.0
23:01:22.041,GUIDED,-35.3632623,149.1652364,27531,0.01267488393932581,0.0027741440571844578,-0.24140307307243347,-0.004886247683316469,-0.0018118300940841436,0.024973619729280472,0,0,-999,-3,-1,24,-4,4,-153,1500.0,50.0
23:01:22.242,GUIDED,-35.3632623,149.1652368,28697,0.006820595823228359,0.0022172019816935062,-0.22359758615493774,-0.007397206500172615,0.002067962661385536,0.023583674803376198,0,-1,-1000,-6,2,23,-1,9,-152,1500.0,50.0
23:01:22.443,GUIDED,-35.3632623,149.165237,29085,0.004953678697347641,0.0023317395243793726,-0.21804001927375793,-0.009292659349739552,0.0007690481725148857,0.023484522476792336,1,-1,-1000,-8,1,22,-1,9,-152,1500.0,50.0
23:01:22.644,GUIDED,-35.3632623,149.1652371,29472,0.003241472877562046,0.002586845774203539,-0.21277080476284027,-0.004264757968485355,0.0014223610050976276,0.021603142842650414,0,-1,-1000,-3,2,20,-1,9,-152,1500.0,50.0
23:01:22.845,GUIDED,-35.3632623,149.1652373,29860,0.0015533771365880966,0.002514450578019023,-0.2076658010482788,-0.005961439106613398,0.0005507864989340305,0.022067919373512268,1,-1,-1000,-5,1,21,0,8,-152,1500.0,50.0
23:01:23.046,GUIDED,-35.3632623,149.1652375,30248,0.00016160818631760776,0.002313557080924511,-0.20269814133644104,-0.0045791263692080975,0.00045020889956504107,0.021007487550377846,0,-1,-1000,-3,1,20,0,8,-152,1500.0,50.0
23:01:23.247,GUIDED,-35.3632623,149.1652375,30248,0.00016160818631760776,0.002313557080924511,-0.20269814133644104,-0.0045791263692080975,0.00045020889956504107,0.021007487550377846,0,-1,-1000,-3,1,20,0,8,-152,1500.0,50.0
23:01:23.448,GUIDED,-35.3632623,149.1652377,30636,-0.0007894352311268449,0.0021763744298368692,-0.19792164862155914,-0.0024723722599446774,-0.0018831652123481035,0.017680156975984573,0,-1,-1001,-1,-1,17,0,7,-153,1500.0,50.0
23:01:23.648,GUIDED,-35.3632623,149.1652377,30636,-0.0007894352311268449,0.0021763744298368692,-0.19792164862155914,-0.0024723722599446774,-0.0018831652123481035,0.017680156975984573,0,-1,-1001,-1,-1,17,0,7,-153,1500.0,50.0
23:01:23.850,GUIDED,-35.3632623,149.1652377,30636,-0.0007894352311268449,0.0021763744298368692,-0.19792164862155914,-0.0024723722599446774,-0.0018831652123481035,0.017680156975984573,0,-1,-1001,-1,-1,17,0,7,-153,1500.0,50.0
23:01:24.050,GUIDED,-35.3632623,149.1652377,30636,-0.0007894352311268449,0.0021763744298368692,-0.19792164862155914,-0.0024723722599446774,-0.0018831652123481035,0.017680156975984573,0,-1,-1001,-1,-1,17,0,7,-153,1500.0,50.0
23:01:24.252,GUIDED,-35.3632623,149.165238,31802,-0.0008216872811317444,0.0014304174110293388,-0.1843927502632141,0.0014789588749408722,0.00015097908908501267,0.019323894754052162,0,0,-1000,2,0,18,0,3,-153,1500.0,50.0
23:01:24.453,GUIDED,-35.3632623,149.165238,32195,-0.0006438373238779604,0.0013154507614672184,-0.18025881052017212,-0.001110067474655807,0.0005742410430684686,0.014795432798564434,0,0,-1000,0,1,14,0,2,-153,1500.0,50.0
23:01:24.653,GUIDED,-35.3632623,149.165238,32584,-0.00029522934346459806,0.001269456115551293,-0.17666205763816833,0.0007121626404114068,-0.0014351090649142861,0.0153322983533144,0,0,-1000,1,0,14,0,2,-153,1500.0,50.0
23:01:24.854,GUIDED,-35.3632623,149.165238,32973,0.00032144816941581666,0.0013090305728837848,-0.17316627502441406,0.00458745239302516,9.426451288163662e-05,0.013987217098474503,0,0,-1001,5,1,13,0,1,-153,1500.0,50.0
23:01:25.055,GUIDED,-35.3632623,149.165238,33361,0.0007993644685484469,0.0011671236716210842,-0.16946011781692505,0.0029596369713544846,0.0004672346985898912,0.01629604399204254,0,0,-999,3,1,15,0,1,-153,1500.0,50.0
23:01:25.256,GUIDED,-35.3632623,149.165238,33361,0.0007993644685484469,0.0011671236716210842,-0.16946011781692505,0.0029596369713544846,0.0004672346985898912,0.01629604399204254,0,0,-999,3,1,15,0,1,-153,1500.0,50.0
23:01:25.457,GUIDED,-35.3632623,149.165238,33750,0.001138264429755509,0.0011489223688840866,-0.16618666052818298,0.0017301528714597225,-0.0015580403851345181,0.014842783100903034,0,0,-1000,2,0,14,0,0,-153,1500.0,50.0
23:01:25.658,GUIDED,-35.3632623,149.165238,33750,0.001138264429755509,0.0011489223688840866,-0.16618666052818298,0.0017301528714597225,-0.0015580403851345181,0.014842783100903034,0,0,-1000,2,0,14,0,0,-153,1500.0,50.0
23:01:25.858,GUIDED,-35.3632623,149.165238,33750,0.001138264429755509,0.0011489223688840866,-0.16618666052818298,0.0017301528714597225,-0.0015580403851345181,0.014842783100903034,0,0,-1000,2,0,14,0,0,-153,1500.0,50.0
23:01:26.060,GUIDED,-35.3632623,149.165238,33750,0.001138264429755509,0.0011489223688840866,-0.16618666052818298,0.0017301528714597225,-0.0015580403851345181,0.014842783100903034,0,0,-1000,2,0,14,0,0,-153,1500.0,50.0
23:01:26.261,GUIDED,-35.3632623,149.165238,34912,0.0020711622200906277,0.0009388324688188732,-0.15617132186889648,0.0013122078962624073,0.0018303615506738424,0.013567648828029633,0,0,-1000,1,2,13,0,0,-153,1500.0,50.0
23:01:26.462,GUIDED,-35.3632623,149.1652379,35301,0.001781216822564602,0.0009723237017169595,-0.1531449854373932,-0.0032915922347456217,0.0001909246202558279,0.01212545856833458,0,0,-999,-2,1,11,0,0,-153,1500.0,50.0
23:01:26.663,GUIDED,-35.3632623,149.1652379,35690,0.0017601270228624344,0.0009116579894907773,-0.15022553503513336,-0.0005719903274439275,-0.0013072541914880276,0.01392260193824768,0,0,-1000,0,0,13,0,0,-153,1500.0,50.0
23:01:26.864,GUIDED,-35.3632623,149.1652379,36079,0.0017291021067649126,0.0008511827909387648,-0.14729095995426178,0.0016851411201059818,0.001288894796743989,0.014333673752844334,0,0,-1000,2,2,13,0,0,-153,1500.0,50.0
23:01:27.065,GUIDED,-35.3632622,149.1652378,36468,0.0019847562070935965,0.0010002193739637733,-0.1446722447872162,0.0011032759211957455,0.001692882739007473,0.012796783819794655,0,0,-1000,1,2,12,0,0,-153,1500.0,50.0
23:01:27.266,GUIDED,-35.3632622,149.1652378,36468,0.0019847562070935965,0.0010002193739637733,-0.1446722447872162,0.0011032759211957455,0.001692882739007473,0.012796783819794655,0,0,-1000,1,2,12,0,0,-153,1500.0,50.0
23:01:27.467,GUIDED,-35.3632622,149.1652378,36861,0.002088807988911867,0.000994458794593811,-0.14207012951374054,-0.0021684453822672367,9.400956332683563e-05,0.013038931414484978,0,0,-999,-1,1,12,0,0,-153,1500.0,50.0
23:01:27.668,GUIDED,-35.3632622,149.1652378,36861,0.002088807988911867,0.000994458794593811,-0.14207012951374054,-0.0021684453822672367,9.400956332683563e-05,0.013038931414484978,0,0,-999,-1,1,12,0,0,-153,1500.0,50.0
23:01:27.870,GUIDED,-35.3632622,149.1652378,36861,0.002088807988911867,0.000994458794593811,-0.14207012951374054,-0.0021684453822672367,9.400956332683563e-05,0.013038931414484978,0,0,-999,-1,1,12,0,0,-153,1500.0,50.0
23:01:28.070,GUIDED,-35.3632622,149.1652378,36861,0.002088807988911867,0.000994458794593811,-0.14207012951374054,-0.0021684453822672367,9.400956332683563e-05,0.013038931414484978,0,0,-999,-1,1,12,0,0,-153,1500.0,50.0
23:01:28.272,GUIDED,-35.3632622,149.1652376,38022,0.0030207927338778973,0.0010571079328656197,-0.13496430218219757,-0.00042670025140978396,-4.144210834056139e-05,0.0093729542568326,0,0,-1000,0,0,9,0,0,-153,1500.0,50.0
23:01:28.472,GUIDED,-35.3632622,149.1652376,38410,0.003089008154347539,0.0009508407674729824,-0.13243402540683746,0.002271765610203147,0.0006233150488696992,0.012008847668766975,0,0,-1000,3,1,11,0,0,-153,1500.0,50.0
23:01:28.673,GUIDED,-35.3632622,149.1652376,38798,0.002947823144495487,0.0009014963870868087,-0.13030335307121277,-0.0010508459527045488,-0.00030817731749266386,0.011746112257242203,0,0,-1000,0,0,11,0,0,-153,1500.0,50.0
23:01:28.874,GUIDED,-35.3632622,149.1652375,39188,0.0027173995040357113,0.000829775701276958,-0.12806721031665802,-0.0007098416099324822,-0.0011530742049217224,0.009382071904838085,0,0,-1000,0,0,9,0,0,-153,1500.0,50.0
23:01:29.075,GUIDED,-35.3632622,149.1652375,39576,0.002756004221737385,0.0010513922898098826,-0.12607620656490326,0.0013198626693338156,0.001914719119668007,0.009306724183261395,0,0,-1000,2,2,9,0,0,-153,1500.0,50.0
23:01:29.275,GUIDED,-35.3632622,149.1652375,39576,0.002756004221737385,0.0010513922898098826,-0.12607620656490326,0.0013198626693338156,0.001914719119668007,0.009306724183261395,0,0,-1000,2,2,9,0,0,-153,1500.0,50.0
23:01:29.477,GUIDED,-35.3632622,149.1652375,39965,0.002595240017399192,0.0014734010910615325,-0.12416236102581024,-0.0023047011345624924,0.001532736117951572,0.007747794967144728,0,0,-1000,-1,2,7,0,0,-153,1500.0,50.0
23:01:29.677,GUIDED,-35.3632622,149.1652375,39965,0.002595240017399192,0.0014734010910615325,-0.12416236102581024,-0.0023047011345624924,0.001532736117951572,0.007747794967144728,0,0,-1000,-1,2,7,0,0,-153,1500.0,50.0
23:01:29.879,GUIDED,-35.3632622,149.1652375,39965,0.002595240017399192,0.0014734010910615325,-0.12416236102581024,-0.0023047011345624924,0.001532736117951572,0.007747794967144728,0,0,-1000,-1,2,7,0,0,-153,1500.0,50.0
23:01:30.080,GUIDED,-35.3632622,149.1652375,39965,0.002595240017399192,0.0014734010910615325,-0.12416236102581024,-0.0023047011345624924,0.001532736117951572,0.007747794967144728,0,0,-1000,-1,2,7,0,0,-153,1500.0,50.0
23:01:30.282,GUIDED,-35.3632621,149.1652374,41132,0.0024652688298374414,0.0016632326878607273,-0.11835452914237976,0.0026584588922560215,0.002286179456859827,0.010491124354302883,0,0,-1000,3,3,10,0,0,-153,1500.0,50.0
23:01:30.483,GUIDED,-35.3632621,149.1652374,41524,0.002556903287768364,0.0019052731804549694,-0.11680085957050323,-0.0011975137749686837,3.0133756808936596e-05,0.004501682706177235,0,0,-1000,0,0,4,0,0,-153,1500.0,50.0
23:01:30.684,GUIDED,-35.3632621,149.1652374,41912,0.0022924672812223434,0.0017485393909737468,-0.11515851318836212,-0.004643775522708893,-0.0020810910500586033,0.006669963244348764,0,0,-1000,-3,-1,6,0,1,-153,1500.0,50.0
23:01:30.885,GUIDED,-35.3632621,149.1652374,42301,0.002280558692291379,0.0016025207005441189,-0.11336512118577957,0.002612021751701832,0.0017141717253252864,0.008401458151638508,0,0,-1000,3,2,8,0,1,-153,1500.0,50.0
23:01:31.086,GUIDED,-35.3632621,149.1652374,42689,0.0023329644463956356,0.0014309678226709366,-0.11195681244134903,0.0026167542673647404,0.0005246175569482148,0.006499914918094873,0,0,-1000,3,1,6,-1,1,-153,1500.0,50.0
23:01:31.288,GUIDED,-35.3632621,149.1652374,43079,0.002492231782525778,0.001453321659937501,-0.11018052697181702,-0.001203887746669352,-0.00022600626107305288,0.007495678961277008,0,0,-1000,3,1,6,-1,1,-153,1500.0,50.0
23:01:31.489,GUIDED,-35.3632621,149.1652374,43079,0.002492231782525778,0.001453321659937501,-0.11018052697181702,-0.001203887746669352,-0.00022600626107305288,0.007495678961277008,0,0,-1000,0,0,7,-1,1,-153,1500.0,50.0
23:01:31.690,GUIDED,-35.3632621,149.1652374,43079,0.002492231782525778,0.001453321659937501,-0.11018052697181702,-0.001203887746669352,-0.00022600626107305288,0.007495678961277008,0,0,-1000,0,0,7,-1,1,-153,1500.0,50.0
23:01:31.891,GUIDED,-35.3632621,149.1652374,43079,0.002492231782525778,0.001453321659937501,-0.11018052697181702,-0.001203887746669352,-0.00022600626107305288,0.007495678961277008,0,0,-1000,0,0,7,-1,1,-153,1500.0,50.0
23:01:32.092,GUIDED,-35.3632621,149.1652374,43079,0.002492231782525778,0.001453321659937501,-0.11018052697181702,-0.001203887746669352,-0.00022600626107305288,0.007495678961277008,0,0,-1000,0,0,7,-1,1,-153,1500.0,50.0
23:01:32.292,GUIDED,-35.363262,149.1652373,44630,0.0022826630156487226,0.0014147083275020123,-0.10392296314239502,-0.0007669054321013391,-0.00044710247311741114,0.007945486344397068,0,0,-1000,0,0,8,-1,1,-153,1500.0,50.0
23:01:32.493,GUIDED,-35.363262,149.1652373,44630,0.0022826630156487226,0.0014147083275020123,-0.10392296314239502,-0.0007669054321013391,-0.00044710247311741114,0.007945486344397068,0,0,-1000,0,0,8,-1,1,-153,1500.0,50.0
23:01:32.694,GUIDED,-35.363262,149.1652373,45018,0.0021364507265388966,0.001323021831922233,-0.1023673266172409,0.0013269784394651651,-0.000324223714414984,0.00847277045249939,0,0,-1000,2,0,8,-1,1,-153,1500.0,50.0
23:01:32.895,GUIDED,-35.363262,149.1652373,45407,0.0020967950113117695,0.0011884752893820405,-0.1009073331952095,0.004833417013287544,0.001183186424896121,0.007375100627541542,0,0,-1000,6,2,7,-1,1,-153,1500.0,50.0
23:01:33.096,GUIDED,-35.363262,149.1652373,45795,0.0019307846669107676,0.0011819825740531087,-0.09952890872955322,-0.002691319677978754,-0.0003442359156906605,0.005180667154490948,0,0,-1000,-1,0,5,-1,1,-153,1500.0,50.0
23:01:33.297,GUIDED,-35.363262,149.1652373,46187,0.00198755064047873,0.0011597973061725497,-0.09827819466590881,0.0032825046218931675,4.0379061829298735e-05,0.004696547985076904,0,0,-1001,4,1,4,-1,1,-153,1500.0,50.0
23:01:33.497,GUIDED,-35.363262,149.1652373,46187,0.00198755064047873,0.0011597973061725497,-0.09827819466590881,0.0032825046218931675,4.0379061829298735e-05,0.004696547985076904,0,0,-1001,4,1,4,-1,1,-153,1500.0,50.0
23:01:33.698,GUIDED,-35.363262,149.1652373,46187,0.00198755064047873,0.0011597973061725497,-0.09827819466590881,0.0032825046218931675,4.0379061829298735e-05,0.004696547985076904,0,0,-1001,4,1,4,-1,1,-153,1500.0,50.0
23:01:33.899,GUIDED,-35.363262,149.1652373,46187,0.00198755064047873,0.0011597973061725497,-0.09827819466590881,0.0032825046218931675,4.0379061829298735e-05,0.004696547985076904,0,0,-1001,4,1,4,-1,1,-153,1500.0,50.0
23:01:34.101,GUIDED,-35.363262,149.1652373,46187,0.00198755064047873,0.0011597973061725497,-0.09827819466590881,0.0032825046218931675,4.0379061829298735e-05,0.004696547985076904,0,0,-1001,4,1,4,-1,1,-153,1500.0,50.0
23:01:34.302,GUIDED,-35.363262,149.1652373,47738,0.0027575106360018253,0.001240095472894609,-0.09280148893594742,0.0005821399972774088,-0.000529440410900861,0.006048860028386116,0,0,-1000,1,0,6,-1,1,-153,1500.0,50.0
23:01:34.503,GUIDED,-35.363262,149.1652373,47738,0.0027575106360018253,0.001240095472894609,-0.09280148893594742,0.0005821399972774088,-0.000529440410900861,0.006048860028386116,0,0,-1000,1,0,6,-1,1,-153,1500.0,50.0
23:01:34.704,GUIDED,-35.363262,149.1652373,48126,0.002924442756921053,0.0012223640223965049,-0.0915120393037796,-0.0018782408442348242,-0.0006412271177396178,0.006959777791053057,0,0,-1000,-1,0,7,-1,1,-153,1500.0,50.0
23:01:34.905,GUIDED,-35.363262,149.1652372,48515,0.002923549385741353,0.0011309465626254678,-0.09015416353940964,0.004285971634089947,0.001006072387099266,0.006691453047096729,0,0,-1000,5,1,6,-1,1,-153,1500.0,50.0
23:01:35.106,GUIDED,-35.363262,149.1652372,48904,0.002623453503474593,0.0009222655789926648,-0.08891072124242783,-0.0023537613451480865,0.0001383594353683293,0.005951674655079842,0,0,-999,-1,0,6,-1,1,-153,1500.0,50.0
23:01:35.307,GUIDED,-35.363262,149.1652372,49293,0.0025572541635483503,0.0008445059647783637,-0.08776655793190002,-0.0012558222515508533,-0.00021118082804605365,0.0035412018187344074,0,0,-1000,0,0,3,-1,1,-153,1500.0,50.0
23:01:35.507,GUIDED,-35.363262,149.1652372,49293,0.0025572541635483503,0.0008445059647783637,-0.08776655793190002,-0.0012558222515508533,-0.00021118082804605365,0.0035412018187344074,0,0,-1000,0,0,3,-1,1,-153,1500.0,50.0
23:01:35.708,GUIDED,-35.363262,149.1652372,49293,0.0025572541635483503,0.0008445059647783637,-0.08776655793190002,-0.0012558222515508533,-0.00021118082804605365,0.0035412018187344074,0,0,-1000,0,0,3,-1,1,-153,1500.0,50.0
23:01:35.910,GUIDED,-35.363262,149.1652372,49293,0.0025572541635483503,0.0008445059647783637,-0.08776655793190002,-0.0012558222515508533,-0.00021118082804605365,0.0035412018187344074,0,0,-1000,0,0,3,-1,1,-153,1500.0,50.0
23:01:36.116,GUIDED,-35.363262,149.1652372,49293,0.0025572541635483503,0.0008445059647783637,-0.08776655793190002,-0.0012558222515508533,-0.00021118082804605365,0.0035412018187344074,0,0,-1000,0,0,3,-1,1,-153,1500.0,50.0
23:01:36.317,GUIDED,-35.363262,149.1652372,50851,0.0019693495705723763,0.0013321420410647988,-0.08229188621044159,0.00016062345821410418,-0.00036822259426116943,0.0044595529325306416,0,0,-1000,1,0,4,-1,1,-153,1500.0,50.0
23:01:36.518,GUIDED,-35.363262,149.1652372,50851,0.0019693495705723763,0.0013321420410647988,-0.08229188621044159,0.00016062345821410418,-0.00036822259426116943,0.0044595529325306416,0,0,-1000,1,0,4,-1,1,-153,1500.0,50.0
23:01:36.719,GUIDED,-35.363262,149.1652372,51239,0.001966689247637987,0.0012827131431549788,-0.08112539350986481,-0.00011855328921228647,-0.0006739615928381681,0.004468420520424843,0,0,-1000,1,0,4,-1,1,-153,1500.0,50.0
23:01:36.920,GUIDED,-35.363262,149.1652372,51627,0.0023130832705646753,0.0012620199704542756,-0.07984910160303116,0.003042458789423108,0.0018971923273056746,0.0061953747645020485,0,0,-1000,3,2,6,-1,1,-153,1500.0,50.0
23:01:37.121,GUIDED,-35.363262,149.1652372,52016,0.0018412418430671096,0.0007828508969396353,-0.07859737426042557,-0.0020622704178094864,-0.0011760916095227003,0.006100979633629322,0,0,-1000,-1,0,6,-1,1,-153,1500.0,50.0
23:01:37.321,GUIDED,-35.363262,149.1652372,52405,0.0015072111273184419,0.0008163097081705928,-0.07757247984409332,0.0007986726704984903,0.00122111476957798,0.004349289461970329,0,0,-1001,1,2,4,-1,1,-153,1500.0,50.0
23:01:37.522,LAND,-35.363262,149.1652372,52405,0.0015072111273184419,0.0008163097081705928,-0.07757247984409332,0.0007986726704984903,0.00122111476957798,0.004349289461970329,0,0,-1001,1,2,4,-1,1,-153,1500.0,50.0
23:01:37.724,LAND,-35.363262,149.1652372,52405,0.0015072111273184419,0.0008163097081705928,-0.07757247984409332,0.0007986726704984903,0.00122111476957798,0.004349289461970329,0,0,-1001,1,2,4,-1,1,-153,1500.0,50.0
23:01:37.926,LAND,-35.363262,149.1652372,52405,0.0015072111273184419,0.0008163097081705928,-0.07757247984409332,0.0007986726704984903,0.00122111476957798,0.004349289461970329,0,0,-1001,1,2,4,-1,1,-153,1500.0,50.0
23:01:38.127,LAND,-35.363262,149.1652372,52405,0.0015072111273184419,0.0008163097081705928,-0.07757247984409332,0.0007986726704984903,0.00122111476957798,0.004349289461970329,0,0,-1001,1,2,4,-1,1,-153,1500.0,50.0
23:01:38.330,LAND,-35.363262,149.1652372,53959,0.0016177877550944686,0.0009187141549773514,-0.0738653913140297,0.00014324334915727377,-0.00044730998342856765,0.002861354034394026,0,0,-1000,1,0,3,-1,1,-153,1500.0,50.0
23:01:38.532,LAND,-35.363262,149.1652372,53959,0.0016177877550944686,0.0009187141549773514,-0.0738653913140297,0.00014324334915727377,-0.00044730998342856765,0.002861354034394026,0,0,-1000,1,0,3,-1,1,-153,1500.0,50.0
23:01:38.733,LAND,-35.363262,149.1652372,54344,-0.006621244829148054,0.008334142155945301,-0.05662616342306137,-0.10171341896057129,0.09858127683401108,0.20991797745227814,-1,-1,-959,-100,99,210,-1,0,-148,1500.0,50.0
23:01:38.935,LAND,-35.363262,149.1652372,54708,-0.044976457953453064,0.05148237571120262,0.04656504467129707,-0.2052314132452011,0.18252131342887878,0.6019028425216675,0,0,-952,-204,183,602,-8,-6,-137,1500.0,50.0
23:01:39.136,LAND,-35.3632623,149.1652368,55036,-0.06632132828235626,0.07751673460006714,0.18950308859348297,0.0007412899285554886,-0.09060557186603546,0.451589435338974,2,5,-907,1,-89,451,-22,-21,-117,1500.0,50.0
23:01:39.338,LAND,-35.3632629,149.165236,55306,-0.045362211763858795,0.03342026472091675,0.27549979090690613,0.09237727522850037,-0.23390907049179077,0.2518363296985626,3,7,-905,93,-233,252,-30,-35,-93,1500.0,70.0
23:01:39.539,LAND,-35.3632629,149.165236,55306,-0.045362211763858795,0.03342026472091675,0.27549979090690613,0.09237727522850037,-0.23390907049179077,0.2518363296985626,3,7,-905,93,-233,252,-30,-35,-93,1500.0,70.0
23:01:39.741,LAND,-35.3632629,149.165236,55306,-0.045362211763858795,0.03342026472091675,0.27549979090690613,0.09237727522850037,-0.23390907049179077,0.2518363296985626,3,7,-905,93,-233,252,-30,-35,-93,1500.0,70.0
23:01:39.942,LAND,-35.3632629,149.165236,55306,-0.045362211763858795,0.03342026472091675,0.27549979090690613,0.09237727522850037,-0.23390907049179077,0.2518363296985626,3,7,-905,93,-233,252,-30,-35,-93,1500.0,70.0
23:01:40.144,LAND,-35.3632629,149.165236,55306,-0.045362211763858795,0.03342026472091675,0.27549979090690613,0.09237727522850037,-0.23390907049179077,0.2518363296985626,3,7,-905,93,-233,252,-30,-35,-93,1500.0,70.0
23:01:40.346,LAND,-35.3632647,149.1652325,55842,0.027779655531048775,-0.05818616598844528,0.3414645195007324,-0.3458119034767151,0.01201512198895216,-0.019518055021762848,0,0,-926,-344,13,-18,-2,-13,-14,1500.0,70.0
23:01:40.547,LAND,-35.3632647,149.1652322,55854,0.0408678874373436,-0.05200349912047386,0.33397176861763,0.37051716446876526,0.02926626056432724,-0.02781887724995613,0,39,-934,373,30,-27,5,-1,4,1500.0,70.0
23:01:40.748,LAND,-35.3632647,149.1652322,55854,0.0408678874373436,-0.05200349912047386,0.33397176861763,0.37051716446876526,0.02926626056432724,-0.02781887724995613,0,39,-934,373,30,-27,5,-1,4,1500.0,70.0
23:01:40.949,LAND,-35.3632645,149.1652323,55824,0.05224413424730301,-0.04090619832277298,0.324562132358551,0.9218746423721313,0.0403364822268486,-0.03590770065784454,0,38,-969,923,41,-35,12,10,17,1500.0,70.0
23:01:41.150,LAND,-35.3632642,149.1652326,55762,0.05190456658601761,-0.028660466894507408,0.3140353560447693,0.7865461111068726,0.04067239537835121,-0.04434186592698097,-1,11,-982,786,41,-43,17,19,29,1500.0,70.0
23:01:41.351,LAND,-35.3632638,149.1652331,55677,0.043513279408216476,-0.016674699261784554,0.30376482009887695,0.34750109910964966,0.04090758413076401,-0.04414033517241478,0,-16,-946,346,42,-43,20,25,37,1500.0,70.0
23:01:41.552,LAND,-35.3632638,149.1652331,55677,0.043513279408216476,-0.016674699261784554,0.30376482009887695,0.34750109910964966,0.04090758413076401,-0.04414033517241478,0,-16,-946,346,42,-43,20,25,37,1500.0,70.0
23:01:41.753,LAND,-35.3632638,149.1652331,55677,0.043513279408216476,-0.016674699261784554,0.30376482009887695,0.34750109910964966,0.04090758413076401,-0.04414033517241478,0,-16,-946,346,42,-43,20,25,37,1500.0,70.0
23:01:41.954,LAND,-35.3632638,149.1652331,55677,0.043513279408216476,-0.016674699261784554,0.30376482009887695,0.34750109910964966,0.04090758413076401,-0.04414033517241478,0,-16,-946,346,42,-43,20,25,37,1500.0,70.0
23:01:42.155,LAND,-35.3632638,149.1652331,55677,0.043513279408216476,-0.016674699261784554,0.30376482009887695,0.34750109910964966,0.04090758413076401,-0.04414033517241478,0,-16,-946,346,42,-43,20,25,37,1500.0,70.0
23:01:42.365,LAND,-35.3632621,149.1652364,55100,0.0059354244731366634,0.012733991257846355,0.268984854221344,-0.32767677307128906,0.01123511791229248,-0.04414517804980278,-1,-60,-1028,-329,12,-43,17,27,68,1500.0,70.0
23:01:42.566,LAND,-35.3632617,149.1652371,54931,-0.006073393858969212,0.014920154586434364,0.2608030438423157,-0.8009520173072815,0.022399596869945526,-0.03937649354338646,0,-65,-1019,-801,23,-38,14,24,62,1500.0,70.0
23:01:42.768,LAND,-35.3632617,149.1652371,54931,-0.006073393858969212,0.014920154586434364,0.2608030438423157,-0.8009520173072815,0.022399596869945526,-0.03937649354338646,0,-65,-1019,-801,23,-38,14,24,62,1500.0,70.0
23:01:42.969,LAND,-35.3632615,149.1652379,54770,-0.011554567143321037,0.016247492283582687,0.2530796527862549,-0.9898504614830017,-0.0022623518016189337,-0.02652864158153534,1,-71,-1016,-990,-1,-26,11,20,61,1500.0,70.0
23:01:43.170,LAND,-35.3632613,149.1652386,54621,-0.023707492277026176,0.01583287864923477,0.24540603160858154,-1.068956971168518,0.00024156318977475166,-0.02955332212150097,2,-43,-1018,-1067,1,-29,8,17,53,1500.0,70.0
23:01:43.371,LAND,-35.3632612,149.1652393,54478,-0.03224032744765282,0.015265465714037418,0.23756316304206848,-0.8654528260231018,-0.004832937847822905,-0.033869288861751556,2,-25,-1022,-863,-3,-33,6,14,54,1500.0,180.0
23:01:43.573,LAND,-35.3632612,149.1652393,54478,-0.03224032744765282,0.015265465714037418,0.23756316304206848,-0.8654528260231018,-0.004832937847822905,-0.033869288861751556,2,-25,-1022,-863,-3,-33,6,14,54,1500.0,180.0
23:01:43.774,LAND,-35.3632612,149.1652393,54478,-0.03224032744765282,0.015265465714037418,0.23756316304206848,-0.8654528260231018,-0.004832937847822905,-0.033869288861751556,2,-25,-1022,-863,-3,-33,6,14,54,1500.0,180.0
23:01:43.975,LAND,-35.3632612,149.1652393,54478,-0.03224032744765282,0.015265465714037418,0.23756316304206848,-0.8654528260231018,-0.004832937847822905,-0.033869288861751556,2,-25,-1022,-863,-3,-33,6,14,54,1500.0,180.0
23:01:44.177,LAND,-35.3632612,149.1652393,54478,-0.03224032744765282,0.015265465714037418,0.23756316304206848,-0.8654528260231018,-0.004832937847822905,-0.033869288861751556,2,-25,-1022,-863,-3,-33,6,14,54,1500.0,180.0
23:01:44.379,LAND,-35.3632614,149.1652413,53592,-0.054780103266239166,0.007013767957687378,0.2084147185087204,-1.7919697761535645,-0.017330411821603775,-0.007258621044456959,2,-55,-935,-1790,-16,-6,1,-4,139,1500.0,180.0
23:01:44.580,LAND,-35.3632615,149.1652414,53218,-0.034996356815099716,0.003651773789897561,0.2025405913591385,-1.6725502014160156,-0.012868874706327915,-0.023477546870708466,1,-97,-1002,-1673,-11,-22,1,-9,144,1500.0,180.0
23:01:44.780,LAND,-35.3632615,149.1652414,53218,-0.034996356815099716,0.003651773789897561,0.2025405913591385,-1.6725502014160156,-0.012868874706327915,-0.023477546870708466,1,-97,-1002,-1673,-11,-22,1,-9,144,1500.0,180.0
23:01:44.981,LAND,-35.3632616,149.1652416,52847,-0.017736488953232765,0.0009576192242093384,0.19735068082809448,-1.0115776062011719,0.004686224274337292,-0.019808020442724228,2,-84,-1065,-1013,5,-19,1,-12,135,1500.0,180.0
23:01:45.182,LAND,-35.3632618,149.1652417,52495,-0.01198685821145773,-0.0011046173749491572,0.19048720598220825,-0.2430676370859146,-0.007684336043894291,-0.03734474629163742,1,-65,-986,-245,-6,-36,1,-14,135,1500.0,180.0
23:01:45.383,LAND,-35.363262,149.1652418,52167,-0.004636388272047043,-0.002385201398283243,0.1843874752521515,0.12234895676374435,-0.010906180366873741,-0.027580158784985542,1,-47,-960,119,-10,-27,2,-17,121,1500.0,180.0
23:01:45.584,LAND,-35.363262,149.1652418,52167,-0.004636388272047043,-0.002385201398283243,0.1843874752521515,0.12234895676374435,-0.010906180366873741,-0.027580158784985542,1,-47,-960,119,-10,-27,2,-17,121,1500.0,180.0
23:01:45.785,LAND,-35.363262,149.1652418,52167,-0.004636388272047043,-0.002385201398283243,0.1843874752521515,0.12234895676374435,-0.010906180366873741,-0.027580158784985542,1,-47,-960,119,-10,-27,2,-17,121,1500.0,180.0
23:01:45.986,LAND,-35.363262,149.1652418,52167,-0.004636388272047043,-0.002385201398283243,0.1843874752521515,0.12234895676374435,-0.010906180366873741,-0.027580158784985542,1,-47,-960,119,-10,-27,2,-17,121,1500.0,180.0
23:01:46.186,LAND,-35.3632623,149.1652416,51219,0.0014743544161319733,-0.005918892100453377,0.17261861264705658,0.9896249771118164,-0.010194123722612858,-0.009996293112635612,0,20,-1109,988,-9,-9,4,-21,113,1500.0,180.0
23:01:46.387,LAND,-35.3632625,149.1652414,50917,0.013416006229817867,-0.005508280359208584,0.16699157655239105,1.7500262260437012,0.0012890450889244676,-0.010571913793683052,0,51,-952,1749,2,-9,5,-22,123,1500.0,180.0
23:01:46.589,LAND,-35.3632625,149.1652412,50600,0.009117267094552517,-0.004793516360223293,0.16350960731506348,1.3481175899505615,0.005287126637995243,-0.019093720242381096,1,39,-1038,1347,6,-18,6,-22,112,1500.0,180.0
23:01:46.790,LAND,-35.3632625,149.1652412,50600,0.009117267094552517,-0.004793516360223293,0.16350960731506348,1.3481175899505615,0.005287126637995243,-0.019093720242381096,1,39,-1038,1347,6,-18,6,-22,112,1500.0,180.0
23:01:46.991,LAND,-35.3632625,149.1652411,50300,0.010116205550730228,-0.004408996552228928,0.15988920629024506,1.5147085189819336,-0.008159282617270947,-0.005604370031505823,0,46,-1011,1514,-7,-5,6,-22,115,1500.0,180.0
23:01:47.192,LAND,-35.3632626,149.1652409,49992,0.007702376693487167,-0.005312648601830006,0.15726830065250397,1.5685551166534424,-0.01080857403576374,-0.013557902537286282,2,64,-1041,1569,-9,-13,7,-22,117,1500.0,180.0
23:01:47.393,LAND,-35.3632627,149.1652408,49689,0.0041774543933570385,-0.005243188235908747,0.15215957164764404,1.560394525527954,-0.002523931907489896,-0.009753778576850891,0,69,-1019,1561,-1,-9,8,-22,114,1500.0,50.0
23:01:47.594,LAND,-35.3632627,149.1652408,49689,0.0041774543933570385,-0.005243188235908747,0.15215957164764404,1.560394525527954,-0.002523931907489896,-0.009753778576850891,0,69,-1019,1561,-1,-9,8,-22,114,1500.0,50.0
23:01:47.796,LAND,-35.3632627,149.1652408,49689,0.0041774543933570385,-0.005243188235908747,0.15215957164764404,1.560394525527954,-0.002523931907489896,-0.009753778576850891,0,69,-1019,1561,-1,-9,8,-22,114,1500.0,50.0
23:01:47.997,LAND,-35.3632627,149.1652408,49689,0.0041774543933570385,-0.005243188235908747,0.15215957164764404,1.560394525527954,-0.002523931907489896,-0.009753778576850891,0,69,-1019,1561,-1,-9,8,-22,114,1500.0,50.0
23:01:48.197,LAND,-35.3632628,149.1652408,49173,-0.009445123374462128,-0.003251882502809167,0.142837792634964,0.044070180505514145,-0.0025831134989857674,-0.015303639695048332,0,-24,-993,42,-1,-15,9,-24,38,1500.0,50.0
23:01:48.399,LAND,-35.3632628,149.1652408,49067,-0.015148092992603779,-0.004202195443212986,0.13911743462085724,-0.24314503371715546,-0.00703558512032032,-0.021874327212572098,0,-43,-973,-245,-6,-21,9,-24,43,1500.0,50.0
23:01:48.600,LAND,-35.3632629,149.1652409,48957,-0.0281789842993021,-0.004155786707997322,0.13614456355571747,-0.8806164264678955,0.0004999114316888154,-0.023368431255221367,0,-54,-972,-882,1,-22,9,-25,43,1500.0,50.0
23:01:48.801,LAND,-35.3632629,149.1652409,48837,-0.032510049641132355,-0.0037424247711896896,0.13244237005710602,-1.01984703540802,0.004392390605062246,-0.020670214667916298,0,-48,-993,-1020,5,-20,9,-26,48,1500.0,50.0
23:01:49.002,LAND,-35.3632629,149.1652409,48837,-0.032510049641132355,-0.0037424247711896896,0.13244237005710602,-1.01984703540802,0.004392390605062246,-0.020670214667916298,0,-48,-993,-1020,5,-20,9,-26,48,1500.0,50.0
23:01:49.203,LAND,-35.3632629,149.1652409,48709,-0.036764148622751236,-0.0036220874171704054,0.1290714591741562,-0.994796872138977,-0.0038262074813246727,-0.009923966601490974,0,-26,-980,-994,-2,-9,9,-26,53,1500.0,50.0
23:01:49.404,LAND,-35.3632629,149.1652409,48569,-0.03385264798998833,-0.004168716724961996,0.1261795610189438,-0.5067211389541626,0.004545888397842646,-0.013672662898898125,-1,6,-1010,-505,5,-13,9,-26,54,1500.0,50.0
23:01:49.605,LAND,-35.3632629,149.1652409,48569,-0.03385264798998833,-0.004168716724961996,0.1261795610189438,-0.5067211389541626,0.004545888397842646,-0.013672662898898125,-1,6,-1010,-505,5,-13,9,-26,54,1500.0,50.0
23:01:49.806,LAND,-35.3632629,149.1652409,48569,-0.03385264798998833,-0.004168716724961996,0.1261795610189438,-0.5067211389541626,0.004545888397842646,-0.013672662898898125,-1,6,-1010,-505,5,-13,9,-26,54,1500.0,50.0
23:01:50.008,LAND,-35.3632629,149.1652409,48569,-0.03385264798998833,-0.004168716724961996,0.1261795610189438,-0.5067211389541626,0.004545888397842646,-0.013672662898898125,-1,6,-1010,-505,5,-13,9,-26,54,1500.0,50.0
23:01:50.210,LAND,-35.3632629,149.1652408,48125,-0.01341556292027235,-0.004679717123508453,0.1174500435590744,0.8040282726287842,0.0005501901032403111,-0.00818515382707119,0,62,-996,805,1,-7,8,-27,59,1500.0,50.0
23:01:50.411,LAND,-35.3632629,149.1652406,47972,-0.0032538259401917458,-0.005748278461396694,0.11521963775157928,1.0571303367614746,-0.012964913621544838,-0.012473661452531815,0,54,-1016,1057,-12,-12,8,-27,59,1500.0,50.0
23:01:50.612,LAND,-35.3632629,149.1652406,47818,0.0020507024601101875,-0.006774513050913811,0.11201798170804977,1.1395922899246216,0.007470076438039541,-0.004232480190694332,-3,49,-1002,1139,8,-3,8,-27,60,1500.0,50.0
23:01:50.815,LAND,-35.3632629,149.1652404,47663,0.0030921814031898975,-0.007586885243654251,0.10966756939888,0.8994497656822205,-0.00616501085460186,-0.00579326506704092,0,24,-1018,898,-5,-5,8,-27,60,1500.0,50.0
23:01:51.016,LAND,-35.3632629,149.1652404,47663,0.0030921814031898975,-0.007586885243654251,0.10966756939888,0.8994497656822205,-0.00616501085460186,-0.00579326506704092,0,24,-1018,898,-5,-5,8,-27,60,1500.0,50.0
23:01:51.217,LAND,-35.3632629,149.1652402,47511,0.006812124513089657,-0.007776571437716484,0.1068851575255394,0.5706470608711243,-0.009583869017660618,-0.007662850432097912,-1,-2,-979,568,-8,-7,7,-27,60,1500.0,80.0
