time_stamp,RTL_ALT,roll,pitch,yaw,rollspeed,pitchspeed,yawspeed,xacc,yacc,zacc,xgyro,ygyro,zgyro,lat,lon,relative_alt,vx,vy,vz,MODE
09:47:37,299010.0,-0.001125355833210051,0.0009128839592449367,0.025097055360674858,0.0002036770456470549,0.00018241466023027897,0.001849619671702385,0.0,1.0,-1000.0,0.0,0.0,0.0,-35.3632621,149.1652375,0.0,-1.0,1.0,1.0,STABILIZE
09:47:45,299010.0,-0.0008944128931034356,0.0009557743323966861,0.022925108671188354,0.00031831179512664676,0.00017731613479554653,0.0015466398908756673,0.0,2.0,-1000.0,0.0,0.0,0.0,-35.3632622,149.1652375,12.0,-1.0,1.0,0.0,STABILIZE
09:47:47,179642.0,-0.0009401598072145134,0.000960947189014405,0.022432618774473667,0.00029302629991434515,0.000309873023070395,0.001546130166389048,0.0,1.5,-1000.0,0.5,0.0,0.0,-35.36326215,149.1652375,5.0,-1.0,1.0,0.0,AUTO
09:47:49,60274.0,-0.00037130371492821723,0.0013502067304216325,0.02193577867001295,0.0002991447108797729,0.000283511180896312,0.00146483292337507,0.0,1.0,-1000.0,0.0,0.0,0.5,-35.3632621,149.1652375,4.0,0.0,0.0,1.0,AUTO
09:47:50,251222.0,-0.00019189095655747224,0.0015656021132599562,0.021707121282815933,0.00034383905585855246,0.0002889440656872466,0.0014335789892356843,0.0,1.5,-1000.0,0.5,0.25,0.0,-35.3632621,149.1652374,4.0,0.0,0.0,0.0,AUTO
09:47:51,251222.0,0.0029707635985687375,0.0005594470712821931,0.021522006019949913,-0.0016022032359614968,0.004624162684194744,0.001090019170078449,0.0,0.0,-1120.0,-1.0,5.0,0.5,-35.3632621,149.1652375,295.5,0.0,0.5,-83.5,AUTO
09:47:53,269217.5,0.05408458225429058,-0.00012184493243694305,-0.01748357410542667,-0.0602674875408411,0.05763438576832414,-0.06986373476684093,1.5,-8.5,-991.5,-60.0,57.5,-70.0,-35.363261550000004,149.16524025,3099.0,8.5,46.5,-147.0,AUTO
09:47:55,287213.0,-0.07944635301828384,0.033855972811579704,-0.12316685169935226,0.033491121139377356,0.01456479518674314,-0.0743839219212532,-4.0,1.5,-1005.0,33.5,15.0,-74.5,-35.363259150000005,149.16524615,6157.5,3.5,-28.0,-149.0,AUTO
09:47:56,70223.0,-0.036153675289824605,0.036691512912511826,-0.15598928928375244,0.06806662026792765,0.005296693765558302,-0.028190964367240667,-3.5,13.0,-1001.75,68.25,5.5,-28.25,-35.363260075,149.165242125,7304.0,-28.75,-60.0,-148.75,AUTO
09:47:57,70223.0,0.021856063045561314,-0.0024266797117888927,-0.12976478412747383,-0.02210225071758032,-0.12338941544294357,0.11001826450228691,5.5,15.0,-1002.5,-20.5,-122.5,109.0,-35.3632656,149.16523435,9228.0,-61.5,-35.0,-150.5,AUTO
09:47:59,90277.5,0.06600562296807766,-0.07669378444552422,-0.01161663536913693,-0.08106153458356857,0.06340147205628455,-0.026596935465931892,-7.0,-14.0,-989.5,-80.5,63.5,-27.0,-35.3632666,149.16523425,12332.5,69.0,51.5,-144.5,AUTO
09:48:01,110332.0,-0.05580710805952549,0.057375067844986916,-0.188512422144413,0.03324263170361519,0.03317952994257212,-0.052600184455513954,-10.0,-3.5,-1002.0,34.0,33.5,-52.0,-35.3632532,149.16524065,15394.0,30.0,-23.0,-155.0,AUTO
09:48:02,77944.0,-0.01956042816163972,0.0688750296831131,-0.2110903598368168,0.0595189006999135,0.0076977432472631335,-0.01987431407906115,-3.5,8.25,-1000.0,60.0,8.0,-19.75,-35.363253025,149.16523785,16567.75,-23.75,-38.25,-152.75,AUTO
09:48:03,77944.0,0.027549080550670624,0.017465707613155246,-0.1810479462146759,-0.0972096249461174,-0.17931483685970306,0.16358088701963425,13.5,11.5,-997.5,-96.0,-178.0,162.5,-35.3632592,149.1652343,18503.0,-81.0,4.0,-149.5,AUTO
09:48:05,183393.5,0.04044920392334461,-0.016918599139899015,0.023282221518456936,-0.005023454083129764,0.04227280803024769,-0.009378015762194991,-1.5,-3.0,-963.5,-4.5,42.0,-9.0,-35.3632642,149.16523345000002,20754.0,15.0,11.0,-60.0,AUTO
09:48:07,288843.0,-0.005997686181217432,0.015045826323330402,0.017602602019906044,-0.030954894609749317,-0.0015188181423582137,-0.0030481795547530055,1.0,-6.5,-972.5,-30.5,-1.0,-2.5,-35.3632614,149.16523819999998,21424.5,5.0,21.0,-9.5,AUTO
09:48:08,173670.0,-0.016241881879977882,0.027735975570976734,0.015097724506631494,0.1780286245048046,0.042849493969697505,-0.00521310226758942,1.25,1.0,-983.5,178.5,43.5,-4.75,-35.363261275,149.165239125,21369.25,-6.25,3.5,14.75,AUTO
09:48:09,173670.0,0.05244198627769947,0.05924699641764164,0.015846433583647013,0.46350032091140747,0.0365950632840395,0.03833043988561258,12.5,18.5,-1019.5,464.0,37.0,37.5,-35.3632638,149.16523955,21186.0,-48.0,21.0,1.0,AUTO
09:48:11,126954.0,0.04838304501026869,-0.15595357865095139,2.44277286529541,0.19606718327850103,-0.03768021333962679,1.0959873497486115,-44.5,-28.5,-1006.5,197.0,-36.5,1095.5,-35.363283300000006,149.16525665,21220.0,-185.5,137.0,-7.0,AUTO
09:48:13,80238.0,0.04845169559121132,-0.19735413044691086,2.561169385910034,0.01441613957285881,-0.02699181344360113,0.010715701850131154,-95.5,-46.0,-1004.0,15.0,-26.0,10.0,-35.363335,149.1653023,21377.5,-376.0,268.0,-14.0,AUTO
09:48:14,200009.0,0.05403226986527443,-0.204764224588871,2.5648255944252014,0.006204522680491209,0.012497332878410816,0.00046068891242612153,-115.25,-56.0,-1009.5,6.75,12.75,0.75,-35.363363025,149.16532675,21478.25,-442.5,313.75,-17.25,AUTO
09:48:15,200009.0,0.06714216992259026,-0.16913748532533646,2.5621026754379272,0.014520727563649416,0.017633134964853525,0.0004594451456796378,-124.5,-54.0,-990.0,15.5,18.5,0.5,-35.3634178,149.1653742,21752.0,-520.5,366.0,-28.0,AUTO
09:48:17,175663.0,0.0775383971631527,-0.12889264523983002,2.5578572750091553,-0.017046960536390543,0.032045251689851284,-0.00150308629963547,-136.0,-77.5,-985.5,-15.5,32.0,-1.0,-35.3635166,149.1654593,22283.5,-560.5,392.5,-25.0,AUTO
09:48:19,151317.0,0.0750475823879242,-0.13928112387657166,2.552680492401123,0.002113147114869207,-0.004131155845243484,-0.005377835244871676,-155.0,-67.5,-993.0,2.5,-3.0,-5.0,-35.36361765,149.16554595,22672.5,-563.0,394.0,-17.5,AUTO
09:48:20,14101.0,0.08067105151712894,-0.12326360866427422,2.551189363002777,-0.0025355936668347567,0.05323325004428625,-0.003153658821247518,-138.0,-74.25,-996.75,-2.0,53.5,-2.75,-35.363655800000004,149.16557899999998,22815.75,-562.75,396.0,-21.0,AUTO
09:48:21,14101.0,0.08461932465434074,-0.05591920390725136,2.5509873628616333,-0.012033306062221527,0.04994260333478451,-0.002557346801040694,-127.0,-76.5,-982.5,-10.5,50.0,-2.0,-35.36371785,149.1656327,23138.5,-525.0,368.0,-26.0,AUTO
09:48:23,23141.0,0.06201484613120556,0.03613925073295832,2.5504528284072876,-0.17975303530693054,0.04639268480241299,0.007744577975245193,-87.5,-66.5,-993.0,-179.0,46.5,7.0,-35.3638006,149.16570295,23500.0,-371.5,258.5,-9.5,AUTO
09:48:25,32181.0,0.046611685305833817,0.06916443631052971,2.549451470375061,0.27862113155424595,0.026808620430529118,0.0010945219546556473,-46.0,-27.5,-1000.0,278.5,27.0,1.0,-35.3638502,149.1657453,23576.5,-184.5,126.0,-4.0,AUTO
09:48:26,242171.0,0.02894396660849452,0.08221231587231159,2.548484981060028,0.016836464405059814,-0.004211813444271684,-0.0044594507198780775,-28.75,-16.75,-1005.5,18.0,-3.0,-4.75,-35.363860149999994,149.16575395,23603.25,-119.25,77.75,-3.0,AUTO
09:48:27,242171.0,0.01100769522599876,0.05635152570903301,2.5466688871383667,0.2856166251003742,-0.01017898553982377,-0.008742881938815117,-9.0,15.0,-1003.5,287.0,-9.0,-8.5,-35.36386885,149.16576129999999,23627.0,-39.0,20.0,-0.5,AUTO
09:48:29,260300.5,0.0034155077300965786,0.010194035014137626,2.5440863370895386,0.4017099291086197,-0.02493069227784872,0.0016303390148095787,0.0,14.5,-998.0,402.0,-23.5,1.5,-35.36387085,149.16576285000002,23641.0,10.5,-7.0,0.0,AUTO
09:48:31,278430.0,0.008973912335932255,0.011664314661175013,2.5412780046463013,0.24014372751116753,0.006820170674473047,0.002257697517052293,0.0,9.0,-1041.0,240.5,7.5,2.0,-35.3638704,149.16576314999998,23771.5,6.5,-6.0,-28.0,RTL
09:48:32,192920.0,0.0022788946189393755,0.011501598404720426,2.540205478668213,-0.05952176824212074,0.0027907624607905746,-0.00015298108701244928,0.0,-2.25,-1045.0,-58.5,3.75,-0.25,-35.3638704,149.165763175,24123.25,6.5,-7.0,-60.5,RTL
09:48:33,192920.0,0.005864456761628389,0.010798024013638496,2.5386725664138794,0.010402657324448228,0.00047895859461277723,-0.0008035703212954104,0.0,0.0,-1060.0,11.0,2.0,-0.5,-35.3638704,149.1657631,25235.0,7.0,-7.5,-118.5,RTL
09:48:35,125695.5,0.04699639976024628,0.00920164433773607,2.5139580965042114,-0.09345873817801476,0.07054559700191021,-0.08922098949551582,3.0,-9.0,-990.5,-92.0,72.0,-88.5,-35.3638719,149.16576085000003,28187.0,-30.0,-38.5,-147.0,RTL
09:48:37,58471.0,-0.03669726010411978,0.0011177601700183004,2.4372963905334473,0.06144987232983112,0.001750888244714588,-0.006488345563411713,-3.5,8.5,-1000.5,62.0,3.0,-5.5,-35.3638726,149.16575895,31238.5,33.5,31.0,-149.5,RTL
09:48:38,231958.0,0.011481448891572654,0.005184820853173733,2.4350120425224304,0.06638525985181332,0.005881455261260271,0.0007955037508509122,-4.75,10.5,-1003.0,67.0,6.75,1.0,-35.363869949999994,149.165761875,32401.25,36.5,30.0,-151.5,RTL
09:48:39,231958.0,0.03441699128597975,-0.024089875631034374,2.46792733669281,-0.054825035855174065,-0.002528304234147072,0.02037314185872674,0.0,1.5,-997.0,-53.0,-1.0,20.5,-35.36386695,149.16576415,34356.0,0.0,-3.5,-150.5,RTL
09:48:41,263611.0,0.0021705311082769185,0.011649435386061668,2.405081272125244,0.010770315770059824,0.003948481986299157,-0.024322781711816788,-2.0,-1.0,-1000.0,10.0,6.0,-26.0,-35.36386855000001,149.1657649,37466.0,-6.0,2.5,-152.0,RTL
09:48:43,295264.0,0.004969877423718572,0.007496112957596779,2.370747208595276,-0.003800430567935109,-0.00467621604911983,-0.015077037271112204,1.0,-0.5,-1000.0,-2.0,-2.0,-14.0,-35.3638688,149.1657647,40581.5,-2.0,-9.0,-152.0,RTL
09:48:44,153122.0,0.0025710046174935997,0.0048850266030058265,2.3564608097076416,-0.002058290847344324,-0.0025579734065104276,-0.019655094016343355,1.0,0.0,-999.75,-0.5,-0.5,-18.5,-35.363868825,149.16576410000002,41752.5,-2.0,-8.5,-152.0,RTL
09:48:45,153122.0,0.0013145922566764057,0.003492191433906555,2.3279749155044556,0.0012277927598915994,0.00032910157460719347,-0.023450227454304695,0.0,0.0,-1000.0,2.0,1.0,-22.5,-35.36386895,149.16576335000002,43700.0,-2.0,-5.0,-152.5,RTL
09:48:47,96873.5,0.00326296198181808,0.005107032135128975,2.2829673290252686,0.004355223383754492,0.0002847983269020915,-0.020385241135954857,0.0,0.0,-1001.0,5.0,2.0,-19.0,-35.3638691,149.1657629,46631.0,-2.0,-3.0,-153.0,RTL
09:48:49,40625.0,0.005679492140188813,0.007843666011467576,2.2673147916793823,-0.0027767751598730683,-0.0015763458795845509,0.02576123271137476,0.0,0.0,-1000.0,-1.0,0.0,26.0,-35.36386925,149.1657625,49938.0,-2.0,-5.5,-152.0,RTL
09:48:50,274054.0,0.003123126458376646,0.006811227183789015,2.2843907674153647,-0.003814962382117907,-0.0022348492251088223,0.0301294041176637,0.0,0.0,-1000.0,-1.6666666666666667,-0.3333333333333333,30.666666666666668,-35.36386936666667,149.16576216666667,50909.333333333336,-2.0,-6.333333333333333,-152.0,RTL
09:48:51,274054.0,0.0010109765571542084,0.004332574472452204,2.3129947980244956,5.855702329427004e-05,-0.0018095477716997266,0.02605219992498557,0.0,0.0,-999.6666666666666,1.0,-0.3333333333333333,26.333333333333332,-35.363869466666664,149.1657617,52589.666666666664,-1.3333333333333333,-4.666666666666667,-152.0,RTL
09:48:53,268714.5,0.0029203935991972685,0.004055472323670983,2.3583606481552124,0.0018228288972750306,0.0009248400456272066,0.018488172441720963,0.0,0.0,-1000.0,3.0,1.6666666666666667,19.333333333333332,-35.3638695,149.1657616,56146.0,-1.0,0.0,-152.0,RTL
09:48:55,263375.0,0.004280131310224533,0.004591353004798293,2.3869749307632446,0.0029612635262310505,0.0014587948098778725,0.01396606583148241,0.0,0.0,-1000.0,4.0,3.0,15.0,-35.3638695,149.1657619,59055.0,-1.0,0.0,-152.0,RTL
09:48:56,229238.0,0.0040672035538591444,0.004760717041790485,2.395720958709717,0.00011712941341102123,0.0009205008973367512,0.01241981447674334,0.0,0.0,-999.75,1.75,2.25,13.25,-35.3638695,149.165762,60223.2,-1.0,-0.8,-152.0,RTL
09:48:57,229238.0,0.0038064344553276896,0.0051417420618236065,2.4083868265151978,-0.004028623399790376,0.00014770496636629105,0.011311497539281845,0.0,0.0,-999.5,-1.0,2.0,12.0,-35.3638695,149.1657622,62160.0,-1.0,-2.0,-152.0,RTL
09:48:59,151440.0,0.0034449687227606773,0.005070155952125788,2.424208641052246,0.0017743471544235945,-0.0008201510645449162,0.008417257107794285,0.0,0.0,-1000.0,3.0,0.0,9.0,-35.3638695,149.1657623,65424.0,-1.0,-2.0,-152.0,RTL
09:49:01,73642.0,0.0029739084420725703,0.005339447176083922,2.4349236488342285,0.00016574322944507003,-0.00021275534527376294,0.009404524229466915,0.0,0.0,-1000.0,1.5,1.0,10.0,-35.363869550000004,149.1657623,67949.5,-0.5,-2.0,-152.0,RTL
09:49:02,286478.0,0.002961798571050167,0.005322885699570179,2.4407655596733093,0.0009053912071976811,0.00020406304975040257,0.007594704860821366,0.0,0.0,-1000.0,2.5,1.75,8.25,-35.3638696,149.1657623,69499.5,0.0,-2.0,-152.0,RTL
09:49:03,286478.0,0.002998139359988272,0.005351279163733125,2.4465469121932983,0.0009511412354186177,-1.0676274541765451e-05,0.0065342155285179615,0.0,0.0,-1000.0,2.5,1.5,7.5,-35.3638696,149.1657623,71053.5,0.0,-2.0,-152.0,RTL
09:49:05,193811.5,0.0029513282934203744,0.0051229605451226234,2.456781029701233,-0.0001283179153688252,-0.00044968887232244015,0.006344220833852887,0.0,0.0,-1000.0,1.0,0.5,7.0,-35.3638696,149.1657624,74157.5,0.0,-2.0,-152.0,RTL
09:49:07,101145.0,0.003098222427070141,0.005232441937550902,2.4662245512008667,0.0011407464044168591,0.00101544737117365,0.004012731136754155,0.0,0.0,-1000.0,2.5,2.5,4.5,-35.3638696,149.1657624,77263.5,0.0,-2.0,-152.0,RTL
09:49:08,200495.0,0.0030366796418093145,0.005158122978173196,2.4702221155166626,-0.001042234362103045,0.0001184701977763325,0.004324860638007522,0.0,0.0,-1000.0,1.0,1.5,5.0,-35.3638696,149.1657624,78818.0,0.0,-2.0,-152.0,RTL
09:49:09,200495.0,0.0031123748049139977,0.005244704661890864,2.4738948345184326,0.0003378020483069122,-0.0004217777750454843,0.004076975048519671,0.0,0.0,-1000.0,2.0,1.0,4.5,-35.3638696,149.1657624,80371.5,0.0,-2.0,-152.0,RTL
09:49:11,104170.0,0.0031502561178058386,0.005410518264397979,2.480456829071045,7.605244172737002e-05,0.0006769290193915367,0.00506495451554656,0.0,0.0,-999.5,1.5,2.0,6.0,-35.3638696,149.1657624,83478.5,0.0,-2.0,-152.0,RTL
09:49:13,7845.0,0.0029994797660037875,0.005538168828934431,2.486315608024597,-0.001058182620909065,0.00036680453922599554,0.004920795327052474,0.0,0.0,-1000.0,0.5,1.5,6.0,-35.3638696,149.1657624,86586.5,0.0,-2.0,-152.0,RTL
09:49:14,214913.0,0.0029687979840673506,0.005536672077141702,2.489014983177185,-3.0900118872523308e-06,-3.288142033852637e-05,0.004541246744338423,0.0,0.0,-999.75,1.5,1.0,5.5,-35.3638696,149.1657624,88135.5,0.0,-2.0,-152.0,RTL
09:49:15,214913.0,0.0024248312693089247,0.0054533889051526785,2.49159836769104,0.0007306807674467564,0.0007678930414840579,0.0037650064332410693,0.0,0.0,-1000.0,2.0,2.0,5.0,-35.3638696,149.1657624,89692.5,0.0,-2.0,-152.0,RTL
09:49:17,245325.0,0.0027510070940479636,0.005508210277184844,2.4958642721176147,-0.000969642074778676,0.000574302626773715,0.0009768601739779115,0.0,0.0,-1000.0,1.0,2.0,2.0,-35.3638696,149.1657624,92802.0,0.0,-2.0,-152.0,RTL
09:49:19,275737.0,0.00269012653734535,0.005444779293611646,2.4998083114624023,-0.0002130257780663669,0.0003103140043094754,0.003195201512426138,0.0,0.0,-1000.5,1.0,2.0,4.0,-35.3638696,149.1657624,95910.0,0.0,-2.0,-152.0,RTL
09:49:20,77833.0,0.0027764311525970697,0.0053740962175652385,2.501483678817749,0.00019190122839063406,-0.0002586748159956187,0.0014496639487333596,0.0,0.0,-1000.5,1.75,1.0,2.5,-35.3638696,149.1657624,97461.5,0.0,-2.0,-152.0,RTL
09:49:21,77833.0,0.002880017622373998,0.005380052840337157,2.5031979084014893,0.00011131574865430593,0.0012438880512490869,0.0021139922901056707,0.0,0.0,-999.5,1.5,2.5,3.0,-35.3638696,149.1657624,99016.5,0.0,-2.0,-152.0,RTL
09:49:23,132375.5,0.0027789511950686574,0.00547549850307405,2.506686210632324,0.002444685553200543,0.0009229353163391352,0.0032358893658965826,0.0,0.0,-999.5,4.5,2.0,4.5,-35.3638696,149.1657624,102119.5,0.0,-2.0,-152.0,RTL
09:49:25,186918.0,0.0030896581010892987,0.005120391957461834,2.509226679801941,-0.0005708701210096478,0.0002161160809919238,0.0016321076545864344,0.0,0.0,-1000.0,1.5,2.0,3.0,-35.3638696,149.1657624,105225.5,0.0,-2.0,-152.0,RTL
09:49:26,133322.0,0.0029445845866575837,0.005369396531023085,2.510236382484436,-0.00011689445818774402,0.00042067357571795583,0.0025552716106176376,0.0,0.0,-999.75,1.5,2.0,3.5,-35.3638696,149.1657624,106783.0,0.0,-2.0,-152.0,RTL
09:49:27,133322.0,0.0027618237072601914,0.005543748382478952,2.511223793029785,-0.000253445643465966,0.0014123412547633052,0.0011881839600391686,0.0,0.0,-999.5,1.5,3.0,2.5,-35.3638696,149.1657624,108333.5,0.0,-2.0,-152.0,RTL
09:49:29,182975.0,0.0026020543882623315,0.005551927024498582,2.5131582021713257,0.00043743348214775324,0.00025996624026447535,0.0018524437909945846,0.0,0.0,-999.5,2.5,2.0,3.0,-35.36386965,149.1657624,111441.5,0.0,-2.0,-152.0,RTL
09:49:31,232628.0,0.002684868057258427,0.005495439516380429,2.5148561000823975,-0.0006477141287177801,-0.00047096452908590436,0.0005253715789876878,0.0,0.0,-1000.5,2.0,1.5,1.5,-35.3638697,149.1657624,114553.5,0.0,-2.0,-152.0,RTL
09:49:32,155913.0,0.0023184672463685274,0.0060404614778235555,2.515578329563141,1.1376396287232637e-06,-0.00018806298612616956,0.0018252423324156553,0.0,0.0,-1000.25,1.5,1.25,3.0,-35.3638697,149.1657624,116104.0,0.0,-2.0,-152.0,RTL
09:49:33,155913.0,0.002254360355436802,0.006033435696735978,2.5163400173187256,0.0008815058972686529,0.000822033267468214,0.0015007389592938125,0.0,0.0,-1000.0,2.5,2.5,3.0,-35.3638697,149.1657624,117658.5,0.5,-2.0,-152.0,RTL
09:49:35,210486.0,0.0032191690988838673,0.004759152419865131,2.517590880393982,0.00011181639274582267,0.00010042404755949974,-0.0006112262490205467,0.0,0.0,-1000.0,2.0,2.0,1.0,-35.3638697,149.1657624,120765.5,0.0,-2.0,-152.0,RTL
09:49:37,265059.0,0.0027832445921376348,0.005421855254098773,2.518318295478821,0.0019153710454702377,-0.00012742483522742987,0.0008802946540527046,0.0,0.0,-1000.0,3.5,1.5,2.0,-35.3638697,149.1657624,123876.0,0.0,-2.0,-152.0,RTL
09:49:38,71080.0,0.0028709620819427073,0.005571525078266859,2.519101619720459,0.00010230569751001894,0.0005426241550594568,0.0011548688635230064,0.0,0.0,-1000.0,2.0,2.25,2.75,-35.3638697,149.1657624,125432.25,0.0,-2.0,-152.0,RTL
09:49:39,71080.0,0.0025989594869315624,0.00578833487816155,2.520365595817566,0.0016950118588283658,0.000851720105856657,0.0018323961412534118,0.0,0.0,-1000.0,3.5,2.5,3.0,-35.3638697,149.1657624,126984.0,0.0,-2.0,-152.0,RTL
09:49:41,42210.0,0.002863567089661956,0.005589196924120188,2.5210907459259033,0.001521503203548491,0.0015704281977377832,0.0005910505424253643,0.0,0.0,-1000.0,3.5,3.5,2.0,-35.3638697,149.1657624,130090.5,0.0,-2.0,-152.0,RTL
09:49:43,13340.0,0.0024988349759951234,0.0059029459953308105,2.5218701362609863,-0.000379043398424983,0.0003742586122825742,0.0008009035373106599,0.0,0.0,-1000.0,1.5,2.0,2.0,-35.3638697,149.1657624,133194.5,0.0,-2.0,-152.0,RTL
09:49:44,46090.0,0.0023074368364177644,0.006160279153846204,2.5221806168556213,0.0016219900571741164,-0.00010317732812836766,0.0017739509348757565,0.0,0.0,-1000.25,3.5,1.75,3.5,-35.3638697,149.1657624,134747.5,0.5,-2.0,-152.0,RTL
09:49:45,46090.0,0.0027473660884425044,0.005196036538109183,2.5220489501953125,-0.0012801648117601871,-0.0013164201518520713,0.0016557875787839293,0.0,0.0,-1000.0,1.0,0.5,3.5,-35.3638697,149.1657624,136300.5,0.5,-2.0,-152.0,RTL
09:49:47,119329.0,0.003148889634758234,0.005029313266277313,2.522788405418396,0.0009063560282811522,0.0010358969448134303,0.0013965372927486897,0.0,0.0,-1000.0,3.0,2.5,3.0,-35.3638697,149.1657624,139408.5,0.0,-2.0,-152.0,RTL
09:49:49,192568.0,0.0027522629825398326,0.005403036717325449,2.5231300592422485,-0.0010742105077952147,-2.389692235738039e-05,0.001222730497829616,0.0,0.0,-999.5,1.0,2.0,3.0,-35.3638697,149.1657624,142514.0,0.0,-2.0,-152.0,RTL
09:49:50,227499.0,0.002765886136330664,0.005726507515646517,2.523441970348358,0.0009896726114675403,0.001464522152673453,0.0009424832242075354,0.0,0.0,-999.75,3.0,3.0,2.5,-35.3638697,149.1657624,144073.5,0.0,-2.0,-152.0,RTL
09:49:51,227499.0,0.00258270266931504,0.005743680754676461,2.523612380027771,-0.0009832889190874994,0.0013133237371221185,-0.0009812102071009576,0.0,0.0,-1000.0,1.0,3.0,0.5,-35.3638697,149.1657624,145627.5,0.0,-2.0,-152.0,RTL
09:49:53,148143.0,0.0028450768440961838,0.0055318609811365604,2.523853063583374,0.001156333601102233,0.0007311636582016945,0.0003072848776355386,0.0,0.0,-1000.0,3.0,2.5,2.0,-35.3638697,149.1657624,148730.0,0.0,-2.0,-152.0,RTL
09:49:55,68787.0,0.0026365634985268116,0.005607012892141938,2.5249754190444946,0.0010368712246418,-0.00035348767414689064,0.0031372896628454328,0.0,0.0,-999.5,3.0,2.0,5.0,-35.3638697,149.1657624,151835.5,0.0,-2.0,-152.0,RTL
09:49:56,251016.0,0.0027969724615104496,0.005429724231362343,2.524974048137665,0.00047581293620169163,0.0007807352812960744,-0.00037843105383217335,0.0,0.0,-1000.0,2.25,2.75,1.25,-35.3638697,149.1657624,153397.5,0.0,-2.0,-152.0,RTL
09:49:57,251016.0,0.00283302110619843,0.005576240364462137,2.52506160736084,0.0028870139503851533,0.0016431963304057717,0.0013039425248280168,0.0,0.0,-999.5,5.0,3.5,3.0,-35.3638697,149.1657624,154950.5,0.0,-2.0,-152.0,RTL
09:49:59,215605.0,0.002746953396126628,0.005501678911969066,2.525213122367859,0.0016244222642853856,0.0004843623610213399,0.0011922646081075072,0.0,0.0,-1000.5,4.0,2.5,3.0,-35.3638697,149.1657624,158059.0,0.0,-2.0,-152.0,RTL
09:50:01,180194.0,0.0026986991288140416,0.005505752749741077,2.5252727270126343,-8.439872181043029e-05,0.0005894282949157059,0.0015030310023576021,0.0,0.0,-1000.0,2.0,2.5,3.0,-35.3638697,149.1657624,161163.5,0.0,-2.0,-152.0,RTL
09:50:02,228011.0,0.0027147720684297383,0.005588146159425378,2.525370180606842,0.0012020435533486307,0.0006756457732990384,0.00036114524118602276,0.0,0.0,-1000.0,3.25,2.75,2.25,-35.3638697,149.1657624,162715.75,0.0,-2.0,-152.0,RTL
09:50:03,228011.0,0.00265558622777462,0.005445380695164204,2.525440216064453,0.00018749380251392722,0.00011040293611586094,0.0012566467048600316,0.0,0.0,-1000.0,2.5,2.5,3.0,-35.3638697,149.1657624,164269.0,0.0,-2.0,-152.0,RTL
09:50:05,245037.0,0.002740148571319878,0.005428610136732459,2.525588035583496,0.000866939895786345,0.00072149105835706,0.0008343610679730773,0.0,0.0,-999.5,3.0,3.0,2.5,-35.3638697,149.1657624,167377.5,0.0,-2.0,-152.0,RTL
09:50:07,262063.0,0.0028140477370470762,0.005528092849999666,2.5256422758102417,-0.0005212050746195018,-0.0008312802528962493,0.00197375426068902,0.0,0.0,-1000.0,1.5,1.0,4.0,-35.3638697,149.1657624,170484.5,0.0,-2.0,-152.0,RTL
09:50:08,79496.0,0.0028539064805954695,0.005466476548463106,2.5257099270820618,0.0005476453807204962,0.0005738464533351362,0.00020520095131359994,0.0,0.0,-1000.0,2.75,2.75,2.0,-35.3638697,149.1657624,172036.25,0.0,-2.0,-152.0,RTL
09:50:09,79496.0,0.002679367666132748,0.005514766555279493,2.5258028507232666,0.0004727791529148817,-0.0005202655447646976,0.001517781289294362,0.0,0.0,-999.5,3.0,1.5,3.5,-35.3638697,149.1657624,173590.5,0.0,-2.0,-152.0,RTL
09:50:11,117169.0,0.0026839716592803597,0.0055143702775239944,2.5261701345443726,9.066087659448385e-05,0.0006942265899851918,0.002105701481923461,0.0,0.0,-1000.0,2.5,3.0,4.0,-35.3638697,149.1657624,176704.0,0.0,-2.0,-152.0,RTL
09:50:13,154842.0,0.0027324543334543705,0.005579450400546193,2.5263627767562866,-0.0014859953662380576,6.404449231922626e-05,-0.0003578459145501256,0.0,0.0,-999.5,1.0,2.5,1.5,-35.3638697,149.1657624,179806.5,0.0,-2.0,-152.0,RTL
09:50:14,94262.0,0.0027374845230951905,0.005562404287047684,2.526405930519104,0.0005545192980207503,8.738139877095819e-05,-0.00012947316281497478,0.0,0.0,-1000.25,3.0,2.5,2.0,-35.3638697,149.1657624,181359.5,0.0,-2.0,-152.0,RTL
09:50:15,94262.0,0.0026660283328965306,0.005460056243464351,2.5261720418930054,0.0013361521996557713,0.00025527121033519506,0.0007613791385665536,0.0,0.0,-1000.0,4.0,2.5,3.0,-35.3638697,149.1657624,182913.0,0.0,-2.0,-152.0,RTL
09:50:17,137384.5,0.0026881711091846228,0.005506726214662194,2.526355743408203,0.0001705324975773692,0.00039663410279899836,5.089945625513792e-05,0.0,0.0,-1000.0,2.5,2.5,2.0,-35.3638697,149.1657624,186026.5,0.0,-2.0,-152.0,RTL
09:50:19,180507.0,0.002662198501639068,0.005471901502460241,2.526374340057373,0.00012032431550323963,1.9233091734349728e-05,0.0014276413712650537,0.0,0.0,-1000.0,3.0,2.5,3.5,-35.3638697,149.1657624,189135.5,0.0,-2.0,-152.0,RTL
09:50:20,136996.0,0.002654990879818797,0.005605262238532305,2.5262503027915955,0.0005819785874336958,-0.0003073567058891058,0.0006727403088007122,0.0,0.0,-1000.25,3.0,2.25,2.5,-35.3638697,149.1657624,190686.75,0.0,-2.0,-152.0,RTL
09:50:21,136996.0,0.0026747258380055428,0.005357950460165739,2.526408314704895,2.635351847857237e-05,-0.0012381664128042758,0.0025567960692569613,0.0,0.0,-1000.0,2.5,1.0,4.5,-35.3638697,149.1657624,192240.5,0.0,-2.0,-152.0,RTL
09:50:23,84515.5,0.0026454338803887367,0.005594547372311354,2.526193380355835,-0.0011548639740794897,-0.0009164314833469689,-0.0006650381255894899,0.0,0.0,-999.5,2.0,1.0,1.5,-35.3638697,149.1657624,195346.5,0.0,-2.0,-152.0,RTL
09:50:25,32035.0,0.00266766338609159,0.005466884234920144,2.526348114013672,0.0022232523187994957,0.00031910743564367294,0.0027935905382037163,0.0,0.0,-1000.0,4.5,2.5,5.0,-35.3638697,149.1657624,198454.5,0.0,-2.0,-152.0,RTL
09:50:26,295560.0,0.0026354416622780263,0.005617137183435261,2.5261886715888977,-0.00047863213694654405,-0.00022724163136444986,-0.00033738359343260527,0.0,0.0,-1000.0,2.25,2.0,1.75,-35.3638697,149.1657624,200006.5,0.0,-2.0,-152.0,RTL
09:50:27,295560.0,0.002748844330199063,0.00526420259848237,2.526376724243164,0.002331951865926385,-0.00043213507160544395,-0.0008553386433050036,0.0,0.0,-1000.5,5.0,2.0,1.5,-35.3638697,149.1657624,201558.5,0.0,-2.0,-152.0,RTL
09:50:29,185203.5,0.003025140496902168,0.005434382474049926,2.526889443397522,0.002064740052446723,0.0006910467054694891,-0.00013223325368016958,0.0,0.0,-1000.0,5.0,3.5,2.0,-35.3638697,149.1657624,204665.0,0.0,-2.0,-152.0,RTL
09:50:31,74847.0,0.0027234693989157677,0.005538393510505557,2.526636838912964,0.00021004414884373546,0.00028690684121102095,-0.00037183129461482167,0.0,0.0,-1000.0,2.5,2.5,2.0,-35.3638697,149.1657624,207776.0,0.0,-2.0,-152.0,RTL
09:50:32,85708.0,0.002646920329425484,0.005835842690430582,2.526818633079529,0.0005096422974020243,0.000359976664185524,0.0005997231928631663,0.0,0.0,-999.75,3.25,2.75,2.75,-35.3638697,149.1657624,209328.75,0.0,-2.0,-152.0,RTL
09:50:33,85708.0,0.00268526969011873,0.005436820676550269,2.526643395423889,0.003004309721291065,0.0010005960939452052,0.0007580770179629326,0.0,0.0,-1000.0,6.0,3.5,3.0,-35.3638697,149.1657624,210883.0,0.0,-2.0,-152.0,RTL
09:50:35,124248.5,0.00266161875333637,0.005464243236929178,2.526513457298279,-0.0014539142139256,-0.00038331677205860615,-2.7822447009384632e-05,0.0,0.0,-1000.0,1.0,2.5,2.5,-35.3638697,149.1657624,213993.0,0.0,-2.0,-152.0,RTL
09:50:37,162789.0,0.002655463060364127,0.0053817955777049065,2.5264450311660767,-0.00023689039517194033,-0.0007534322794526815,0.00038280716398730874,0.0,0.0,-1000.0,2.5,2.0,2.5,-35.3638697,149.1657624,217103.5,0.0,-2.0,-152.0,RTL
09:50:38,188550.0,0.0026893135509453714,0.005461254040710628,2.5264103412628174,-0.001303606666624546,-1.5420373529195786e-05,0.00011685793288052082,0.0,0.0,-1000.0,1.5,2.75,2.5,-35.3638697,149.1657624,218656.75,0.0,-2.0,-152.0,RTL
09:50:39,188550.0,0.002721967874094844,0.005538954632356763,2.52650249004364,0.002169464132748544,-3.133690916001797e-05,0.001118973596021533,0.0,0.0,-1000.0,5.0,2.0,3.5,-35.3638697,149.1657624,220209.5,0.0,-2.0,-152.0,RTL
09:50:41,158738.5,0.00264734064694494,0.005514530697837472,2.5263158082962036,-0.0024617109447717667,-0.0004430304979905486,0.00019675190560519695,0.0,0.0,-1000.0,1.0,2.0,2.5,-35.3638697,149.1657624,223317.5,0.0,-2.0,-152.0,RTL
09:50:43,128927.0,0.0028109834529459476,0.005308655323460698,2.526751756668091,0.002327472437173128,0.0005008100997656584,0.0019384833285585046,0.0,0.0,-1000.0,5.5,3.0,4.0,-35.3638697,149.1657624,226425.0,0.0,-2.0,-152.0,RTL
09:50:44,134622.0,0.002904114022385329,0.005458866595290601,2.526945948600769,0.00029876810731366277,7.005705265328288e-05,0.0008427507127635181,0.0,0.0,-1000.25,3.0,2.75,3.25,-35.3638697,149.1657624,227976.75,0.0,-2.0,-152.0,RTL
09:50:45,134622.0,0.002937085460871458,0.005434042541310191,2.527166485786438,0.0005857659270986915,0.00030109717044979334,-0.00017044914420694113,0.0,0.0,-1000.0,3.5,3.0,2.0,-35.3638697,149.1657624,229531.0,0.0,-2.0,-152.0,RTL
09:50:47,162864.0,0.0025551076978445053,0.005683490540832281,2.5270307064056396,-0.001029975595884025,0.0003109448589384556,-0.0006726928986608982,0.0,0.0,-999.5,2.0,3.0,2.0,-35.3638697,149.1657624,232636.0,0.0,-2.0,-152.0,RTL
09:50:49,191106.0,0.0027104527689516544,0.005527466768398881,2.5268125534057617,0.00012675684411078691,-0.0001455186866223812,4.839099710807204e-05,0.0,0.0,-1000.0,3.0,3.0,2.5,-35.3638697,149.1657624,235742.5,0.0,-2.0,-152.0,RTL
09:50:50,253904.0,0.0026769640971906483,0.005523746600374579,2.52666836977005,0.0005326995451468974,0.00041335297282785177,0.00019948219414800406,0.0,0.0,-1000.25,3.25,3.25,2.75,-35.3638697,149.1657624,237298.0,0.0,-2.0,-152.0,RTL
09:50:51,253904.0,0.002737957751378417,0.005565086146816611,2.526659846305847,0.001855799462646246,0.00022132659796625376,0.0014534465735778213,0.0,0.0,-1000.0,4.5,3.0,4.0,-35.3638697,149.1657624,238852.5,0.0,-2.0,-152.0,RTL
09:50:53,253904.0,0.002762644784525037,0.005554631585255265,2.5266685485839844,-0.002175364294089377,0.00045179855078458786,0.0002145095495507121,0.0,0.0,-1000.0,1.0,3.0,2.5,-35.3638697,149.1657624,241959.0,0.0,-2.0,-152.0,RTL
09:50:54,263335.0,0.0025672996416687965,0.028401428600773215,2.5267293453216553,-0.00033377448562532663,0.045803957153111696,-0.0003778067766688764,0.5,0.25,-998.75,2.5,48.5,2.25,-35.363869575,149.16576229999998,243513.75,5.75,-6.25,-151.0,RTL
09:50:55,263335.0,-0.0006679619546048343,0.06909936852753162,2.526766300201416,-0.009330817498266697,0.03274707682430744,0.0013116070767864585,7.0,3.0,-996.5,-5.5,35.5,4.0,-35.36386775,149.16576065,245041.0,38.5,-30.0,-148.0,RTL
09:50:57,116454.0,-0.008007298223674297,0.17054758965969086,2.790433406829834,-0.010033074766397476,0.005474492907524109,0.3400769382715225,43.5,15.0,-944.5,-6.5,9.0,343.0,-35.363849900000005,149.165746,247739.5,189.5,-108.0,-92.5,RTL
09:50:59,116454.0,0.09131444990634918,0.1693529412150383,3.082176923751831,0.28298669308423996,0.05952504090964794,0.007083508186042309,96.5,8.5,-979.0,286.0,62.5,10.0,-35.36380275,149.16570855,248403.0,313.0,-251.0,16.0,RTL
09:51:00,95390.0,0.06016446091234684,0.22312450781464577,3.05899578332901,-0.0782347647473216,0.016826364677399397,-0.0535527253523469,116.0,-9.25,-1014.25,-74.5,20.25,-50.0,-35.3637713,149.16567734999998,248159.5,396.5,-324.0,21.0,RTL
09:51:01,95390.0,0.015600654063746333,0.21592407673597336,3.0130645036697388,-0.0676327720284462,-0.026378259994089603,-0.0451111551374197,135.0,4.0,-1006.0,-63.0,-22.5,-41.5,-35.36373145,149.16563945000001,248027.0,481.5,-365.0,2.5,RTL
09:51:03,45804.0,-0.01908428268507123,0.16897991299629211,2.932709217071533,-0.04134308733046055,-0.015524334274232388,-0.040971219539642334,150.5,11.5,-980.5,-37.5,-12.0,-37.5,-35.3636361,149.16555625,248068.5,559.0,-388.5,-7.5,RTL
09:51:05,45804.0,-0.025891674682497978,0.16398634761571884,2.8674540519714355,0.18481871113181114,0.026947139762341976,-0.02196692582219839,151.5,34.5,-981.5,188.0,30.0,-18.5,-35.363535299999995,149.1654709,248092.0,564.0,-389.5,-0.5,RTL
09:51:06,278331.0,-0.03421389032155275,0.15493038296699524,2.8410151600837708,-0.05618445202708244,-0.02115838078316301,-0.026364038698375225,150.25,31.5,-990.25,-52.5,-17.75,-22.75,-35.363484575,149.16542785,248078.25,565.75,-392.5,-2.25,RTL
09:51:07,278331.0,-0.05318013019859791,0.1095636859536171,2.8192920684814453,-0.1511850105598569,-0.0631398893892765,-0.006161941681057215,148.0,44.0,-993.5,-146.5,-59.0,-2.5,-35.36343435,149.165385,248111.0,547.0,-381.5,-7.5,RTL
09:51:09,199440.0,-0.07131559029221535,0.018362602801062167,2.7890127897262573,-0.1109648048877716,-0.04383699130266905,-0.001831885427236557,113.0,41.0,-1000.0,-107.0,-40.0,1.5,-35.363346199999995,149.1653098,248158.0,420.5,-290.5,0.5,RTL
09:51:11,199440.0,-0.04349629022181034,-0.03901736717671156,2.7646868228912354,0.05810774117708206,-0.02088771853595972,-0.01765685761347413,62.0,28.0,-1002.5,62.0,-17.0,-14.5,-35.3632875,149.16526105,248084.0,233.5,-159.5,0.0,RTL
09:51:12,274220.0,-0.02817252930253744,-0.06065299641340971,2.754467010498047,0.12675942108035088,0.0010907873511314392,-0.013761766953393817,39.0,10.25,-1008.25,130.25,4.75,-10.25,-35.363270549999996,149.165247275,248059.5,142.0,-99.25,-0.75,RTL
09:51:13,274220.0,-0.016783929466328118,-0.041465384885668755,2.744783401489258,-0.0496658980846405,0.02370963804423809,-0.007151363883167505,17.5,4.5,-1002.5,-46.0,27.5,-3.5,-35.36326205,149.16524005000002,248047.5,69.0,-50.0,-2.5,RTL
09:51:15,216384.0,-0.0028263081330806017,-0.0001466437242925167,2.729248881340027,0.07843826711177826,0.029728436842560768,-0.0037833888782188296,-0.5,4.5,-1004.5,82.5,33.5,0.0,-35.363258349999995,149.16523569999998,248057.5,4.5,-5.0,-3.0,RTL
09:51:17,216384.0,-0.0013083028607070446,0.002371257229242474,2.7175692319869995,-0.09968046844005585,-0.005519172875210643,-0.004963236395269632,-0.5,-8.0,-1005.0,-96.0,-1.5,-1.0,-35.363259400000004,149.16523535,248078.5,3.0,0.5,-2.0,RTL
09:51:18,208909.0,0.0034712675696937367,0.0034076771698892117,2.7123656272888184,-0.06021413952112198,0.00566104194149375,-0.004975345102138817,-2.25,0.0,-999.0,-56.25,9.25,-1.25,-35.36325985,149.165236,248089.5,-0.75,2.25,-1.0,RTL
09:51:19,208909.0,0.011971548898145556,0.006973337614908814,2.7077999114990234,0.2362283617258072,0.006559649016708136,-0.0029902850510552526,-2.5,10.0,-989.0,240.0,10.5,0.5,-35.36326045,149.16523695,248094.5,-2.5,-0.5,0.0,RTL
09:51:21,163144.0,0.01348985475488007,0.00987584376707673,2.697726011276245,0.009727001190185547,0.002553873462602496,-0.0037938590394333005,-2.0,-3.5,-961.5,13.5,6.5,0.0,-35.3632614,149.16523845,248065.0,-1.5,-8.0,15.5,RTL
09:51:23,163144.0,0.000987546518445015,0.009024002123624086,2.6900402307510376,-1.0397873371839523,0.0027144044870510697,0.0025087082758545876,1.0,-71.0,-965.5,-1036.5,6.5,6.0,-35.3632619,149.16523855,246718.0,0.0,-10.0,106.5,RTL
09:51:24,36624.0,0.0005113575025461614,0.00888687651604414,2.6866336464881897,-1.0035089701414108,-0.0022496238816529512,-0.007919501047581434,1.0,-73.25,-1008.0,-1000.75,2.5,-4.25,-35.363262150000004,149.165238225,245584.5,0.5,-8.0,103.5,RTL
09:51:25,36624.0,-0.001097781816497445,0.008775843773037195,2.6818580627441406,-1.0883359909057617,0.00012407009489834309,-0.006555543281137943,1.5,-69.0,-1036.0,-1085.5,4.0,-3.0,-35.3632623,149.1652381,244538.5,2.5,-5.5,100.0,RTL
09:51:27,160121.0,-0.02356203179806471,0.009857268072664738,2.6754883527755737,-1.387790858745575,-0.0027740090154111385,-0.003043311764486134,2.0,-66.5,-1013.5,-1384.0,1.5,0.5,-35.3632628,149.16523719999998,242503.5,5.0,-1.5,98.0,RTL
09:51:29,160121.0,-0.03035223763436079,0.008155763847753406,2.6704713106155396,-1.0998311042785645,-0.00019135884940624237,-0.0012536626309156418,-0.5,-25.5,-1017.0,-1094.5,4.5,1.5,-35.3632633,149.1652363,240461.0,10.5,7.0,100.5,RTL
09:51:30,260895.0,-0.018477733014151454,0.004973901901394129,2.6680099964141846,-0.682833842933178,-0.0029993070056661963,-0.0047088442370295525,-3.5,11.5,-1013.0,-677.25,2.0,-1.0,-35.363263024999995,149.16523677499998,239438.25,10.75,6.5,100.75,RTL
09:51:31,260895.0,0.0063364162924699485,0.0033996899146586657,2.6659845113754272,0.11455358564853668,0.003557974938303232,0.0055295201018452644,-4.0,53.0,-959.5,120.5,8.0,8.5,-35.3632623,149.16523834999998,238419.0,6.0,-1.5,100.5,RTL
09:51:33,284788.0,0.018562662415206432,0.004994183778762817,2.662367343902588,-0.3966614529490471,0.006376794772222638,0.0035487671848386526,-3.0,19.5,-996.5,-389.5,11.0,6.5,-35.36326105,149.16524134999997,236375.5,-6.0,-24.0,101.5,RTL
09:51:35,284788.0,0.00447887321934104,0.012684604618698359,2.6596323251724243,-0.15938161313533783,0.003595259739086032,0.008717365795746446,3.0,34.0,-959.0,-152.5,8.0,12.0,-35.3632612,149.1652417,234336.5,-14.0,-39.0,102.0,RTL
09:51:36,218776.0,-0.012876512249931693,0.011957318522036076,2.6579943895339966,-0.09213641984388232,-0.004156652314122766,0.0036962758167646825,0.25,36.0,-1010.0,-85.0,0.5,7.25,-35.363261949999995,149.1652401,233296.75,-8.0,-32.0,98.75,RTL
09:51:37,218776.0,0.004249753430485725,0.006019623717293143,2.656622290611267,0.23071834444999695,-0.0019454557914286852,-0.00992845743894577,-2.5,51.5,-983.0,238.0,3.5,-6.0,-35.363261949999995,149.1652397,232277.0,-2.5,-23.5,99.0,RTL
09:51:39,64680.0,0.04635062627494335,0.004056879668496549,2.6522486209869385,1.115130364894867,0.012690906878560781,-0.003234964096918702,-2.5,77.5,-991.0,1122.5,17.5,0.0,-35.363260600000004,149.165242,230244.5,-12.0,-33.5,98.5,RTL
09:51:41,64680.0,0.04702821187674999,0.010612893383949995,2.651138663291931,1.2364593744277954,0.004244149080477655,-0.004595994483679533,1.5,29.5,-1032.0,1242.5,9.0,-1.0,-35.3632607,149.16524214999998,228209.5,-18.5,-42.0,101.5,RTL
09:51:42,260990.0,0.029715125914663076,0.009815561817958951,2.6501561403274536,0.36140432208776474,-0.0029823259101249278,-0.007793945376761258,1.75,-21.5,-978.25,366.75,2.0,-4.0,-35.363261225,149.165241075,227190.75,-13.25,-35.25,100.25,RTL
09:51:43,260990.0,0.010101693333126605,0.008449074812233448,2.649473547935486,-0.8264821171760559,-0.003440112341195345,-0.007193704484961927,3.0,-65.0,-1020.5,-820.5,2.0,-3.5,-35.3632615,149.16524025,226172.5,-9.0,-28.0,96.5,RTL
09:51:45,113164.0,-0.026806076057255268,0.010511395521461964,2.6471657752990723,-1.3116446137428284,0.003600333584472537,-0.0069806077517569065,4.5,-41.0,-1012.0,-1303.5,8.5,-3.0,-35.36326245,149.1652379,224125.5,-2.5,-12.0,102.0,RTL
09:51:47,113164.0,-0.03628327418118715,0.004919065744616091,2.6465431451797485,-0.5839489102363586,-0.004456914262846112,-0.00029777269810438156,-0.5,7.0,-1030.0,-574.5,1.0,3.5,-35.3632634,149.1652353,222083.5,9.0,9.5,99.5,RTL
09:51:48,97108.0,-0.01101055514300242,0.0017089036118704826,2.645719289779663,0.40987667441368103,-7.423129864037037e-05,-0.0038583924761042,-2.0,55.75,-991.75,419.25,5.25,0.0,-35.363263075,149.16523562499998,221074.75,10.25,13.5,99.5,RTL
09:51:49,97108.0,-0.0027172211557626724,0.002327430178411305,2.6437506675720215,0.6055240333080292,0.0039720842614769936,-0.010469884844496846,-2.0,76.5,-963.0,614.0,9.0,-6.5,-35.36326255,149.16523655,220047.0,6.5,9.0,103.0,RTL
09:51:51,30180.0,0.012867176905274391,0.0054262259509414434,2.6443482637405396,1.3550852537155151,0.002607928588986397,0.0021247558761388063,-0.5,67.0,-1024.5,1362.5,7.5,5.5,-35.3632624,149.1652374,218004.0,1.5,1.0,101.0,RTL
09:51:53,30180.0,0.032664829865098,0.003958151093684137,2.642629027366638,1.1041690111160278,-0.0005671179387718439,0.0006918850122019649,-0.5,25.5,-1038.5,1110.0,4.5,4.0,-35.363262,149.16523845,215969.5,0.0,-4.0,95.0,RTL
09:51:54,182885.0,0.030929086729884148,0.004769229679368436,2.6418646574020386,1.3389075994491577,0.0025002792826853693,0.003330358653329313,0.25,46.25,-1015.75,1345.5,7.5,7.0,-35.363261825,149.165238875,214949.5,-2.5,-9.25,101.25,RTL
09:51:55,182885.0,0.026585634797811508,0.006174975307658315,2.6420818567276,0.9230845272541046,0.001300949603319168,0.00542280834633857,1.0,14.5,-995.0,929.5,6.0,9.0,-35.3632618,149.16523890000002,213935.5,-3.5,-10.0,99.5,RTL
09:51:57,209273.0,-0.0056255129020428285,0.006765258032828569,2.641338348388672,-0.9324268996715546,0.0006462731398642063,-0.0017733374843373895,2.0,-72.5,-1018.5,-926.0,5.5,1.5,-35.363262250000005,149.16523784999998,211898.5,-1.0,-5.0,101.0,RTL
09:51:59,209273.0,-0.042481161653995514,0.008435389958322048,2.6404519081115723,-1.1931388974189758,-0.0016545248217880726,-0.0005714050494134426,2.0,-33.5,-1015.0,-1184.5,3.5,3.0,-35.36326335,149.1652354,209870.5,7.0,10.0,103.5,RTL
09:52:00,168913.0,-0.047032407484948635,0.006405374966561794,2.640865206718445,-0.34116391092538834,-0.0030629848479293287,0.0009855913813225925,0.25,21.0,-998.25,-332.25,2.5,4.75,-35.363263975,149.165233975,208851.75,13.25,20.0,103.0,RTL
09:52:01,168913.0,-0.03410353325307369,0.0022713615908287466,2.6405028104782104,0.30301839858293533,-0.00426302314735949,-0.003442309331148863,-1.5,53.5,-991.5,311.5,1.5,1.0,-35.363263849999996,149.16523389999998,207833.0,17.0,26.0,106.0,RTL
09:52:03,183854.0,0.02244230220094323,-0.00114105359534733,2.6395909786224365,1.3661315441131592,0.0021811441984027624,-0.003588709281757474,-4.0,81.0,-1018.0,1373.0,7.5,0.5,-35.363262399999996,149.16523665,205773.0,7.5,13.0,103.5,RTL
09:52:05,183854.0,0.03608600050210953,0.003389710560441017,2.639291524887085,1.1111836433410645,-0.0002955677919089794,0.008040248416364193,-1.5,22.0,-1031.0,1116.5,5.0,11.5,-35.363261449999996,149.1652391,203724.0,-4.0,-6.0,100.0,RTL
09:52:06,123584.0,0.03218383202329278,0.004518788424320519,2.6390875577926636,1.1770316362380981,0.005830025300383568,0.005979340407066047,-0.5,27.5,-1037.5,1183.0,11.0,9.75,-35.363261425,149.1652393,202707.0,-6.25,-11.75,102.0,RTL
09:52:07,123584.0,0.027674262411892414,0.004559278022497892,2.6395071744918823,0.808558851480484,0.0017360416240990162,0.004181957338005304,0.0,4.5,-959.5,814.0,6.5,7.5,-35.3632615,149.16523925,201695.5,-7.0,-14.0,100.5,RTL
09:52:09,249662.0,0.030931221321225166,0.0034158648923039436,2.6391735076904297,-0.1517859250307083,0.0034880870953202248,0.0026301760226488113,-1.0,-45.0,-1009.0,-146.0,9.0,6.0,-35.3632613,149.1652397,200035.0,-6.0,-14.0,99.0,RTL
09:52:11,249662.0,-0.023344367742538452,0.007831673137843609,2.638533592224121,-1.3355124592781067,-0.002442615572363138,-0.0018812668276950717,2.0,-48.5,-997.0,-1327.0,3.0,2.0,-35.363261949999995,149.1652385,198015.5,-6.5,-13.5,101.0,RTL
09:52:12,69802.0,-0.026260468643158674,0.004913365584798157,2.638468861579895,-1.08340023458004,-0.0009041961166076362,-0.0003190509742125869,0.75,-28.5,-993.5,-1074.5,4.25,3.25,-35.363262424999995,149.165237225,196743.0,-0.25,-1.75,102.0,RTL
09:52:13,69802.0,-0.0258587459102273,0.004722261801362038,2.638588547706604,-0.408408522605896,0.002058017533272505,-0.0006883656606078148,1.0,20.0,-1006.5,-399.0,7.0,3.0,-35.3632625,149.1652368,195976.0,0.5,0.0,101.5,RTL
09:52:15,231287.0,-0.020609651692211628,0.0037695312639698386,2.638527512550354,0.18320901691913605,-8.531915955245495e-05,0.00529254088178277,0.0,51.0,-1004.0,192.5,5.0,9.0,-35.3632629,149.1652357,193924.5,5.5,10.5,99.5,RTL
09:52:17,231287.0,-0.000589589006267488,0.001264268415980041,2.6380645036697388,0.8839586079120636,0.0007238858379423618,-0.008102192776277661,-2.0,70.5,-1022.5,892.0,6.5,-4.0,-35.363262649999996,149.16523619999998,191871.5,6.0,11.5,99.0,RTL
09:52:18,135363.0,0.008951495692599565,-0.00047559386666762293,2.638472020626068,0.9140736609697342,-0.0026196495164185762,-0.002454603323712945,-3.75,76.25,-1012.25,922.25,2.75,1.5,-35.36326205,149.1652374,190609.5,1.0,3.5,99.0,RTL
09:52:19,135363.0,0.02952958643436432,-0.002609500545077026,2.6377017498016357,1.258880853652954,-0.006407476030290127,-0.00886800279840827,-4.0,77.0,-1008.0,1267.0,-0.5,-4.5,-35.3632615,149.1652386,189840.5,-0.5,-1.0,100.5,RTL
09:52:21,128007.0,0.048535097390413284,0.0037693603662773967,2.6378108263015747,1.3431462049484253,-0.005110781057737768,-0.0001035686582326889,0.5,50.5,-1010.0,1350.5,0.5,4.0,-35.3632604,149.16524135,187806.5,-16.5,-27.0,101.0,RTL
09:52:23,128007.0,0.04042445123195648,0.0037705625873059034,2.637848973274231,0.09077917039394379,0.0018232646398246288,0.002664881991222501,0.5,-36.0,-987.5,96.5,7.0,6.0,-35.3632606,149.1652411,185761.0,-15.0,-28.0,98.5,RTL
09:52:24,133372.0,0.01422347454354167,0.00612815550994128,2.637653887271881,-0.9872300922870636,-0.000905463588424027,-0.0027870526537299156,2.5,-78.0,-989.25,-980.0,4.5,1.25,-35.363260925000006,149.165240475,184480.0,-15.25,-26.0,100.0,RTL
09:52:25,133372.0,-0.000714965513907373,0.007247341563925147,2.637132167816162,-1.0948206782341003,-0.0015864678425714374,-0.004810248035937548,3.5,-72.5,-995.5,-1087.5,3.5,-0.5,-35.36326135,149.16523949999998,183708.5,-12.5,-22.5,99.5,RTL
09:52:27,53462.0,-0.011598133016377687,0.003731103613972664,2.638061285018921,-1.3076075315475464,-0.006829733960330486,-0.002787174191325903,0.5,-76.5,-1010.0,-1299.5,-1.0,1.0,-35.3632622,149.16523745,181676.5,-1.5,-3.0,99.5,RTL
09:52:29,53462.0,-0.013962357770651579,0.0010344592446926981,2.638304352760315,-1.4359124898910522,0.0005649288650602102,-0.0018175991717725992,-1.5,-50.0,-1000.0,-1426.0,5.5,2.0,-35.3632619,149.16523775000002,179637.0,-1.0,0.0,103.0,RTL
09:52:30,177681.0,-0.019884727662429214,0.006417908472940326,2.6369683146476746,-0.6723135113716125,0.005479725077748299,0.0007549414876848459,3.5,-3.5,-1007.5,-661.5,10.75,4.75,-35.363262075,149.16523735,178363.25,-4.25,-2.0,98.5,RTL
09:52:31,177681.0,-0.03227698616683483,0.009154277853667736,2.637503743171692,0.465510755777359,0.0007682142313569784,0.0004888843977823853,4.0,52.5,-974.5,475.5,6.0,4.0,-35.363262750000004,149.165236,177601.5,-1.5,1.5,100.5,RTL
09:52:33,242138.0,-0.024886813014745712,0.0030528457136824727,2.638577938079834,1.374908685684204,-0.006724504055455327,-0.005055690533481538,0.5,69.0,-1044.0,1383.5,-1.0,-1.0,-35.3632641,149.16523285,175555.5,15.5,30.0,101.0,RTL
09:52:35,242138.0,0.0014039750676602125,-0.00020757692254846916,2.638688564300537,1.0134289860725403,0.002346800873056054,0.005014438880607486,-1.5,19.5,-987.5,1019.5,7.5,8.5,-35.36326365,149.16523335,173529.0,17.5,36.5,102.0,RTL
09:52:36,88992.0,0.008421373786404729,-0.0005908200400881469,2.6383659839630127,0.11473245918750763,0.0011037001386284828,0.0016455979784950614,-2.25,-27.5,-996.75,120.0,6.25,5.5,-35.36326305,149.16523469999998,172242.0,13.75,30.75,101.0,RTL
09:52:37,88992.0,0.007416185457259417,5.6800476158969104e-05,2.638447403907776,-0.5117685943841934,-0.00044004921801388264,-0.003976385807618499,-1.0,-59.0,-972.5,-506.5,4.5,-0.5,-35.3632627,149.16523560000002,171471.5,9.5,24.5,100.5,RTL
09:52:39,273267.0,-0.026204260997474194,0.004529288038611412,2.6378782987594604,-1.3235093355178833,-0.007397334557026625,-0.000774637795984745,1.0,-76.0,-1000.0,-1317.5,-1.5,3.0,-35.36326285,149.16523560000002,169423.5,5.5,17.5,99.5,RTL
09:52:41,273267.0,-0.04748860374093056,0.0034316349774599075,2.638061761856079,-0.9461594820022583,0.0006098656449466944,-0.007140085566788912,-1.0,-10.5,-984.5,-938.5,5.5,-2.5,-35.3632637,149.1652337,167391.5,13.5,28.5,101.0,RTL
09:52:42,76245.0,-0.020127905532717705,0.001010727726679761,2.63785183429718,0.8373771607875824,-0.00020094902720302343,-0.003602914046496153,-1.75,66.25,-1008.0,844.25,4.75,0.25,-35.36326365000001,149.16523389999998,166107.25,15.25,30.75,98.5,RTL
09:52:43,76245.0,-0.0010088304989039898,0.0005491876945598051,2.6375718116760254,1.2538934350013733,-0.008878462249413133,-0.0034336450044065714,-2.5,81.0,-1010.5,1260.0,-3.0,0.5,-35.3632633,149.16523460000002,165345.5,13.5,27.5,97.5,RTL
09:52:45,98364.0,0.021110317669808865,0.00017701505566947162,2.638250708580017,0.6011537313461304,0.0025360018480569124,-0.0018316467758268118,0.5,-12.5,-1030.5,604.5,7.0,2.0,-35.3632624,149.1652365,163301.5,6.0,16.0,100.0,RTL
09:52:47,98364.0,0.007652902277186513,0.00045888950808148365,2.6380666494369507,-0.022845186293125153,-0.0021615109872072935,0.0011075919028371572,0.5,-33.0,-982.0,-20.0,3.0,4.5,-35.3632622,149.165237,161271.0,1.0,7.5,100.5,RTL
09:52:48,71523.0,0.013509148266166449,-0.0005960564085398801,2.6380029916763306,-0.6761592030525208,0.0009917489951476455,-0.00011519220424816012,-1.0,-61.0,-982.25,-672.5,5.75,3.5,-35.363261725,149.16523777499998,160003.25,-0.75,3.5,101.5,RTL
09:52:49,71523.0,0.0076753138564527035,0.001963741611689329,2.6373449563980103,-1.2741093635559082,0.006048004841431975,-0.005488630034960806,-1.0,-79.5,-962.5,-1270.0,10.5,-1.5,-35.3632615,149.1652384,159234.5,-3.5,-0.5,101.5,RTL
09:52:51,12805.0,-0.016252022702246904,0.006042619002982974,2.6376935243606567,-0.8708565831184387,-0.0036762647796422243,0.008340103086084127,4.0,-9.5,-994.0,-864.0,1.5,12.0,-35.36326185,149.1652383,157199.0,-5.0,-6.0,100.5,RTL
09:52:53,12805.0,-0.028934691101312637,0.006542271468788385,2.637227177619934,0.6928847432136536,0.002693233313038945,0.007097093272022903,1.5,66.0,-994.0,699.0,7.5,10.5,-35.36326305,149.16523565,155166.5,3.0,6.5,102.5,RTL
09:52:54,4117.0,-0.0069598512491211295,0.0023082571278791875,2.639748215675354,1.2104859054088593,-0.004457562055904418,0.0012273667380213737,-1.5,77.75,-996.0,1216.5,0.75,5.25,-35.363263175,149.1652353,153887.0,9.5,15.75,100.75,RTL
09:52:55,4117.0,0.015517402440309525,0.0006039112049620599,2.6375962495803833,1.4409241080284119,-0.0022393044782802463,-0.006327317329123616,-1.0,69.5,-1033.5,1445.5,2.5,-2.5,-35.3632628,149.16523595,153117.5,8.5,14.0,100.5,RTL
09:52:57,67998.0,0.04119076952338219,-0.0018961683963425457,2.6385914087295532,1.2600091099739075,0.0036128482315689325,-0.0026020293589681387,-3.5,40.0,-1027.0,1264.0,8.5,1.0,-35.363261449999996,149.16523855,151076.5,-2.0,-1.0,99.5,RTL
09:52:59,67998.0,0.034403035417199135,0.0044661558931693435,2.637451648712158,-0.7285358011722565,0.00023577117826789618,0.0020565728191286325,1.5,-70.0,-994.0,-724.5,5.0,5.5,-35.36326055,149.16524105000002,149023.5,-14.0,-20.5,99.0,RTL
09:53:00,277061.0,-0.003960399917559698,0.009138623951002955,2.6378612518310547,-1.3712936043739319,-0.0026198577252216637,-0.004282821260858327,4.75,-80.75,-984.75,-1366.75,2.25,-0.5,-35.3632613,149.1652398,147750.75,-14.0,-21.5,100.0,RTL
09:53:01,277061.0,-0.03391504380851984,0.010213837958872318,2.6380079984664917,-1.483584463596344,-0.006803358672186732,-0.0006808923790231347,6.0,-71.5,-994.0,-1478.0,-1.5,2.5,-35.36326215,149.165238,146980.5,-9.0,-13.5,101.0,RTL
09:53:03,221429.0,-0.03684784471988678,0.0026556961238384247,2.638794779777527,0.0454334057867527,-0.001393371494486928,-0.008485556929372251,0.0,45.0,-994.5,52.0,3.0,-5.0,-35.3632636,149.16523415,144953.5,10.0,18.5,104.0,RTL
09:53:05,221429.0,-0.005473471945151687,0.0006263168761506677,2.6378661394119263,0.8520149290561676,0.0006523063639178872,-0.009819169528782368,-1.5,63.0,-993.5,858.0,5.0,-5.5,-35.363262950000006,149.16523510000002,142921.5,10.0,22.0,101.0,RTL
09:53:06,202385.0,0.005649698316119611,0.0028674971545115113,2.6384870409965515,1.3540064990520477,0.0009710346348583698,0.0034454255364835262,0.25,66.5,-1012.75,1359.0,5.5,7.0,-35.363262750000004,149.16523575000002,141656.0,5.25,15.75,102.75,RTL
09:53:07,202385.0,0.005688335979357362,0.0037519243778660893,2.6383800506591797,1.3493266701698303,-0.0019091046415269375,-0.0016299691051244736,0.5,43.0,-1028.5,1353.0,3.0,2.5,-35.3632629,149.1652356,140883.5,5.0,14.5,102.5,RTL
09:53:09,191951.0,0.010630590841174126,0.0006812484862166457,2.6392205953598022,0.3258138373494148,0.005052459426224232,0.009129275567829609,-0.5,-27.5,-974.5,327.5,9.5,12.5,-35.363262750000004,149.165236,138838.5,7.5,16.5,102.5,RTL
09:53:11,191951.0,-0.006710909539833665,0.0032172920182347298,2.6387436389923096,-1.2433879971504211,0.0015028920024633408,-0.0021526068449020386,0.0,-76.0,-982.5,-1240.5,6.0,1.5,-35.3632623,149.16523695,136792.0,2.0,8.5,101.5,RTL
09:53:12,137013.0,-0.0291389892809093,0.004678541561588645,2.6379926800727844,-1.2774725407361984,-0.002088247798383236,0.001277986797504127,1.25,-49.25,-1001.75,-1273.0,2.75,4.5,-35.36326255,149.165236375,135514.75,1.25,7.5,100.25,RTL
09:53:13,137013.0,-0.03889263607561588,0.003952644299715757,2.6385868787765503,-0.9958834648132324,0.0016157606150954962,-0.005981134017929435,-0.5,-13.5,-993.0,-990.5,6.0,-2.5,-35.3632629,149.16523565,134746.0,3.5,10.5,100.5,RTL
09:53:15,38785.0,-0.020535527728497982,0.0015191041748039424,2.638978958129883,-0.4522043690085411,-0.0002462472766637802,0.0014827052364125848,-1.5,19.0,-1000.0,-446.5,4.0,4.5,-35.363262750000004,149.1652359,132697.5,6.5,14.0,99.0,RTL
09:53:17,38785.0,0.0018013586523011327,0.00012074613914592192,2.6399255990982056,-0.08247878402471542,-0.0004729502834379673,0.0036023221909999847,-4.0,42.5,-1008.0,-77.5,4.0,7.0,-35.3632619,149.165238,130645.5,0.5,2.0,99.0,RTL
09:53:18,282812.0,0.037928360514342785,-0.001040120594552718,2.6385552287101746,1.0950123965740204,0.0021079598809592426,-0.0020632805535569787,-2.25,74.5,-1003.75,1099.75,6.75,1.25,-35.3632609,149.16524005000002,129374.25,-8.0,-13.25,97.5,RTL
09:53:19,282812.0,0.05090641602873802,-0.00025364723296661396,2.637977123260498,1.2655839323997498,0.0016427775844931602,-0.0013228137977421284,-1.5,46.0,-996.0,1269.0,6.5,2.0,-35.363260350000004,149.1652411,128613.0,-13.5,-21.5,99.0,RTL
09:53:21,140695.0,0.022671385668218136,0.00544626172631979,2.6386784315109253,-0.9117428362369537,-0.0016404206398874521,-0.001964512513950467,2.5,-79.5,-968.5,-908.5,3.0,1.5,-35.3632604,149.16524145,126570.5,-19.0,-30.5,101.0,RTL
09:53:23,140695.0,-0.03724831901490688,0.01002324977889657,2.638452172279358,-1.3400397300720215,-0.0023355744779109955,0.0011524534784257412,4.5,-55.0,-1006.0,-1334.5,2.5,4.0,-35.3632623,149.1652376,124527.0,-7.5,-13.0,99.0,RTL
09:53:24,165825.0,-0.04413373023271561,0.009147103177383542,2.639087498188019,-0.025254469364881516,-2.213695552200079e-05,0.0034991870634257793,4.0,30.25,-987.75,-19.25,4.25,6.75,-35.363263525,149.165234775,123250.5,4.25,7.75,99.25,RTL
09:53:25,165825.0,-0.036178226582705975,0.007467343704774976,2.639993667602539,0.7733325511217117,-0.0027915923856198788,0.0013118513161316514,3.0,54.0,-1008.5,779.0,2.0,4.5,-35.3632642,149.1652332,122477.5,12.0,21.0,100.5,RTL
09:53:27,202947.0,0.0031033784616738558,-0.0031970696290954947,2.6403199434280396,1.281960666179657,-0.004357032128609717,-3.132503479719162e-06,-3.0,40.0,-992.5,1283.5,0.5,3.5,-35.363263849999996,149.16523305,120447.5,21.5,38.5,101.5,RTL
09:53:29,202947.0,0.022048878483474255,-0.004391931113786995,2.640428066253662,-0.917987048625946,0.0034755724482238293,-0.0014913767809048295,-2.0,-64.5,-985.0,-916.0,8.0,2.0,-35.363261449999996,149.16523785,118401.5,1.5,11.0,97.5,RTL
09:53:30,11064.0,0.0051673816540187545,0.0030425421718973666,2.639592945575714,-1.4279615879058838,0.0018735702615231276,0.0010042687645182014,1.0,-64.0,-1006.0,-1424.5,6.25,4.0,-35.363261075,149.16523932500002,117119.25,-8.25,-5.25,99.25,RTL
09:53:31,11064.0,-0.008837831672281027,0.00543469563126564,2.6393035650253296,-1.151357889175415,-0.004662717692553997,-0.005532628856599331,0.5,-26.0,-1019.5,-1146.5,0.0,-1.5,-35.3632613,149.1652392,116358.5,-10.0,-11.0,97.0,RTL
09:53:33,240138.0,0.0002344526001252234,0.0013821872998960316,2.6396665573120117,0.6574584543704987,-0.0026751537807285786,0.0013528327690437436,-1.0,65.0,-1021.5,662.5,2.0,4.0,-35.36326185,149.16523795,114316.5,-4.0,-6.0,97.0,RTL
09:53:35,240138.0,0.031464939936995506,0.0022474388242699206,2.639862060546875,1.2388561367988586,0.004250747617334127,0.0010081578511744738,0.5,34.5,-1055.5,1242.0,8.5,4.0,-35.3632613,149.165239,112277.5,-8.0,-10.0,98.5,RTL
09:53:36,166016.0,0.021636920515447855,0.004949095076881349,2.6399973034858704,0.7147580534219742,0.0035329264355823398,0.00597910734359175,1.75,-2.0,-1004.25,716.75,8.0,8.75,-35.363261574999996,149.16523842499998,110997.75,-8.0,-8.75,98.5,RTL
09:53:37,166016.0,0.01020304230041802,0.005390090635046363,2.6399075984954834,0.4229314923286438,-0.002450683736242354,-0.004060139995999634,2.0,-25.0,-980.0,424.5,2.0,-1.0,-35.363261949999995,149.16523765,110231.0,-5.5,-5.0,99.0,RTL
09:53:39,298820.0,0.0017168011981993914,0.0020827006665058434,2.64021897315979,-0.7877349555492401,-0.0010308802593499422,-0.005099520436488092,0.0,-61.5,-978.0,-785.0,3.0,-2.0,-35.363262250000005,149.16523695,108187.0,1.0,5.0,95.0,RTL
09:53:41,298820.0,-0.029146399348974228,0.005707363598048687,2.639623284339905,-1.4244378209114075,0.002568223048001528,-0.004901798092760146,2.0,-59.0,-1001.5,-1420.5,7.0,-1.5,-35.36326255,149.16523645,106142.0,0.0,4.5,97.5,RTL
09:53:42,86612.0,-0.037986415438354015,0.0045367805869318545,2.6401686668395996,-1.4429254233837128,-0.0047982323449105024,-0.0014268820232246071,0.25,-61.25,-1005.75,-1439.0,-0.25,1.5,-35.363263175,149.16523515,104870.25,6.25,13.75,98.0,RTL
09:53:43,86612.0,-0.038813814520835876,0.002531288657337427,2.6404165029525757,-1.334067702293396,-0.003899081493727863,-0.0033277389011345804,-1.0,-42.5,-984.0,-1329.5,1.0,0.0,-35.36326325,149.1652348,104121.5,9.5,18.5,99.5,RTL
09:53:45,210153.0,-0.011031373403966427,-0.0006470569642260671,2.6403920650482178,-0.5822262614965439,0.0004472150467336178,0.0027809595922008157,-2.0,11.5,-991.0,-576.5,4.5,5.0,-35.36326235,149.16523645,102094.0,5.0,12.5,98.5,RTL
09:53:47,210153.0,0.018956854939460754,0.0036837789230048656,2.6405400037765503,1.301051676273346,0.007422355934977531,0.006474419962614775,0.5,58.0,-1050.0,1304.5,11.5,9.0,-35.3632619,149.1652377,100048.0,-1.5,0.5,100.0,RTL
09:53:48,90873.0,0.004263868031557649,0.005474552279338241,2.6399789452552795,0.7033908069133759,0.0010889467084780335,-0.0007765376358292997,2.5,-1.75,-987.75,704.75,5.0,2.0,-35.363262375000005,149.16523682500002,98769.0,-1.0,2.5,100.25,RTL
09:53:49,90873.0,-0.020553129725158215,0.0053537602070719,2.63985538482666,-0.9147296249866486,-0.0011917599476873875,-0.00894908420741558,3.0,-73.5,-973.5,-913.5,3.0,-5.0,-35.363262750000004,149.1652359,98004.0,2.0,9.0,100.0,RTL
09:53:51,130576.5,-0.041887687519192696,0.002516196807846427,2.640793561935425,-1.2987845540046692,-0.0046165413223207,0.00036859302781522274,1.5,-43.5,-1013.0,-1295.5,0.0,3.0,-35.36326335,149.16523435,95952.0,9.5,22.0,98.0,RTL
09:53:53,170280.0,-0.01950161252170801,0.001881420670542866,2.6402957439422607,0.8631119430065155,0.0003578097093850374,-0.005758381448686123,-1.0,70.0,-1002.5,866.0,4.5,-2.5,-35.3632635,149.16523395000002,93912.0,12.0,27.0,98.5,RTL
09:53:54,77189.0,-0.012348744785413146,0.0015129817475099117,2.6399373412132263,0.8826507106423378,-0.00032004457898437977,-0.003959787194617093,-1.0,68.5,-989.0,885.75,4.0,-0.75,-35.3632633,149.165234425,92625.25,12.0,26.5,98.5,RTL
09:53:55,77189.0,-0.013855401892215014,0.0008598398126196116,2.640321373939514,0.4953799396753311,0.0010316770058125257,-0.0018659888301044703,-1.5,61.0,-991.5,498.5,5.0,1.0,-35.3632631,149.16523485,91862.5,10.5,24.0,96.0,RTL
09:53:57,119172.5,0.011245111469179392,0.0006296783976722509,2.6403290033340454,1.3313526511192322,0.003990337019786239,0.0011154497042298317,-1.0,63.5,-1021.0,1333.0,7.5,4.0,-35.363262649999996,149.1652359,89835.0,5.5,16.5,97.5,RTL
09:53:59,161156.0,0.01119045726954937,0.0026836588513106108,2.640052556991577,0.3657092824578285,-0.0017095871735364199,-0.016824950755108148,0.0,-34.0,-941.5,364.5,2.0,-14.0,-35.3632625,149.1652362,87796.5,3.0,12.5,102.5,RTL
09:54:00,272994.0,-0.009864956024102867,0.002073864859994501,2.641036033630371,-0.8266151249408722,-0.004023198445793241,-0.0005366346449591219,-1.5,-58.25,-999.0,-827.0,0.5,2.0,-35.3632626,149.16523615,86515.25,4.75,13.25,97.5,RTL
09:54:01,272994.0,-0.01644588401541114,0.0010243588185403496,2.6405975818634033,-1.5476747751235962,0.004504649667069316,-0.015331900678575039,-3.0,-54.5,-995.0,-1546.5,8.5,-11.5,-35.36326245,149.16523665,85748.5,5.0,11.5,100.0,RTL
09:54:03,223754.0,-0.0005202955799177289,0.0010071290016639978,2.6398956775665283,-1.3834109902381897,-0.0010554356267675757,-0.001482187071815133,0.0,-60.0,-967.0,-1382.0,2.5,1.5,-35.3632613,149.16523915,83706.5,-4.5,-5.0,97.5,RTL
09:54:05,174514.0,-0.011533249169588089,0.004208687925711274,2.640462040901184,-1.281479299068451,0.006266780896112323,-0.004433511872775853,0.0,-23.5,-997.5,-1278.5,10.0,-1.5,-35.36326135,149.16523915,81667.5,-9.5,-14.0,100.5,RTL
09:54:06,106254.0,-0.01607232354581356,0.005120643298141658,2.6402482390403748,-0.1860158850904554,-0.0020981222041882575,0.0020845969556830823,0.25,28.0,-979.25,-182.5,1.5,4.5,-35.36326185,149.165238175,80391.75,-6.0,-9.0,97.0,RTL
09:54:07,106254.0,-0.0035044645774178207,0.0037528687389567494,2.6405001878738403,0.4182251915335655,-0.002322789398021996,0.0009176308522000909,-0.5,53.5,-986.0,421.0,1.5,3.5,-35.363262,149.1652379,79623.5,-3.5,-6.0,99.5,RTL
