time_stamp,MODE,lat,lon,relative_alt,roll,pitch,yaw,rollspeed,pitchspeed,yawspeed,xacc,yacc,zacc,xgyro,ygyro,zgyro,vx,vy,vz,RTL_ALT
09:47:32.194,STABILIZE,-35.3632621,149.1652374,11,-8.451178291579708e-05,0.0015635337913408875,0.027740715071558952,0.0001703310408629477,0.0002763935481198132,0.002247179625555873,0,0,-1002,0,0,1,-2,1,0,299010.0
09:47:32.395,STABILIZE,-35.3632621,149.1652374,11,-8.451178291579708e-05,0.0015635337913408875,0.027740715071558952,0.0001703310408629477,0.0002763935481198132,0.002247179625555873,0,1,-1000,0,0,0,-2,1,0,299010.0
09:47:32.595,STABILIZE,-35.3632621,149.1652374,11,-8.451178291579708e-05,0.0015635337913408875,0.027740715071558952,0.0001703310408629477,0.0002763935481198132,0.002247179625555873,0,1,-1000,0,0,0,-2,1,0,299010.0
09:47:32.796,STABILIZE,-35.3632622,149.1652374,13,-0.00022164531401358545,0.0014239894226193428,0.027298515662550926,0.0002743265649769455,0.00028270084294490516,0.002256117993965745,0,1,-1000,0,0,0,-2,1,0,299010.0
09:47:32.997,STABILIZE,-35.3632622,149.1652374,13,-0.00022164531401358545,0.0014239894226193428,0.027298515662550926,0.0002743265649769455,0.00028270084294490516,0.002256117993965745,0,1,-1000,0,0,0,-2,1,0,299010.0
09:47:33.197,STABILIZE,-35.3632622,149.1652374,13,-0.00022164531401358545,0.0014239894226193428,0.027298515662550926,0.0002743265649769455,0.00028270084294490516,0.002256117993965745,0,1,-1000,0,0,0,-2,1,0,299010.0
09:47:33.398,STABILIZE,-35.3632622,149.1652374,13,-0.00022164531401358545,0.0014239894226193428,0.027298515662550926,0.0002743265649769455,0.00028270084294490516,0.002256117993965745,0,1,-1000,0,0,0,-2,1,0,299010.0
09:47:33.599,STABILIZE,-35.3632622,149.1652374,13,-0.00022164531401358545,0.0014239894226193428,0.027298515662550926,0.0002743265649769455,0.00028270084294490516,0.002256117993965745,0,1,-1000,0,0,0,-2,1,0,299010.0
09:47:33.800,STABILIZE,-35.3632622,149.1652374,13,-0.00022164531401358545,0.0014239894226193428,0.027298515662550926,0.0002743265649769455,0.00028270084294490516,0.002256117993965745,0,1,-1000,0,0,0,-2,1,0,299010.0
09:47:34.000,STABILIZE,-35.3632622,149.1652375,14,-0.00022164531401358545,0.0014239894226193428,0.027298515662550926,0.0002743265649769455,0.00028270084294490516,0.002256117993965745,0,1,-1000,0,0,0,-1,1,0,299010.0
09:47:34.202,STABILIZE,-35.3632622,149.1652375,14,-0.00022164531401358545,0.0014239894226193428,0.027298515662550926,0.0002743265649769455,0.00028270084294490516,0.002256117993965745,0,1,-1000,0,0,0,-1,1,0,299010.0
09:47:34.403,STABILIZE,-35.3632622,149.1652375,14,-0.00022164531401358545,0.0014239894226193428,0.027298515662550926,0.0002743265649769455,0.00028270084294490516,0.002256117993965745,0,1,-1000,0,0,0,-1,1,0,299010.0
09:47:34.605,STABILIZE,-35.3632622,149.1652375,14,-0.00022164531401358545,0.0014239894226193428,0.027298515662550926,0.0002743265649769455,0.00028270084294490516,0.002256117993965745,0,1,-1000,0,0,0,-1,1,0,299010.0
09:47:34.806,STABILIZE,-35.3632622,149.1652375,15,-0.00022164531401358545,0.0014239894226193428,0.027298515662550926,0.0002743265649769455,0.00028270084294490516,0.002256117993965745,0,1,-1000,0,0,0,-1,1,0,299010.0
09:47:35.008,STABILIZE,-35.3632622,149.1652375,15,-0.0007056827889755368,0.0010131911840289831,0.026192523539066315,0.0003524195053614676,0.00035193521762266755,0.0021808806341141462,0,1,-1000,0,0,0,-1,1,0,299010.0
09:47:35.209,STABILIZE,-35.3632622,149.1652375,15,-0.0007056827889755368,0.0010131911840289831,0.026192523539066315,0.0003524195053614676,0.00035193521762266755,0.0021808806341141462,0,1,-1000,0,0,0,-1,1,0,299010.0
09:47:35.411,STABILIZE,-35.3632622,149.1652375,15,-0.0007056827889755368,0.0010131911840289831,0.026192523539066315,0.0003524195053614676,0.00035193521762266755,0.0021808806341141462,0,1,-1000,0,0,0,-1,1,0,299010.0
09:47:35.612,STABILIZE,-35.3632622,149.1652375,15,-0.0007056827889755368,0.0010131911840289831,0.026192523539066315,0.0003524195053614676,0.00035193521762266755,0.0021808806341141462,0,1,-1000,0,0,0,-1,1,0,299010.0
09:47:35.820,STABILIZE,-35.3632622,149.1652375,15,-0.0007056827889755368,0.0010131911840289831,0.026192523539066315,0.0003524195053614676,0.00035193521762266755,0.0021808806341141462,0,1,-1000,0,0,0,-1,1,0,299010.0
09:47:36.021,STABILIZE,-35.3632622,149.1652375,15,-0.0007056827889755368,0.0010131911840289831,0.026192523539066315,0.0003524195053614676,0.00035193521762266755,0.0021808806341141462,0,1,-1000,0,0,0,-1,1,0,299010.0
09:47:36.224,STABILIZE,-35.3632621,149.1652375,1,-0.0007327976054511964,0.0009291174355894327,0.025660395622253418,0.00022535637253895402,0.00028332474175840616,0.001963447080925107,0,1,-1000,0,0,0,-1,2,2,299010.0
09:47:36.425,STABILIZE,-35.3632621,149.1652375,1,-0.0007327976054511964,0.0009291174355894327,0.025660395622253418,0.00022535637253895402,0.00028332474175840616,0.001963447080925107,0,1,-1000,0,0,0,-1,2,2,299010.0
09:47:36.627,STABILIZE,-35.3632621,149.1652375,1,-0.0007327976054511964,0.0009291174355894327,0.025660395622253418,0.00022535637253895402,0.00028332474175840616,0.001963447080925107,0,1,-1000,0,0,0,-1,2,2,299010.0
09:47:36.828,STABILIZE,-35.3632621,149.1652375,1,-0.0007327976054511964,0.0009291174355894327,0.025660395622253418,0.00022535637253895402,0.00028332474175840616,0.001963447080925107,0,1,-1000,0,0,0,-1,2,2,299010.0
09:47:37.029,STABILIZE,-35.3632621,149.1652375,1,-0.0009627354447729886,0.0009198994375765324,0.02536996826529503,0.0003087055520154536,0.00021044351160526276,0.001993271056562662,0,1,-1000,0,0,0,-1,2,2,299010.0
09:47:37.231,STABILIZE,-35.3632621,149.1652375,1,-0.0009627354447729886,0.0009198994375765324,0.02536996826529503,0.0003087055520154536,0.00021044351160526276,0.001993271056562662,0,1,-1000,0,0,0,-1,2,2,299010.0
09:47:37.432,STABILIZE,-35.3632621,149.1652375,1,-0.0009627354447729886,0.0009198994375765324,0.02536996826529503,0.0003087055520154536,0.00021044351160526276,0.001993271056562662,0,1,-1000,0,0,0,-1,2,2,299010.0
09:47:37.633,STABILIZE,-35.3632621,149.1652375,1,-0.0009627354447729886,0.0009198994375765324,0.02536996826529503,0.0003087055520154536,0.00021044351160526276,0.001993271056562662,0,1,-1000,0,0,0,-1,2,2,299010.0
09:47:37.835,STABILIZE,-35.3632621,149.1652375,0,-0.001125355833210051,0.0009128839592449367,0.025097055360674858,0.0002036770456470549,0.00018241466023027897,0.001849619671702385,0,1,-1000,0,0,0,-1,1,1,299010.0
09:47:38.036,STABILIZE,-35.3632621,149.1652375,0,-0.001125355833210051,0.0009128839592449367,0.025097055360674858,0.0002036770456470549,0.00018241466023027897,0.001849619671702385,0,1,-1000,0,0,0,-1,1,1,299010.0
09:47:38.237,STABILIZE,-35.3632621,149.1652375,0,-0.001125355833210051,0.0009128839592449367,0.025097055360674858,0.0002036770456470549,0.00018241466023027897,0.001849619671702385,0,1,-1000,0,0,0,-1,1,1,299010.0
09:47:38.438,STABILIZE,-35.3632621,149.1652375,0,-0.001125355833210051,0.0009128839592449367,0.025097055360674858,0.0002036770456470549,0.00018241466023027897,0.001849619671702385,0,1,-1000,0,0,0,-1,1,1,299010.0
09:47:38.640,STABILIZE,-35.3632621,149.1652375,0,-0.0012234163004904985,0.0009206263348460197,0.024851012974977493,0.00023386813700199127,0.0002338656922802329,0.0018089767545461655,0,1,-1000,0,0,0,-1,1,0,299010.0
09:47:38.841,STABILIZE,-35.3632621,149.1652375,0,-0.0012423485750332475,0.0009356039226986468,0.024788811802864075,0.00016577268252149224,0.00027291703736409545,0.0017682057805359364,0,1,-1000,0,0,0,-1,1,0,299010.0
09:47:39.042,STABILIZE,-35.3632621,149.1652375,0,-0.0012423485750332475,0.0009356039226986468,0.024788811802864075,0.00016577268252149224,0.00027291703736409545,0.0017682057805359364,0,1,-1000,0,0,0,-1,0,0,299010.0
09:47:39.243,STABILIZE,-35.3632621,149.1652375,0,-0.0012423485750332475,0.0009356039226986468,0.024788811802864075,0.00016577268252149224,0.00027291703736409545,0.0017682057805359364,0,1,-1000,0,0,0,-1,0,0,299010.0
09:47:39.445,STABILIZE,-35.3632621,149.1652375,0,-0.0012423485750332475,0.0009356039226986468,0.024788811802864075,0.00016577268252149224,0.00027291703736409545,0.0017682057805359364,0,1,-1000,0,0,0,-1,0,0,299010.0
09:47:39.647,STABILIZE,-35.3632621,149.1652375,0,-0.0012423485750332475,0.0009356039226986468,0.024788811802864075,0.00016577268252149224,0.00027291703736409545,0.0017682057805359364,0,1,-1000,0,0,0,-1,0,0,299010.0
09:47:39.848,STABILIZE,-35.3632621,149.1652375,0,-0.0011375303147360682,0.0009554767748340964,0.024513455107808113,0.0002677881275303662,7.34007335267961e-05,0.0019080913625657558,0,2,-1000,0,0,0,-1,0,0,299010.0
09:47:40.049,STABILIZE,-35.3632621,149.1652375,0,-0.0011375303147360682,0.0009554767748340964,0.024513455107808113,0.0002677881275303662,7.34007335267961e-05,0.0019080913625657558,0,1,-1000,0,1,0,-1,0,0,299010.0
09:47:40.251,STABILIZE,-35.3632621,149.1652375,0,-0.0011477660154923797,0.0009606158128008246,0.02437170408666134,0.0001906523248180747,0.0003277999348938465,0.0016822837060317397,0,1,-1000,0,0,1,-1,0,0,299010.0
09:47:40.452,STABILIZE,-35.3632621,149.1652375,0,-0.0011477660154923797,0.0009606158128008246,0.02437170408666134,0.0001906523248180747,0.0003277999348938465,0.0016822837060317397,0,1,-1000,0,0,1,-1,0,0,299010.0
09:47:40.653,STABILIZE,-35.3632621,149.1652375,0,-0.0011477660154923797,0.0009606158128008246,0.02437170408666134,0.0001906523248180747,0.0003277999348938465,0.0016822837060317397,0,1,-1000,0,0,1,-1,0,0,299010.0
09:47:40.854,STABILIZE,-35.3632621,149.1652375,0,-0.0011503004934638739,0.0009706527343951166,0.024233538657426834,0.00019997433992102742,0.00031395978294312954,0.0017748181708157063,0,1,-1000,0,0,1,-1,0,0,299010.0
09:47:41.055,STABILIZE,-35.3632621,149.1652375,0,-0.001160841784439981,0.0009756770450621843,0.02416793256998062,0.00025836226996034384,0.00031206675339490175,0.0017300534527748823,0,1,-1000,0,0,1,-1,0,0,299010.0
09:47:41.257,STABILIZE,-35.3632621,149.1652375,0,-0.001160841784439981,0.0009756770450621843,0.02416793256998062,0.00025836226996034384,0.00031206675339490175,0.0017300534527748823,0,1,-1000,0,0,1,-1,0,0,299010.0
09:47:41.458,STABILIZE,-35.3632621,149.1652375,0,-0.001160841784439981,0.0009756770450621843,0.02416793256998062,0.00025836226996034384,0.00031206675339490175,0.0017300534527748823,0,1,-1000,0,0,1,-1,0,0,299010.0
09:47:41.659,STABILIZE,-35.3632621,149.1652375,0,-0.001160841784439981,0.0009756770450621843,0.02416793256998062,0.00025836226996034384,0.00031206675339490175,0.0017300534527748823,0,1,-1000,0,0,1,-1,0,0,299010.0
09:47:41.860,STABILIZE,-35.3632622,149.1652375,2,-0.0011586525943130255,0.0009805677691474557,0.023962514474987984,0.0002892664051614702,0.000206907803658396,0.0016747750341892242,0,2,-1000,0,0,0,-1,0,0,299010.0
09:47:42.063,STABILIZE,-35.3632622,149.1652375,3,-0.0011586525943130255,0.0009805677691474557,0.023962514474987984,0.0002892664051614702,0.000206907803658396,0.0016747750341892242,0,2,-1000,0,0,0,-1,0,0,299010.0
09:47:42.264,STABILIZE,-35.3632622,149.1652375,3,-0.001166248694062233,0.0009795480873435736,0.023836271837353706,0.00020950479665771127,0.0002013128250837326,0.0017072705086320639,0,1,-1000,1,0,0,-1,0,0,299010.0
09:47:42.467,STABILIZE,-35.3632622,149.1652375,3,-0.001166248694062233,0.0009795480873435736,0.023836271837353706,0.00020950479665771127,0.0002013128250837326,0.0017072705086320639,0,1,-1000,1,0,0,-1,0,0,299010.0
09:47:42.669,STABILIZE,-35.3632622,149.1652375,4,-0.0011687163496389985,0.0009798009414225817,0.02376626804471016,0.0003592147259041667,0.0002779696951620281,0.00166430720128119,0,1,-1000,0,0,1,-1,0,0,299010.0
09:47:42.871,STABILIZE,-35.3632622,149.1652375,4,-0.0011687163496389985,0.0009798009414225817,0.02376626804471016,0.0003592147259041667,0.0002779696951620281,0.00166430720128119,0,1,-1000,0,0,1,-1,0,0,299010.0
09:47:43.072,STABILIZE,-35.3632622,149.1652375,4,-0.0011687163496389985,0.0009798009414225817,0.02376626804471016,0.0003592147259041667,0.0002779696951620281,0.00166430720128119,0,1,-1000,0,0,1,-1,0,0,299010.0
09:47:43.274,STABILIZE,-35.3632622,149.1652375,4,-0.0011687163496389985,0.0009798009414225817,0.02376626804471016,0.0003592147259041667,0.0002779696951620281,0.00166430720128119,0,1,-1000,0,0,1,-1,0,0,299010.0
09:47:43.476,STABILIZE,-35.3632622,149.1652375,4,-0.0011687163496389985,0.0009798009414225817,0.02376626804471016,0.0003592147259041667,0.0002779696951620281,0.00166430720128119,0,1,-1000,0,0,1,-1,0,0,299010.0
09:47:43.677,STABILIZE,-35.3632622,149.1652375,4,-0.0011687163496389985,0.0009798009414225817,0.02376626804471016,0.0003592147259041667,0.0002779696951620281,0.00166430720128119,0,1,-1000,0,0,1,-1,0,0,299010.0
09:47:43.879,STABILIZE,-35.3632622,149.1652375,8,-0.0011215588310733438,0.0009792923228815198,0.02343987300992012,0.0002642206382006407,0.00021515728440135717,0.0015452802181243896,0,1,-1000,1,1,0,-1,0,0,299010.0
09:47:44.081,STABILIZE,-35.3632622,149.1652375,8,-0.0011215588310733438,0.0009792923228815198,0.02343987300992012,0.0002642206382006407,0.00021515728440135717,0.0015452802181243896,0,1,-1000,1,1,0,-1,0,0,299010.0
09:47:44.282,STABILIZE,-35.3632622,149.1652375,9,-0.0011113720247521996,0.0009730065357871354,0.023312827572226524,0.0002935588709078729,0.000261214270722121,0.0016391777899116278,0,1,-1000,1,0,0,-1,0,0,299010.0
09:47:44.484,STABILIZE,-35.3632622,149.1652375,9,-0.0011113720247521996,0.0009730065357871354,0.023312827572226524,0.0002935588709078729,0.000261214270722121,0.0016391777899116278,0,1,-1000,1,0,0,-1,0,0,299010.0
09:47:44.685,STABILIZE,-35.3632622,149.1652375,9,-0.0011113720247521996,0.0009730065357871354,0.023312827572226524,0.0002935588709078729,0.000261214270722121,0.0016391777899116278,0,1,-1000,1,0,0,-1,0,0,299010.0
09:47:44.887,STABILIZE,-35.3632622,149.1652375,9,-0.0011113720247521996,0.0009730065357871354,0.023312827572226524,0.0002935588709078729,0.000261214270722121,0.0016391777899116278,0,1,-1000,1,0,0,-1,0,0,299010.0
09:47:45.089,STABILIZE,-35.3632622,149.1652375,9,-0.0010882478673011065,0.0009632837027311325,0.023137088865041733,0.00021997588919475675,0.0001676439424045384,0.0016016664449125528,0,1,-1000,1,0,0,-1,0,0,299010.0
09:47:45.292,STABILIZE,-35.3632622,149.1652375,9,-0.0010882478673011065,0.0009632837027311325,0.023137088865041733,0.00021997588919475675,0.0001676439424045384,0.0016016664449125528,0,1,-1000,1,0,0,-1,0,0,299010.0
09:47:45.493,STABILIZE,-35.3632622,149.1652375,9,-0.0010882478673011065,0.0009632837027311325,0.023137088865041733,0.00021997588919475675,0.0001676439424045384,0.0016016664449125528,0,1,-1000,1,0,0,-1,0,0,299010.0
09:47:45.694,STABILIZE,-35.3632622,149.1652375,9,-0.0010882478673011065,0.0009632837027311325,0.023137088865041733,0.00021997588919475675,0.0001676439424045384,0.0016016664449125528,0,1,-1000,1,0,0,-1,0,0,299010.0
09:47:45.896,STABILIZE,-35.3632622,149.1652375,12,-0.0010563955875113606,0.0009611702407710254,0.0229510311037302,0.00033178727608174086,0.00023058318765833974,0.0015315262135118246,0,2,-1000,0,0,0,-1,1,0,299010.0
09:47:46.097,STABILIZE,-35.3632622,149.1652375,12,-0.0007324301986955106,0.0009503784240223467,0.022899186238646507,0.00030483631417155266,0.00012404908193275332,0.00156175356823951,0,2,-1000,0,0,0,-1,1,0,299010.0
09:47:46.299,STABILIZE,-35.3632622,149.1652375,12,-0.0007324301986955106,0.0009503784240223467,0.022899186238646507,0.00030483631417155266,0.00012404908193275332,0.00156175356823951,0,2,-1000,0,0,0,-1,1,0,299010.0
09:47:46.500,STABILIZE,-35.3632622,149.1652375,7,-0.0007931182626634836,0.0009479293366894126,0.022758284583687782,0.0002972286893054843,0.0003452677046880126,0.0015789230819791555,0,1,-1000,0,1,0,-1,2,0,299010.0
09:47:46.702,STABILIZE,-35.3632622,149.1652375,7,-0.0007931182626634836,0.0009479293366894126,0.022758284583687782,0.0002972286893054843,0.0003452677046880126,0.0015789230819791555,0,1,-1000,0,1,0,-1,2,0,299010.0
09:47:46.903,STABILIZE,-35.3632622,149.1652375,7,-0.0007931182626634836,0.0009479293366894126,0.022758284583687782,0.0002972286893054843,0.0003452677046880126,0.0015789230819791555,0,2,-1000,1,0,0,-1,2,0,299010.0
09:47:47.106,STABILIZE,-35.3632622,149.1652375,7,-0.0007931182626634836,0.0009479293366894126,0.022758284583687782,0.0002972286893054843,0.0003452677046880126,0.0015789230819791555,0,2,-1000,1,0,0,-1,2,0,299010.0
09:47:47.308,AUTO,-35.3632622,149.1652375,7,-0.0007931182626634836,0.0009479293366894126,0.022758284583687782,0.0002972286893054843,0.0003452677046880126,0.0015789230819791555,0,2,-1000,1,0,0,-1,2,0,299010.0
09:47:47.515,AUTO,-35.3632622,149.1652375,7,-0.0007931182626634836,0.0009479293366894126,0.022758284583687782,0.0002972286893054843,0.0003452677046880126,0.0015789230819791555,0,2,-1000,1,0,0,-1,2,0,60274.0
09:47:47.717,AUTO,-35.3632622,149.1652375,7,-0.0007931182626634836,0.0009479293366894126,0.022758284583687782,0.0002972286893054843,0.0003452677046880126,0.0015789230819791555,0,2,-1000,1,0,0,-1,2,0,60274.0
09:47:47.918,AUTO,-35.3632622,149.1652375,5,-0.0009291308815591037,0.0009551068069413304,0.022457726299762726,0.000312762800604105,0.00027305580442771316,0.001568345818668604,0,1,-1000,0,0,0,-1,1,0,60274.0
09:47:48.120,AUTO,-35.3632621,149.1652375,5,-0.0009511887328699231,0.0009667875710874796,0.02240751124918461,0.0002732897992245853,0.00034669024171307683,0.0015239145141094923,0,2,-1000,1,0,0,-1,1,0,60274.0
09:47:48.322,AUTO,-35.3632621,149.1652375,5,-0.0009503164328634739,0.0009896914707496762,0.022347884252667427,0.0003390780766494572,0.0003461817977949977,0.0014822346856817603,0,1,-1000,1,1,0,0,0,0,60274.0
09:47:48.524,AUTO,-35.3632621,149.1652375,5,-0.0009366698213852942,0.0010277406545355916,0.022292274981737137,0.0003425444010645151,0.00029639987042173743,0.001469651237130165,0,2,-1000,0,0,0,0,0,0,60274.0
09:47:48.728,AUTO,-35.3632621,149.1652375,6,-0.0009019857388921082,0.0010712245712056756,0.0222411397844553,0.000250574026722461,0.00014582893345505,0.0015297168865799904,0,1,-1000,1,1,1,0,0,0,60274.0
09:47:48.930,AUTO,-35.3632621,149.1652375,6,-0.0009019857388921082,0.0010712245712056756,0.0222411397844553,0.000250574026722461,0.00014582893345505,0.0015297168865799904,0,1,-1000,1,1,1,0,0,0,60274.0
09:47:49.131,AUTO,-35.3632621,149.1652375,6,-0.0008669304079376161,0.0011256535071879625,0.022174259647727013,0.0003526407526805997,0.00020172668155282736,0.0014529236359521747,0,1,-1000,1,0,0,0,0,0,60274.0
09:47:49.334,AUTO,-35.3632621,149.1652375,6,-0.0008669304079376161,0.0011256535071879625,0.022174259647727013,0.0003526407526805997,0.00020172668155282736,0.0014529236359521747,0,1,-1000,1,0,0,0,0,0,60274.0
09:47:49.536,AUTO,-35.3632621,149.1652375,6,-0.0008669304079376161,0.0011256535071879625,0.022174259647727013,0.0003526407526805997,0.00020172668155282736,0.0014529236359521747,0,1,-1000,1,0,0,0,0,0,60274.0
09:47:49.737,AUTO,-35.3632621,149.1652375,4,-0.000402662466512993,0.0013157519279047847,0.021975969895720482,0.0002689045504666865,0.00025009020464494824,0.0014010281302034855,0,1,-1000,0,0,1,0,0,1,60274.0
09:47:49.938,AUTO,-35.3632621,149.1652375,4,-0.000402662466512993,0.0013157519279047847,0.021975969895720482,0.0002689045504666865,0.00025009020464494824,0.0014010281302034855,0,1,-1000,0,0,1,0,0,1,60274.0
09:47:50.140,AUTO,-35.3632621,149.1652375,4,-0.0003399449633434415,0.0013846615329384804,0.02189558744430542,0.0003293848712928593,0.00031693215714767575,0.0015286377165466547,0,1,-1000,0,0,0,0,0,1,60274.0
09:47:50.342,AUTO,-35.3632621,149.1652374,4,-0.0002861596003640443,0.0014538519317284226,0.021819451823830605,0.00030875607626512647,0.00028984202072024345,0.0014730410184711218,0,2,-1000,1,1,0,0,0,0,251222.0
09:47:50.544,AUTO,-35.3632621,149.1652374,4,-0.00022833491675555706,0.0015272904420271516,0.021749021485447884,0.0004314787802286446,0.00032040145015344024,0.001412022509612143,0,2,-1000,1,0,0,0,0,0,251222.0
09:47:50.745,AUTO,-35.3632621,149.1652374,4,-0.00016178929945454001,0.0016010412946343422,0.02166941575706005,0.0003108528326265514,0.0003033083048649132,0.0014684062916785479,0,1,-1000,0,0,0,0,0,0,251222.0
09:47:50.947,AUTO,-35.3632621,149.1652374,4,-0.00016178929945454001,0.0016010412946343422,0.02166941575706005,0.0003108528326265514,0.0003033083048649132,0.0014684062916785479,0,1,-1000,0,0,0,0,0,0,251222.0
09:47:51.149,AUTO,-35.3632621,149.1652374,4,-9.128000965574756e-05,0.0016802247846499085,0.021590596064925194,0.00032426853431388736,0.00024222448701038957,0.0013808461371809244,0,1,-1000,0,0,0,0,0,0,251222.0
09:47:51.351,AUTO,-35.3632621,149.1652374,4,-9.128000965574756e-05,0.0016802247846499085,0.021590596064925194,0.00032426853431388736,0.00024222448701038957,0.0013808461371809244,0,1,-1000,0,0,0,0,0,0,251222.0
09:47:51.553,AUTO,-35.3632621,149.1652374,4,-9.128000965574756e-05,0.0016802247846499085,0.021590596064925194,0.00032426853431388736,0.00024222448701038957,0.0013808461371809244,0,1,-1000,0,0,0,0,0,0,251222.0
09:47:51.754,AUTO,-35.3632621,149.1652375,190,0.003603430464863777,8.203735342249274e-05,0.021618373692035675,0.003613552777096629,0.0055459956638514996,4.190028994344175e-05,0,0,-1130,4,6,0,0,0,-69,251222.0
09:47:51.956,AUTO,-35.3632621,149.1652375,190,0.003603430464863777,8.203735342249274e-05,0.021618373692035675,0.003613552777096629,0.0055459956638514996,4.190028994344175e-05,0,0,-1130,4,6,0,0,0,-69,251222.0
09:47:52.157,AUTO,-35.3632621,149.1652375,401,0.002338096732273698,0.0010368567891418934,0.02142563834786415,-0.006817959249019623,0.0037023297045379877,0.002138138050213456,0,0,-1110,-6,4,1,0,1,-98,251222.0
09:47:52.359,AUTO,-35.3632621,149.1652375,679,0.0015838694525882602,0.0016169642331078649,0.02134045399725437,-0.004453185945749283,0.001275158952921629,0.0011737339664250612,0,0,-1090,-3,1,0,0,0,-122,251222.0
09:47:52.560,AUTO,-35.3632621,149.1652375,1014,0.009544805623590946,0.0010703530861064792,0.020955296233296394,0.04702188819646835,-0.005560692865401506,0.0010021906346082687,0,0,-1044,47,-4,0,0,1,-138,251222.0
09:47:52.763,AUTO,-35.3632621,149.1652375,1382,0.02146906405687332,-0.0006728540756739676,0.020873501896858215,0.04709665849804878,-0.007381930015981197,0.0019048897083848715,0,0,-1018,47,-6,1,0,4,-144,251222.0
09:47:52.965,AUTO,-35.3632621,149.1652375,1382,0.02146906405687332,-0.0006728540756739676,0.020873501896858215,0.04709665849804878,-0.007381930015981197,0.0019048897083848715,0,0,-1018,47,-6,1,0,4,-144,251222.0
09:47:53.167,AUTO,-35.363262,149.1652377,1760,0.03287222981452942,-0.002591261174529791,0.020960666239261627,0.04457719251513481,-0.008030867204070091,0.0026302591431885958,0,-1,-1007,45,-7,2,1,10,-147,251222.0
09:47:53.370,AUTO,-35.363262,149.1652377,1760,0.03287222981452942,-0.002591261174529791,0.020960666239261627,0.04457719251513481,-0.008030867204070091,0.0026302591431885958,0,-1,-1007,45,-7,2,1,10,-147,287213.0
09:47:53.572,AUTO,-35.363262,149.1652377,1760,0.03287222981452942,-0.002591261174529791,0.020960666239261627,0.04457719251513481,-0.008030867204070091,0.0026302591431885958,0,-1,-1007,45,-7,2,1,10,-147,287213.0
09:47:53.774,AUTO,-35.3632617,149.1652396,2909,0.06209839507937431,-0.009557871147990227,-0.007408542092889547,0.0025343559682369232,0.009101864881813526,-0.03401060774922371,0,-7,-993,2,9,-34,8,41,-148,287213.0
09:47:53.976,AUTO,-35.3632614,149.1652409,3289,0.04607076942920685,0.00931418128311634,-0.02755860611796379,-0.12306933104991913,0.10616690665483475,-0.10571686178445816,3,-10,-990,-122,106,-106,9,52,-146,287213.0
09:47:54.178,AUTO,-35.3632614,149.1652409,3289,0.04607076942920685,0.00931418128311634,-0.02755860611796379,-0.12306933104991913,0.10616690665483475,-0.10571686178445816,3,-10,-990,-122,106,-106,9,52,-146,287213.0
09:47:54.379,AUTO,-35.3632612,149.1652423,3665,0.0026724033523350954,0.023281468078494072,-0.04789742827415466,-0.18139760196208954,0.005984117742627859,-0.05938621610403061,3,-11,-999,-180,6,-59,7,55,-144,287213.0
09:47:54.581,AUTO,-35.363261,149.1652437,4042,-0.022839615121483803,0.0004685957683250308,-0.04217638820409775,-0.030463019385933876,-0.09279244393110275,0.0207185260951519,4,-12,-1014,-29,-92,20,5,48,-147,287213.0
09:47:54.784,AUTO,-35.3632608,149.1652449,4425,-0.024768361821770668,-0.01749241352081299,-0.034231074154376984,0.005531193222850561,-0.05440117046236992,0.02727879025042057,3,-10,-1007,6,-53,26,9,38,-150,287213.0
09:47:54.986,AUTO,-35.3632604,149.1652458,4812,-0.030301734805107117,-0.02687653712928295,-0.029232747852802277,-0.055421508848667145,0.014314933679997921,-0.028754116967320442,0,-8,-998,-54,15,-29,16,29,-150,287213.0
09:47:55.188,AUTO,-35.3632604,149.1652458,4812,-0.030301734805107117,-0.02687653712928295,-0.029232747852802277,-0.055421508848667145,0.014314933679997921,-0.028754116967320442,0,-8,-998,-54,15,-29,16,29,-150,287213.0
09:47:55.391,AUTO,-35.3632604,149.1652458,4812,-0.030301734805107117,-0.02687653712928295,-0.029232747852802277,-0.055421508848667145,0.014314933679997921,-0.028754116967320442,0,-8,-998,-54,15,-29,16,29,-150,287213.0
09:47:55.593,AUTO,-35.3632604,149.1652458,4812,-0.030301734805107117,-0.02687653712928295,-0.029232747852802277,-0.055421508848667145,0.014314933679997921,-0.028754116967320442,0,-8,-998,-54,15,-29,16,29,-150,287213.0
09:47:55.797,AUTO,-35.3632592,149.1652465,5966,-0.08446916937828064,0.03335024043917656,-0.11383488774299622,0.01501119788736105,0.022667953744530678,-0.08489299565553665,-3,0,-1008,15,23,-85,9,-19,-149,287213.0
09:47:56.000,AUTO,-35.3632591,149.1652458,6349,-0.07442353665828705,0.03436170518398285,-0.1324988156557083,0.05197104439139366,0.006461636628955603,-0.06387484818696976,-5,3,-1002,52,7,-64,-2,-37,-149,287213.0
09:47:56.202,AUTO,-35.3632591,149.1652458,6349,-0.07442353665828705,0.03436170518398285,-0.1324988156557083,0.05197104439139366,0.006461636628955603,-0.06387484818696976,-5,3,-1002,52,7,-64,-2,-37,-149,287213.0
09:47:56.404,AUTO,-35.3632593,149.1652446,6732,-0.06080825999379158,0.035031478852033615,-0.14559823274612427,0.05991106107831001,0.006945860106498003,-0.04598299786448479,-5,7,-1000,60,7,-46,-13,-51,-149,70223.0
09:47:56.606,AUTO,-35.3632596,149.1652431,7112,-0.04525125026702881,0.03615443408489227,-0.15448053181171417,0.06644318997859955,0.006516020745038986,-0.03140754997730255,-4,14,-1001,67,7,-31,-24,-60,-148,70223.0
09:47:56.808,AUTO,-35.3632603,149.1652413,7495,-0.02828448824584484,0.03740889951586723,-0.1602666676044464,0.07174765318632126,0.005479076877236366,-0.021572010591626167,-5,14,-1002,72,6,-22,-34,-65,-149,70223.0
09:47:57.010,AUTO,-35.3632611,149.1652395,7877,-0.01027070265263319,0.03817123919725418,-0.16361172497272491,0.07416457682847977,0.002245817333459854,-0.013801299035549164,0,17,-1004,74,2,-14,-44,-64,-149,70223.0
09:47:57.212,AUTO,-35.3632611,149.1652395,7877,-0.01027070265263319,0.03817123919725418,-0.16361172497272491,0.07416457682847977,0.002245817333459854,-0.013801299035549164,0,17,-1004,74,2,-14,-44,-64,-149,70223.0
09:47:57.414,AUTO,-35.3632611,149.1652395,7877,-0.01027070265263319,0.03817123919725418,-0.16361172497272491,0.07416457682847977,0.002245817333459854,-0.013801299035549164,0,17,-1004,74,2,-14,-44,-64,-149,70223.0
09:47:57.616,AUTO,-35.3632611,149.1652395,7877,-0.01027070265263319,0.03817123919725418,-0.16361172497272491,0.07416457682847977,0.002245817333459854,-0.013801299035549164,0,17,-1004,74,2,-14,-44,-64,-149,70223.0
09:47:57.818,AUTO,-35.3632649,149.1652349,9035,0.025186812505126,0.013953211717307568,-0.1446070522069931,-0.028661148622632027,-0.12072610855102539,0.0959431529045105,6,16,-1000,-27,-120,95,-63,-39,-150,70223.0
09:47:58.020,AUTO,-35.3632663,149.1652338,9421,0.018525313585996628,-0.018806571140885353,-0.11492251604795456,-0.01554335281252861,-0.12605272233486176,0.12409337610006332,5,14,-1005,-14,-125,123,-60,-31,-151,70223.0
09:47:58.223,AUTO,-35.3632675,149.165233,9809,0.021875489503145218,-0.043440885841846466,-0.08702045679092407,0.04240584000945091,-0.06803286820650101,0.09660680592060089,5,14,-1005,-14,-125,123,-49,-25,-153,70223.0
09:47:58.426,AUTO,-35.3632675,149.165233,9809,0.021875489503145218,-0.043440885841846466,-0.08702045679092407,0.04240584000945091,-0.06803286820650101,0.09660680592060089,6,12,-1009,43,-67,96,-49,-25,-153,70223.0
09:47:58.628,AUTO,-35.3632685,149.1652323,10202,0.034197140485048294,-0.05589350685477257,-0.06585301458835602,0.05627308785915375,-0.037183333188295364,0.07691974937915802,4,9,-1005,56,-36,76,-34,-17,-154,70223.0
09:47:58.830,AUTO,-35.3632691,149.1652319,10597,0.046458493918180466,-0.06451068818569183,-0.04915975406765938,0.049755390733480453,-0.028952481225132942,0.06453892588615417,2,6,-1002,50,-28,64,-17,-7,-154,70223.0
09:47:59.032,AUTO,-35.3632693,149.1652318,10990,0.05721043795347214,-0.07166174054145813,-0.03576861694455147,0.04268442839384079,-0.022959357127547264,0.058402154594659805,2,2,-999,43,-22,58,1,4,-153,70223.0
09:47:59.240,AUTO,-35.3632693,149.1652318,10990,0.05721043795347214,-0.07166174054145813,-0.03576861694455147,0.04268442839384079,-0.022959357127547264,0.058402154594659805,2,2,-999,43,-22,58,1,4,-153,70223.0
09:47:59.445,AUTO,-35.3632693,149.1652318,10990,0.05721043795347214,-0.07166174054145813,-0.03576861694455147,0.04268442839384079,-0.022959357127547264,0.058402154594659805,2,2,-999,43,-22,58,1,4,-153,110332.0
09:47:59.648,AUTO,-35.3632693,149.1652318,10990,0.05721043795347214,-0.07166174054145813,-0.03576861694455147,0.04268442839384079,-0.022959357127547264,0.058402154594659805,2,2,-999,43,-22,58,1,4,-153,110332.0
09:47:59.850,AUTO,-35.3632674,149.1652336,12147,0.07795941084623337,-0.08362466841936111,-0.007612110581248999,0.026162564754486084,0.006939717102795839,0.03328021988272667,-5,-12,-994,26,7,32,60,46,-147,110332.0
09:48:00.051,AUTO,-35.3632658,149.1652349,12518,0.05405183508992195,-0.06976290047168732,-0.01562116015702486,-0.18828563392162323,0.11986322700977325,-0.08647409081459045,-9,-16,-985,-187,120,-86,78,57,-142,110332.0
09:48:00.253,AUTO,-35.3632639,149.1652365,12889,0.015659915283322334,-0.03317985311150551,-0.04491245001554489,-0.10129033029079437,0.12963537871837616,-0.11580920219421387,-11,-22,-1014,-100,130,-115,89,59,-143,110332.0
09:48:00.455,AUTO,-35.3632639,149.1652365,12889,0.015659915283322334,-0.03317985311150551,-0.04491245001554489,-0.10129033029079437,0.12963537871837616,-0.11580920219421387,-11,-22,-1014,-100,130,-115,89,59,-143,110332.0
09:48:00.657,AUTO,-35.3632618,149.165238,13260,-0.002509098732843995,-0.005755146499723196,-0.07609740644693375,-0.05120325833559036,0.09487781673669815,-0.12092596292495728,-8,-26,-1017,-50,95,-121,91,53,-147,110332.0
09:48:00.858,AUTO,-35.3632598,149.1652393,13641,-0.01354253850877285,0.014372166246175766,-0.10514593869447708,-0.08457707613706589,0.05797450244426727,-0.04978673532605171,-6,-25,-1002,-83,58,-50,88,44,-150,110332.0
09:48:01.060,AUTO,-35.3632578,149.1652404,14026,-0.047395430505275726,0.019302519038319588,-0.12391973286867142,-0.07913945615291595,0.03628738969564438,-0.07711341232061386,-8,-18,-1012,-78,36,-77,80,31,-152,110332.0
09:48:01.262,AUTO,-35.3632578,149.1652404,14026,-0.047395430505275726,0.019302519038319588,-0.12391973286867142,-0.07913945615291595,0.03628738969564438,-0.07711341232061386,-8,-18,-1012,-78,36,-77,80,31,-152,110332.0
09:48:01.465,AUTO,-35.3632578,149.1652404,14026,-0.047395430505275726,0.019302519038319588,-0.12391973286867142,-0.07913945615291595,0.03628738969564438,-0.07711341232061386,-8,-18,-1012,-78,36,-77,80,31,-152,110332.0
09:48:01.667,AUTO,-35.3632578,149.1652404,14026,-0.047395430505275726,0.019302519038319588,-0.12391973286867142,-0.07913945615291595,0.03628738969564438,-0.07711341232061386,-8,-18,-1012,-78,36,-77,80,31,-152,110332.0
09:48:01.869,AUTO,-35.3632536,149.1652409,15197,-0.05970706045627594,0.053759049624204636,-0.1819140464067459,0.02406024932861328,0.041729990392923355,-0.06089988350868225,-10,-6,-1003,25,42,-60,39,-17,-155,110332.0
09:48:02.071,AUTO,-35.3632528,149.1652404,15591,-0.05190715566277504,0.060991086065769196,-0.19511079788208008,0.042425014078617096,0.02462906949222088,-0.04430048540234566,-10,-1,-1001,43,25,-44,21,-29,-155,110332.0
09:48:02.273,AUTO,-35.3632525,149.1652395,15983,-0.04073067009449005,0.06559018790721893,-0.2042626589536667,0.050216566771268845,0.018424808979034424,-0.03194557502865791,-7,4,-999,51,18,-32,2,-37,-154,110332.0
09:48:02.474,AUTO,-35.3632526,149.1652384,16374,-0.027602940797805786,0.06887440383434296,-0.21030358970165253,0.0577692836523056,0.012037393637001514,-0.022970959544181824,-5,8,-1000,58,12,-23,-15,-40,-153,77944.0
09:48:02.676,AUTO,-35.3632526,149.1652384,16374,-0.027602940797805786,0.06887440383434296,-0.21030358970165253,0.0577692836523056,0.012037393637001514,-0.022970959544181824,-5,8,-1000,58,12,-23,-15,-40,-153,77944.0
09:48:02.878,AUTO,-35.3632531,149.1652373,16763,-0.012955971993505955,0.07059445232152939,-0.21387793123722076,0.06284061074256897,0.004433340393006802,-0.015387083403766155,-2,8,-1000,63,5,-15,-33,-40,-152,77944.0
09:48:03.080,AUTO,-35.3632539,149.1652362,17151,0.0030478702392429113,0.07044107466936111,-0.21591725945472717,0.06724914163351059,-0.004104570019990206,-0.00919363833963871,0,13,-1001,68,-3,-9,-49,-36,-152,77944.0
09:48:03.282,AUTO,-35.3632539,149.1652362,17151,0.0030478702392429113,0.07044107466936111,-0.21591725945472717,0.06724914163351059,-0.004104570019990206,-0.00919363833963871,0,13,-1001,68,-3,-9,-49,-36,-152,77944.0
09:48:03.484,AUTO,-35.3632539,149.1652362,17151,0.0030478702392429113,0.07044107466936111,-0.21591725945472717,0.06724914163351059,-0.004104570019990206,-0.00919363833963871,0,13,-1001,68,-3,-9,-49,-36,-152,77944.0
09:48:03.686,AUTO,-35.3632539,149.1652362,17151,0.0030478702392429113,0.07044107466936111,-0.21591725945472717,0.06724914163351059,-0.004104570019990206,-0.00919363833963871,0,13,-1001,68,-3,-9,-49,-36,-152,77944.0
09:48:03.888,AUTO,-35.3632583,149.1652343,18313,0.04078809916973114,0.04253774508833885,-0.20195655524730682,-0.051970213651657104,-0.14106972515583038,0.10922662913799286,11,12,-994,-51,-140,108,-82,0,-150,77944.0
09:48:04.090,AUTO,-35.3632601,149.1652343,18693,0.014310061931610107,-0.00760632986202836,-0.16013933718204498,-0.1424490362405777,-0.21755994856357574,0.21793514490127563,16,11,-1001,-141,-216,217,-80,8,-149,77944.0
09:48:04.292,AUTO,-35.3632618,149.1652344,19073,-0.02583503909409046,-0.0612754225730896,-0.09296213835477829,-0.15601925551891327,-0.15239104628562927,0.3202191889286041,16,11,-990,-155,-151,319,-66,7,-149,77944.0
09:48:04.494,AUTO,-35.363263,149.1652344,19441,-0.049421023577451706,-0.06651569902896881,-0.012685265392065048,0.03079564869403839,-0.0018654894083738327,0.25310075283050537,11,7,-936,31,-1,252,-48,-2,-137,77944.0
09:48:04.696,AUTO,-35.363263,149.1652344,19441,-0.049421023577451706,-0.06651569902896881,-0.012685265392065048,0.03079564869403839,-0.0018654894083738327,0.25310075283050537,11,7,-936,31,-1,252,-48,-2,-137,77944.0
09:48:04.898,AUTO,-35.3632639,149.1652342,19768,-0.02801556885242462,-0.06469348073005676,0.028771594166755676,0.1254999339580536,0.0032148300670087337,0.09739873558282852,7,6,-930,126,3,97,-30,-10,-119,77944.0
09:48:05.100,AUTO,-35.3632644,149.1652339,20050,0.0018112744437530637,-0.05965438112616539,0.039380088448524475,0.11104855686426163,0.034390971064567566,0.006035361438989639,2,5,-936,112,35,5,-15,-12,-102,77944.0
09:48:05.302,AUTO,-35.3632644,149.1652339,20050,0.0018112744437530637,-0.05965438112616539,0.039380088448524475,0.11104855686426163,0.034390971064567566,0.006035361438989639,2,5,-936,112,35,5,-15,-12,-102,77944.0
09:48:05.504,AUTO,-35.3632644,149.1652339,20050,0.0018112744437530637,-0.05965438112616539,0.039380088448524475,0.11104855686426163,0.034390971064567566,0.006035361438989639,2,5,-936,112,35,5,-15,-12,-102,288843.0
09:48:05.706,AUTO,-35.3632644,149.1652339,20050,0.0018112744437530637,-0.05965438112616539,0.039380088448524475,0.11104855686426163,0.034390971064567566,0.006035361438989639,2,5,-936,112,35,5,-15,-12,-102,288843.0
09:48:05.908,AUTO,-35.3632643,149.1652334,20678,0.04134474694728851,-0.022106416523456573,0.02440723404288292,0.005951973143965006,0.047069378197193146,-0.013664629310369492,-2,-2,-960,6,47,-13,13,7,-64,288843.0
09:48:06.110,AUTO,-35.3632641,149.1652335,20830,0.03955366089940071,-0.011730781756341457,0.022157208994030952,-0.015998881310224533,0.03747623786330223,-0.005091402214020491,-1,-4,-967,-15,37,-5,17,15,-56,288843.0
09:48:06.312,AUTO,-35.3632636,149.1652339,20962,0.03349480405449867,-0.0027997333090752363,0.02136903442442417,-0.028110411018133163,0.03283634036779404,0.001119888387620449,-1,-6,-972,-27,33,0,18,21,-48,288843.0
09:48:06.514,AUTO,-35.3632632,149.1652345,21074,0.025998486205935478,0.004082739353179932,0.021140672266483307,-0.030270157381892204,0.02405565232038498,0.0012964759953320026,-1,-7,-975,-29,24,1,18,25,-42,288843.0
09:48:06.716,AUTO,-35.3632632,149.1652345,21074,0.025998486205935478,0.004082739353179932,0.021140672266483307,-0.030270157381892204,0.02405565232038498,0.0012964759953320026,-1,-7,-975,-29,24,1,18,25,-42,288843.0
09:48:06.918,AUTO,-35.3632628,149.1652352,21171,0.018517853692173958,0.008906414732336998,0.020838871598243713,-0.02780505083501339,0.01872343011200428,0.0010727278422564268,-1,-7,-978,-26,19,0,17,28,-36,288843.0
09:48:07.120,AUTO,-35.3632624,149.1652359,21254,0.011500193737447262,0.012387239374220371,0.020281177014112473,-0.01706344075500965,0.013913874514400959,-0.0012037830892950296,0,-7,-978,-16,14,-1,14,29,-30,288843.0
09:48:07.321,AUTO,-35.3632624,149.1652359,21254,0.011500193737447262,0.012387239374220371,0.020281177014112473,-0.01706344075500965,0.013913874514400959,-0.0012037830892950296,0,-7,-978,-16,14,-1,14,29,-30,288843.0
09:48:07.524,AUTO,-35.3632624,149.1652359,21254,0.011500193737447262,0.012387239374220371,0.020281177014112473,-0.01706344075500965,0.013913874514400959,-0.0012037830892950296,0,-7,-978,-16,14,-1,14,29,-30,288843.0
09:48:07.726,AUTO,-35.3632624,149.1652359,21254,0.011500193737447262,0.012387239374220371,0.020281177014112473,-0.01706344075500965,0.013913874514400959,-0.0012037830892950296,0,-7,-978,-16,14,-1,14,29,-30,288843.0
09:48:07.929,AUTO,-35.3632615,149.1652379,21413,-0.0038271499797701836,0.015311053022742271,0.01802293211221695,0.026771632954478264,0.0008784699020907283,-0.0024118120782077312,1,-5,-975,27,1,-2,6,23,-13,288843.0
09:48:08.130,AUTO,-35.3632613,149.1652385,21436,-0.00816822238266468,0.014780599623918533,0.01718227192759514,-0.0886814221739769,-0.003916106186807156,-0.0036845470312982798,1,-8,-970,-88,-3,-3,4,19,-6,288843.0
09:48:08.332,AUTO,-35.3632612,149.1652389,21437,-0.024599071592092514,0.020130550488829613,0.015866296365857124,-0.23855005204677582,0.13235081732273102,-0.007081685122102499,0,5,-938,-237,133,-7,1,15,2,288843.0
09:48:08.534,AUTO,-35.3632612,149.1652392,21404,-0.03053126111626625,0.02826067991554737,0.015106347389519215,0.820175051689148,-0.0020555525552481413,-0.002876036101952195,1,30,-959,821,-1,-2,-3,6,17,173670.0
09:48:08.735,AUTO,-35.3632613,149.1652392,21346,-0.013008796609938145,0.0288018137216568,0.014697068370878696,0.46619492769241333,0.015354130417108536,-0.005859958473592997,2,0,-1014,466,16,-5,-8,-2,22,173670.0
09:48:08.937,AUTO,-35.3632613,149.1652392,21346,-0.013008796609938145,0.0288018137216568,0.014697068370878696,0.46619492769241333,0.015354130417108536,-0.005859958473592997,2,0,-1014,466,16,-5,-8,-2,22,173670.0
09:48:09.139,AUTO,-35.3632614,149.1652392,21290,0.0031716017983853817,0.033750858157873154,0.014721185900270939,-0.335705429315567,0.02574858069419861,-0.0050347293727099895,2,-31,-1023,-336,26,-5,-15,-5,18,173670.0
09:48:09.341,AUTO,-35.3632614,149.1652392,21290,0.0031716017983853817,0.033750858157873154,0.014721185900270939,-0.335705429315567,0.02574858069419861,-0.0050347293727099895,2,-31,-1023,-336,26,-5,-15,-5,18,173670.0
09:48:09.543,AUTO,-35.3632614,149.1652392,21290,0.0031716017983853817,0.033750858157873154,0.014721185900270939,-0.335705429315567,0.02574858069419861,-0.0050347293727099895,2,-31,-1023,-336,26,-5,-15,-5,18,173670.0
09:48:09.745,AUTO,-35.3632614,149.1652392,21290,0.0031716017983853817,0.033750858157873154,0.014721185900270939,-0.335705429315567,0.02574858069419861,-0.0050347293727099895,2,-31,-1023,-336,26,-5,-15,-5,18,173670.0
09:48:09.946,AUTO,-35.3632633,149.1652393,21192,0.0464463084936142,0.054227959364652634,0.013750274665653706,0.6010015606880188,0.033426683396101,0.0017326109809800982,11,34,-1021,602,34,1,-42,16,2,173670.0
09:48:10.148,AUTO,-35.3632643,149.1652398,21180,0.058437664061784744,0.06426603347063065,0.01794259250164032,0.32599908113479614,0.039763443171978,0.07492826879024506,14,3,-1018,326,40,74,-54,26,0,173670.0
09:48:10.350,AUTO,-35.3632656,149.1652407,21175,0.05824622884392738,0.0684126541018486,0.10664337873458862,-0.47165998816490173,0.012262910604476929,0.6166453957557678,21,-30,-1008,-471,13,616,-66,38,-2,173670.0
09:48:10.551,AUTO,-35.3632672,149.165242,21176,0.07537763565778732,0.0599934384226799,0.3516973555088043,-0.326991468667984,0.0054537709802389145,1.2832380533218384,24,-8,-1009,-325,6,1283,-80,53,-4,173670.0
09:48:10.753,AUTO,-35.3632692,149.1652436,21180,0.10994842648506165,0.031603727489709854,0.7416951656341553,0.46188220381736755,0.048403941094875336,1.706886887550354,21,10,-1012,463,49,1706,-96,67,-5,173670.0
09:48:10.955,AUTO,-35.3632692,149.1652436,21180,0.10994842648506165,0.031603727489709854,0.7416951656341553,0.46188220381736755,0.048403941094875336,1.706886887550354,21,10,-1012,463,49,1706,-96,67,-5,173670.0
09:48:11.157,AUTO,-35.3632715,149.1652457,21187,0.131561279296875,-0.014093914069235325,1.1630820035934448,0.4037235975265503,0.043390750885009766,1.6753565073013306,12,-28,-1007,404,44,1675,-112,81,-5,173670.0
09:48:11.359,AUTO,-35.3632715,149.1652457,21187,0.131561279296875,-0.014093914069235325,1.1630820035934448,0.4037235975265503,0.043390750885009766,1.6753565073013306,12,-28,-1007,404,44,1675,-112,81,-5,173670.0
09:48:11.561,AUTO,-35.3632715,149.1652457,21187,0.131561279296875,-0.014093914069235325,1.1630820035934448,0.4037235975265503,0.043390750885009766,1.6753565073013306,12,-28,-1007,404,44,1675,-112,81,-5,80238.0
09:48:11.764,AUTO,-35.3632812,149.1652547,21214,0.06676144152879715,-0.14320194721221924,2.3074474334716797,0.41210082173347473,-0.026286350563168526,1.3684391975402832,-38,-17,-1011,413,-25,1368,-174,128,-7,80238.0
09:48:11.966,AUTO,-35.3632812,149.1652547,21214,0.06676144152879715,-0.14320194721221924,2.3074474334716797,0.41210082173347473,-0.026286350563168526,1.3684391975402832,-38,-17,-1011,413,-25,1368,-174,128,-7,80238.0
09:48:12.169,AUTO,-35.3632854,149.1652586,21226,0.030004648491740227,-0.16870521008968353,2.5780982971191406,-0.019966455176472664,-0.04907407611608505,0.8235355019569397,-51,-40,-1002,-19,-48,823,-197,146,-7,80238.0
09:48:12.371,AUTO,-35.3632902,149.165263,21238,0.007287950254976749,-0.18139711022377014,2.6975324153900146,-0.2841193675994873,-0.011086593382060528,0.21991118788719177,-64,-28,-1007,-282,-10,220,-223,162,-7,80238.0
09:48:12.573,AUTO,-35.3632957,149.1652678,21252,0.015158803202211857,-0.1799173802137375,2.699583053588867,0.2323763072490692,-0.002327656140550971,-0.12824559211730957,-70,-16,-1014,233,-1,-128,-249,179,-9,80238.0
09:48:12.775,AUTO,-35.3633016,149.1652731,21269,0.02334791049361229,-0.1815854012966156,2.6527771949768066,-0.034680724143981934,-0.009185917675495148,-0.21017388999462128,-72,-40,-1008,-34,-8,-210,-273,196,-10,80238.0
09:48:12.977,AUTO,-35.3633016,149.1652731,21269,0.02334791049361229,-0.1815854012966156,2.6527771949768066,-0.034680724143981934,-0.009185917675495148,-0.21017388999462128,-72,-40,-1008,-34,-8,-210,-273,196,-10,80238.0
09:48:13.179,AUTO,-35.3633081,149.1652788,21288,0.030274860560894012,-0.1838214099407196,2.603207588195801,-0.07235569506883621,-0.016113711521029472,-0.16453386843204498,-78,-39,-1008,-71,-15,-164,-297,212,-11,80238.0
09:48:13.382,AUTO,-35.3633081,149.1652788,21288,0.030274860560894012,-0.1838214099407196,2.603207588195801,-0.07235569506883621,-0.016113711521029472,-0.16453386843204498,-78,-39,-1008,-71,-15,-164,-297,212,-11,80238.0
09:48:13.585,AUTO,-35.3633081,149.1652788,21288,0.030274860560894012,-0.1838214099407196,2.603207588195801,-0.07235569506883621,-0.016113711521029472,-0.16453386843204498,-78,-39,-1008,-71,-15,-164,-297,212,-11,80238.0
09:48:13.787,AUTO,-35.3633307,149.1652986,21362,0.0473196767270565,-0.19359460473060608,2.560035467147827,-0.010052118450403214,-0.01818002574145794,0.004168630111962557,-93,-41,-1005,-9,-17,3,-365,260,-14,80238.0
09:48:13.988,AUTO,-35.3633393,149.165306,21393,0.049583714455366135,-0.20111365616321564,2.562303304672241,0.038884397596120834,-0.035803601145744324,0.01726277358829975,-98,-51,-1003,39,-35,17,-387,276,-14,80238.0
09:48:14.190,AUTO,-35.3633393,149.165306,21393,0.049583714455366135,-0.20111365616321564,2.562303304672241,0.038884397596120834,-0.035803601145744324,0.01726277358829975,-98,-51,-1003,39,-35,17,-387,276,-14,80238.0
09:48:14.392,AUTO,-35.3633482,149.1653139,21424,0.05015401542186737,-0.21095851063728333,2.5645647048950195,-0.025890983641147614,-0.03775159642100334,0.010346002876758575,-108,-60,-1004,-25,-37,10,-410,291,-14,80238.0
09:48:14.594,AUTO,-35.3633578,149.1653222,21455,0.05357370898127556,-0.21211646497249603,2.565279245376587,0.01672692783176899,0.0371805801987648,-0.0007692536455579102,-117,-55,-1010,17,37,0,-433,308,-15,200009.0
09:48:14.796,AUTO,-35.3633678,149.1653309,21493,0.05457194894552231,-0.20099791884422302,2.565194606781006,0.01166233979165554,0.020272642374038696,-0.001267423271201551,-113,-47,-1016,12,20,-1,-455,321,-19,200009.0
09:48:14.998,AUTO,-35.3633783,149.16534,21541,0.05782940611243248,-0.19498400390148163,2.5642638206481934,0.02231980673968792,0.03028770536184311,-0.006466570310294628,-123,-62,-1008,23,31,-6,-472,335,-21,200009.0
09:48:15.200,AUTO,-35.3633783,149.16534,21541,0.05782940611243248,-0.19498400390148163,2.5642638206481934,0.02231980673968792,0.03028770536184311,-0.006466570310294628,-123,-62,-1008,23,31,-6,-472,335,-21,200009.0
09:48:15.402,AUTO,-35.3633783,149.16534,21541,0.05782940611243248,-0.19498400390148163,2.5642638206481934,0.02231980673968792,0.03028770536184311,-0.006466570310294628,-123,-62,-1008,23,31,-6,-472,335,-21,200009.0
09:48:15.605,AUTO,-35.3633783,149.16534,21541,0.05782940611243248,-0.19498400390148163,2.5642638206481934,0.02231980673968792,0.03028770536184311,-0.006466570310294628,-123,-62,-1008,23,31,-6,-472,335,-21,200009.0
09:48:15.807,AUTO,-35.3634119,149.1653691,21718,0.06667325645685196,-0.17059160768985748,2.561882257461548,-0.004323936067521572,0.038416702300310135,-0.0003583620418794453,-128,-55,-1001,-3,39,0,-516,363,-28,200009.0
09:48:16.009,AUTO,-35.3634237,149.1653793,21786,0.06761108338832855,-0.16768336296081543,2.5623230934143066,0.033365391194820404,-0.0031504323706030846,0.001277252333238721,-121,-53,-979,34,-2,1,-525,369,-28,200009.0
09:48:16.211,AUTO,-35.3634237,149.1653793,21786,0.06761108338832855,-0.16768336296081543,2.5623230934143066,0.033365391194820404,-0.0031504323706030846,0.001277252333238721,-121,-53,-979,34,-2,1,-525,369,-28,200009.0
09:48:16.412,AUTO,-35.3634356,149.1653896,21854,0.0702870711684227,-0.16569149494171143,2.5612945556640625,-0.005198797211050987,0.006202421151101589,-0.004210230894386768,-123,-53,-977,-4,6,-4,-534,376,-27,200009.0
09:48:16.614,AUTO,-35.3634477,149.1654001,21921,0.07348096370697021,-0.1657213717699051,2.559886932373047,0.01963365636765957,0.05016269534826279,-0.008462159894406796,-131,-57,-975,20,50,-8,-542,382,-26,200009.0
09:48:16.816,AUTO,-35.3634601,149.1654107,21986,0.07431001216173172,-0.15632832050323486,2.559002161026001,0.00836273655295372,0.045082200318574905,-0.006008089054375887,-137,-70,-992,9,45,-5,-549,386,-26,200009.0
09:48:17.018,AUTO,-35.3634725,149.1654214,22054,0.0740179568529129,-0.15059182047843933,2.55840802192688,0.0012517232680693269,0.009712407365441322,0.002179486211389303,-137,-86,-994,1,10,2,-554,389,-27,200009.0
09:48:17.220,AUTO,-35.3634725,149.1654214,22054,0.0740179568529129,-0.15059182047843933,2.55840802192688,0.0012517232680693269,0.009712407365441322,0.002179486211389303,-137,-86,-994,1,10,2,-554,389,-27,200009.0
09:48:17.425,AUTO,-35.3634725,149.1654214,22054,0.0740179568529129,-0.15059182047843933,2.55840802192688,0.0012517232680693269,0.009712407365441322,0.002179486211389303,-137,-86,-994,1,10,2,-554,389,-27,200009.0
09:48:17.628,AUTO,-35.3634725,149.1654214,22054,0.0740179568529129,-0.15059182047843933,2.55840802192688,0.0012517232680693269,0.009712407365441322,0.002179486211389303,-137,-86,-994,1,10,2,-554,389,-27,151317.0
09:48:17.830,AUTO,-35.3635102,149.1654538,22251,0.07821628451347351,-0.13296471536159515,2.557950019836426,-0.009417706169188023,0.034213077276945114,-0.0007250276394188404,-135,-76,-981,-8,34,0,-561,393,-25,151317.0
09:48:18.031,AUTO,-35.363523,149.1654648,22316,0.07686050981283188,-0.12482057511806488,2.5577645301818848,-0.024676214903593063,0.029877426102757454,-0.0022811449598520994,-137,-79,-990,-23,30,-2,-560,392,-25,151317.0
09:48:18.234,AUTO,-35.3635356,149.1654756,22379,0.07607351988554001,-0.12563686072826385,2.556847095489502,-0.00177287170663476,-0.02126147784292698,0.0010151106398552656,-127,-76,-971,-1,-20,1,-558,391,-23,151317.0
09:48:18.436,AUTO,-35.3635356,149.1654756,22379,0.07607351988554001,-0.12563686072826385,2.556847095489502,-0.00177287170663476,-0.02126147784292698,0.0010151106398552656,-127,-76,-971,-1,-20,1,-558,391,-23,151317.0
09:48:18.638,AUTO,-35.3635482,149.1654863,22434,0.07628220319747925,-0.13093304634094238,2.555497646331787,-0.0016027487581595778,-0.04123261198401451,-0.006496190093457699,-146,-63,-983,0,-40,-6,-557,390,-20,151317.0
09:48:18.840,AUTO,-35.3635607,149.165497,22482,0.0741133913397789,-0.1416434496641159,2.5550358295440674,0.0044092475436627865,-0.018373550847172737,0.0013257546816021204,-131,-74,-974,5,-17,1,-558,390,-16,151317.0
09:48:19.042,AUTO,-35.3635733,149.1655078,22523,0.0751819983124733,-0.14109057188034058,2.5551769733428955,0.003073605475947261,0.007023232989013195,0.005805877037346363,-125,-55,-980,4,7,5,-559,392,-16,151317.0
09:48:19.250,AUTO,-35.3635733,149.1655078,22523,0.0751819983124733,-0.14109057188034058,2.5551769733428955,0.003073605475947261,0.007023232989013195,0.005805877037346363,-125,-55,-980,4,7,5,-559,392,-16,151317.0
09:48:19.452,AUTO,-35.3635733,149.1655078,22523,0.0751819983124733,-0.14109057188034058,2.5551769733428955,0.003073605475947261,0.007023232989013195,0.005805877037346363,-125,-55,-980,4,7,5,-559,392,-16,151317.0
09:48:19.657,AUTO,-35.3635733,149.1655078,22523,0.0751819983124733,-0.14109057188034058,2.5551769733428955,0.003073605475947261,0.007023232989013195,0.005805877037346363,-125,-55,-980,4,7,5,-559,392,-16,151317.0
09:48:19.859,AUTO,-35.3636113,149.1655405,22650,0.07572697103023529,-0.1356823444366455,2.5530524253845215,-0.0010365663329139352,-0.007545439526438713,-0.0027698439080268145,-156,-65,-994,0,-6,-2,-563,394,-18,151317.0
09:48:20.060,AUTO,-35.363624,149.1655514,22695,0.0743681937456131,-0.1428799033164978,2.5523085594177246,0.0052628605626523495,-0.0007168721640482545,-0.007985826581716537,-154,-70,-992,5,0,-8,-563,394,-17,151317.0
09:48:20.262,AUTO,-35.3636367,149.1655624,22739,0.07465393096208572,-0.13937227427959442,2.5516960620880127,0.0002634415286593139,0.05048785358667374,-0.0029543889686465263,-131,-66,-994,1,51,-2,-565,396,-17,151317.0
09:48:20.465,AUTO,-35.3636367,149.1655624,22739,0.07465393096208572,-0.13937227427959442,2.5516960620880127,0.0002634415286593139,0.05048785358667374,-0.0029543889686465263,-131,-66,-994,1,51,-2,-565,396,-17,14101.0
09:48:20.667,AUTO,-35.3636495,149.1655735,22785,0.07787622511386871,-0.12775473296642303,2.5518593788146973,-0.00024221005151048303,0.04352525994181633,0.0012712185271084309,-139,-81,-999,0,44,1,-565,397,-20,14101.0
09:48:20.869,AUTO,-35.3636622,149.1655846,22840,0.08518475294113159,-0.11977081000804901,2.550809383392334,0.007903807796537876,0.04578467458486557,-0.007284760475158691,-137,-78,-993,8,46,-7,-562,397,-22,14101.0
09:48:21.071,AUTO,-35.3636748,149.1655955,22899,0.08496929705142975,-0.1061566174030304,2.5503926277160645,-0.018067413941025734,0.07313521206378937,-0.0036467043682932854,-145,-72,-1001,-17,73,-3,-559,394,-25,14101.0
09:48:21.273,AUTO,-35.3636748,149.1655955,22899,0.08496929705142975,-0.1061566174030304,2.5503926277160645,-0.018067413941025734,0.07313521206378937,-0.0036467043682932854,-145,-72,-1001,-17,73,-3,-559,394,-25,14101.0
09:48:21.475,AUTO,-35.3636748,149.1655955,22899,0.08496929705142975,-0.1061566174030304,2.5503926277160645,-0.018067413941025734,0.07313521206378937,-0.0036467043682932854,-145,-72,-1001,-17,73,-3,-559,394,-25,14101.0
09:48:21.677,AUTO,-35.3636748,149.1655955,22899,0.08496929705142975,-0.1061566174030304,2.5503926277160645,-0.018067413941025734,0.07313521206378937,-0.0036467043682932854,-145,-72,-1001,-17,73,-3,-559,394,-25,14101.0
09:48:21.879,AUTO,-35.3637119,149.1656276,23106,0.08536117523908615,-0.06225147470831871,2.5509159564971924,-0.004739997908473015,0.032905373722314835,-0.00029535865178331733,-132,-81,-980,-3,33,0,-531,373,-27,14101.0
09:48:22.081,AUTO,-35.3637238,149.1656378,23171,0.08387747406959534,-0.049586933106184006,2.551058769226074,-0.01932661421597004,0.06697983294725418,-0.004819334950298071,-122,-72,-985,-18,67,-4,-519,363,-25,14101.0
09:48:22.283,AUTO,-35.3637354,149.1656478,23233,0.08314698934555054,-0.034277524799108505,2.551525831222534,0.00547264888882637,0.0583152174949646,-0.004974618554115295,-120,-79,-987,6,59,-4,-504,352,-24,14101.0
09:48:22.485,AUTO,-35.3637354,149.1656478,23233,0.08314698934555054,-0.034277524799108505,2.551525831222534,0.00547264888882637,0.0583152174949646,-0.004974618554115295,-120,-79,-987,6,59,-4,-504,352,-24,14101.0
09:48:22.688,AUTO,-35.3637469,149.1656576,23291,0.08179572224617004,-0.0205610953271389,2.551278829574585,-0.034953948110342026,0.042715881019830704,-0.00872700847685337,-117,-78,-985,-34,43,-8,-487,341,-22,14101.0
09:48:22.890,AUTO,-35.3637578,149.1656668,23343,0.07756718248128891,-0.012630924582481384,2.5505080223083496,-0.02397012524306774,0.010171999223530293,-0.014597192406654358,-106,-74,-980,-23,10,-14,-469,327,-19,14101.0
09:48:23.092,AUTO,-35.3637682,149.1656757,23387,0.07538897544145584,-0.0028092048596590757,2.5504419803619385,0.023592188954353333,0.02927490696310997,-0.0038218521513044834,-108,-65,-987,24,30,-3,-449,313,-16,14101.0
09:48:23.294,AUTO,-35.3637682,149.1656757,23387,0.07538897544145584,-0.0028092048596590757,2.5504419803619385,0.023592188954353333,0.02927490696310997,-0.0038218521513044834,-108,-65,-987,24,30,-3,-449,313,-16,14101.0
09:48:23.496,AUTO,-35.3637682,149.1656757,23387,0.07538897544145584,-0.0028092048596590757,2.5504419803619385,0.023592188954353333,0.02927490696310997,-0.0038218521513044834,-108,-65,-987,24,30,-3,-449,313,-16,32181.0
09:48:23.698,AUTO,-35.3637682,149.1656757,23387,0.07538897544145584,-0.0028092048596590757,2.5504419803619385,0.023592188954353333,0.02927490696310997,-0.0038218521513044834,-108,-65,-987,24,30,-3,-449,313,-16,32181.0
09:48:23.900,AUTO,-35.3637964,149.1656994,23488,0.06803373247385025,0.0296457689255476,2.550344705581665,0.13663479685783386,0.046977028250694275,0.0005291714915074408,-84,-58,-991,137,47,0,-384,267,-10,32181.0
09:48:24.103,AUTO,-35.3638048,149.1657065,23512,0.05599595978856087,0.042632732540369034,2.55056095123291,-0.49614086747169495,0.0458083413541317,0.014959984458982944,-91,-75,-995,-495,46,14,-359,250,-9,32181.0
09:48:24.306,AUTO,-35.3638126,149.1657131,23530,0.05190115422010422,0.05242423340678215,2.5500972270965576,-0.05907312035560608,0.03961554914712906,-0.03197198733687401,-83,-32,-981,-56,40,-31,-334,231,-5,32181.0
09:48:24.508,AUTO,-35.3638199,149.1657193,23539,0.0611024908721447,0.05393438786268234,2.549292802810669,0.7037293314933777,-0.01415092870593071,-0.02851051278412342,-78,-11,-999,705,-13,-28,-308,213,-3,32181.0
09:48:24.710,AUTO,-35.3638199,149.1657193,23539,0.0611024908721447,0.05393438786268234,2.549292802810669,0.7037293314933777,-0.01415092870593071,-0.02851051278412342,-78,-11,-999,705,-13,-28,-308,213,-3,32181.0
09:48:24.912,AUTO,-35.3638266,149.1657249,23543,0.059355057775974274,0.05094208940863609,2.549330234527588,0.6106331944465637,-0.003921045921742916,-0.0034884880296885967,-72,-31,-1010,611,-3,-3,-284,196,0,32181.0
09:48:25.114,AUTO,-35.3638327,149.1657301,23546,0.0489092580974102,0.049075767397880554,2.5493662357330322,-0.12538330256938934,-0.0005969527992419899,0.02529546059668064,-65,-64,-1004,-125,0,25,-261,181,-2,32181.0
09:48:25.316,AUTO,-35.3638327,149.1657301,23546,0.0489092580974102,0.049075767397880554,2.5493662357330322,-0.12538330256938934,-0.0005969527992419899,0.02529546059668064,-65,-64,-1004,-125,0,25,-261,181,-2,32181.0
09:48:25.518,AUTO,-35.3638327,149.1657301,23546,0.0489092580974102,0.049075767397880554,2.5493662357330322,-0.12538330256938934,-0.0005969527992419899,0.02529546059668064,-65,-64,-1004,-125,0,25,-261,181,-2,32181.0
09:48:25.720,AUTO,-35.3638327,149.1657301,23546,0.0489092580974102,0.049075767397880554,2.5493662357330322,-0.12538330256938934,-0.0005969527992419899,0.02529546059668064,-65,-64,-1004,-125,0,25,-261,181,-2,32181.0
09:48:25.923,AUTO,-35.3638481,149.1657435,23572,0.05171505734324455,0.06586001068353653,2.5495357513427734,0.614317774772644,0.0236978642642498,-0.005673032253980637,-50,-15,-1003,614,24,-5,-195,134,-4,32181.0
09:48:26.124,AUTO,-35.3638523,149.1657471,23581,0.04150831326842308,0.07246886193752289,2.5493671894073486,-0.057075511664152145,0.029919376596808434,0.007862076163291931,-42,-40,-997,-57,30,7,-174,118,-4,32181.0
09:48:26.326,AUTO,-35.3638559,149.1657503,23591,0.02708548493683338,0.08224620670080185,2.549119234085083,-0.6917243599891663,0.03711119294166565,0.0021342667751014233,-35,-60,-1004,-691,38,1,-151,102,-4,32181.0
09:48:26.528,AUTO,-35.3638591,149.165753,23600,0.02402925118803978,0.08842336386442184,2.5485475063323975,-0.3026741147041321,0.0034686820581555367,-0.01068618893623352,-30,-17,-1004,-300,4,-10,-129,85,-3,242171.0
09:48:26.730,AUTO,-35.3638591,149.165753,23600,0.02402925118803978,0.08842336386442184,2.5485475063323975,-0.3026741147041321,0.0034686820581555367,-0.01068618893623352,-30,-17,-1004,-300,4,-10,-129,85,-3,242171.0
09:48:26.931,AUTO,-35.3638617,149.1657553,23608,0.03094114363193512,0.08396510034799576,2.548111915588379,0.5116561651229858,-0.028859909623861313,-0.013827197253704071,-27,16,-1008,513,-27,-14,-108,69,-3,242171.0
09:48:27.133,AUTO,-35.3638639,149.1657572,23614,0.0337199866771698,0.07421459257602692,2.548161268234253,0.5500881671905518,-0.028567219153046608,0.004541316535323858,-23,-6,-1006,550,-27,4,-89,55,-2,242171.0
09:48:27.336,AUTO,-35.3638639,149.1657572,23614,0.0337199866771698,0.07421459257602692,2.548161268234253,0.5500881671905518,-0.028567219153046608,0.004541316535323858,-23,-6,-1006,550,-27,4,-89,55,-2,242171.0
09:48:27.550,AUTO,-35.3638639,149.1657572,23614,0.0337199866771698,0.07421459257602692,2.548161268234253,0.5500881671905518,-0.028567219153046608,0.004541316535323858,-23,-6,-1006,550,-27,4,-89,55,-2,242171.0
09:48:27.752,AUTO,-35.3638684,149.1657609,23626,0.005781771149486303,0.05814841389656067,2.5471584796905518,-0.04679813235998154,-0.007288798689842224,-0.009679848328232765,-23,-6,-1006,550,-27,4,-45,24,0,242171.0
09:48:27.956,AUTO,-35.3638684,149.1657609,23626,0.005781771149486303,0.05814841389656067,2.5471584796905518,-0.04679813235998154,-0.007288798689842224,-0.009679848328232765,-10,7,-996,-45,-6,-9,-45,24,0,242171.0
09:48:28.158,AUTO,-35.3638693,149.1657617,23628,0.016233619302511215,0.054554637521505356,2.5461792945861816,0.61803138256073,-0.013069172389805317,-0.007805915549397469,-8,23,-1011,619,-12,-8,-33,16,-1,242171.0
09:48:28.360,AUTO,-35.36387,149.1657622,23630,0.012237317860126495,0.050049230456352234,2.5460963249206543,0.0234987773001194,-0.014810674823820591,0.005491870921105146,-6,-21,-999,23,-14,5,-22,10,0,242171.0
09:48:28.562,AUTO,-35.3638705,149.1657626,23634,-0.0017244764603674412,0.04517385736107826,2.545553207397461,-0.5929256081581116,-0.024015970528125763,-7.895973976701498e-05,-3,-25,-998,-591,-22,0,-13,4,-1,242171.0
