time_stamp,MODE,lat,lon,relative_alt,roll,pitch,yaw,rollspeed,pitchspeed,yawspeed,xacc,yacc,zacc,xgyro,ygyro,zgyro,vx,vy,vz,alt,VFR_HUD_alt,EK2_ALT_SOURCE,RTL_ALT
13:20:06.663,AUTO,-35.3632621,149.1652374,1261,0.004094574134796858,0.001710996963083744,0.02379184402525425,0.009293691255152225,0.0004902530345134437,-0.001521958620287478,0,0,-1023,9,1,-2,0,0,-142,585200,585.2000122070312,0.0,1500.0
13:20:06.864,AUTO,-35.3632621,149.1652374,1261,0.004094574134796858,0.001710996963083744,0.02379184402525425,0.009293691255152225,0.0004902530345134437,-0.001521958620287478,0,0,-1023,9,1,-2,0,0,-142,585200,585.2000122070312,0.0,1500.0
13:20:07.066,AUTO,-35.363262,149.1652374,2250,0.022747768089175224,-3.527636181388516e-06,0.020217202603816986,0.0463835783302784,-0.006539207883179188,-0.0006588567048311234,0,0,-1003,46,-6,-1,0,4,-148,586190,586.1900024414062,0.0,1500.0
13:20:07.267,AUTO,-35.3632616,149.1652395,3800,0.0635327398777008,-0.009309576824307442,-0.012606310658156872,0.005163341760635376,0.006040577776730061,-0.03438301756978035,1,-8,-993,5,6,-35,8,41,-148,587740,587.739990234375,0.0,1500.0
13:20:07.469,AUTO,-35.3632616,149.1652395,3800,0.0635327398777008,-0.009309576824307442,-0.012606310658156872,0.005163341760635376,0.006040577776730061,-0.03438301756978035,1,-8,-993,5,6,-35,8,41,-148,587740,587.739990234375,0.0,1500.0
13:20:07.674,AUTO,-35.3632616,149.1652395,3800,0.0635327398777008,-0.009309576824307442,-0.012606310658156872,0.005163341760635376,0.006040577776730061,-0.03438301756978035,1,-8,-993,5,6,-35,8,41,-148,587740,587.739990234375,0.0,1500.0
13:20:07.883,AUTO,-35.3632616,149.1652395,3800,0.0635327398777008,-0.009309576824307442,-0.012606310658156872,0.005163341760635376,0.006040577776730061,-0.03438301756978035,1,-8,-993,5,6,-35,8,41,-148,587740,587.739990234375,0.0,1500.0
13:20:08.085,AUTO,-35.3632616,149.1652395,3800,0.0635327398777008,-0.009309576824307442,-0.012606310658156872,0.005163341760635376,0.006040577776730061,-0.03438301756978035,1,-8,-993,5,6,-35,8,41,-148,587740,587.739990234375,0.0,1500.0
13:20:08.288,AUTO,-35.3632616,149.1652395,3800,0.0635327398777008,-0.009309576824307442,-0.012606310658156872,0.005163341760635376,0.006040577776730061,-0.03438301756978035,1,-8,-993,5,6,-35,8,41,-148,587740,587.739990234375,0.0,1500.0
13:20:08.495,AUTO,-35.3632616,149.1652395,3800,0.0635327398777008,-0.009309576824307442,-0.012606310658156872,0.005163341760635376,0.006040577776730061,-0.03438301756978035,1,-8,-993,5,6,-35,8,41,-148,587740,587.739990234375,0.0,1500.0
13:20:08.710,AUTO,-35.3632616,149.1652395,3800,0.0635327398777008,-0.009309576824307442,-0.012606310658156872,0.005163341760635376,0.006040577776730061,-0.03438301756978035,1,-8,-993,5,6,-35,8,41,-148,587740,587.739990234375,0.0,1500.0
13:20:08.919,AUTO,-35.3632606,149.1652439,4872,0.03612634912133217,-0.033876609057188034,-0.0003420829598326236,-0.09346992522478104,0.07310457527637482,-0.05986064672470093,3,-17,-997,-25,-41,24,26,72,-146,588810,588.8099975585938,0.0,1500.0
13:20:09.127,AUTO,-35.3632569,149.1652519,6385,-0.04811101034283638,0.016943763941526413,-0.07312294840812683,-0.10914702713489532,0.04267808049917221,-0.10303451120853424,0,-19,-1010,-108,43,-103,41,56,-150,590320,590.3200073242188,0.0,1500.0
13:20:09.331,AUTO,-35.3632561,149.1652532,6773,-0.07499042898416519,0.02498602867126465,-0.09844774007797241,-0.10012176632881165,0.03613964095711708,-0.09833631664514542,0,-15,-1008,-99,36,-99,34,37,-151,590710,590.7099609375,0.0,1500.0
13:20:09.534,AUTO,-35.3632561,149.1652532,6773,-0.07499042898416519,0.02498602867126465,-0.09844774007797241,-0.10012176632881165,0.03613964095711708,-0.09833631664514542,0,-15,-1008,-99,36,-99,34,37,-151,590710,590.7099609375,0.0,1500.0
13:20:09.745,AUTO,-35.3632561,149.1652532,6773,-0.07499042898416519,0.02498602867126465,-0.09844774007797241,-0.10012176632881165,0.03613964095711708,-0.09833631664514542,0,-15,-1008,-99,36,-99,34,37,-151,590710,590.7099609375,0.0,1500.0
13:20:09.949,AUTO,-35.3632561,149.1652532,6773,-0.07499042898416519,0.02498602867126465,-0.09844774007797241,-0.10012176632881165,0.03613964095711708,-0.09833631664514542,0,-15,-1008,-99,36,-99,34,37,-151,590710,590.7099609375,0.0,1500.0
13:20:10.153,AUTO,-35.3632561,149.1652532,6773,-0.07499042898416519,0.02498602867126465,-0.09844774007797241,-0.10012176632881165,0.03613964095711708,-0.09833631664514542,0,-15,-1008,-99,36,-99,34,37,-151,590710,590.7099609375,0.0,1500.0
13:20:10.356,AUTO,-35.3632561,149.1652532,6773,-0.07499042898416519,0.02498602867126465,-0.09844774007797241,-0.10012176632881165,0.03613964095711708,-0.09833631664514542,0,-15,-1008,-99,36,-99,34,37,-151,590710,590.7099609375,0.0,1500.0
13:20:10.559,AUTO,-35.3632561,149.1652532,6773,-0.07499042898416519,0.02498602867126465,-0.09844774007797241,-0.10012176632881165,0.03613964095711708,-0.09833631664514542,0,-15,-1008,-99,36,-99,34,37,-151,590710,590.7099609375,0.0,1500.0
13:20:10.761,AUTO,-35.3632561,149.1652532,6773,-0.07499042898416519,0.02498602867126465,-0.09844774007797241,-0.10012176632881165,0.03613964095711708,-0.09833631664514542,0,-15,-1008,-99,36,-99,34,37,-151,590710,590.7099609375,0.0,1500.0
13:20:10.967,AUTO,-35.3632563,149.1652469,9038,-0.09140866994857788,0.054770875722169876,-0.2015523612499237,0.08419294655323029,0.01631154865026474,-0.02863486297428608,-7,23,-1000,84,16,-29,-53,-109,-141,592970,592.969970703125,0.0,1500.0
13:20:11.170,AUTO,-35.3632576,149.1652436,9403,-0.06963802874088287,0.0581856332719326,-0.20643097162246704,0.08936987817287445,0.01386899035423994,-0.016509415581822395,-7,28,-1003,89,14,-17,-71,-120,-141,593340,593.3399658203125,0.0,1500.0
13:20:11.371,AUTO,-35.3632576,149.1652436,9403,-0.06963802874088287,0.0581856332719326,-0.20643097162246704,0.08936987817287445,0.01386899035423994,-0.016509415581822395,-7,28,-1003,89,14,-17,-71,-120,-141,593340,593.3399658203125,0.0,1500.0
13:20:11.574,AUTO,-35.3632576,149.1652436,9403,-0.06963802874088287,0.0581856332719326,-0.20643097162246704,0.08936987817287445,0.01386899035423994,-0.016509415581822395,-7,28,-1003,89,14,-17,-71,-120,-141,593340,593.3399658203125,0.0,1500.0
13:20:11.778,AUTO,-35.3632576,149.1652436,9403,-0.06963802874088287,0.0581856332719326,-0.20643097162246704,0.08936987817287445,0.01386899035423994,-0.016509415581822395,-7,28,-1003,89,14,-17,-71,-120,-141,593340,593.3399658203125,0.0,1500.0
13:20:11.979,AUTO,-35.3632576,149.1652436,9403,-0.06963802874088287,0.0581856332719326,-0.20643097162246704,0.08936987817287445,0.01386899035423994,-0.016509415581822395,-7,28,-1003,89,14,-17,-71,-120,-141,593340,593.3399658203125,0.0,1500.0
13:20:12.181,AUTO,-35.3632576,149.1652436,9403,-0.06963802874088287,0.0581856332719326,-0.20643097162246704,0.08936987817287445,0.01386899035423994,-0.016509415581822395,-7,28,-1003,89,14,-17,-71,-120,-141,593340,593.3399658203125,0.0,1500.0
13:20:12.383,AUTO,-35.3632576,149.1652436,9403,-0.06963802874088287,0.0581856332719326,-0.20643097162246704,0.08936987817287445,0.01386899035423994,-0.016509415581822395,-7,28,-1003,89,14,-17,-71,-120,-141,593340,593.3399658203125,0.0,1500.0
13:20:12.585,AUTO,-35.3632729,149.1652252,11707,-0.002367100678384304,-0.04436368867754936,-0.09694571048021317,0.007953205145895481,-0.15192176401615143,0.1821899563074112,13,37,-1018,8,-151,181,-119,-78,-151,595640,595.6400146484375,0.0,1500.0
13:20:12.786,AUTO,-35.3632754,149.165223,12100,0.01157691702246666,-0.06888960301876068,-0.0618450790643692,0.08364827185869217,-0.06536375731229782,0.1270255297422409,12,32,-1020,84,-65,126,-100,-72,-156,596040,596.0399780273438,0.0,1500.0
13:20:12.988,AUTO,-35.3632754,149.165223,12100,0.01157691702246666,-0.06888960301876068,-0.0618450790643692,0.08364827185869217,-0.06536375731229782,0.1270255297422409,12,32,-1020,84,-65,126,-100,-72,-156,596040,596.0399780273438,0.0,1500.0
13:20:13.191,AUTO,-35.3632754,149.165223,12100,0.01157691702246666,-0.06888960301876068,-0.0618450790643692,0.08364827185869217,-0.06536375731229782,0.1270255297422409,12,32,-1020,84,-65,126,-100,-72,-156,596040,596.0399780273438,0.0,1500.0
13:20:13.393,AUTO,-35.3632754,149.165223,12100,0.01157691702246666,-0.06888960301876068,-0.0618450790643692,0.08364827185869217,-0.06536375731229782,0.1270255297422409,12,32,-1020,84,-65,126,-100,-72,-156,596040,596.0399780273438,0.0,1500.0
13:20:13.597,AUTO,-35.3632754,149.165223,12100,0.01157691702246666,-0.06888960301876068,-0.0618450790643692,0.08364827185869217,-0.06536375731229782,0.1270255297422409,12,32,-1020,84,-65,126,-100,-72,-156,596040,596.0399780273438,0.0,1500.0
13:20:13.802,AUTO,-35.3632754,149.165223,12100,0.01157691702246666,-0.06888960301876068,-0.0618450790643692,0.08364827185869217,-0.06536375731229782,0.1270255297422409,12,32,-1020,84,-65,126,-100,-72,-156,596040,596.0399780273438,0.0,1500.0
13:20:14.006,AUTO,-35.3632754,149.165223,12100,0.01157691702246666,-0.06888960301876068,-0.0618450790643692,0.08364827185869217,-0.06536375731229782,0.1270255297422409,12,32,-1020,84,-65,126,-100,-72,-156,596040,596.0399780273438,0.0,1500.0
13:20:14.211,AUTO,-35.3632754,149.165223,12100,0.01157691702246666,-0.06888960301876068,-0.0618450790643692,0.08364827185869217,-0.06536375731229782,0.1270255297422409,12,32,-1020,84,-65,126,-100,-72,-156,596040,596.0399780273438,0.0,1500.0
13:20:14.412,AUTO,-35.3632788,149.1652178,14589,0.10344040393829346,-0.10801096260547638,0.028223054483532906,0.03632058575749397,0.009054714813828468,0.025869688019156456,-6,-7,-991,36,9,24,55,34,-149,598520,598.5199584960938,0.0,1500.0
13:20:14.613,AUTO,-35.3632773,149.1652189,14965,0.10995379835367203,-0.1052423045039177,0.031625598669052124,0.02401176653802395,0.017168499529361725,0.018422266468405724,-9,-14,-990,24,17,17,79,56,-144,598900,598.8999633789062,0.0,1500.0
13:20:14.815,AUTO,-35.3632753,149.1652206,15329,0.11389772593975067,-0.10039269924163818,0.034076932817697525,0.014937415719032288,0.025107260793447495,0.015465594828128815,-11,-20,-990,15,25,14,101,77,-140,599260,599.260009765625,0.0,1500.0
13:20:15.016,AUTO,-35.3632753,149.1652206,15329,0.11389772593975067,-0.10039269924163818,0.034076932817697525,0.014937415719032288,0.025107260793447495,0.015465594828128815,-11,-20,-990,15,25,14,101,77,-140,599260,599.260009765625,0.0,1500.0
13:20:15.219,AUTO,-35.3632753,149.1652206,15329,0.11389772593975067,-0.10039269924163818,0.034076932817697525,0.014937415719032288,0.025107260793447495,0.015465594828128815,-11,-20,-990,15,25,14,101,77,-140,599260,599.260009765625,0.0,1500.0
13:20:15.422,AUTO,-35.3632753,149.1652206,15329,0.11389772593975067,-0.10039269924163818,0.034076932817697525,0.014937415719032288,0.025107260793447495,0.015465594828128815,-11,-20,-990,15,25,14,101,77,-140,599260,599.260009765625,0.0,1500.0
13:20:15.624,AUTO,-35.3632753,149.1652206,15329,0.11389772593975067,-0.10039269924163818,0.034076932817697525,0.014937415719032288,0.025107260793447495,0.015465594828128815,-11,-20,-990,15,25,14,101,77,-140,599260,599.260009765625,0.0,1500.0
13:20:15.829,AUTO,-35.3632753,149.1652206,15329,0.11389772593975067,-0.10039269924163818,0.034076932817697525,0.014937415719032288,0.025107260793447495,0.015465594828128815,-11,-20,-990,15,25,14,101,77,-140,599260,599.260009765625,0.0,1500.0
13:20:16.031,AUTO,-35.3632753,149.1652206,15329,0.11389772593975067,-0.10039269924163818,0.034076932817697525,0.014937415719032288,0.025107260793447495,0.015465594828128815,-11,-20,-990,15,25,14,101,77,-140,599260,599.260009765625,0.0,1500.0
13:20:16.232,AUTO,-35.3632562,149.1652399,17441,0.007682080380618572,0.029900284484028816,-0.06727837026119232,-0.13588708639144897,0.11323674023151398,-0.12287690490484238,-14,-46,-1034,-135,113,-123,145,132,-146,601380,601.3800048828125,0.0,1500.0
13:20:16.434,AUTO,-35.3632562,149.1652399,17441,0.007682080380618572,0.029900284484028816,-0.06727837026119232,-0.13588708639144897,0.11323674023151398,-0.12287690490484238,-14,-46,-1034,-135,113,-123,145,132,-146,601380,601.3800048828125,0.0,1500.0
13:20:16.635,AUTO,-35.363253,149.1652434,17824,-0.02066579833626747,0.04938453435897827,-0.09436950832605362,-0.1030462309718132,0.05395536497235298,-0.09434542804956436,-8,-49,-1031,-101,54,-94,132,119,-154,601760,601.760009765625,0.0,1500.0
13:20:16.838,AUTO,-35.3632502,149.1652464,18224,-0.04410231485962868,0.05852866172790527,-0.11499954760074615,-0.07715839892625809,0.030218113213777542,-0.06788349151611328,-8,-39,-1022,-76,30,-68,115,101,-160,602160,602.1599731445312,0.0,1500.0
13:20:17.042,AUTO,-35.3632502,149.1652464,18224,-0.04410231485962868,0.05852866172790527,-0.11499954760074615,-0.07715839892625809,0.030218113213777542,-0.06788349151611328,-8,-39,-1022,-76,30,-68,115,101,-160,602160,602.1599731445312,0.0,1500.0
13:20:17.244,AUTO,-35.3632502,149.1652464,18224,-0.04410231485962868,0.05852866172790527,-0.11499954760074615,-0.07715839892625809,0.030218113213777542,-0.06788349151611328,-8,-39,-1022,-76,30,-68,115,101,-160,602160,602.1599731445312,0.0,1500.0
13:20:17.447,AUTO,-35.3632502,149.1652464,18224,-0.04410231485962868,0.05852866172790527,-0.11499954760074615,-0.07715839892625809,0.030218113213777542,-0.06788349151611328,-8,-39,-1022,-76,30,-68,115,101,-160,602160,602.1599731445312,0.0,1500.0
13:20:17.651,AUTO,-35.3632502,149.1652464,18224,-0.04410231485962868,0.05852866172790527,-0.11499954760074615,-0.07715839892625809,0.030218113213777542,-0.06788349151611328,-8,-39,-1022,-76,30,-68,115,101,-160,602160,602.1599731445312,0.0,1500.0
13:20:17.856,AUTO,-35.3632502,149.1652464,18224,-0.04410231485962868,0.05852866172790527,-0.11499954760074615,-0.07715839892625809,0.030218113213777542,-0.06788349151611328,-8,-39,-1022,-76,30,-68,115,101,-160,602160,602.1599731445312,0.0,1500.0
13:20:18.062,AUTO,-35.3632502,149.1652464,18224,-0.04410231485962868,0.05852866172790527,-0.11499954760074615,-0.07715839892625809,0.030218113213777542,-0.06788349151611328,-8,-39,-1022,-76,30,-68,115,101,-160,602160,602.1599731445312,0.0,1500.0
13:20:18.268,AUTO,-35.3632502,149.1652464,18224,-0.04410231485962868,0.05852866172790527,-0.11499954760074615,-0.07715839892625809,0.030218113213777542,-0.06788349151611328,-8,-39,-1022,-76,30,-68,115,101,-160,602160,602.1599731445312,0.0,1500.0
13:20:18.472,AUTO,-35.3632426,149.1652522,20667,-0.10582302510738373,0.08847501128911972,-0.1899304836988449,0.012009122408926487,0.0328625924885273,-0.05609489232301712,-4,3,-993,12,33,-56,-17,-37,-152,604600,604.5999755859375,0.0,1500.0
13:20:18.674,AUTO,-35.3632433,149.1652509,21050,-0.10151492059230804,0.09542711824178696,-0.2049565613269806,0.03448990732431412,0.034720707684755325,-0.059894777834415436,-2,10,-993,34,35,-60,-43,-56,-148,604990,604.989990234375,0.0,1500.0
13:20:18.877,AUTO,-35.3632445,149.1652491,21422,-0.091152623295784,0.10080335289239883,-0.21901966631412506,0.06252898275852203,0.01659141480922699,-0.047112684696912766,0,19,-995,63,16,-48,-71,-71,-144,605360,605.3599853515625,0.0,1500.0
13:20:19.080,AUTO,-35.3632445,149.1652491,21422,-0.091152623295784,0.10080335289239883,-0.21901966631412506,0.06252898275852203,0.01659141480922699,-0.047112684696912766,0,19,-995,63,16,-48,-71,-71,-144,605360,605.3599853515625,0.0,1500.0
13:20:19.283,AUTO,-35.3632445,149.1652491,21422,-0.091152623295784,0.10080335289239883,-0.21901966631412506,0.06252898275852203,0.01659141480922699,-0.047112684696912766,0,19,-995,63,16,-48,-71,-71,-144,605360,605.3599853515625,0.0,1500.0
13:20:19.485,AUTO,-35.3632445,149.1652491,21422,-0.091152623295784,0.10080335289239883,-0.21901966631412506,0.06252898275852203,0.01659141480922699,-0.047112684696912766,0,19,-995,63,16,-48,-71,-71,-144,605360,605.3599853515625,0.0,1500.0
13:20:19.691,AUTO,-35.3632445,149.1652491,21422,-0.091152623295784,0.10080335289239883,-0.21901966631412506,0.06252898275852203,0.01659141480922699,-0.047112684696912766,0,19,-995,63,16,-48,-71,-71,-144,605360,605.3599853515625,0.0,1500.0
13:20:19.894,AUTO,-35.3632445,149.1652491,21422,-0.091152623295784,0.10080335289239883,-0.21901966631412506,0.06252898275852203,0.01659141480922699,-0.047112684696912766,0,19,-995,63,16,-48,-71,-71,-144,605360,605.3599853515625,0.0,1500.0
13:20:20.096,AUTO,-35.3632445,149.1652491,21422,-0.091152623295784,0.10080335289239883,-0.21901966631412506,0.06252898275852203,0.01659141480922699,-0.047112684696912766,0,19,-995,63,16,-48,-71,-71,-144,605360,605.3599853515625,0.0,1500.0
13:20:20.304,AUTO,-35.3632549,149.1652401,22854,-0.0007556330529041588,0.08274081349372864,-0.2346208244562149,0.10160032659769058,-0.037734098732471466,-8.818274363875389e-05,10,38,-1010,102,-37,0,-158,-73,-142,606790,606.7899780273438,0.0,1500.0
13:20:20.507,AUTO,-35.3632664,149.1652359,23962,0.06158151850104332,0.02405555173754692,-0.21268007159233093,0.0173951406031847,-0.15484148263931274,0.09278420358896255,19,43,-1014,83,-79,33,-175,-16,-149,607900,607.5199584960938,0.0,1500.0
13:20:20.709,AUTO,-35.3632664,149.1652359,23962,0.06158151850104332,0.02405555173754692,-0.21268007159233093,0.0173951406031847,-0.15484148263931274,0.09278420358896255,22,35,-1015,18,-154,92,-175,-16,-149,607900,607.8999633789062,0.0,1500.0
13:20:20.915,AUTO,-35.3632702,149.1652357,24346,0.06410443782806396,-0.02066727541387081,-0.18730325996875763,0.010283571667969227,-0.17766238749027252,0.12102998793125153,23,32,-1022,11,-176,120,-163,3,-153,608280,608.2799682617188,0.0,1500.0
13:20:21.118,AUTO,-35.3632702,149.1652357,24346,0.06410443782806396,-0.02066727541387081,-0.18730325996875763,0.010283571667969227,-0.17766238749027252,0.12102998793125153,23,32,-1022,11,-176,120,-163,3,-153,608280,608.2799682617188,0.0,1500.0
13:20:21.320,AUTO,-35.3632702,149.1652357,24346,0.06410443782806396,-0.02066727541387081,-0.18730325996875763,0.010283571667969227,-0.17766238749027252,0.12102998793125153,23,32,-1022,11,-176,120,-163,3,-153,608280,608.2799682617188,0.0,1500.0
13:20:21.524,AUTO,-35.3632702,149.1652357,24346,0.06410443782806396,-0.02066727541387081,-0.18730325996875763,0.010283571667969227,-0.17766238749027252,0.12102998793125153,23,32,-1022,11,-176,120,-163,3,-153,608280,608.2799682617188,0.0,1500.0
13:20:21.728,AUTO,-35.3632702,149.1652357,24346,0.06410443782806396,-0.02066727541387081,-0.18730325996875763,0.010283571667969227,-0.17766238749027252,0.12102998793125153,23,32,-1022,11,-176,120,-163,3,-153,608280,608.2799682617188,0.0,1500.0
13:20:21.930,AUTO,-35.3632702,149.1652357,24346,0.06410443782806396,-0.02066727541387081,-0.18730325996875763,0.010283571667969227,-0.17766238749027252,0.12102998793125153,23,32,-1022,11,-176,120,-163,3,-153,608280,608.2799682617188,0.0,1500.0
13:20:22.135,AUTO,-35.3632702,149.1652357,24346,0.04583914205431938,-0.14416912198066711,-0.09188022464513779,-0.028781505301594734,-0.17262519896030426,0.17739969491958618,23,32,-1022,11,-176,120,-163,3,-153,608280,608.2799682617188,0.0,1500.0
13:20:22.337,AUTO,-35.3632784,149.1652405,26584,-0.02335427887737751,-0.21833203732967377,0.00643487274646759,-0.23454506695270538,0.10291910171508789,-0.03453916683793068,-4,-15,-971,-233,103,-35,70,46,-142,610520,610.5199584960938,0.0,1500.0
13:20:22.539,AUTO,-35.3632764,149.1652414,26932,-0.0749291181564331,-0.17166928946971893,-0.0355350561439991,-0.21029376983642578,0.23234477639198303,-0.21763218939304352,-12,-20,-995,-209,233,-218,115,27,-134,610870,610.8699951171875,0.0,1500.0
13:20:22.741,AUTO,-35.3632735,149.1652415,27268,-0.11075016856193542,-0.12410727143287659,-0.10266770422458649,-0.14942243695259094,0.1899641454219818,-0.2526892125606537,-23,-22,-1013,-148,190,-253,144,-4,-132,611200,611.2000122070312,0.0,1500.0
13:20:22.945,AUTO,-35.3632735,149.1652415,27268,-0.11075016856193542,-0.12410727143287659,-0.10266770422458649,-0.14942243695259094,0.1899641454219818,-0.2526892125606537,-23,-22,-1013,-148,190,-253,144,-4,-132,611200,611.2000122070312,0.0,1500.0
13:20:23.147,AUTO,-35.3632735,149.1652415,27268,-0.11075016856193542,-0.12410727143287659,-0.10266770422458649,-0.14942243695259094,0.1899641454219818,-0.2526892125606537,-23,-22,-1013,-148,190,-253,144,-4,-132,611200,611.2000122070312,0.0,1500.0
13:20:23.349,AUTO,-35.3632735,149.1652415,27268,-0.11075016856193542,-0.12410727143287659,-0.10266770422458649,-0.14942243695259094,0.1899641454219818,-0.2526892125606537,-23,-22,-1013,-148,190,-253,144,-4,-132,611200,611.2000122070312,0.0,1500.0
13:20:23.551,AUTO,-35.3632735,149.1652415,27268,-0.11075016856193542,-0.12410727143287659,-0.10266770422458649,-0.14942243695259094,0.1899641454219818,-0.2526892125606537,-23,-22,-1013,-148,190,-253,144,-4,-132,611200,611.2000122070312,0.0,1500.0
13:20:23.756,AUTO,-35.3632735,149.1652415,27268,-0.11075016856193542,-0.12410727143287659,-0.10266770422458649,-0.14942243695259094,0.1899641454219818,-0.2526892125606537,-23,-22,-1013,-148,190,-253,144,-4,-132,611200,611.2000122070312,0.0,1500.0
13:20:23.962,AUTO,-35.3632735,149.1652415,27268,-0.11075016856193542,-0.12410727143287659,-0.10266770422458649,-0.14942243695259094,0.1899641454219818,-0.2526892125606537,-23,-22,-1013,-148,190,-253,144,-4,-132,611200,611.2000122070312,0.0,1500.0
13:20:24.166,AUTO,-35.3632627,149.1652365,28290,-0.10002972185611725,-0.045297637581825256,-0.21938833594322205,0.04515986517071724,0.1343076527118683,-0.06797979772090912,-38,-12,-1014,46,134,-68,165,-108,-136,612230,612.22998046875,0.0,1500.0
13:20:24.368,AUTO,-35.3632527,149.1652248,29367,-0.06731065362691879,0.052191466093063354,-0.2651451528072357,0.05281900241971016,0.13174067437648773,-0.033833250403404236,-52,3,-1025,53,132,-34,115,-165,-148,613300,613.2999877929688,0.0,1500.0
13:20:24.571,AUTO,-35.3632503,149.1652201,29751,-0.05346660315990448,0.08462824672460556,-0.2741920053958893,0.060316238552331924,0.1307000070810318,-0.023792438209056854,-43,10,-1024,61,131,-23,84,-170,-153,613690,613.6900024414062,0.0,1500.0
13:20:24.773,AUTO,-35.3632487,149.1652153,30142,-0.03770294785499573,0.11495281755924225,-0.28078070282936096,0.0693172812461853,0.11759061366319656,-0.017490047961473465,-45,13,-1022,70,118,-17,48,-169,-156,614080,614.0799560546875,0.0,1500.0
13:20:24.977,AUTO,-35.3632487,149.1652153,30142,-0.03770294785499573,0.11495281755924225,-0.28078070282936096,0.0693172812461853,0.11759061366319656,-0.017490047961473465,-45,13,-1022,70,118,-17,48,-169,-156,614080,614.0799560546875,0.0,1500.0
13:20:25.179,AUTO,-35.3632487,149.1652153,30142,-0.03770294785499573,0.11495281755924225,-0.28078070282936096,0.0693172812461853,0.11759061366319656,-0.017490047961473465,-45,13,-1022,70,118,-17,48,-169,-156,614080,614.0799560546875,0.0,1500.0
13:20:25.383,AUTO,-35.3632487,149.1652153,30142,-0.03770294785499573,0.11495281755924225,-0.28078070282936096,0.0693172812461853,0.11759061366319656,-0.017490047961473465,-45,13,-1022,70,118,-17,48,-169,-156,614080,614.0799560546875,0.0,1500.0
13:20:25.583,AUTO,-35.3632487,149.1652153,30142,-0.03770294785499573,0.11495281755924225,-0.28078070282936096,0.0693172812461853,0.11759061366319656,-0.017490047961473465,-45,13,-1022,70,118,-17,48,-169,-156,614080,614.0799560546875,0.0,1500.0
13:20:25.788,AUTO,-35.3632487,149.1652153,30142,-0.03770294785499573,0.11495281755924225,-0.28078070282936096,0.0693172812461853,0.11759061366319656,-0.017490047961473465,-45,13,-1022,70,118,-17,48,-169,-156,614080,614.0799560546875,0.0,1500.0
13:20:25.989,AUTO,-35.3632487,149.1652153,30142,-0.03770294785499573,0.11495281755924225,-0.28078070282936096,0.0693172812461853,0.11759061366319656,-0.017490047961473465,-45,13,-1022,70,118,-17,48,-169,-156,614080,614.0799560546875,0.0,1500.0
13:20:26.191,AUTO,-35.3632487,149.1652153,30142,-0.03770294785499573,0.11495281755924225,-0.28078070282936096,0.0693172812461853,0.11759061366319656,-0.017490047961473465,-45,13,-1022,70,118,-17,48,-169,-156,614080,614.0799560546875,0.0,1500.0
13:20:26.393,AUTO,-35.363254,149.1651975,32082,0.07119770348072052,0.1875598281621933,-0.28727999329566956,0.09844133257865906,-0.011462850496172905,0.007006005384027958,3,36,-996,99,-10,6,-150,-62,-143,616020,616.0199584960938,0.0,1500.0
13:20:26.594,AUTO,-35.3632618,149.1651962,32782,0.12093810737133026,0.162719264626503,-0.28432607650756836,0.0786096528172493,-0.0897011086344719,0.033306825906038284,26,33,-994,79,-88,32,-204,19,-131,616720,616.719970703125,0.0,1500.0
13:20:26.795,AUTO,-35.3632664,149.1651973,33109,0.13452567160129547,0.12639451026916504,-0.27488505840301514,0.03361304849386215,-0.169146329164505,0.07493237406015396,40,26,-1003,34,-168,74,-217,64,-126,617040,617.0399780273438,0.0,1500.0
13:20:26.997,AUTO,-35.3632664,149.1651973,33109,0.13452567160129547,0.12639451026916504,-0.27488505840301514,0.03361304849386215,-0.169146329164505,0.07493237406015396,40,26,-1003,34,-168,74,-217,64,-126,617040,617.0399780273438,0.0,1500.0
13:20:27.200,AUTO,-35.3632664,149.1651973,33109,0.13452567160129547,0.12639451026916504,-0.27488505840301514,0.03361304849386215,-0.169146329164505,0.07493237406015396,40,26,-1003,34,-168,74,-217,64,-126,617040,617.0399780273438,0.0,1500.0
13:20:27.402,AUTO,-35.3632664,149.1651973,33109,0.13452567160129547,0.12639451026916504,-0.27488505840301514,0.03361304849386215,-0.169146329164505,0.07493237406015396,40,26,-1003,34,-168,74,-217,64,-126,617040,617.0399780273438,0.0,1500.0
13:20:27.608,AUTO,-35.3632664,149.1651973,33109,0.13452567160129547,0.12639451026916504,-0.27488505840301514,0.03361304849386215,-0.169146329164505,0.07493237406015396,40,26,-1003,34,-168,74,-217,64,-126,617040,617.0399780273438,0.0,1500.0
13:20:27.811,AUTO,-35.3632664,149.1651973,33109,0.13452567160129547,0.12639451026916504,-0.27488505840301514,0.03361304849386215,-0.169146329164505,0.07493237406015396,40,26,-1003,34,-168,74,-217,64,-126,617040,617.0399780273438,0.0,1500.0
13:20:28.019,AUTO,-35.3632664,149.1651973,33109,0.13452567160129547,0.12639451026916504,-0.27488505840301514,0.03361304849386215,-0.169146329164505,0.07493237406015396,40,26,-1003,34,-168,74,-217,64,-126,617040,617.0399780273438,0.0,1500.0
13:20:28.224,AUTO,-35.3632664,149.1651973,33109,0.13452567160129547,0.12639451026916504,-0.27488505840301514,0.03361304849386215,-0.169146329164505,0.07493237406015396,40,26,-1003,34,-168,74,-217,64,-126,617040,617.0399780273438,0.0,1500.0
13:20:28.438,AUTO,-35.3632664,149.1651973,33109,0.13452567160129547,0.12639451026916504,-0.27488505840301514,0.03361304849386215,-0.169146329164505,0.07493237406015396,40,26,-1003,34,-168,74,-217,64,-126,617040,617.0399780273438,0.0,1500.0
13:20:28.644,AUTO,-35.3632664,149.1651973,33109,0.13452567160129547,0.12639451026916504,-0.27488505840301514,0.03361304849386215,-0.169146329164505,0.07493237406015396,40,26,-1003,34,-168,74,-217,64,-126,617040,617.0399780273438,0.0,1500.0
13:20:28.850,AUTO,-35.3632842,149.1652131,34426,0.16992640495300293,-0.05924709886312485,-0.22373758256435394,-0.001042152987793088,-0.1798728108406067,0.09756610542535782,59,5,-1026,52,-170,68,-153,216,-134,618360,618.0199584960938,0.0,1500.0
13:20:29.055,AUTO,-35.3632888,149.1652417,35763,0.06951294094324112,-0.2595546841621399,-0.11958008259534836,-0.19436009228229523,-0.07883676141500473,0.05549682676792145,30,-58,-1007,-193,-78,55,74,279,-123,619700,619.7000122070312,0.0,1500.0
13:20:29.266,AUTO,-35.3632863,149.1652492,36067,0.017714185640215874,-0.25145065784454346,-0.12713032960891724,-0.22551755607128143,0.10049548745155334,-0.09228429198265076,16,-68,-1019,-224,101,-92,143,265,-117,620000,620.0,0.0,1500.0
13:20:29.469,AUTO,-35.3632863,149.1652492,36067,0.017714185640215874,-0.25145065784454346,-0.12713032960891724,-0.22551755607128143,0.10049548745155334,-0.09228429198265076,16,-68,-1019,-224,101,-92,143,265,-117,620000,620.0,0.0,1500.0
13:20:29.674,AUTO,-35.3632863,149.1652492,36067,0.017714185640215874,-0.25145065784454346,-0.12713032960891724,-0.22551755607128143,0.10049548745155334,-0.09228429198265076,16,-68,-1019,-224,101,-92,143,265,-117,620000,620.0,0.0,1500.0
13:20:29.880,AUTO,-35.3632863,149.1652492,36067,0.017714185640215874,-0.25145065784454346,-0.12713032960891724,-0.22551755607128143,0.10049548745155334,-0.09228429198265076,16,-68,-1019,-224,101,-92,143,265,-117,620000,620.0,0.0,1500.0
13:20:30.085,AUTO,-35.3632863,149.1652492,36067,0.017714185640215874,-0.25145065784454346,-0.12713032960891724,-0.22551755607128143,0.10049548745155334,-0.09228429198265076,16,-68,-1019,-224,101,-92,143,265,-117,620000,620.0,0.0,1500.0
13:20:30.288,AUTO,-35.3632863,149.1652492,36067,0.017714185640215874,-0.25145065784454346,-0.12713032960891724,-0.22551755607128143,0.10049548745155334,-0.09228429198265076,16,-68,-1019,-224,101,-92,143,265,-117,620000,620.0,0.0,1500.0
13:20:30.501,AUTO,-35.3632863,149.1652492,36067,0.017714185640215874,-0.25145065784454346,-0.12713032960891724,-0.22551755607128143,0.10049548745155334,-0.09228429198265076,16,-68,-1019,-224,101,-92,143,265,-117,620000,620.0,0.0,1500.0
13:20:30.706,AUTO,-35.3632863,149.1652492,36067,0.017714185640215874,-0.25145065784454346,-0.12713032960891724,-0.22551755607128143,0.10049548745155334,-0.09228429198265076,16,-68,-1019,-224,101,-92,143,265,-117,620000,620.0,0.0,1500.0
13:20:30.909,AUTO,-35.3632863,149.1652492,36067,0.017714185640215874,-0.25145065784454346,-0.12713032960891724,-0.22551755607128143,0.10049548745155334,-0.09228429198265076,16,-68,-1019,-224,101,-92,143,265,-117,620000,620.0,0.0,1500.0
13:20:31.113,AUTO,-35.3632572,149.1652713,37740,-0.15918676555156708,-0.06929253041744232,-0.3610117733478546,0.013148204423487186,0.20547951757907867,-0.042009007185697556,-35,-62,-1048,13,206,-42,287,6,-140,621680,621.6799926757812,0.0,1500.0
13:20:31.317,AUTO,-35.3632363,149.1652635,39285,-0.1431577354669571,0.09987842291593552,-0.38866403698921204,0.02273796871304512,0.1380062997341156,-0.0073905992321670055,-48,-15,-1025,23,138,-7,155,-139,-160,623220,623.219970703125,0.0,1500.0
13:20:31.519,AUTO,-35.3632363,149.1652635,39285,-0.1431577354669571,0.09987842291593552,-0.38866403698921204,0.02273796871304512,0.1380062997341156,-0.0073905992321670055,-48,-15,-1025,23,138,-7,155,-139,-160,623220,623.219970703125,0.0,1500.0
13:20:31.723,AUTO,-35.3632363,149.1652635,39285,-0.1431577354669571,0.09987842291593552,-0.38866403698921204,0.02273796871304512,0.1380062997341156,-0.0073905992321670055,-48,-15,-1025,23,138,-7,155,-139,-160,623220,623.219970703125,0.0,1500.0
13:20:31.927,AUTO,-35.3632363,149.1652635,39285,-0.1431577354669571,0.09987842291593552,-0.38866403698921204,0.02273796871304512,0.1380062997341156,-0.0073905992321670055,-48,-15,-1025,23,138,-7,155,-139,-160,623220,623.219970703125,0.0,1500.0
13:20:32.129,AUTO,-35.3632363,149.1652635,39285,-0.1431577354669571,0.09987842291593552,-0.38866403698921204,0.02273796871304512,0.1380062997341156,-0.0073905992321670055,-48,-15,-1025,23,138,-7,155,-139,-160,623220,623.219970703125,0.0,1500.0
13:20:32.333,AUTO,-35.3632363,149.1652635,39285,-0.1431577354669571,0.09987842291593552,-0.38866403698921204,0.02273796871304512,0.1380062997341156,-0.0073905992321670055,-48,-15,-1025,23,138,-7,155,-139,-160,623220,623.219970703125,0.0,1500.0
13:20:32.541,AUTO,-35.3632363,149.1652635,39285,-0.1431577354669571,0.09987842291593552,-0.38866403698921204,0.02273796871304512,0.1380062997341156,-0.0073905992321670055,-48,-15,-1025,23,138,-7,155,-139,-160,623220,623.219970703125,0.0,1500.0
13:20:32.748,AUTO,-35.3632363,149.1652635,39285,-0.1431577354669571,0.09987842291593552,-0.38866403698921204,0.02273796871304512,0.1380062997341156,-0.0073905992321670055,-48,-15,-1025,23,138,-7,155,-139,-160,623220,623.219970703125,0.0,1500.0
13:20:32.950,AUTO,-35.3632363,149.1652635,39285,-0.1431577354669571,0.09987842291593552,-0.38866403698921204,0.02273796871304512,0.1380062997341156,-0.0073905992321670055,-48,-15,-1025,23,138,-7,155,-139,-160,623220,623.219970703125,0.0,1500.0
13:20:33.160,AUTO,-35.3632363,149.1652635,39285,-0.1431577354669571,0.09987842291593552,-0.38866403698921204,0.02273796871304512,0.1380062997341156,-0.0073905992321670055,-48,-15,-1025,23,138,-7,155,-139,-160,623220,623.219970703125,0.0,1500.0
13:20:33.367,AUTO,-35.3632363,149.1652635,39285,-0.1431577354669571,0.09987842291593552,-0.38866403698921204,0.02273796871304512,0.1380062997341156,-0.0073905992321670055,-48,-15,-1025,23,138,-7,155,-139,-160,623220,623.219970703125,0.0,1500.0
13:20:33.569,AUTO,-35.3632363,149.1652635,39285,-0.1431577354669571,0.09987842291593552,-0.38866403698921204,0.02273796871304512,0.1380062997341156,-0.0073905992321670055,-48,-15,-1025,23,138,-7,155,-139,-160,623220,623.219970703125,0.0,1500.0
13:20:33.772,AUTO,-35.3632491,149.1652316,42202,-0.0066193281672894955,0.17804522812366486,-0.3529333770275116,-0.0021024923771619797,-0.19551078975200653,0.16727063059806824,9,53,-982,-16,-147,128,-274,-69,-110,626140,626.1400146484375,0.0,1500.0
13:20:33.975,AUTO,-35.3632624,149.1652291,42781,0.022752953693270683,0.0879923552274704,-0.27598777413368225,0.07956456393003464,-0.15450015664100647,0.136485755443573,38,56,-1041,80,-153,136,-311,-24,-120,626720,626.719970703125,0.0,1500.0
13:20:34.177,AUTO,-35.3632624,149.1652291,42781,0.022752953693270683,0.0879923552274704,-0.27598777413368225,0.07956456393003464,-0.15450015664100647,0.136485755443573,38,56,-1041,80,-153,136,-311,-24,-120,626720,626.719970703125,0.0,1500.0
13:20:34.384,AUTO,-35.3632624,149.1652291,42781,0.022752953693270683,0.0879923552274704,-0.27598777413368225,0.07956456393003464,-0.15450015664100647,0.136485755443573,38,56,-1041,80,-153,136,-311,-24,-120,626720,626.719970703125,0.0,1500.0
13:20:34.592,AUTO,-35.3632624,149.1652291,42781,0.022752953693270683,0.0879923552274704,-0.27598777413368225,0.07956456393003464,-0.15450015664100647,0.136485755443573,38,56,-1041,80,-153,136,-311,-24,-120,626720,626.719970703125,0.0,1500.0
13:20:34.794,AUTO,-35.3632624,149.1652291,42781,0.022752953693270683,0.0879923552274704,-0.27598777413368225,0.07956456393003464,-0.15450015664100647,0.136485755443573,38,56,-1041,80,-153,136,-311,-24,-120,626720,626.719970703125,0.0,1500.0
13:20:34.997,AUTO,-35.3632624,149.1652291,42781,0.022752953693270683,0.0879923552274704,-0.27598777413368225,0.07956456393003464,-0.15450015664100647,0.136485755443573,38,56,-1041,80,-153,136,-311,-24,-120,626720,626.719970703125,0.0,1500.0
13:20:35.205,AUTO,-35.3632624,149.1652291,42781,0.022752953693270683,0.0879923552274704,-0.27598777413368225,0.07956456393003464,-0.15450015664100647,0.136485755443573,38,56,-1041,80,-153,136,-311,-24,-120,626720,626.719970703125,0.0,1500.0
13:20:35.406,AUTO,-35.3632624,149.1652291,42781,0.022752953693270683,0.0879923552274704,-0.27598777413368225,0.07956456393003464,-0.15450015664100647,0.136485755443573,38,56,-1041,80,-153,136,-311,-24,-120,626720,626.719970703125,0.0,1500.0
13:20:35.611,AUTO,-35.3632973,149.1652391,45034,0.14644521474838257,-0.16706477105617523,-0.15198856592178345,-0.0023974948562681675,-0.17936310172080994,0.10971640795469284,56,14,-1029,24,-177,105,-139,153,-160,628970,628.5599975585938,0.0,1500.0
13:20:35.813,AUTO,-35.3632973,149.1652391,45034,0.14644521474838257,-0.16706477105617523,-0.15198856592178345,-0.0023974948562681675,-0.17936310172080994,0.10971640795469284,52,0,-1021,-1,-178,110,-139,153,-160,628970,628.969970703125,0.0,1500.0
13:20:36.015,AUTO,-35.3632973,149.1652391,45034,0.14644521474838257,-0.16706477105617523,-0.15198856592178345,-0.0023974948562681675,-0.17936310172080994,0.10971640795469284,52,0,-1021,-1,-178,110,-139,153,-160,628970,628.969970703125,0.0,1500.0
13:20:36.218,AUTO,-35.3632973,149.1652391,45034,0.14644521474838257,-0.16706477105617523,-0.15198856592178345,-0.0023974948562681675,-0.17936310172080994,0.10971640795469284,52,0,-1021,-1,-178,110,-139,153,-160,628970,628.969970703125,0.0,1500.0
13:20:36.421,AUTO,-35.3632973,149.1652391,45034,0.14644521474838257,-0.16706477105617523,-0.15198856592178345,-0.0023974948562681675,-0.17936310172080994,0.10971640795469284,52,0,-1021,-1,-178,110,-139,153,-160,628970,628.969970703125,0.0,1500.0
13:20:36.624,AUTO,-35.3632973,149.1652391,45034,0.14644521474838257,-0.16706477105617523,-0.15198856592178345,-0.0023974948562681675,-0.17936310172080994,0.10971640795469284,52,0,-1021,-1,-178,110,-139,153,-160,628970,628.969970703125,0.0,1500.0
13:20:36.828,AUTO,-35.3632973,149.1652391,45034,0.14644521474838257,-0.16706477105617523,-0.15198856592178345,-0.0023974948562681675,-0.17936310172080994,0.10971640795469284,52,0,-1021,-1,-178,110,-139,153,-160,628970,628.969970703125,0.0,1500.0
13:20:37.034,AUTO,-35.3632973,149.1652391,45034,0.14644521474838257,-0.16706477105617523,-0.15198856592178345,-0.0023974948562681675,-0.17936310172080994,0.10971640795469284,52,0,-1021,-1,-178,110,-139,153,-160,628970,628.969970703125,0.0,1500.0
13:20:37.238,AUTO,-35.3632973,149.1652391,45034,0.14644521474838257,-0.16706477105617523,-0.15198856592178345,-0.0023974948562681675,-0.17936310172080994,0.10971640795469284,52,0,-1021,-1,-178,110,-139,153,-160,628970,628.969970703125,0.0,1500.0
13:20:37.439,AUTO,-35.3632973,149.1652391,45034,0.14644521474838257,-0.16706477105617523,-0.15198856592178345,-0.0023974948562681675,-0.17936310172080994,0.10971640795469284,52,0,-1021,-1,-178,110,-139,153,-160,628970,628.969970703125,0.0,1500.0
13:20:37.643,AUTO,-35.3632969,149.1652621,46599,0.011672284454107285,-0.2522367238998413,-0.133811816573143,-0.2628370523452759,0.12099429965019226,-0.14543746411800385,6,-54,-1007,-261,121,-145,160,195,-113,630530,630.5299682617188,0.0,1500.0
13:20:37.848,AUTO,-35.363275,149.1652747,47786,-0.1797456294298172,-0.13889731466770172,-0.3385627269744873,-0.13598015904426575,0.16770300269126892,-0.17798003554344177,-42,-54,-1041,-134,168,-177,293,5,-124,631720,631.719970703125,0.0,1500.0
13:20:38.050,ALT_HOLD,-35.3632684,149.1652741,48106,-0.19167467951774597,-0.0922439768910408,-0.37651559710502625,-0.0026344668585807085,0.22967587411403656,-0.07098446041345596,-44,-43,-1042,-1,230,-70,289,-58,-126,632040,632.0399780273438,0.0,1500.0
13:20:38.252,ALT_HOLD,-35.3632684,149.1652741,48106,-0.19167467951774597,-0.0922439768910408,-0.37651559710502625,-0.0026344668585807085,0.22967587411403656,-0.07098446041345596,-44,-43,-1042,-1,230,-70,289,-58,-126,632040,632.0399780273438,0.0,1500.0
13:20:38.458,ALT_HOLD,-35.3632684,149.1652741,48106,-0.19167467951774597,-0.0922439768910408,-0.37651559710502625,-0.0026344668585807085,0.22967587411403656,-0.07098446041345596,-44,-43,-1042,-1,230,-70,289,-58,-126,632040,632.0399780273438,0.0,1500.0
13:20:38.664,ALT_HOLD,-35.3632684,149.1652741,48106,-0.19167467951774597,-0.0922439768910408,-0.37651559710502625,-0.0026344668585807085,0.22967587411403656,-0.07098446041345596,-44,-43,-1042,-1,230,-70,289,-58,-126,632040,632.0399780273438,0.0,1500.0
13:20:38.866,ALT_HOLD,-35.3632684,149.1652741,48106,-0.19167467951774597,-0.0922439768910408,-0.37651559710502625,-0.0026344668585807085,0.22967587411403656,-0.07098446041345596,-44,-43,-1042,-1,230,-70,289,-58,-126,632040,632.0399780273438,0.0,1500.0
13:20:39.075,ALT_HOLD,-35.3632684,149.1652741,48106,-0.19167467951774597,-0.0922439768910408,-0.37651559710502625,-0.0026344668585807085,0.22967587411403656,-0.07098446041345596,-44,-43,-1042,-1,230,-70,289,-58,-126,632040,632.0399780273438,0.0,1500.0
13:20:39.277,ALT_HOLD,-35.3632684,149.1652741,48106,-0.19167467951774597,-0.0922439768910408,-0.37651559710502625,-0.0026344668585807085,0.22967587411403656,-0.07098446041345596,-44,-43,-1042,-1,230,-70,289,-58,-126,632040,632.0399780273438,0.0,1500.0
13:20:39.479,ALT_HOLD,-35.3632684,149.1652741,48106,-0.19167467951774597,-0.0922439768910408,-0.37651559710502625,-0.0026344668585807085,0.22967587411403656,-0.07098446041345596,-44,-43,-1042,-1,230,-70,289,-58,-126,632040,632.0399780273438,0.0,1500.0
13:20:39.683,ALT_HOLD,-35.3632684,149.1652741,48106,-0.19167467951774597,-0.0922439768910408,-0.37651559710502625,-0.0026344668585807085,0.22967587411403656,-0.07098446041345596,-44,-43,-1042,-1,230,-70,289,-58,-126,632040,632.0399780273438,0.0,1500.0
13:20:39.886,ALT_HOLD,-35.3632684,149.1652741,48106,-0.19167467951774597,-0.0922439768910408,-0.37651559710502625,-0.0026344668585807085,0.22967587411403656,-0.07098446041345596,-44,-43,-1042,-1,230,-70,289,-58,-126,632040,632.0399780273438,0.0,1500.0
13:20:40.089,ALT_HOLD,-35.3632489,149.1652599,49175,-0.17301608622074127,0.10189926624298096,-0.1178206354379654,0.033159881830215454,-0.014319511130452156,0.388386994600296,-44,-43,-1042,-1,230,-70,181,-209,-55,633110,632.0399780273438,0.0,1500.0
13:20:40.290,ALT_HOLD,-35.36324,149.1652401,48921,-0.11157283931970596,0.0640961229801178,-0.040105242282152176,0.056044287979602814,-0.06737447530031204,0.0035271835513412952,-55,-8,-821,-450,-65,44,88,-269,120,632860,633.0899658203125,0.0,1500.0
13:20:40.496,ALT_HOLD,-35.3632373,149.1652247,48229,-0.06323833018541336,0.042851172387599945,-0.05689486861228943,1.3725329637527466,-0.019977478310465813,-0.029369167983531952,-54,97,-1023,1369,-19,-28,36,-287,141,632160,632.1599731445312,0.0,1500.0
13:20:40.703,ALT_HOLD,-35.3632367,149.1652086,47508,-0.05096539109945297,0.028798511251807213,-0.07173500210046768,1.2029554843902588,-0.026765841990709305,-0.111443892121315,-45,162,-919,1214,-26,-110,-5,-287,141,631440,631.4400024414062,0.0,1500.0
13:20:40.912,ALT_HOLD,-35.363237,149.1652004,47127,-0.053585801273584366,0.02291126176714897,-0.075170136988163,0.1867375373840332,-0.02255527302622795,-0.058242280036211014,-41,123,-1018,198,-21,-57,-22,-284,144,631060,631.0599975585938,0.0,1500.0
13:20:41.118,ALT_HOLD,-35.363237,149.1652004,47127,-0.053585801273584366,0.02291126176714897,-0.075170136988163,0.1867375373840332,-0.02255527302622795,-0.058242280036211014,-41,123,-1018,198,-21,-57,-22,-284,144,631060,631.0599975585938,0.0,1500.0
13:20:41.320,ALT_HOLD,-35.363237,149.1652004,47127,-0.053585801273584366,0.02291126176714897,-0.075170136988163,0.1867375373840332,-0.02255527302622795,-0.058242280036211014,-41,123,-1018,198,-21,-57,-22,-284,144,631060,631.0599975585938,0.0,1500.0
13:20:41.523,ALT_HOLD,-35.363237,149.1652004,47127,-0.053585801273584366,0.02291126176714897,-0.075170136988163,0.1867375373840332,-0.02255527302622795,-0.058242280036211014,-41,123,-1018,198,-21,-57,-22,-284,144,631060,631.0599975585938,0.0,1500.0
13:20:41.724,ALT_HOLD,-35.363237,149.1652004,47127,-0.053585801273584366,0.02291126176714897,-0.075170136988163,0.1867375373840332,-0.02255527302622795,-0.058242280036211014,-41,123,-1018,198,-21,-57,-22,-284,144,631060,631.0599975585938,0.0,1500.0
13:20:41.927,ALT_HOLD,-35.363237,149.1652004,47127,-0.053585801273584366,0.02291126176714897,-0.075170136988163,0.1867375373840332,-0.02255527302622795,-0.058242280036211014,-41,123,-1018,198,-21,-57,-22,-284,144,631060,631.0599975585938,0.0,1500.0
13:20:42.131,ALT_HOLD,-35.363237,149.1652004,47127,-0.053585801273584366,0.02291126176714897,-0.075170136988163,0.1867375373840332,-0.02255527302622795,-0.058242280036211014,-41,123,-1018,198,-21,-57,-22,-284,144,631060,631.0599975585938,0.0,1500.0
13:20:42.334,ALT_HOLD,-35.363237,149.1652004,47127,-0.053585801273584366,0.02291126176714897,-0.075170136988163,0.1867375373840332,-0.02255527302622795,-0.058242280036211014,-41,123,-1018,198,-21,-57,-22,-284,144,631060,631.0599975585938,0.0,1500.0
13:20:42.538,ALT_HOLD,-35.363237,149.1652004,47127,-0.053585801273584366,0.02291126176714897,-0.075170136988163,0.1867375373840332,-0.02255527302622795,-0.058242280036211014,-41,123,-1018,198,-21,-57,-22,-284,144,631060,631.0599975585938,0.0,1500.0
13:20:42.741,ALT_HOLD,-35.363237,149.1652004,47127,-0.053585801273584366,0.02291126176714897,-0.075170136988163,0.1867375373840332,-0.02255527302622795,-0.058242280036211014,-41,123,-1018,198,-21,-57,-22,-284,144,631060,631.0599975585938,0.0,1500.0
13:20:42.945,AUTO,-35.3632459,149.165152,44295,0.1254272311925888,-0.06099206581711769,-0.1025933101773262,-0.26209789514541626,-0.012555722147226334,-0.014405570924282074,-21,66,-1190,-249,-11,-14,-62,-176,140,628230,628.22998046875,0.0,1500.0
13:20:43.148,AUTO,-35.3632482,149.1651434,43792,0.11388528347015381,-0.04879853501915932,-0.10852315276861191,-0.7903149724006653,0.012268011458218098,-0.004752361215651035,-16,7,-1187,-784,12,-4,-34,-95,70,627730,627.72998046875,0.0,1500.0
13:20:43.351,AUTO,-35.3632482,149.1651434,43792,0.11388528347015381,-0.04879853501915932,-0.10852315276861191,-0.7903149724006653,0.012268011458218098,-0.004752361215651035,-16,7,-1187,-784,12,-4,-34,-95,70,627730,627.72998046875,0.0,1500.0
13:20:43.554,AUTO,-35.3632482,149.1651434,43792,0.11388528347015381,-0.04879853501915932,-0.10852315276861191,-0.7903149724006653,0.012268011458218098,-0.004752361215651035,-16,7,-1187,-784,12,-4,-34,-95,70,627730,627.72998046875,0.0,1500.0
13:20:43.756,AUTO,-35.3632482,149.1651434,43792,0.11388528347015381,-0.04879853501915932,-0.10852315276861191,-0.7903149724006653,0.012268011458218098,-0.004752361215651035,-16,7,-1187,-784,12,-4,-34,-95,70,627730,627.72998046875,0.0,1500.0
13:20:43.959,AUTO,-35.3632482,149.1651434,43792,0.11388528347015381,-0.04879853501915932,-0.10852315276861191,-0.7903149724006653,0.012268011458218098,-0.004752361215651035,-16,7,-1187,-784,12,-4,-34,-95,70,627730,627.72998046875,0.0,1500.0
13:20:44.164,AUTO,-35.3632482,149.1651434,43792,0.11388528347015381,-0.04879853501915932,-0.10852315276861191,-0.7903149724006653,0.012268011458218098,-0.004752361215651035,-16,7,-1187,-784,12,-4,-34,-95,70,627730,627.72998046875,0.0,1500.0
13:20:44.367,AUTO,-35.3632482,149.1651434,43792,0.11388528347015381,-0.04879853501915932,-0.10852315276861191,-0.7903149724006653,0.012268011458218098,-0.004752361215651035,-16,7,-1187,-784,12,-4,-34,-95,70,627730,627.72998046875,0.0,1500.0
13:20:44.568,AUTO,-35.3632482,149.1651434,43792,0.11388528347015381,-0.04879853501915932,-0.10852315276861191,-0.7903149724006653,0.012268011458218098,-0.004752361215651035,-16,7,-1187,-784,12,-4,-34,-95,70,627730,627.72998046875,0.0,1500.0
13:20:44.777,AUTO,-35.3632496,149.1651364,43416,0.06801566481590271,-0.01747380942106247,-0.1162622943520546,-0.4585283398628235,0.026539776474237442,-0.00965609960258007,-4,-34,-993,-463,27,-9,0,-5,19,627350,627.3499755859375,0.0,1500.0
13:20:44.979,AUTO,-35.3632493,149.1651353,43357,0.02745901420712471,0.0007125030970200896,-0.12670786678791046,0.12768734991550446,0.008626719936728477,-0.005545698571950197,0,23,-1049,133,9,-5,8,26,-10,627290,627.2899780273438,0.0,1500.0
13:20:45.181,AUTO,-35.3632493,149.1651353,43357,0.02745901420712471,0.0007125030970200896,-0.12670786678791046,0.12768734991550446,0.008626719936728477,-0.005545698571950197,0,23,-1049,133,9,-5,8,26,-10,627290,627.2899780273438,0.0,1500.0
13:20:45.384,AUTO,-35.3632493,149.1651353,43357,0.02745901420712471,0.0007125030970200896,-0.12670786678791046,0.12768734991550446,0.008626719936728477,-0.005545698571950197,0,23,-1049,133,9,-5,8,26,-10,627290,627.2899780273438,0.0,1500.0
13:20:45.586,AUTO,-35.3632493,149.1651353,43357,0.02745901420712471,0.0007125030970200896,-0.12670786678791046,0.12768734991550446,0.008626719936728477,-0.005545698571950197,0,23,-1049,133,9,-5,8,26,-10,627290,627.2899780273438,0.0,1500.0
13:20:45.793,AUTO,-35.3632493,149.1651353,43357,0.02745901420712471,0.0007125030970200896,-0.12670786678791046,0.12768734991550446,0.008626719936728477,-0.005545698571950197,0,23,-1049,133,9,-5,8,26,-10,627290,627.2899780273438,0.0,1500.0
13:20:45.997,AUTO,-35.3632493,149.1651353,43357,0.02745901420712471,0.0007125030970200896,-0.12670786678791046,0.12768734991550446,0.008626719936728477,-0.005545698571950197,0,23,-1049,133,9,-5,8,26,-10,627290,627.2899780273438,0.0,1500.0
13:20:46.200,AUTO,-35.3632493,149.1651353,43357,0.02745901420712471,0.0007125030970200896,-0.12670786678791046,0.12768734991550446,0.008626719936728477,-0.005545698571950197,0,23,-1049,133,9,-5,8,26,-10,627290,627.2899780273438,0.0,1500.0
13:20:46.404,AUTO,-35.3632493,149.1651353,43357,0.02745901420712471,0.0007125030970200896,-0.12670786678791046,0.12768734991550446,0.008626719936728477,-0.005545698571950197,0,23,-1049,133,9,-5,8,26,-10,627290,627.2899780273438,0.0,1500.0
13:20:46.605,AUTO,-35.3632493,149.1651353,43357,0.02745901420712471,0.0007125030970200896,-0.12670786678791046,0.12768734991550446,0.008626719936728477,-0.005545698571950197,0,23,-1049,133,9,-5,8,26,-10,627290,627.2899780273438,0.0,1500.0
13:20:46.815,AUTO,-35.3632491,149.1651357,44139,0.015236533246934414,-0.002496599219739437,-0.1435515582561493,0.12396134436130524,-0.005175003316253424,-0.006976776290684938,0,5,-1045,44,-6,-6,2,26,-86,628070,628.0700073242188,0.0,1500.0
13:20:47.020,AUTO,-35.3632491,149.1651358,44373,0.015236533246934414,-0.002496599219739437,-0.1435515582561493,0.12396134436130524,-0.005175003316253424,-0.006976776290684938,0,4,-1045,125,-4,-6,2,25,-97,628310,628.3099975585938,0.0,1500.0
13:20:47.224,AUTO,-35.3632491,149.1651358,44373,0.015236533246934414,-0.002496599219739437,-0.1435515582561493,0.12396134436130524,-0.005175003316253424,-0.006976776290684938,0,4,-1045,125,-4,-6,2,25,-97,628310,628.3099975585938,0.0,1500.0
13:20:47.427,AUTO,-35.3632491,149.1651358,44373,0.015236533246934414,-0.002496599219739437,-0.1435515582561493,0.12396134436130524,-0.005175003316253424,-0.006976776290684938,0,4,-1045,125,-4,-6,2,25,-97,628310,628.3099975585938,0.0,1500.0
13:20:47.634,AUTO,-35.3632491,149.1651358,44373,0.015236533246934414,-0.002496599219739437,-0.1435515582561493,0.12396134436130524,-0.005175003316253424,-0.006976776290684938,0,4,-1045,125,-4,-6,2,25,-97,628310,628.3099975585938,0.0,1500.0
13:20:47.845,AUTO,-35.3632491,149.1651358,44373,0.015236533246934414,-0.002496599219739437,-0.1435515582561493,0.12396134436130524,-0.005175003316253424,-0.006976776290684938,0,4,-1045,125,-4,-6,2,25,-97,628310,628.3099975585938,0.0,1500.0
13:20:48.047,AUTO,-35.3632491,149.1651358,44373,0.015236533246934414,-0.002496599219739437,-0.1435515582561493,0.12396134436130524,-0.005175003316253424,-0.006976776290684938,0,4,-1045,125,-4,-6,2,25,-97,628310,628.3099975585938,0.0,1500.0
13:20:48.249,AUTO,-35.3632491,149.1651358,44373,0.015236533246934414,-0.002496599219739437,-0.1435515582561493,0.12396134436130524,-0.005175003316253424,-0.006976776290684938,0,4,-1045,125,-4,-6,2,25,-97,628310,628.3099975585938,0.0,1500.0
13:20:48.454,AUTO,-35.3632491,149.1651358,44373,0.015236533246934414,-0.002496599219739437,-0.1435515582561493,0.12396134436130524,-0.005175003316253424,-0.006976776290684938,0,4,-1045,125,-4,-6,2,25,-97,628310,628.3099975585938,0.0,1500.0
13:20:48.656,AUTO,-35.3632491,149.1651358,44373,0.015236533246934414,-0.002496599219739437,-0.1435515582561493,0.12396134436130524,-0.005175003316253424,-0.006976776290684938,0,4,-1045,125,-4,-6,2,25,-97,628310,628.3099975585938,0.0,1500.0
13:20:48.860,AUTO,-35.3632494,149.165136,46915,0.0004911267315037549,-0.0007939130300655961,-0.15742997825145721,0.009972340427339077,0.0012021614238619804,-0.0013693654909729958,0,-1,-967,12,1,0,4,23,-134,630850,630.8499755859375,0.0,1500.0
13:20:49.067,AUTO,-35.3632494,149.1651361,47253,0.0013933356385678053,-0.000826515257358551,-0.15820616483688354,0.013084877282381058,-0.002580292522907257,-0.002350331749767065,0,-1,-963,15,-2,-1,4,20,-126,631190,631.1900024414062,0.0,1500.0
13:20:49.269,AUTO,-35.3632494,149.1651361,47253,0.0013933356385678053,-0.000826515257358551,-0.15820616483688354,0.013084877282381058,-0.002580292522907257,-0.002350331749767065,0,-1,-963,15,-2,-1,4,20,-126,631190,631.1900024414062,0.0,1500.0
13:20:49.472,AUTO,-35.3632494,149.1651361,47253,0.0013933356385678053,-0.000826515257358551,-0.15820616483688354,0.013084877282381058,-0.002580292522907257,-0.002350331749767065,0,-1,-963,15,-2,-1,4,20,-126,631190,631.1900024414062,0.0,1500.0
13:20:49.674,AUTO,-35.3632494,149.1651361,47253,0.0013933356385678053,-0.000826515257358551,-0.15820616483688354,0.013084877282381058,-0.002580292522907257,-0.002350331749767065,0,-1,-963,15,-2,-1,4,20,-126,631190,631.1900024414062,0.0,1500.0
13:20:49.893,AUTO,-35.3632494,149.1651361,47253,0.0013933356385678053,-0.000826515257358551,-0.15820616483688354,0.013084877282381058,-0.002580292522907257,-0.002350331749767065,0,-1,-963,15,-2,-1,4,20,-126,631190,631.1900024414062,0.0,1500.0
13:20:50.095,AUTO,-35.3632494,149.1651361,47253,0.0013933356385678053,-0.000826515257358551,-0.15820616483688354,0.013084877282381058,-0.002580292522907257,-0.002350331749767065,0,-1,-963,15,-2,-1,4,20,-126,631190,631.1900024414062,0.0,1500.0
13:20:50.296,AUTO,-35.3632494,149.1651361,47253,0.0013933356385678053,-0.000826515257358551,-0.15820616483688354,0.013084877282381058,-0.002580292522907257,-0.002350331749767065,0,-1,-963,15,-2,-1,4,20,-126,631190,631.1900024414062,0.0,1500.0
13:20:50.498,AUTO,-35.3632494,149.1651361,47253,0.0013933356385678053,-0.000826515257358551,-0.15820616483688354,0.013084877282381058,-0.002580292522907257,-0.002350331749767065,0,-1,-963,15,-2,-1,4,20,-126,631190,631.1900024414062,0.0,1500.0
13:20:50.700,AUTO,-35.3632494,149.1651361,47253,0.0013933356385678053,-0.000826515257358551,-0.15820616483688354,0.013084877282381058,-0.002580292522907257,-0.002350331749767065,0,-1,-963,15,-2,-1,4,20,-126,631190,631.1900024414062,0.0,1500.0
13:20:50.902,AUTO,-35.3632494,149.1651364,48249,0.006755686365067959,-0.0004667994799092412,-0.1628475785255432,0.001812089467421174,0.00045777688501402736,-0.003630205523222685,0,-1,-965,4,0,-2,3,15,-99,632180,632.1799926757812,0.0,1500.0
13:20:51.104,AUTO,-35.3632492,149.165137,49286,-0.00041897574556060135,0.0025121234357357025,-0.17014800012111664,-0.02511228621006012,-0.00022813223768025637,-0.005861101672053337,1,-3,-972,-22,0,-5,1,11,-61,633220,633.219970703125,0.0,1500.0
13:20:51.307,AUTO,-35.3632492,149.165137,49286,-0.00041897574556060135,0.0025121234357357025,-0.17014800012111664,-0.02511228621006012,-0.00022813223768025637,-0.005861101672053337,1,-3,-972,-22,0,-5,1,11,-61,633220,633.219970703125,0.0,1500.0
13:20:51.511,AUTO,-35.3632492,149.165137,49286,-0.00041897574556060135,0.0025121234357357025,-0.17014800012111664,-0.02511228621006012,-0.00022813223768025637,-0.005861101672053337,1,-3,-972,-22,0,-5,1,11,-61,633220,633.219970703125,0.0,1500.0
13:20:51.714,AUTO,-35.3632492,149.165137,49286,-0.00041897574556060135,0.0025121234357357025,-0.17014800012111664,-0.02511228621006012,-0.00022813223768025637,-0.005861101672053337,1,-3,-972,-22,0,-5,1,11,-61,633220,633.219970703125,0.0,1500.0
13:20:51.915,AUTO,-35.3632492,149.165137,49286,-0.00041897574556060135,0.0025121234357357025,-0.17014800012111664,-0.02511228621006012,-0.00022813223768025637,-0.005861101672053337,1,-3,-972,-22,0,-5,1,11,-61,633220,633.219970703125,0.0,1500.0
13:20:52.116,AUTO,-35.3632492,149.165137,49286,-0.00041897574556060135,0.0025121234357357025,-0.17014800012111664,-0.02511228621006012,-0.00022813223768025637,-0.005861101672053337,1,-3,-972,-22,0,-5,1,11,-61,633220,633.219970703125,0.0,1500.0
13:20:52.319,AUTO,-35.3632492,149.165137,49286,-0.00041897574556060135,0.0025121234357357025,-0.17014800012111664,-0.02511228621006012,-0.00022813223768025637,-0.005861101672053337,1,-3,-972,-22,0,-5,1,11,-61,633220,633.219970703125,0.0,1500.0
13:20:52.525,AUTO,-35.3632492,149.165137,49286,-0.00041897574556060135,0.0025121234357357025,-0.17014800012111664,-0.02511228621006012,-0.00022813223768025637,-0.005861101672053337,1,-3,-972,-22,0,-5,1,11,-61,633220,633.219970703125,0.0,1500.0
13:20:52.727,AUTO,-35.3632492,149.165137,49286,-0.00041897574556060135,0.0025121234357357025,-0.17014800012111664,-0.02511228621006012,-0.00022813223768025637,-0.005861101672053337,1,-3,-972,-22,0,-5,1,11,-61,633220,633.219970703125,0.0,1500.0
13:20:52.930,AUTO,-35.3632488,149.1651381,49995,-0.006678306497633457,0.002416865201666951,-0.17849327623844147,-0.2734774947166443,-0.01962217316031456,-0.00557278748601675,0,-31,-948,-276,-18,-4,-3,-1,-15,633930,633.9299926757812,0.0,1500.0
13:20:53.133,AUTO,-35.3632488,149.1651381,49995,-0.006678306497633457,0.002416865201666951,-0.17849327623844147,-0.2734774947166443,-0.01962217316031456,-0.00557278748601675,0,-31,-948,-276,-18,-4,-3,-1,-15,633930,633.9299926757812,0.0,1500.0
13:20:53.335,AUTO,-35.3632488,149.1651381,49995,-0.006678306497633457,0.002416865201666951,-0.17849327623844147,-0.2734774947166443,-0.01962217316031456,-0.00557278748601675,0,-31,-948,-276,-18,-4,-3,-1,-15,633930,633.9299926757812,0.0,1500.0
13:20:53.536,AUTO,-35.3632488,149.1651381,49995,-0.006678306497633457,0.002416865201666951,-0.17849327623844147,-0.2734774947166443,-0.01962217316031456,-0.00557278748601675,0,-31,-948,-276,-18,-4,-3,-1,-15,633930,633.9299926757812,0.0,1500.0
13:20:53.742,AUTO,-35.3632488,149.1651381,49995,-0.006678306497633457,0.002416865201666951,-0.17849327623844147,-0.2734774947166443,-0.01962217316031456,-0.00557278748601675,0,-31,-948,-276,-18,-4,-3,-1,-15,633930,633.9299926757812,0.0,1500.0
13:20:53.944,AUTO,-35.3632488,149.1651381,49995,-0.006678306497633457,0.002416865201666951,-0.17849327623844147,-0.2734774947166443,-0.01962217316031456,-0.00557278748601675,0,-31,-948,-276,-18,-4,-3,-1,-15,633930,633.9299926757812,0.0,1500.0
13:20:54.148,AUTO,-35.3632488,149.1651381,49995,-0.006678306497633457,0.002416865201666951,-0.17849327623844147,-0.2734774947166443,-0.01962217316031456,-0.00557278748601675,0,-31,-948,-276,-18,-4,-3,-1,-15,633930,633.9299926757812,0.0,1500.0
13:20:54.354,AUTO,-35.363247,149.165142,49991,0.05849297717213631,-0.03253410756587982,-0.016297055408358574,-0.053571946918964386,-0.024130020290613174,0.7816197276115417,4,-31,-1017,-647,-25,284,31,50,0,633930,633.9299926757812,0.0,1500.0
13:20:54.557,AUTO,-35.363247,149.165142,49991,0.05849297717213631,-0.03253410756587982,-0.016297055408358574,-0.053571946918964386,-0.024130020290613174,0.7816197276115417,0,-4,-1014,-46,-23,782,31,50,0,633930,633.9299926757812,0.0,1500.0
13:20:54.758,AUTO,-35.3632461,149.1651439,49988,0.07053148746490479,-0.05080370977520943,0.1948746293783188,0.568312406539917,-0.006505269557237625,0.8668866157531738,-5,13,-1000,574,-5,867,40,65,0,633920,633.9199829101562,0.0,1500.0
13:20:54.963,AUTO,-35.3632461,149.1651439,49988,0.07053148746490479,-0.05080370977520943,0.1948746293783188,0.568312406539917,-0.006505269557237625,0.8668866157531738,-5,13,-1000,574,-5,867,40,65,0,633920,633.9199829101562,0.0,1500.0
13:20:55.169,AUTO,-35.3632461,149.1651439,49988,0.07053148746490479,-0.05080370977520943,0.1948746293783188,0.568312406539917,-0.006505269557237625,0.8668866157531738,-5,13,-1000,574,-5,867,40,65,0,633920,633.9199829101562,0.0,1500.0
13:20:55.370,AUTO,-35.3632461,149.1651439,49988,0.07053148746490479,-0.05080370977520943,0.1948746293783188,0.568312406539917,-0.006505269557237625,0.8668866157531738,-5,13,-1000,574,-5,867,40,65,0,633920,633.9199829101562,0.0,1500.0
13:20:55.574,AUTO,-35.3632461,149.1651439,49988,0.07053148746490479,-0.05080370977520943,0.1948746293783188,0.568312406539917,-0.006505269557237625,0.8668866157531738,-5,13,-1000,574,-5,867,40,65,0,633920,633.9199829101562,0.0,1500.0
13:20:55.780,AUTO,-35.3632461,149.1651439,49988,0.07053148746490479,-0.05080370977520943,0.1948746293783188,0.568312406539917,-0.006505269557237625,0.8668866157531738,-5,13,-1000,574,-5,867,40,65,0,633920,633.9199829101562,0.0,1500.0
13:20:55.981,AUTO,-35.3632461,149.1651439,49988,0.07053148746490479,-0.05080370977520943,0.1948746293783188,0.568312406539917,-0.006505269557237625,0.8668866157531738,-5,13,-1000,574,-5,867,40,65,0,633920,633.9199829101562,0.0,1500.0
13:20:56.183,AUTO,-35.3632362,149.1651638,49971,0.0026312703266739845,-0.1543569713830948,1.151336669921875,-0.1816815435886383,-0.04965761676430702,0.1573476344347,-52,-18,-1004,-176,-49,157,109,176,0,633910,633.9099731445312,0.0,1500.0
13:20:56.385,AUTO,-35.3632335,149.1651694,49966,0.010905513539910316,-0.169305682182312,1.157759666442871,0.4060126543045044,-0.04715296998620033,-0.07921512424945831,-49,-5,-1007,411,-46,-78,125,202,0,633900,633.8999633789062,0.0,1500.0
13:20:56.586,AUTO,-35.3632305,149.1651757,49960,0.017483171075582504,-0.17725870013237,1.1342275142669678,0.24488423764705658,-0.013725402764976025,-0.09893196821212769,-59,-30,-1009,245,-12,-98,142,229,0,633900,633.8999633789062,0.0,1500.0
