time_stamp,MODE,lat,lon,relative_alt,roll,pitch,yaw,rollspeed,pitchspeed,yawspeed,xacc,yacc,zacc,xgyro,ygyro,zgyro,vx,vy,vz,alt,VFR_HUD_alt,EK2_ALT_SOURCE,RTL_ALT
09:27:34.988,AUTO,-35.3632622,149.1652375,8,-0.001136799925006926,0.0010053260484710336,0.021363653242588043,0.0003736212966032326,0.00026004656683653593,0.0013687702594324946,0,1,-1000,1,0,0,-1,0,-1,583940,583.9400024414062,0.0,1500.0
09:27:35.188,AUTO,-35.363262,149.1652375,1554,0.026994135230779648,-0.001703252550214529,0.020417407155036926,0.04629135504364967,-0.007145171985030174,0.0025091273710131645,0,0,-1012,47,-6,2,1,7,-146,585490,585.489990234375,0.0,1500.0
09:27:35.389,AUTO,-35.363262,149.1652378,1934,0.03822574391961098,-0.0036888604518026114,0.02060983143746853,0.04409007728099823,-0.008095035329461098,0.002970870351418853,0,-1,-1005,44,-7,2,2,15,-148,585870,585.8699951171875,0.0,1500.0
09:27:35.590,AUTO,-35.3632619,149.1652383,2318,0.04882275313138962,-0.006045707035809755,0.02086201310157776,0.041270509362220764,-0.009807012975215912,0.0034103041980415583,0,-3,-1001,41,-9,3,4,24,-149,586250,586.25,0.0,1500.0
09:27:35.790,AUTO,-35.3632617,149.1652391,2703,0.058636900037527084,-0.008690858259797096,-0.005212848074734211,0.03774697706103325,-0.011520281434059143,0.003545546205714345,1,-6,-999,38,-10,3,6,36,-148,586640,586.6400146484375,0.0,1500.0
09:27:35.991,AUTO,-35.3632617,149.1652391,2703,0.058636900037527084,-0.008690858259797096,-0.005212848074734211,0.03774697706103325,-0.011520281434059143,0.003545546205714345,1,-6,-999,38,-10,3,6,36,-148,586640,586.6400146484375,0.0,1500.0
09:27:36.192,AUTO,-35.3632615,149.1652402,3087,0.05730605870485306,-0.00325687020085752,-0.014360987581312656,-0.06809545308351517,0.07853827625513077,-0.09052255749702454,2,-9,-990,-67,79,-90,9,48,-147,587020,587.0199584960938,0.0,1500.0
09:27:36.393,AUTO,-35.3632613,149.1652416,3464,0.025312073528766632,0.02079545520246029,-0.03879816457629204,-0.1755100041627884,0.061576779931783676,-0.08948317170143127,2,-11,-993,-174,62,-89,9,55,-145,587400,587.3999633789062,0.0,1500.0
09:27:36.593,AUTO,-35.3632613,149.1652416,3464,0.025312073528766632,0.02079545520246029,-0.03879816457629204,-0.1755100041627884,0.061576779931783676,-0.08948317170143127,2,-11,-993,-174,62,-89,9,55,-145,587400,587.3999633789062,0.0,1500.0
09:27:36.794,AUTO,-35.3632613,149.1652416,3464,0.025312073528766632,0.02079545520246029,-0.03879816457629204,-0.1755100041627884,0.061576779931783676,-0.08948317170143127,2,-11,-993,-174,62,-89,9,55,-145,587400,587.3999633789062,0.0,1500.0
09:27:36.994,AUTO,-35.3632613,149.1652416,3464,0.025312073528766632,0.02079545520246029,-0.03879816457629204,-0.1755100041627884,0.061576779931783676,-0.08948317170143127,2,-11,-993,-174,62,-89,9,55,-145,587400,587.3999633789062,0.0,1500.0
09:27:37.195,AUTO,-35.3632608,149.1652454,4605,-0.03515481948852539,0.002858915366232395,-0.06532790511846542,-0.05386985465884209,-0.009068233892321587,-0.033869773149490356,4,-8,-1001,-53,-7,-34,3,34,-149,588540,588.5399780273438,0.0,1500.0
09:27:37.395,AUTO,-35.3632607,149.1652462,4994,-0.05360802263021469,0.002702177967876196,-0.07494533807039261,-0.08900202810764313,0.007626987062394619,-0.04448597505688667,4,-8,-999,-88,8,-44,3,20,-149,588930,588.9299926757812,0.0,1500.0
09:27:37.596,AUTO,-35.3632607,149.1652465,5377,-0.07866133004426956,0.0045255315490067005,-0.08651833236217499,-0.08884409815073013,0.009384714998304844,-0.04290800914168358,1,-2,-1002,-87,10,-43,1,3,-148,589310,589.3099975585938,0.0,1500.0
09:27:37.797,AUTO,-35.3632606,149.1652463,5760,-0.08054196089506149,0.004234333522617817,-0.09567835181951523,0.03826872259378433,-0.002571042627096176,-0.030101284384727478,0,0,-1005,39,-1,-30,0,-17,-149,589700,589.7000122070312,0.0,1500.0
09:27:37.998,AUTO,-35.3632606,149.1652463,5760,-0.08054196089506149,0.004234333522617817,-0.09567835181951523,0.03826872259378433,-0.002571042627096176,-0.030101284384727478,0,0,-1005,39,-1,-30,0,-17,-149,589700,589.7000122070312,0.0,1500.0
09:27:38.199,AUTO,-35.3632607,149.1652457,6144,-0.06834997981786728,0.0031566887628287077,-0.10190839320421219,0.053560301661491394,-0.000769152189604938,-0.02093992754817009,-2,5,-1001,54,0,-21,-3,-35,-149,590080,590.0800170898438,0.0,1500.0
09:27:38.399,AUTO,-35.3632607,149.1652446,6528,-0.05420241504907608,0.0033873918000608683,-0.10634205490350723,0.05917191132903099,0.004493041895329952,-0.014448614791035652,-5,7,-1000,60,5,-14,-5,-48,-149,590460,590.4599609375,0.0,1500.0
09:27:38.600,AUTO,-35.3632607,149.1652446,6528,-0.05420241504907608,0.0033873918000608683,-0.10634205490350723,0.05917191132903099,0.004493041895329952,-0.014448614791035652,-5,7,-1000,60,5,-14,-5,-48,-149,590460,590.4599609375,0.0,1500.0
09:27:38.801,AUTO,-35.3632607,149.1652446,6528,-0.05420241504907608,0.0033873918000608683,-0.10634205490350723,0.05917191132903099,0.004493041895329952,-0.014448614791035652,-5,7,-1000,60,5,-14,-5,-48,-149,590460,590.4599609375,0.0,1500.0
09:27:39.001,AUTO,-35.3632607,149.1652446,6528,-0.05420241504907608,0.0033873918000608683,-0.10634205490350723,0.05917191132903099,0.004493041895329952,-0.014448614791035652,-5,7,-1000,60,5,-14,-5,-48,-149,590460,590.4599609375,0.0,1500.0
09:27:39.202,AUTO,-35.3632614,149.1652397,7676,-0.005782563239336014,0.009899136610329151,-0.1114799976348877,0.06837351620197296,0.010678065940737724,-0.001518798409961164,-5,14,-1004,69,11,-1,-15,-62,-150,591610,591.6099853515625,0.0,1500.0
09:27:39.403,AUTO,-35.3632617,149.165238,8064,0.011428948491811752,0.01242944598197937,-0.11132819205522537,0.06920798122882843,0.009445559233427048,0.00041083572432398796,-6,14,-1004,69,10,0,-18,-58,-151,592000,592.0,0.0,1500.0
09:27:39.603,AUTO,-35.3632622,149.1652364,8455,0.028619877994060516,0.014303985051810741,-0.11046358942985535,0.06866399198770523,0.006175648886710405,0.002118118340149522,-4,13,-1004,69,7,1,-21,-50,-152,592390,592.3900146484375,0.0,1500.0
09:27:39.804,AUTO,-35.3632627,149.1652351,8847,0.04549432545900345,0.015164218842983246,-0.10909269750118256,0.06688006222248077,0.0016944219823926687,0.0031051859259605408,-1,11,-1003,67,2,2,-24,-38,-153,592780,592.7799682617188,0.0,1500.0
09:27:40.004,AUTO,-35.3632627,149.1652351,8847,0.04549432545900345,0.015164218842983246,-0.10909269750118256,0.06688006222248077,0.0016944219823926687,0.0031051859259605408,-1,11,-1003,67,2,2,-24,-38,-153,592780,592.7799682617188,0.0,1500.0
09:27:40.205,AUTO,-35.3632632,149.1652342,9241,0.06164873391389847,0.014601838774979115,-0.10762284696102142,0.0636582002043724,-0.004477274138480425,0.004448591731488705,-1,10,-1002,64,-3,4,-25,-23,-153,593180,593.1799926757812,0.0,1500.0
09:27:40.406,AUTO,-35.3632638,149.1652337,9637,0.07164602726697922,0.008059489540755749,-0.10152387619018555,-0.003235334064811468,-0.061293404549360275,0.057109154760837555,3,6,-995,-2,-60,56,-26,-4,-152,593570,593.5700073242188,0.0,1500.0
09:27:40.607,AUTO,-35.3632638,149.1652337,9637,0.07164602726697922,0.008059489540755749,-0.10152387619018555,-0.003235334064811468,-0.061293404549360275,0.057109154760837555,3,6,-995,-2,-60,56,-26,-4,-152,593570,593.5700073242188,0.0,1500.0
09:27:40.807,AUTO,-35.3632638,149.1652337,9637,0.07164602726697922,0.008059489540755749,-0.10152387619018555,-0.003235334064811468,-0.061293404549360275,0.057109154760837555,3,6,-995,-2,-60,56,-26,-4,-152,593570,593.5700073242188,0.0,1500.0
09:27:41.008,AUTO,-35.3632638,149.1652337,9637,0.07164602726697922,0.008059489540755749,-0.10152387619018555,-0.003235334064811468,-0.061293404549360275,0.057109154760837555,3,6,-995,-2,-60,56,-26,-4,-152,593570,593.5700073242188,0.0,1500.0
09:27:41.209,AUTO,-35.3632648,149.1652348,10795,0.04122433438897133,-0.07162029296159744,-0.02954970858991146,-0.0956934317946434,-0.04032204672694206,0.0638313964009285,3,-4,-993,-95,-39,63,6,34,-149,594730,594.72998046875,0.0,1500.0
09:27:41.409,AUTO,-35.3632645,149.1652358,11174,0.009213828481733799,-0.061217568814754486,-0.030516713857650757,-0.13276851177215576,0.09111838042736053,-0.044176943600177765,1,-10,-998,-131,92,-44,23,37,-147,595110,595.1099853515625,0.0,1500.0
09:27:41.610,AUTO,-35.3632639,149.1652367,11553,-0.017627574503421783,-0.03423905372619629,-0.0512210987508297,-0.08937321603298187,0.10960187017917633,-0.09571586549282074,-1,-10,-1006,-88,110,-95,36,32,-147,595490,595.489990234375,0.0,1500.0
09:27:41.811,AUTO,-35.363263,149.1652374,11934,-0.032847270369529724,-0.011822734959423542,-0.07834641635417938,-0.042007870972156525,0.07899776101112366,-0.10564927756786346,-3,-11,-1008,-41,79,-105,40,22,-149,595870,595.8699951171875,0.0,1500.0
09:27:42.012,AUTO,-35.363263,149.1652374,11934,-0.032847270369529724,-0.011822734959423542,-0.07834641635417938,-0.042007870972156525,0.07899776101112366,-0.10564927756786346,-3,-11,-1008,-41,79,-105,40,22,-149,595870,595.8699951171875,0.0,1500.0
09:27:42.212,AUTO,-35.3632621,149.1652378,12318,-0.03916116803884506,0.003487533191218972,-0.10501711815595627,-0.0100830914452672,0.0537918359041214,-0.09924966841936111,-6,-9,-1007,-9,54,-99,39,10,-151,596250,596.25,0.0,1500.0
09:27:42.413,AUTO,-35.3632612,149.1652379,12706,-0.03778599202632904,0.013702664524316788,-0.12890024483203888,0.016499405726790428,0.03730522468686104,-0.0833500400185585,-6,-5,-1004,17,37,-83,34,-1,-152,596640,596.6400146484375,0.0,1500.0
09:27:42.614,AUTO,-35.3632612,149.1652379,12706,-0.03778599202632904,0.013702664524316788,-0.12890024483203888,0.016499405726790428,0.03730522468686104,-0.0833500400185585,-6,-5,-1004,17,37,-83,34,-1,-152,596640,596.6400146484375,0.0,1500.0
09:27:42.815,AUTO,-35.3632612,149.1652379,12706,-0.03778599202632904,0.013702664524316788,-0.12890024483203888,0.016499405726790428,0.03730522468686104,-0.0833500400185585,-6,-5,-1004,17,37,-83,34,-1,-152,596640,596.6400146484375,0.0,1500.0
09:27:43.016,AUTO,-35.3632612,149.1652379,12706,-0.03778599202632904,0.013702664524316788,-0.12890024483203888,0.016499405726790428,0.03730522468686104,-0.0833500400185585,-6,-5,-1004,17,37,-83,34,-1,-152,596640,596.6400146484375,0.0,1500.0
09:27:43.216,AUTO,-35.3632595,149.1652369,13880,-0.010928313247859478,0.027691932395100594,-0.17182956635951996,0.047749221324920654,0.012113499455153942,-0.03360296040773392,-6,0,-1001,48,12,-33,12,-20,-153,597820,597.8200073242188,0.0,1500.0
09:27:43.417,AUTO,-35.3632593,149.1652363,14276,0.0011680499883368611,0.030251821503043175,-0.17886823415756226,0.050106290727853775,0.00958968698978424,-0.024158377200365067,-5,2,-1001,51,10,-24,4,-20,-153,598210,598.2099609375,0.0,1500.0
09:27:43.618,AUTO,-35.3632593,149.1652357,14669,0.013618440367281437,0.0319339819252491,-0.1834648847579956,0.04828973114490509,0.003397040069103241,-0.012367909774184227,-4,3,-1000,48,4,-12,-3,-16,-153,598600,598.5999755859375,0.0,1500.0
09:27:43.820,AUTO,-35.3632594,149.1652353,15062,0.02172141522169113,0.029147883877158165,-0.1832096427679062,0.018773898482322693,-0.019324349239468575,0.005590710323303938,-1,3,-998,19,-18,5,-9,-10,-153,599000,599.0,0.0,1500.0
09:27:44.021,AUTO,-35.3632594,149.1652353,15062,0.02172141522169113,0.029147883877158165,-0.1832096427679062,0.018773898482322693,-0.019324349239468575,0.005590710323303938,-1,3,-998,19,-18,5,-9,-10,-153,599000,599.0,0.0,1500.0
09:27:44.222,AUTO,-35.3632595,149.165235,15453,0.022968845441937447,0.02349230833351612,-0.17985974252223969,-0.0029222415760159492,-0.023456579074263573,0.01708216778934002,0,3,-998,-2,-22,17,-14,-4,-152,599390,599.3900146484375,0.0,1500.0
09:27:44.423,AUTO,-35.3632598,149.1652349,15843,0.02058279886841774,0.01768380217254162,-0.17576707899570465,-0.012662908993661404,-0.01960061676800251,0.01310055423527956,1,2,-998,-11,-19,12,-17,1,-152,599780,599.7799682617188,0.0,1500.0
09:27:44.625,AUTO,-35.3632598,149.1652349,15843,0.02058279886841774,0.01768380217254162,-0.17576707899570465,-0.012662908993661404,-0.01960061676800251,0.01310055423527956,1,2,-998,-11,-19,12,-17,1,-152,599780,599.7799682617188,0.0,1500.0
09:27:44.826,AUTO,-35.3632598,149.1652349,15843,0.02058279886841774,0.01768380217254162,-0.17576707899570465,-0.012662908993661404,-0.01960061676800251,0.01310055423527956,1,2,-998,-11,-19,12,-17,1,-152,599780,599.7799682617188,0.0,1500.0
09:27:45.027,AUTO,-35.3632598,149.1652349,15843,0.02058279886841774,0.01768380217254162,-0.17576707899570465,-0.012662908993661404,-0.01960061676800251,0.01310055423527956,1,2,-998,-11,-19,12,-17,1,-152,599780,599.7799682617188,0.0,1500.0
09:27:45.228,AUTO,-35.3632609,149.1652352,17005,0.007962808012962341,0.0028550182469189167,-0.16755852103233337,-0.016530465334653854,-0.016945740208029747,0.0043029398657381535,3,0,-1000,-15,-16,4,-17,11,-152,600940,600.9400024414062,0.0,1500.0
09:27:45.428,AUTO,-35.3632612,149.1652355,17393,0.0040062470361590385,-0.0002989335043821484,-0.16809961199760437,-0.01366673968732357,-0.009250283241271973,-0.005984756629914045,3,0,-1001,-12,-8,-6,-16,12,-152,601330,601.3299560546875,0.0,1500.0
09:27:45.629,AUTO,-35.3632615,149.1652357,17782,0.0007775613921694458,-0.002377577591687441,-0.17047305405139923,-0.011159781366586685,-0.005984860472381115,-0.01384702417999506,3,0,-1000,-10,-5,-13,-14,11,-152,601720,601.719970703125,0.0,1500.0
09:27:45.830,AUTO,-35.3632617,149.165236,18171,-0.0017213155515491962,-0.004014169331640005,-0.1740397810935974,-0.008996893651783466,-0.00607342692092061,-0.016900736838579178,3,0,-1000,-8,-5,-17,-12,10,-152,602110,602.1099853515625,0.0,1500.0
09:27:46.031,AUTO,-35.3632617,149.165236,18171,-0.0017213155515491962,-0.004014169331640005,-0.1740397810935974,-0.008996893651783466,-0.00607342692092061,-0.016900736838579178,3,0,-1000,-8,-5,-17,-12,10,-152,602110,602.1099853515625,0.0,1500.0
09:27:46.231,AUTO,-35.363262,149.1652362,18560,-0.0030204635113477707,-0.00494806282222271,-0.17879721522331238,-0.005838360171765089,-0.002805805765092373,-0.019428646191954613,2,0,-1000,-4,-2,-19,-9,8,-152,602500,602.5,0.0,1500.0
09:27:46.432,AUTO,-35.3632621,149.1652364,18953,-0.003751605050638318,-0.0050977966748178005,-0.18481668829917908,0.002124066697433591,0.0022137118503451347,-0.026060527190566063,2,0,-1001,3,2,-26,-7,6,-152,602890,602.8900146484375,0.0,1500.0
09:27:46.633,AUTO,-35.3632621,149.1652364,18953,-0.003751605050638318,-0.0050977966748178005,-0.18481668829917908,0.002124066697433591,0.0022137118503451347,-0.026060527190566063,2,0,-1001,3,2,-26,-7,6,-152,602890,602.8900146484375,0.0,1500.0
09:27:46.834,AUTO,-35.3632621,149.1652364,18953,-0.003751605050638318,-0.0050977966748178005,-0.18481668829917908,0.002124066697433591,0.0022137118503451347,-0.026060527190566063,2,0,-1001,3,2,-26,-7,6,-152,602890,602.8900146484375,0.0,1500.0
09:27:47.035,AUTO,-35.3632621,149.1652364,18953,-0.003751605050638318,-0.0050977966748178005,-0.18481668829917908,0.002124066697433591,0.0022137118503451347,-0.026060527190566063,2,0,-1001,3,2,-26,-7,6,-152,602890,602.8900146484375,0.0,1500.0
09:27:47.236,AUTO,-35.3632623,149.1652365,20120,-0.0009353005443699658,-0.002588191768154502,-0.20601989328861237,0.006307585164904594,0.004219416994601488,-0.029255904257297516,0,0,-1000,7,5,-29,-2,2,-153,604060,604.0599975585938,0.0,1500.0
09:27:47.436,AUTO,-35.3632623,149.1652365,20511,0.0003988971293438226,-0.0013976618647575378,-0.21339151263237,0.003791859606280923,0.006837783847004175,-0.030574152246117592,0,0,-999,4,7,-30,-1,1,-153,604450,604.4500122070312,0.0,1500.0
09:27:47.637,AUTO,-35.3632623,149.1652365,20901,0.0016248292522504926,5.28838463651482e-05,-0.22070203721523285,0.005114739295095205,0.0053047058172523975,-0.029542820528149605,0,0,-1000,6,6,-29,0,0,-153,604840,604.8399658203125,0.0,1500.0
09:27:47.838,AUTO,-35.3632623,149.1652365,21291,0.0026631210930645466,0.0011551914503797889,-0.22758926451206207,0.0037010787054896355,0.004120991565287113,-0.02583644911646843,0,0,-1000,4,5,-26,0,0,-153,605230,605.22998046875,0.0,1500.0
09:27:48.039,AUTO,-35.3632623,149.1652365,21682,0.0033132394310086966,0.0019371595699340105,-0.23398026823997498,0.002631664974614978,0.0030047378968447447,-0.0242565106600523,0,0,-1000,3,3,-24,0,0,-153,605620,605.6199951171875,0.0,1500.0
09:27:48.240,AUTO,-35.3632623,149.1652365,21682,0.0033132394310086966,0.0019371595699340105,-0.23398026823997498,0.002631664974614978,0.0030047378968447447,-0.0242565106600523,0,0,-1000,3,3,-24,0,0,-153,605620,605.6199951171875,0.0,1500.0
09:27:48.440,AUTO,-35.3632623,149.1652365,22073,0.0038012408185750246,0.0025338123086839914,-0.23993337154388428,0.0024655696470290422,0.0027061128057539463,-0.022864505648612976,0,0,-1000,3,3,-23,0,1,-153,606010,606.010009765625,0.0,1500.0
09:27:48.641,AUTO,-35.3632623,149.1652365,22073,0.0038012408185750246,0.0025338123086839914,-0.23993337154388428,0.0024655696470290422,0.0027061128057539463,-0.022864505648612976,0,0,-1000,3,3,-23,0,1,-153,606010,606.010009765625,0.0,1500.0
09:27:48.842,AUTO,-35.3632623,149.1652365,22073,0.0038012408185750246,0.0025338123086839914,-0.23993337154388428,0.0024655696470290422,0.0027061128057539463,-0.022864505648612976,0,0,-1000,3,3,-23,0,1,-153,606010,606.010009765625,0.0,1500.0
09:27:49.043,AUTO,-35.3632623,149.1652365,22073,0.0038012408185750246,0.0025338123086839914,-0.23993337154388428,0.0024655696470290422,0.0027061128057539463,-0.022864505648612976,0,0,-1000,3,3,-23,0,1,-153,606010,606.010009765625,0.0,1500.0
09:27:49.243,AUTO,-35.3632622,149.1652365,23247,0.004492833279073238,0.0038758483715355396,-0.25623664259910583,0.0018860804848372936,-0.000657224387396127,-0.018179265782237053,0,0,-1000,3,0,-18,0,2,-153,607180,607.1799926757812,0.0,1500.0
09:27:49.444,AUTO,-35.3632622,149.1652365,23637,0.004092247225344181,0.003756810910999775,-0.260945200920105,-0.00338335451669991,-0.00018366205040365458,-0.019589511677622795,0,0,-1000,-2,0,-19,0,3,-153,607570,607.5700073242188,0.0,1500.0
09:27:49.645,AUTO,-35.3632622,149.1652365,24027,0.003842643927782774,0.0039036665111780167,-0.2657299041748047,-0.00026565452571958303,0.0010751514928415418,-0.017636001110076904,0,0,-1000,0,2,-17,0,3,-153,607960,607.9599609375,0.0,1500.0
09:27:49.846,AUTO,-35.3632622,149.1652365,24417,0.0036335198674350977,0.0037118836771696806,-0.2701801359653473,0.0003575537703000009,-0.0008879596716724336,-0.017309673130512238,0,0,-1000,1,0,-17,-1,3,-153,608350,608.3499755859375,0.0,1500.0
09:27:50.046,AUTO,-35.3632622,149.1652365,24807,0.003247576765716076,0.003394600236788392,-0.2744891941547394,-0.0032610322814434767,-0.0015197102911770344,-0.016442621126770973,0,0,-999,-2,0,-16,-1,4,-153,608740,608.739990234375,0.0,1500.0
09:27:50.247,AUTO,-35.3632622,149.1652365,24807,0.003247576765716076,0.003394600236788392,-0.2744891941547394,-0.0032610322814434767,-0.0015197102911770344,-0.016442621126770973,0,0,-999,-2,0,-16,-1,4,-153,608740,608.739990234375,0.0,1500.0
09:27:50.448,AUTO,-35.3632622,149.1652366,25194,-0.00992351584136486,0.004212845582515001,-0.2775014638900757,-0.04047797620296478,0.007723402697592974,-0.0027375603094697,0,0,-1000,-39,8,-3,-1,3,-152,609130,609.1300048828125,0.0,1500.0
09:27:50.649,AUTO,-35.3632622,149.1652366,25194,-0.00992351584136486,0.004212845582515001,-0.2775014638900757,-0.04047797620296478,0.007723402697592974,-0.0027375603094697,0,0,-1000,-39,8,-3,-1,3,-152,609130,609.1300048828125,0.0,1500.0
09:27:50.850,AUTO,-35.3632622,149.1652366,25194,-0.00992351584136486,0.004212845582515001,-0.2775014638900757,-0.04047797620296478,0.007723402697592974,-0.0027375603094697,0,0,-1000,-39,8,-3,-1,3,-152,609130,609.1300048828125,0.0,1500.0
09:27:51.051,AUTO,-35.3632622,149.1652366,25194,-0.00992351584136486,0.004212845582515001,-0.2775014638900757,-0.04047797620296478,0.007723402697592974,-0.0027375603094697,0,0,-1000,-39,8,-3,-1,3,-152,609130,609.1300048828125,0.0,1500.0
09:27:51.251,AUTO,-35.3632622,149.1652365,26361,0.006201289594173431,0.005261041224002838,-0.2697833776473999,0.019303834065794945,-0.004001094959676266,0.02363107167184353,0,0,-999,20,-2,23,-4,0,-153,610300,610.2999877929688,0.0,1500.0
09:27:51.452,AUTO,-35.3632622,149.1652365,26751,0.009968539699912071,0.004214554093778133,-0.2636833190917969,0.010200145654380322,-0.004272443242371082,0.026090387254953384,0,0,-999,11,-3,25,-4,1,-153,610690,610.6900024414062,0.0,1500.0
09:27:51.653,AUTO,-35.3632623,149.1652365,27140,0.011348104104399681,0.003546398365870118,-0.2572317123413086,0.0018042279407382011,-0.0019793729297816753,0.02837597392499447,0,0,-999,2,-1,28,-4,3,-153,611080,611.0799560546875,0.0,1500.0
09:27:51.854,AUTO,-35.3632623,149.1652365,27529,0.01078881323337555,0.003011027816683054,-0.2507562041282654,-0.004108127672225237,-0.0025456042494624853,0.025881122797727585,1,0,-1000,-3,-1,25,-3,5,-152,611460,611.4599609375,0.0,1500.0
09:27:52.054,AUTO,-35.3632624,149.1652366,27917,0.008979681879281998,0.0022019720636308193,-0.2446547895669937,-0.007107749581336975,-0.00385228730738163,0.02425328455865383,1,0,-1000,-5,-2,24,-3,7,-152,611850,611.8499755859375,0.0,1500.0
09:27:52.255,AUTO,-35.3632624,149.1652366,27917,0.008979681879281998,0.0022019720636308193,-0.2446547895669937,-0.007107749581336975,-0.00385228730738163,0.02425328455865383,1,0,-1000,-5,-2,24,-3,7,-152,611850,611.8499755859375,0.0,1500.0
09:27:52.456,AUTO,-35.3632624,149.1652368,28305,0.0069820149801671505,0.00194352341350168,-0.23898173868656158,-0.009711941704154015,0.0005514571093954146,0.021069176495075226,1,-1,-999,-8,1,21,-2,8,-152,612240,612.239990234375,0.0,1500.0
09:27:52.658,AUTO,-35.3632624,149.1652368,28305,0.0069820149801671505,0.00194352341350168,-0.23898173868656158,-0.009711941704154015,0.0005514571093954146,0.021069176495075226,1,-1,-999,-8,1,21,-2,8,-152,612240,612.239990234375,0.0,1500.0
09:27:52.859,AUTO,-35.3632624,149.1652368,28305,0.0069820149801671505,0.00194352341350168,-0.23898173868656158,-0.009711941704154015,0.0005514571093954146,0.021069176495075226,1,-1,-999,-8,1,21,-2,8,-152,612240,612.239990234375,0.0,1500.0
09:27:53.060,AUTO,-35.3632624,149.1652368,28305,0.0069820149801671505,0.00194352341350168,-0.23898173868656158,-0.009711941704154015,0.0005514571093954146,0.021069176495075226,1,-1,-999,-8,1,21,-2,8,-152,612240,612.239990234375,0.0,1500.0
09:27:53.261,AUTO,-35.3632624,149.1652374,29469,0.0012359926477074623,0.0018558080773800611,-0.22268104553222656,-0.007337060756981373,-0.0014879791997373104,0.022204449400305748,1,-1,-1000,-6,0,22,0,9,-152,613400,613.3999633789062,0.0,1500.0
09:27:53.462,AUTO,-35.3632624,149.1652375,29858,-0.0003065477358177304,0.001524049323052168,-0.21757933497428894,-0.0032833884470164776,-0.001782271545380354,0.02021128125488758,0,-1,-1001,-2,0,19,0,8,-152,613790,613.7899780273438,0.0,1500.0
09:27:53.663,AUTO,-35.3632624,149.1652377,30254,-0.001277242205105722,0.0014274225104600191,-0.21274763345718384,-0.0001373930717818439,0.0019486332312226295,0.018947476521134377,0,-1,-1001,0,3,18,0,7,-152,614190,614.1900024414062,0.0,1500.0
09:27:53.864,AUTO,-35.3632624,149.1652379,30643,-0.0016862283227965236,0.0014574859524145722,-0.2081831842660904,-0.004440421238541603,0.0004956497577950358,0.016991909593343735,0,-1,-1000,-3,1,16,0,6,-152,614580,614.5799560546875,0.0,1500.0
09:27:54.065,AUTO,-35.3632624,149.165238,31032,-0.0017980558332055807,0.001355807762593031,-0.20368441939353943,-0.0004438788746483624,-0.0022179861553013325,0.01798585057258606,0,0,-1001,0,-1,17,0,5,-153,614970,614.969970703125,0.0,1500.0
09:27:54.266,AUTO,-35.3632624,149.165238,31032,-0.0017980558332055807,0.001355807762593031,-0.20368441939353943,-0.0004438788746483624,-0.0022179861553013325,0.01798585057258606,0,0,-1001,0,-1,17,0,5,-153,614970,614.969970703125,0.0,1500.0
09:27:54.468,AUTO,-35.3632624,149.1652381,31421,-0.0017900487873703241,0.0011409653816372156,-0.19942767918109894,0.00448961928486824,0.00044069415889680386,0.01731991209089756,0,0,-1001,5,1,17,0,4,-153,615360,615.3599853515625,0.0,1500.0
09:27:54.670,AUTO,-35.3632624,149.1652381,31421,-0.0017900487873703241,0.0011409653816372156,-0.19942767918109894,0.00448961928486824,0.00044069415889680386,0.01731991209089756,0,0,-1001,5,1,17,0,4,-153,615360,615.3599853515625,0.0,1500.0
09:27:54.871,AUTO,-35.3632624,149.1652381,31421,-0.0017900487873703241,0.0011409653816372156,-0.19942767918109894,0.00448961928486824,0.00044069415889680386,0.01731991209089756,0,0,-1001,5,1,17,0,4,-153,615360,615.3599853515625,0.0,1500.0
09:27:55.072,AUTO,-35.3632624,149.1652381,31421,-0.0017900487873703241,0.0011409653816372156,-0.19942767918109894,0.00448961928486824,0.00044069415889680386,0.01731991209089756,0,0,-1001,5,1,17,0,4,-153,615360,615.3599853515625,0.0,1500.0
09:27:55.273,AUTO,-35.3632624,149.1652381,32580,-0.0005857686628587544,0.0010103334207087755,-0.1876733899116516,0.004421503283083439,-0.001281553995795548,0.01510368287563324,0,0,-1000,5,0,15,0,1,-153,616520,616.5199584960938,0.0,1500.0
09:27:55.474,AUTO,-35.3632624,149.1652381,32968,-0.00010167773871216923,0.0009090804378502071,-0.18401183187961578,0.0019273844081908464,0.0005761028733104467,0.015840986743569374,0,0,-999,3,1,15,0,1,-153,616900,616.8999633789062,0.0,1500.0
09:27:55.674,AUTO,-35.3632623,149.1652381,33358,0.0003019169671460986,0.0009590929839760065,-0.1803392916917801,-0.00026681541930884123,0.00045663316268473864,0.014208962209522724,0,0,-1000,0,1,14,0,0,-153,617290,617.2899780273438,0.0,1500.0
09:27:55.875,AUTO,-35.3632623,149.1652381,33747,0.0007071408326737583,0.0009045170736499131,-0.17689149081707,0.004665916785597801,7.588299922645092e-06,0.014955253340303898,0,0,-1000,5,1,14,0,0,-153,617680,617.6799926757812,0.0,1500.0
09:27:56.076,AUTO,-35.3632623,149.1652381,34135,0.0008750035194680095,0.0008913057972677052,-0.17358578741550446,-0.0036161611787974834,-0.0007781131425872445,0.012698999606072903,0,0,-1000,-2,0,12,0,0,-153,618070,618.0700073242188,0.0,1500.0
09:27:56.276,AUTO,-35.3632623,149.1652381,34135,0.0008750035194680095,0.0008913057972677052,-0.17358578741550446,-0.0036161611787974834,-0.0007781131425872445,0.012698999606072903,0,0,-1000,-2,0,12,0,0,-153,618070,618.0700073242188,0.0,1500.0
09:27:56.477,AUTO,-35.3632623,149.1652381,34524,0.0009646663093008101,0.0009388167527504265,-0.1703234314918518,0.00149887939915061,0.000764235039241612,0.015102666802704334,0,0,-1000,2,1,15,0,0,-153,618460,618.4599609375,0.0,1500.0
09:27:56.678,AUTO,-35.3632623,149.1652381,34524,0.0009646663093008101,0.0009388167527504265,-0.1703234314918518,0.00149887939915061,0.000764235039241612,0.015102666802704334,0,0,-1000,2,1,15,0,0,-153,618460,618.4599609375,0.0,1500.0
09:27:56.878,AUTO,-35.3632623,149.1652381,34524,0.0009646663093008101,0.0009388167527504265,-0.1703234314918518,0.00149887939915061,0.000764235039241612,0.015102666802704334,0,0,-1000,2,1,15,0,0,-153,618460,618.4599609375,0.0,1500.0
09:27:57.079,AUTO,-35.3632622,149.165238,35698,0.0011752686696127057,0.0013689910992980003,-0.16139592230319977,0.001616933150216937,0.0014073525089770555,0.012897188775241375,0,0,-1000,2,2,13,0,0,-153,619630,619.6300048828125,0.0,1500.0
09:27:57.280,AUTO,-35.3632622,149.165238,35698,0.0011752686696127057,0.0013689910992980003,-0.16139592230319977,0.001616933150216937,0.0014073525089770555,0.012897188775241375,0,0,-1000,2,2,13,0,0,-153,619630,619.6300048828125,0.0,1500.0
09:27:57.480,AUTO,-35.3632622,149.1652379,36086,0.001275503309443593,0.0013917525066062808,-0.15861845016479492,-0.0009629423730075359,0.0003610787680372596,0.01347730029374361,-1,0,-999,0,1,13,0,0,-153,620020,620.0199584960938,0.0,1500.0
09:27:57.681,AUTO,-35.3632622,149.1652379,36476,0.00134306272957474,0.0012227518018335104,-0.15597407519817352,0.002771238796412945,0.0008642590837553144,0.013073793612420559,0,0,-1000,4,1,12,0,0,-153,620410,620.4099731445312,0.0,1500.0
09:27:57.882,AUTO,-35.3632622,149.1652379,36864,0.0015760782407596707,0.0011592383962124586,-0.1533207893371582,0.002165815094485879,0.001778168953023851,0.009876018390059471,0,0,-999,3,2,9,0,0,-153,620800,620.7999877929688,0.0,1500.0
09:27:58.082,AUTO,-35.3632622,149.1652378,37253,0.001701469998806715,0.001291351392865181,-0.15085594356060028,0.000284810783341527,-2.9179034754633904e-05,0.010341623798012733,0,0,-1000,1,1,10,0,0,-153,621190,621.1900024414062,0.0,1500.0
09:27:58.283,AUTO,-35.3632622,149.1652378,37253,0.001701469998806715,0.001291351392865181,-0.15085594356060028,0.000284810783341527,-2.9179034754633904e-05,0.010341623798012733,0,0,-1000,1,1,10,0,0,-153,621190,621.1900024414062,0.0,1500.0
09:27:58.484,AUTO,-35.3632622,149.1652378,37641,0.0017287125810980797,0.0012685813708230853,-0.14858336746692657,-0.0015096417628228664,0.000104573555290699,0.01060010027140379,0,0,-999,0,1,10,0,0,-153,621580,621.5799560546875,0.0,1500.0
09:27:58.684,AUTO,-35.3632622,149.1652378,37641,0.0017287125810980797,0.0012685813708230853,-0.14858336746692657,-0.0015096417628228664,0.000104573555290699,0.01060010027140379,0,0,-999,0,1,10,0,0,-153,621580,621.5799560546875,0.0,1500.0
09:27:58.885,AUTO,-35.3632622,149.1652378,37641,0.0017287125810980797,0.0012685813708230853,-0.14858336746692657,-0.0015096417628228664,0.000104573555290699,0.01060010027140379,0,0,-999,0,1,10,0,0,-153,621580,621.5799560546875,0.0,1500.0
09:27:59.086,AUTO,-35.3632622,149.1652378,37641,0.0017287125810980797,0.0012685813708230853,-0.14858336746692657,-0.0015096417628228664,0.000104573555290699,0.01060010027140379,0,0,-999,0,1,10,0,0,-153,621580,621.5799560546875,0.0,1500.0
09:27:59.287,AUTO,-35.3632621,149.1652376,38808,0.002322458429262042,0.0015914012910798192,-0.1417103260755539,-0.003607567399740219,-0.0006314010242931545,0.0083857337012887,0,0,-999,-2,0,8,0,0,-153,622740,622.739990234375,0.0,1500.0
09:27:59.488,AUTO,-35.3632621,149.1652376,39196,0.0022987641859799623,0.0018868029583245516,-0.1395036280155182,0.0026134029030799866,0.00207128981128335,0.009924663230776787,0,0,-1000,3,3,10,0,0,-153,623130,623.1300048828125,0.0,1500.0
09:27:59.689,AUTO,-35.3632621,149.1652376,39589,0.0021259349305182695,0.0018395468359813094,-0.13740521669387817,-0.0007959380745887756,-0.0008406982524320483,0.008033162914216518,0,0,-1000,0,0,7,0,0,-153,623520,623.5199584960938,0.0,1500.0
09:27:59.890,AUTO,-35.3632621,149.1652376,39978,0.0018370990874245763,0.0016671852208673954,-0.13562500476837158,-0.00018249108688905835,0.0009393015643581748,0.00803754385560751,0,0,-1000,1,2,7,0,0,-153,623910,623.9099731445312,0.0,1500.0
09:28:00.090,AUTO,-35.3632621,149.1652375,40366,0.0018552737310528755,0.0016388926887884736,-0.13371428847312927,0.0026677518617361784,0.00018691830337047577,0.007082641590386629,0,0,-1001,3,1,7,0,0,-153,624300,624.2999877929688,0.0,1500.0
09:28:00.291,AUTO,-35.3632621,149.1652375,40366,0.0018552737310528755,0.0016388926887884736,-0.13371428847312927,0.0026677518617361784,0.00018691830337047577,0.007082641590386629,0,0,-1001,3,1,7,0,0,-153,624300,624.2999877929688,0.0,1500.0
09:28:00.492,AUTO,-35.3632621,149.1652375,40754,0.001876249210909009,0.0015400075353682041,-0.13192765414714813,-0.0005757660837844014,0.0004590905737131834,0.010184988379478455,0,0,-999,0,1,10,-1,0,-153,624690,624.6900024414062,0.0,1500.0
09:28:00.692,AUTO,-35.3632621,149.1652375,40754,0.001876249210909009,0.0015400075353682041,-0.13192765414714813,-0.0005757660837844014,0.0004590905737131834,0.010184988379478455,0,0,-999,0,1,10,-1,0,-153,624690,624.6900024414062,0.0,1500.0
09:28:00.894,AUTO,-35.3632621,149.1652375,40754,0.001876249210909009,0.0015400075353682041,-0.13192765414714813,-0.0005757660837844014,0.0004590905737131834,0.010184988379478455,0,0,-999,0,1,10,-1,0,-153,624690,624.6900024414062,0.0,1500.0
09:28:01.095,AUTO,-35.363262,149.1652374,41918,0.001923708594404161,0.0017899698577821255,-0.12671373784542084,-0.00165099510923028,0.0001234106021001935,0.008742469362914562,0,0,-1000,0,1,9,-1,1,-153,625850,625.8499755859375,0.0,1500.0
09:28:01.296,AUTO,-35.363262,149.1652374,42306,0.001784034539014101,0.0017022424144670367,-0.12516765296459198,0.000461863586679101,-0.0004615261568687856,0.00873920414596796,0,0,-1000,0,1,9,-1,1,-153,626240,626.239990234375,0.0,1500.0
09:28:01.497,AUTO,-35.363262,149.1652374,42306,0.001784034539014101,0.0017022424144670367,-0.12516765296459198,0.000461863586679101,-0.0004615261568687856,0.00873920414596796,0,0,-1000,1,0,8,-1,1,-153,626240,626.239990234375,0.0,1500.0
09:28:01.697,AUTO,-35.363262,149.1652374,42695,0.0016667437739670277,0.001663055270910263,-0.12372840195894241,0.0007960392395034432,-0.000600977276917547,0.006662731524556875,0,0,-1001,2,0,7,-1,1,-153,626630,626.6300048828125,0.0,1500.0
09:28:01.898,AUTO,-35.363262,149.1652374,43084,0.0016541387885808945,0.0015993055421859026,-0.12199358642101288,0.0009676876943558455,0.0008108133915811777,0.008827457204461098,0,0,-1000,2,1,9,-1,1,-153,627020,627.0199584960938,0.0,1500.0
09:28:02.099,AUTO,-35.363262,149.1652374,43473,0.0014111833879724145,0.0014108013128861785,-0.1205151379108429,-0.003057807218283415,-0.0024471988435834646,0.007035968359559774,0,0,-1000,-1,-1,7,-1,1,-153,627410,627.4099731445312,0.0,1500.0
09:28:02.300,AUTO,-35.363262,149.1652374,43862,0.0014531961642205715,0.0012966474751010537,-0.11898383498191833,0.0027713431045413017,-0.0002467066515237093,0.006991594098508358,0,0,-1000,3,0,7,-1,1,-153,627800,627.7999877929688,0.0,1500.0
09:28:02.500,AUTO,-35.363262,149.1652374,43862,0.0014531961642205715,0.0012966474751010537,-0.11898383498191833,0.0027713431045413017,-0.0002467066515237093,0.006991594098508358,0,0,-1000,3,0,7,-1,1,-153,627800,627.7999877929688,0.0,1500.0
09:28:02.702,AUTO,-35.363262,149.1652374,43862,0.0014531961642205715,0.0012966474751010537,-0.11898383498191833,0.0027713431045413017,-0.0002467066515237093,0.006991594098508358,0,0,-1000,3,0,7,-1,1,-153,627800,627.7999877929688,0.0,1500.0
09:28:02.902,AUTO,-35.363262,149.1652374,43862,0.0014531961642205715,0.0012966474751010537,-0.11898383498191833,0.0027713431045413017,-0.0002467066515237093,0.006991594098508358,0,0,-1000,3,0,7,-1,1,-153,627800,627.7999877929688,0.0,1500.0
09:28:03.103,AUTO,-35.363262,149.1652374,45028,0.0016673767240718007,0.0013841401087120175,-0.11423492431640625,-0.002983524464070797,-0.00029324088245630264,0.006737794727087021,0,0,-999,-1,0,7,-1,1,-153,628960,628.9599609375,0.0,1500.0
09:28:03.304,AUTO,-35.363262,149.1652374,45416,0.0017854050965979695,0.0012800834374502301,-0.11298374831676483,0.004877624101936817,0.001467575435526669,0.006522666197270155,0,0,-1000,6,2,6,-1,1,-153,629350,629.3499755859375,0.0,1500.0
09:28:03.505,AUTO,-35.363262,149.1652374,45416,0.0017854050965979695,0.0012800834374502301,-0.11298374831676483,0.004877624101936817,0.001467575435526669,0.006522666197270155,0,0,-1000,6,2,6,-1,1,-153,629350,629.3499755859375,0.0,1500.0
09:28:03.705,AUTO,-35.363262,149.1652374,45805,0.0017673338297754526,0.001336124842055142,-0.1116480752825737,-8.586130570620298e-05,0.00025161774829030037,0.007743825204670429,0,0,-999,1,1,8,-1,1,-152,629740,629.739990234375,0.0,1500.0
09:28:03.909,AUTO,-35.363262,149.1652374,46193,0.0017294175922870636,0.0012796904193237424,-0.11019464582204819,-0.0013430998660624027,0.0008751058485358953,0.006821716669946909,0,0,-999,0,2,7,-1,1,-152,630130,630.1300048828125,0.0,1500.0
09:28:04.109,AUTO,-35.363262,149.1652374,46582,0.0015815822407603264,0.0012087960494682193,-0.10878100991249084,-0.0020405487157404423,0.0003774709766730666,0.006750066298991442,0,0,-1000,-1,1,7,-1,1,-152,630520,630.5199584960938,0.0,1500.0
09:28:04.310,AUTO,-35.363262,149.1652374,46971,0.0004858615866396576,0.00185306032653898,-0.10590866953134537,-0.0270079392939806,0.01871149055659771,0.05017238110303879,0,0,-987,-25,19,50,-1,1,-152,630910,630.9099731445312,0.0,1500.0
09:28:04.511,AUTO,-35.363262,149.1652374,46971,0.0004858615866396576,0.00185306032653898,-0.10590866953134537,-0.0270079392939806,0.01871149055659771,0.05017238110303879,0,0,-987,-25,19,50,-1,1,-152,630910,630.9099731445312,0.0,1500.0
09:28:04.712,AUTO,-35.363262,149.1652374,46971,0.0004858615866396576,0.00185306032653898,-0.10590866953134537,-0.0270079392939806,0.01871149055659771,0.05017238110303879,0,0,-987,-25,19,50,-1,1,-152,630910,630.9099731445312,0.0,1500.0
09:28:04.913,AUTO,-35.363262,149.1652374,46971,0.0004858615866396576,0.00185306032653898,-0.10590866953134537,-0.0270079392939806,0.01871149055659771,0.05017238110303879,0,0,-987,-25,19,50,-1,1,-152,630910,630.9099731445312,0.0,1500.0
09:28:05.114,AUTO,-35.3632625,149.1652367,48046,-0.05956804379820824,0.0638987123966217,0.17489707469940186,0.03353967145085335,-0.14834795892238617,0.3675853908061981,4,5,-940,34,-146,367,-26,-24,-125,631980,631.97998046875,0.0,1500.0
09:28:05.314,AUTO,-35.3632632,149.1652358,48346,-0.03532099351286888,0.017170486971735954,0.24331410229206085,0.11206503957509995,-0.20744596421718597,0.1925397664308548,4,8,-943,113,-206,192,-32,-35,-110,632280,632.2799682617188,0.0,1500.0
09:28:05.515,AUTO,-35.3632632,149.1652358,48346,-0.03532099351286888,0.017170486971735954,0.24331410229206085,0.11206503957509995,-0.20744596421718597,0.1925397664308548,4,8,-943,113,-206,192,-32,-35,-110,632280,632.2799682617188,0.0,1500.0
09:28:05.716,AUTO,-35.3632638,149.1652348,48613,-0.007438513450324535,-0.024505484849214554,0.2759101986885071,0.10992836952209473,-0.13037383556365967,0.08444426953792572,4,11,-951,111,-129,84,-29,-37,-97,632550,632.5499877929688,0.0,1500.0
09:28:05.916,AUTO,-35.3632644,149.1652338,48847,0.014637019485235214,-0.04742192104458809,0.2868193984031677,0.07110145688056946,-0.058933939784765244,0.02318868413567543,2,9,-958,72,-57,23,-20,-31,-86,632780,632.7799682617188,0.0,1500.0
09:28:06.117,AUTO,-35.3632647,149.1652331,49054,0.029647409915924072,-0.05520530790090561,0.2865731120109558,0.05111238360404968,-0.009358065202832222,-0.009837903082370758,1,7,-964,52,-8,-9,-10,-21,-76,632990,632.989990234375,0.0,1500.0
09:28:06.318,AUTO,-35.3632648,149.1652326,49236,0.03801325336098671,-0.05299929529428482,0.28087958693504333,0.02366681955754757,0.02029171772301197,-0.026616282761096954,0,3,-970,24,21,-26,0,-8,-67,633170,633.1699829101562,0.0,1500.0
09:28:06.518,AUTO,-35.3632648,149.1652326,49236,0.03801325336098671,-0.05299929529428482,0.28087958693504333,0.02366681955754757,0.02029171772301197,-0.026616282761096954,0,3,-970,24,21,-26,0,-8,-67,633170,633.1699829101562,0.0,1500.0
09:28:06.719,AUTO,-35.3632648,149.1652326,49236,0.03801325336098671,-0.05299929529428482,0.28087958693504333,0.02366681955754757,0.02029171772301197,-0.026616282761096954,0,3,-970,24,21,-26,0,-8,-67,633170,633.1699829101562,0.0,1500.0
09:28:06.919,AUTO,-35.3632648,149.1652326,49236,0.03801325336098671,-0.05299929529428482,0.28087958693504333,0.02366681955754757,0.02029171772301197,-0.026616282761096954,0,3,-970,24,21,-26,0,-8,-67,633170,633.1699829101562,0.0,1500.0
09:28:07.199,AUTO,-35.3632642,149.1652331,49670,0.033328574150800705,-0.022678818553686142,0.2547803819179535,-0.006781615782529116,0.045189253985881805,-0.0337999202311039,-2,-7,-980,-5,46,-33,18,21,-48,633610,633.6099853515625,0.0,1500.0
09:28:07.399,AUTO,-35.3632638,149.1652336,49785,0.02201828546822071,-0.012135394848883152,0.24572598934173584,-0.32678699493408203,0.03721850365400314,-0.031835753470659256,-4,-22,-978,-325,38,-31,20,26,-43,633720,633.719970703125,0.0,1500.0
09:28:07.600,AUTO,-35.3632633,149.1652343,49885,0.019419729709625244,-0.003590939799323678,0.23676620423793793,0.2897440791130066,0.03071216121315956,-0.02754964679479599,-2,15,-975,292,31,-27,21,30,-36,633820,633.8200073242188,0.0,1500.0
09:28:07.801,AUTO,-35.3632627,149.1652351,49969,0.0211810190230608,0.004698584321886301,0.22828498482704163,0.40097570419311523,0.02929215505719185,-0.0324210487306118,-1,0,-983,401,30,-32,20,31,-31,633900,633.8999633789062,0.0,1500.0
09:28:08.002,AUTO,-35.3632627,149.1652351,49969,0.0211810190230608,0.004698584321886301,0.22828498482704163,0.40097570419311523,0.02929215505719185,-0.0324210487306118,-1,0,-983,401,30,-32,20,31,-31,633900,633.8999633789062,0.0,1500.0
09:28:08.202,AUTO,-35.3632623,149.1652358,50040,0.007594841532409191,0.01093968003988266,0.22039127349853516,-0.29932087659835815,0.021596316248178482,-0.02876179851591587,-4,-34,-976,-299,22,-28,18,29,-26,633980,633.97998046875,0.0,1500.0
09:28:08.403,AUTO,-35.3632618,149.1652366,50097,-0.0066559757106006145,0.014528744854032993,0.21335533261299133,-0.6692792773246765,0.0167072806507349,-0.021995363757014275,-1,-34,-973,-668,18,-21,15,27,-20,634030,634.0299682617188,0.0,1500.0
09:28:08.604,AUTO,-35.3632618,149.1652366,50097,-0.0066559757106006145,0.014528744854032993,0.21335533261299133,-0.6692792773246765,0.0167072806507349,-0.021995363757014275,-1,-34,-973,-668,18,-21,15,27,-20,634030,634.0299682617188,0.0,1500.0
09:28:08.804,AUTO,-35.3632618,149.1652366,50097,-0.0066559757106006145,0.014528744854032993,0.21335533261299133,-0.6692792773246765,0.0167072806507349,-0.021995363757014275,-1,-34,-973,-668,18,-21,15,27,-20,634030,634.0299682617188,0.0,1500.0
09:28:09.006,AUTO,-35.3632618,149.1652366,50097,-0.0066559757106006145,0.014528744854032993,0.21335533261299133,-0.6692792773246765,0.0167072806507349,-0.021995363757014275,-1,-34,-973,-668,18,-21,15,27,-20,634030,634.0299682617188,0.0,1500.0
09:28:09.206,AUTO,-35.363261,149.1652384,50176,-0.001307797385379672,0.019584031775593758,0.19340763986110687,0.4705009460449219,0.1355992555618286,-0.1115202009677887,-4,10,-964,471,137,-111,5,17,0,634110,634.1099853515625,0.0,1500.0
09:28:09.407,AUTO,-35.3632609,149.1652388,50149,-0.025959962978959084,0.042423315346241,0.1841505616903305,0.15498492121696472,-0.015562767162919044,0.0015453805681318045,0,-19,-952,153,-14,2,0,8,17,634080,634.0799560546875,0.0,1500.0
09:28:09.608,ALT_HOLD,-35.363261,149.1652389,50103,-0.01818116568028927,0.019880926236510277,0.1804739534854889,-0.46540823578834534,-0.11025737971067429,-0.03225903958082199,2,-41,-1002,-466,-108,-31,-6,0,16,634040,634.0399780273438,0.0,1500.0
09:28:09.808,ALT_HOLD,-35.3632611,149.1652389,50058,-0.02250186912715435,0.010156180709600449,0.17891530692577362,-0.8125112652778625,-0.019392121583223343,-0.019113389775156975,2,-29,-963,-811,-18,-18,-8,-2,20,633990,633.989990234375,0.0,1500.0
09:28:10.009,ALT_HOLD,-35.3632611,149.1652389,50058,-0.02250186912715435,0.010156180709600449,0.17891530692577362,-0.8125112652778625,-0.019392121583223343,-0.019113389775156975,2,-29,-963,-811,-18,-18,-8,-2,20,633990,633.989990234375,0.0,1500.0
09:28:10.209,ALT_HOLD,-35.3632613,149.1652389,49983,-0.01971704326570034,0.006164122838526964,0.1729557365179062,-0.29676303267478943,-0.008347950875759125,-0.013145633973181248,3,18,-905,-292,-7,-12,-9,-3,38,633920,633.9199829101562,0.0,1500.0
09:28:10.410,ALT_HOLD,-35.3632615,149.1652389,49839,-0.018678374588489532,0.0047773029655218124,0.16676034033298492,0.08073101937770844,0.0030264342203736305,-0.024767059832811356,1,49,-805,86,4,-24,-10,-3,77,633770,633.7699584960938,0.0,1500.0
09:28:10.611,ALT_HOLD,-35.3632615,149.1652389,49839,-0.018678374588489532,0.0047773029655218124,0.16676034033298492,0.08073101937770844,0.0030264342203736305,-0.024767059832811356,1,49,-805,86,4,-24,-10,-3,77,633770,633.7699584960938,0.0,1500.0
09:28:10.812,ALT_HOLD,-35.3632615,149.1652389,49839,-0.018678374588489532,0.0047773029655218124,0.16676034033298492,0.08073101937770844,0.0030264342203736305,-0.024767059832811356,1,49,-805,86,4,-24,-10,-3,77,633770,633.7699584960938,0.0,1500.0
09:28:11.013,ALT_HOLD,-35.3632615,149.1652389,49839,-0.018678374588489532,0.0047773029655218124,0.16676034033298492,0.08073101937770844,0.0030264342203736305,-0.024767059832811356,1,49,-805,86,4,-24,-10,-3,77,633770,633.7699584960938,0.0,1500.0
09:28:11.214,ALT_HOLD,-35.3632624,149.1652387,48852,-0.01847529038786888,0.0026203717570751905,0.15279968082904816,-1.3968850374221802,-0.01328943483531475,0.001222171587869525,3,-12,-939,-1392,-11,1,-11,-2,166,632790,632.7899780273438,0.0,1500.0
09:28:11.414,ALT_HOLD,-35.3632627,149.1652387,48411,-0.018537577241659164,0.0022205307614058256,0.14800910651683807,-2.044825315475464,-0.00648949109017849,-0.006573960185050964,4,-61,-968,-2043,-5,-6,-12,0,176,632350,632.3499755859375,0.0,1500.0
09:28:11.690,ALT_HOLD,-35.3632631,149.1652387,47943,-0.017763884738087654,0.001488759065978229,0.14336788654327393,-2.044224262237549,-0.008782947435975075,-0.01943517103791237,4,-94,-997,-2044,-7,-18,-12,2,181,631880,631.8800048828125,0.0,1500.0
09:28:11.891,ALT_HOLD,-35.3632635,149.1652387,47472,-0.0062731304205954075,0.0013806730275973678,0.14053595066070557,-1.7814992666244507,-0.002738727256655693,-0.02715798281133175,4,-106,-991,-1783,-1,-26,-12,2,182,631410,631.4099731445312,0.0,1500.0
09:28:12.092,ALT_HOLD,-35.3632639,149.1652389,46999,0.008454928174614906,0.0010373179102316499,0.13703478872776031,-1.2989197969436646,-0.004787366837263107,-0.027157433331012726,4,-106,-981,-1302,-3,-26,-12,4,181,630930,630.9299926757812,0.0,1500.0
09:28:12.294,ALT_HOLD,-35.3632643,149.165239,46529,0.026499133557081223,0.000862143118865788,0.13332059979438782,-0.25265535712242126,-0.00832976121455431,-0.0317794568836689,4,-106,-981,-1302,-3,-26,-12,6,180,630460,630.9299926757812,0.0,1500.0
09:28:12.495,ALT_HOLD,-35.3632643,149.165239,46529,0.026499133557081223,0.000862143118865788,0.13332059979438782,-0.25265535712242126,-0.00832976121455431,-0.0317794568836689,6,-74,-965,-257,-7,-31,-12,6,180,630460,630.4599609375,0.0,1500.0
09:28:12.696,ALT_HOLD,-35.3632643,149.165239,46529,0.026499133557081223,0.000862143118865788,0.13332059979438782,-0.25265535712242126,-0.00832976121455431,-0.0317794568836689,6,-74,-965,-257,-7,-31,-12,6,180,630460,630.4599609375,0.0,1500.0
09:28:12.897,ALT_HOLD,-35.3632643,149.165239,46529,0.026499133557081223,0.000862143118865788,0.13332059979438782,-0.25265535712242126,-0.00832976121455431,-0.0317794568836689,6,-74,-965,-257,-7,-31,-12,6,180,630460,630.4599609375,0.0,1500.0
09:28:13.098,ALT_HOLD,-35.3632654,149.16524,45154,0.04030749201774597,0.00034074412542395294,0.12422912567853928,1.6746242046356201,0.00015764799900352955,-0.0037436860147863626,7,32,-990,1673,1,-3,-11,14,176,629090,629.0899658203125,0.0,1500.0
09:28:13.299,ALT_HOLD,-35.3632658,149.1652405,44699,0.038264792412519455,-1.5248832823999692e-05,0.12038921564817429,2.1108102798461914,-0.0041720252484083176,0.0001547104911878705,8,79,-1039,2113,-3,0,-10,17,174,628630,628.6300048828125,0.0,1500.0
09:28:13.500,ALT_HOLD,-35.3632658,149.1652405,44699,0.038264792412519455,-1.5248832823999692e-05,0.12038921564817429,2.1108102798461914,-0.0041720252484083176,0.0001547104911878705,8,79,-1039,2113,-3,0,-10,17,174,628630,628.6300048828125,0.0,1500.0
09:28:13.700,ALT_HOLD,-35.3632662,149.1652411,44248,0.022223755717277527,6.557514097949024e-06,0.11761977523565292,1.6604074239730835,-0.0006314768688753247,0.006759587675333023,7,95,-1026,1665,0,7,-10,22,172,628180,628.1799926757812,0.0,1500.0
09:28:13.901,ALT_HOLD,-35.3632665,149.1652419,43799,0.0016034425934776664,-5.871936082257889e-05,0.11618252098560333,0.8000837564468384,-0.001721087726764381,0.000712370325345546,7,90,-988,806,0,1,-9,26,171,627740,627.739990234375,0.0,1500.0
09:28:14.102,ALT_HOLD,-35.3632669,149.1652428,43352,-0.008444389328360558,-0.00027428538305684924,0.11181202530860901,-0.4094120264053345,-0.0031888645607978106,0.016063040122389793,6,30,-999,-403,-2,16,-8,27,172,627290,627.2899780273438,0.0,1500.0
09:28:14.303,ALT_HOLD,-35.3632672,149.1652439,42908,-0.018333464860916138,0.0001334793196292594,0.1079130470752716,-1.5602130889892578,0.004266970790922642,-0.04691619798541069,8,-37,-984,-1556,5,-46,-7,30,172,626840,626.8399658203125,0.0,1500.0
09:28:14.503,ALT_HOLD,-35.3632672,149.1652439,42908,-0.018333464860916138,0.0001334793196292594,0.1079130470752716,-1.5602130889892578,0.004266970790922642,-0.04691619798541069,8,-37,-984,-1556,5,-46,-7,30,172,626840,626.8399658203125,0.0,1500.0
09:28:14.704,AUTO,-35.3632672,149.1652439,42908,-0.018333464860916138,0.0001334793196292594,0.1079130470752716,-1.5602130889892578,0.004266970790922642,-0.04691619798541069,8,-37,-984,-1556,5,-46,-7,30,172,626840,626.8399658203125,0.0,1500.0
09:28:14.904,AUTO,-35.3632672,149.1652439,42908,-0.018333464860916138,0.0001334793196292594,0.1079130470752716,-1.5602130889892578,0.004266970790922642,-0.04691619798541069,8,-37,-984,-1556,5,-46,-7,30,172,626840,626.8399658203125,0.0,1500.0
09:28:15.106,AUTO,-35.3632681,149.165247,41624,-0.028591955080628395,-0.014021837152540684,0.10104698687791824,-1.3747411966323853,-0.04606039822101593,0.00015574932331219316,4,-77,-1135,-1375,-44,0,-2,25,135,625560,625.5599975585938,0.0,1500.0
09:28:15.306,AUTO,-35.3632683,149.1652478,41306,-0.011629300191998482,-0.02325313352048397,0.09836674481630325,-1.0987526178359985,-0.039399754256010056,-0.021901240572333336,2,-68,-1159,-1099,-38,-21,2,22,104,625240,625.239990234375,0.0,1500.0
09:28:15.507,AUTO,-35.3632683,149.1652478,41306,-0.011629300191998482,-0.02325313352048397,0.09836674481630325,-1.0987526178359985,-0.039399754256010056,-0.021901240572333336,2,-68,-1159,-1099,-38,-21,2,22,104,625240,625.239990234375,0.0,1500.0
09:28:15.708,AUTO,-35.3632683,149.1652485,41071,0.0019058905309066176,-0.030383000150322914,0.09568433463573456,-0.9999366998672485,-0.031029146164655685,-0.010269558057188988,1,-59,-1092,-999,-29,-9,9,22,74,625010,625.010009765625,0.0,1500.0
09:28:15.908,AUTO,-35.3632682,149.1652492,40899,0.01719900220632553,-0.0376887209713459,0.09134017676115036,-0.6331080794334412,-0.030943237245082855,-0.009232685901224613,0,-19,-1102,-630,-29,-8,16,28,51,624840,624.8399658203125,0.0,1500.0
09:28:16.109,AUTO,-35.3632679,149.1652499,40780,0.039130665361881256,-0.04592879116535187,0.11760798841714859,0.285813570022583,-0.0069944108836352825,0.2990007996559143,-4,24,-1058,289,-5,299,25,36,34,624720,624.719970703125,0.0,1500.0
09:28:16.310,AUTO,-35.3632674,149.1652508,40704,0.053234342485666275,-0.059578098356723785,0.2708994448184967,0.741611659526825,0.002087637782096863,0.7998365163803101,-6,27,-1049,744,3,800,35,46,21,624640,624.6400146484375,0.0,1500.0
09:28:16.511,AUTO,-35.3632674,149.1652508,40704,0.053234342485666275,-0.059578098356723785,0.2708994448184967,0.741611659526825,0.002087637782096863,0.7998365163803101,-6,27,-1049,744,3,800,35,46,21,624640,624.6400146484375,0.0,1500.0
09:28:16.712,AUTO,-35.3632674,149.1652508,40704,0.053234342485666275,-0.059578098356723785,0.2708994448184967,0.741611659526825,0.002087637782096863,0.7998365163803101,-6,27,-1049,744,3,800,35,46,21,624640,624.6400146484375,0.0,1500.0
09:28:16.913,AUTO,-35.3632674,149.1652508,40704,0.053234342485666275,-0.059578098356723785,0.2708994448184967,0.741611659526825,0.002087637782096863,0.7998365163803101,-6,27,-1049,744,3,800,35,46,21,624640,624.6400146484375,0.0,1500.0
09:28:17.114,AUTO,-35.3632643,149.1652554,40612,0.0289931483566761,-0.12186713516712189,0.8799410462379456,-0.42015859484672546,-0.06504976749420166,0.7731216549873352,-18,-44,-1024,-420,-64,773,68,93,1,624550,624.5499877929688,0.0,1500.0
09:28:17.315,AUTO,-35.3632627,149.1652578,40611,0.007353902794420719,-0.13860084116458893,1.0594159364700317,-0.4207817614078522,-0.05152851343154907,0.6367259621620178,-28,-24,-1022,-418,-50,637,80,114,-1,624550,624.5499877929688,0.0,1500.0
09:28:17.515,AUTO,-35.3632627,149.1652578,40611,0.007353902794420719,-0.13860084116458893,1.0594159364700317,-0.4207817614078522,-0.05152851343154907,0.6367259621620178,-28,-24,-1022,-418,-50,637,80,114,-1,624550,624.5499877929688,0.0,1500.0
09:28:17.716,AUTO,-35.3632608,149.1652608,40618,0.0027268046978861094,-0.15290577709674835,1.1602143049240112,0.21594403684139252,-0.06446254998445511,0.19895780086517334,-32,15,-1009,218,-63,199,93,137,-4,624550,624.5499877929688,0.0,1500.0
09:28:17.917,AUTO,-35.3632587,149.1652645,40631,0.008150558918714523,-0.16617026925086975,1.1782574653625488,0.46160465478897095,-0.06741919368505478,-0.020586440339684486,-38,7,-1018,463,-66,-19,107,161,-6,624570,624.5700073242188,0.0,1500.0
09:28:18.117,AUTO,-35.3632562,149.1652688,40650,0.00811208039522171,-0.1764850914478302,1.1581112146377563,-0.049789633601903915,-0.026232928037643433,-0.09510747343301773,-44,-33,-1009,-49,-24,-94,122,186,-7,624590,624.5899658203125,0.0,1500.0
09:28:18.318,AUTO,-35.3632533,149.1652738,40675,0.008201566524803638,-0.17464302480220795,1.1281826496124268,-0.3288365304470062,0.02859751507639885,-0.11220178008079529,-48,-33,-1016,-327,29,-111,137,211,-10,624610,624.6099853515625,0.0,1500.0
09:28:18.519,AUTO,-35.3632533,149.1652738,40675,0.008201566524803638,-0.17464302480220795,1.1281826496124268,-0.3288365304470062,0.02859751507639885,-0.11220178008079529,-48,-33,-1016,-327,29,-111,137,211,-10,624610,624.6099853515625,0.0,1500.0
09:28:18.720,AUTO,-35.3632533,149.1652738,40675,0.008201566524803638,-0.17464302480220795,1.1281826496124268,-0.3288365304470062,0.02859751507639885,-0.11220178008079529,-48,-33,-1016,-327,29,-111,137,211,-10,624610,624.6099853515625,0.0,1500.0
09:28:18.920,AUTO,-35.3632533,149.1652738,40675,0.008201566524803638,-0.17464302480220795,1.1281826496124268,-0.3288365304470062,0.02859751507639885,-0.11220178008079529,-48,-33,-1016,-327,29,-111,137,211,-10,624610,624.6099853515625,0.0,1500.0
09:28:19.121,AUTO,-35.3632429,149.1652928,40791,0.028539683669805527,-0.13404561579227448,1.0867317914962769,-0.35458970069885254,0.030591977760195732,-0.0026740990579128265,-67,-44,-1006,-353,31,-1,171,266,-17,624730,624.72998046875,0.0,1500.0
09:28:19.322,AUTO,-35.3632391,149.1652999,40841,0.0347699373960495,-0.1237453743815422,1.0862094163894653,0.18491676449775696,0.049163080751895905,-0.02816668339073658,-76,-13,-1006,187,50,-27,176,277,-19,624780,624.7799682617188,0.0,1500.0
09:28:19.523,AUTO,-35.3632391,149.1652999,40841,0.0347699373960495,-0.1237453743815422,1.0862094163894653,0.18491676449775696,0.049163080751895905,-0.02816668339073658,-76,-13,-1006,187,50,-27,176,277,-19,624780,624.7799682617188,0.0,1500.0
09:28:19.724,AUTO,-35.3632351,149.1653075,40894,0.04119111970067024,-0.11368154734373093,1.0872012376785278,0.2709576189517975,0.03472287207841873,-0.001126294257119298,-66,-28,-1001,271,35,0,182,287,-19,624830,624.8299560546875,0.0,1500.0
09:28:19.925,AUTO,-35.363231,149.1653153,40950,0.03660080209374428,-0.10470935702323914,1.0876750946044922,-0.2747748792171478,0.023644568398594856,0.014853177592158318,-72,-58,-997,-274,24,15,186,293,-20,624890,624.8900146484375,0.0,1500.0
09:28:20.125,AUTO,-35.3632269,149.1653233,41006,0.034523919224739075,-0.09999454021453857,1.086269497871399,-0.09902232140302658,0.009864370338618755,-0.02604386955499649,-80,-23,-998,-96,10,-25,186,299,-20,624940,624.9400024414062,0.0,1500.0
09:28:20.326,AUTO,-35.3632227,149.1653314,41062,0.040558457374572754,-0.0954665020108223,1.0842446088790894,0.35952049493789673,0.028727399185299873,-0.015265758149325848,-70,-27,-996,361,29,-14,189,302,-20,625000,625.0,0.0,1500.0
09:28:20.527,AUTO,-35.3632227,149.1653314,41062,0.040558457374572754,-0.0954665020108223,1.0842446088790894,0.35952049493789673,0.028727399185299873,-0.015265758149325848,-70,-27,-996,361,29,-14,189,302,-20,625000,625.0,0.0,1500.0
09:28:20.727,AUTO,-35.3632227,149.1653314,41062,0.040558457374572754,-0.0954665020108223,1.0842446088790894,0.35952049493789673,0.028727399185299873,-0.015265758149325848,-70,-27,-996,361,29,-14,189,302,-20,625000,625.0,0.0,1500.0
09:28:20.928,AUTO,-35.3632227,149.1653314,41062,0.040558457374572754,-0.0954665020108223,1.0842446088790894,0.35952049493789673,0.028727399185299873,-0.015265758149325848,-70,-27,-996,361,29,-14,189,302,-20,625000,625.0,0.0,1500.0
09:28:21.129,AUTO,-35.3632227,149.1653314,41062,0.040558457374572754,-0.0954665020108223,1.0842446088790894,0.35952049493789673,0.028727399185299873,-0.015265758149325848,-70,-27,-996,361,29,-14,189,302,-20,625000,625.0,0.0,1500.0
09:28:21.330,AUTO,-35.363208,149.1653598,41247,0.049386173486709595,-0.0697011947631836,1.0785887241363525,0.3785818815231323,0.0283818356692791,-0.007774916477501392,-82,-34,-997,379,29,-7,191,304,-19,625180,625.1799926757812,0.0,1500.0
09:28:21.531,AUTO,-35.3632037,149.1653681,41299,0.04177992418408394,-0.0642888993024826,1.0783761739730835,-0.2762910723686218,0.0369134359061718,0.019935647025704384,-74,-67,-993,-275,37,20,191,303,-18,625230,625.22998046875,0.0,1500.0
09:28:21.731,AUTO,-35.3631994,149.1653765,41350,0.036868270486593246,-0.05999379605054855,1.0771507024765015,-0.37062355875968933,-0.008524816483259201,-0.013618186116218567,-82,-52,-996,-368,-7,-13,188,299,-18,625290,625.2899780273438,0.0,1500.0
09:28:21.932,AUTO,-35.3631951,149.1653848,41399,0.042176637798547745,-0.06543659418821335,1.0758705139160156,0.32769834995269775,-0.041014619171619415,-0.032984986901283264,-74,-17,-991,330,-40,-32,186,298,-16,625330,625.3299560546875,0.0,1500.0
09:28:22.133,AUTO,-35.3631951,149.1653848,41399,0.042176637798547745,-0.06543659418821335,1.0758705139160156,0.32769834995269775,-0.041014619171619415,-0.032984986901283264,-74,-17,-991,330,-40,-32,186,298,-16,625330,625.3299560546875,0.0,1500.0
09:28:22.334,AUTO,-35.3631909,149.1653931,41444,0.04551117494702339,-0.07996876537799835,1.0738003253936768,0.3053235113620758,-0.07480611652135849,0.009445748291909695,-65,-31,-981,306,-73,10,186,297,-14,625380,625.3800048828125,0.0,1500.0
09:28:22.534,AUTO,-35.3631867,149.1654014,41483,0.0373188853263855,-0.10021057724952698,1.0738078355789185,-0.3105996549129486,-0.08849135041236877,0.027530329301953316,-81,-60,-987,-310,-87,28,189,300,-13,625420,625.4199829101562,0.0,1500.0
09:28:22.735,AUTO,-35.3631867,149.1654014,41483,0.0373188853263855,-0.10021057724952698,1.0738078355789185,-0.3105996549129486,-0.08849135041236877,0.027530329301953316,-81,-60,-987,-310,-87,28,189,300,-13,625420,625.4199829101562,0.0,1500.0
09:28:22.936,AUTO,-35.3631867,149.1654014,41483,0.0373188853263855,-0.10021057724952698,1.0738078355789185,-0.3105996549129486,-0.08849135041236877,0.027530329301953316,-81,-60,-987,-310,-87,28,189,300,-13,625420,625.4199829101562,0.0,1500.0
09:28:23.136,AUTO,-35.3631867,149.1654014,41483,0.0373188853263855,-0.10021057724952698,1.0738078355789185,-0.3105996549129486,-0.08849135041236877,0.027530329301953316,-81,-60,-987,-310,-87,28,189,300,-13,625420,625.4199829101562,0.0,1500.0
09:28:23.356,AUTO,-35.3631731,149.1654276,41588,0.040383484214544296,-0.1401384174823761,1.068194031715393,0.27182939648628235,-0.030887125059962273,-0.0004294831305742264,-84,-41,-1000,272,-29,0,209,328,-12,625520,625.5199584960938,0.0,1500.0
09:28:23.557,AUTO,-35.3631682,149.1654371,41626,0.03443394601345062,-0.15163753926753998,1.066698670387268,-0.2608798146247864,-0.04885859787464142,0.004113074857741594,-79,-58,-998,-259,-47,4,219,341,-13,625560,625.5599975585938,0.0,1500.0
09:28:23.758,AUTO,-35.3631631,149.1654468,41666,0.036439694464206696,-0.1599663347005844,1.0639036893844604,-0.03216109052300453,-0.000489640689920634,-0.016297597438097,-86,-47,-1004,-30,0,-15,228,355,-15,625600,625.5999755859375,0.0,1500.0
09:28:23.959,AUTO,-35.3631577,149.165457,41710,0.0435783825814724,-0.15223637223243713,1.0616239309310913,0.1992999166250229,0.04340183362364769,-0.025138255208730698,-97,-42,-1013,200,44,-24,238,369,-18,625650,625.6499633789062,0.0,1500.0
09:28:24.159,AUTO,-35.3631521,149.1654675,41764,0.04408800229430199,-0.13777178525924683,1.0604559183120728,-0.12538214027881622,0.07355588674545288,0.0017698099836707115,-96,-57,-1012,-124,74,2,246,380,-22,625700,625.7000122070312,0.0,1500.0
09:28:24.360,AUTO,-35.3631521,149.1654675,41764,0.04408800229430199,-0.13777178525924683,1.0604559183120728,-0.12538214027881622,0.07355588674545288,0.0017698099836707115,-96,-57,-1012,-124,74,2,246,380,-22,625700,625.7000122070312,0.0,1500.0
09:28:24.562,AUTO,-35.3631464,149.1654783,41829,0.04742700234055519,-0.11602236330509186,1.0597807168960571,-0.04785964637994766,0.0899265855550766,-0.010702446103096008,-97,-61,-1013,-45,91,-10,252,387,-27,625760,625.760009765625,0.0,1500.0
09:28:24.762,AUTO,-35.3631464,149.1654783,41829,0.04742700234055519,-0.11602236330509186,1.0597807168960571,-0.04785964637994766,0.0899265855550766,-0.010702446103096008,-97,-61,-1013,-45,91,-10,252,387,-27,625760,625.760009765625,0.0,1500.0
09:28:24.963,AUTO,-35.3631464,149.1654783,41829,0.04742700234055519,-0.11602236330509186,1.0597807168960571,-0.04785964637994766,0.0899265855550766,-0.010702446103096008,-97,-61,-1013,-45,91,-10,252,387,-27,625760,625.760009765625,0.0,1500.0
