time_stamp,MODE,lat,lon,relative_alt,roll,pitch,yaw,rollspeed,pitchspeed,yawspeed,xacc,yacc,zacc,xgyro,ygyro,zgyro,vx,vy,vz,alt,VFR_HUD_alt,EK2_ALT_SOURCE,RTL_ALT
09:52:36.542,STABILIZE,-35.3632621,149.1652374,5,-0.0005092077772133052,0.0012606398668140173,0.028724636882543564,8.823092503007501e-05,0.00023376187891699374,0.002538018859922886,0,1,-1000,0,0,0,-3,3,0,583990,583.989990234375,0.0,1500.0
09:52:36.747,STABILIZE,-35.3632621,149.1652374,5,-0.0005092077772133052,0.0012606398668140173,0.028724636882543564,8.823092503007501e-05,0.00023376187891699374,0.002538018859922886,0,1,-1000,0,0,0,-3,3,0,583990,583.989990234375,0.0,1500.0
09:52:36.949,STABILIZE,-35.3632621,149.1652374,5,-0.0005092077772133052,0.0012606398668140173,0.028724636882543564,8.823092503007501e-05,0.00023376187891699374,0.002538018859922886,0,1,-1000,0,0,0,-3,3,0,583990,583.989990234375,0.0,1500.0
09:52:37.151,STABILIZE,-35.3632621,149.1652374,5,-0.0005092077772133052,0.0012606398668140173,0.028724636882543564,8.823092503007501e-05,0.00023376187891699374,0.002538018859922886,0,1,-1000,0,0,0,-3,3,0,583990,583.989990234375,0.0,1500.0
09:52:37.355,STABILIZE,-35.3632621,149.1652374,5,-0.0005092077772133052,0.0012606398668140173,0.028724636882543564,8.823092503007501e-05,0.00023376187891699374,0.002538018859922886,0,1,-1000,0,0,0,-3,3,0,583990,583.989990234375,0.0,1500.0
09:52:37.558,STABILIZE,-35.3632621,149.1652374,5,-0.0005092077772133052,0.0012606398668140173,0.028724636882543564,8.823092503007501e-05,0.00023376187891699374,0.002538018859922886,0,1,-1000,0,0,0,-3,3,0,583990,583.989990234375,0.0,1500.0
09:52:37.760,STABILIZE,-35.3632621,149.1652374,5,-0.0005092077772133052,0.0012606398668140173,0.028724636882543564,8.823092503007501e-05,0.00023376187891699374,0.002538018859922886,0,1,-1000,0,0,0,-3,3,0,583990,583.989990234375,0.0,1500.0
09:52:37.965,STABILIZE,-35.3632621,149.1652374,5,-0.0005092077772133052,0.0012606398668140173,0.028724636882543564,8.823092503007501e-05,0.00023376187891699374,0.002538018859922886,0,1,-1000,0,0,0,-3,3,0,583990,583.989990234375,0.0,1500.0
09:52:38.171,STABILIZE,-35.3632621,149.1652374,5,-0.0005701400805264711,0.001276646158657968,0.02803913503885269,0.0001135377460741438,0.0003169165283907205,0.0025327405892312527,0,1,-1000,0,0,0,-3,3,0,583990,583.989990234375,0.0,1500.0
09:52:38.374,STABILIZE,-35.3632621,149.1652374,2,-0.00030314779723994434,0.001463487045839429,0.027330618351697922,0.00035536193172447383,0.0002839992812369019,0.0022798688150942326,0,1,-1000,0,0,0,0,0,-1,583990,583.989990234375,0.0,1500.0
09:52:38.577,STABILIZE,-35.3632621,149.1652374,2,-0.00030314779723994434,0.001463487045839429,0.027330618351697922,0.00035536193172447383,0.0002839992812369019,0.0022798688150942326,0,1,-1000,0,0,0,0,0,-1,583990,583.989990234375,0.0,1500.0
09:52:38.781,STABILIZE,-35.3632621,149.1652374,2,-0.00030314779723994434,0.001463487045839429,0.027330618351697922,0.00035536193172447383,0.0002839992812369019,0.0022798688150942326,0,1,-1000,0,0,0,0,0,-1,583990,583.989990234375,0.0,1500.0
09:52:38.984,STABILIZE,-35.3632621,149.1652374,2,-0.00030314779723994434,0.001463487045839429,0.027330618351697922,0.00035536193172447383,0.0002839992812369019,0.0022798688150942326,0,1,-1000,0,0,0,0,0,-1,583990,583.989990234375,0.0,1500.0
09:52:39.194,STABILIZE,-35.3632621,149.1652374,2,-0.00030314779723994434,0.001463487045839429,0.027330618351697922,0.00035536193172447383,0.0002839992812369019,0.0022798688150942326,0,1,-1000,0,0,0,0,0,-1,583990,583.989990234375,0.0,1500.0
09:52:39.402,STABILIZE,-35.3632621,149.1652374,2,-0.00030314779723994434,0.001463487045839429,0.027330618351697922,0.00035536193172447383,0.0002839992812369019,0.0022798688150942326,0,1,-1000,0,0,0,0,0,-1,583990,583.989990234375,0.0,1500.0
09:52:39.604,STABILIZE,-35.3632621,149.1652374,2,-0.00030314779723994434,0.001463487045839429,0.027330618351697922,0.00035536193172447383,0.0002839992812369019,0.0022798688150942326,0,1,-1000,0,0,0,0,0,-1,583990,583.989990234375,0.0,1500.0
09:52:39.806,STABILIZE,-35.3632621,149.1652374,2,-0.00030314779723994434,0.001463487045839429,0.027330618351697922,0.00035536193172447383,0.0002839992812369019,0.0022798688150942326,0,1,-1000,0,0,0,0,0,-1,583990,583.989990234375,0.0,1500.0
09:52:40.009,STABILIZE,-35.3632621,149.1652374,2,-0.00030314779723994434,0.001463487045839429,0.027330618351697922,0.00035536193172447383,0.0002839992812369019,0.0022798688150942326,0,1,-1000,0,0,0,0,0,-1,583990,583.989990234375,0.0,1500.0
09:52:40.214,STABILIZE,-35.3632621,149.1652374,0,-0.0002545791503507644,0.001617332687601447,0.026641184464097023,0.00012449493806343526,0.00031764229061082006,0.0021762591786682606,0,1,-1000,0,0,0,-1,1,-1,583990,583.989990234375,0.0,1500.0
09:52:40.423,STABILIZE,-35.3632621,149.1652374,0,-0.0003826563770417124,0.0015481548616662621,0.026003526523709297,0.00018904608441516757,0.000148637656820938,0.002148458966985345,0,1,-1000,0,0,0,-2,1,-1,583980,583.97998046875,0.0,1500.0
09:52:40.641,STABILIZE,-35.3632621,149.1652374,0,-0.0003826563770417124,0.0015481548616662621,0.026003526523709297,0.00018904608441516757,0.000148637656820938,0.002148458966985345,0,1,-1000,0,0,0,-2,1,-1,583980,583.97998046875,0.0,1500.0
09:52:40.844,STABILIZE,-35.3632621,149.1652374,0,-0.0003826563770417124,0.0015481548616662621,0.026003526523709297,0.00018904608441516757,0.000148637656820938,0.002148458966985345,0,1,-1000,0,0,0,-2,1,-1,583980,583.97998046875,0.0,1500.0
09:52:41.047,STABILIZE,-35.3632621,149.1652374,0,-0.0003826563770417124,0.0015481548616662621,0.026003526523709297,0.00018904608441516757,0.000148637656820938,0.002148458966985345,0,1,-1000,0,0,0,-2,1,-1,583980,583.97998046875,0.0,1500.0
09:52:41.260,STABILIZE,-35.3632621,149.1652374,0,-0.0003826563770417124,0.0015481548616662621,0.026003526523709297,0.00018904608441516757,0.000148637656820938,0.002148458966985345,0,1,-1000,0,0,0,-2,1,-1,583980,583.97998046875,0.0,1500.0
09:52:41.462,STABILIZE,-35.3632621,149.1652374,0,-0.0003826563770417124,0.0015481548616662621,0.026003526523709297,0.00018904608441516757,0.000148637656820938,0.002148458966985345,0,1,-1000,0,0,0,-2,1,-1,583980,583.97998046875,0.0,1500.0
09:52:41.663,STABILIZE,-35.3632621,149.1652374,0,-0.0003826563770417124,0.0015481548616662621,0.026003526523709297,0.00018904608441516757,0.000148637656820938,0.002148458966985345,0,1,-1000,0,0,0,-2,1,-1,583980,583.97998046875,0.0,1500.0
09:52:41.868,STABILIZE,-35.3632621,149.1652374,0,-0.0003826563770417124,0.0015481548616662621,0.026003526523709297,0.00018904608441516757,0.000148637656820938,0.002148458966985345,0,1,-1000,0,0,0,-2,1,-1,583980,583.97998046875,0.0,1500.0
09:52:42.074,STABILIZE,-35.3632622,149.1652375,2,-0.0006137057789601386,0.001244697137735784,0.025126123800873756,0.00020533522183541209,0.00012776130461134017,0.0019469097023829818,0,1,-1000,0,0,0,-1,1,-1,583990,583.989990234375,0.0,1500.0
09:52:42.276,STABILIZE,-35.3632622,149.1652374,4,-0.0006412665243260562,0.001196579309180379,0.024991894140839577,0.0003145747759845108,0.00039729068521410227,0.002005950780585408,0,1,-1000,0,0,1,-1,1,-1,583990,583.989990234375,0.0,1500.0
09:52:42.477,STABILIZE,-35.3632622,149.1652374,4,-0.0006412665243260562,0.001196579309180379,0.024991894140839577,0.0003145747759845108,0.00039729068521410227,0.002005950780585408,0,1,-1000,0,0,1,-1,1,-1,583990,583.989990234375,0.0,1500.0
09:52:42.683,STABILIZE,-35.3632622,149.1652374,4,-0.0006412665243260562,0.001196579309180379,0.024991894140839577,0.0003145747759845108,0.00039729068521410227,0.002005950780585408,0,1,-1000,0,0,1,-1,1,-1,583990,583.989990234375,0.0,1500.0
09:52:42.908,STABILIZE,-35.3632622,149.1652374,4,-0.0006412665243260562,0.001196579309180379,0.024991894140839577,0.0003145747759845108,0.00039729068521410227,0.002005950780585408,0,1,-1000,0,0,1,-1,1,-1,583990,583.989990234375,0.0,1500.0
09:52:43.117,STABILIZE,-35.3632622,149.1652374,4,-0.0006412665243260562,0.001196579309180379,0.024991894140839577,0.0003145747759845108,0.00039729068521410227,0.002005950780585408,0,1,-1000,0,0,1,-1,1,-1,583990,583.989990234375,0.0,1500.0
09:52:43.321,STABILIZE,-35.3632622,149.1652374,4,-0.0006412665243260562,0.001196579309180379,0.024991894140839577,0.0003145747759845108,0.00039729068521410227,0.002005950780585408,0,1,-1000,0,0,1,-1,1,-1,583990,583.989990234375,0.0,1500.0
09:52:43.527,STABILIZE,-35.3632622,149.1652374,4,-0.0006412665243260562,0.001196579309180379,0.024991894140839577,0.0003145747759845108,0.00039729068521410227,0.002005950780585408,0,1,-1000,0,0,1,-1,1,-1,583990,583.989990234375,0.0,1500.0
09:52:43.729,STABILIZE,-35.3632622,149.1652374,4,-0.0006412665243260562,0.001196579309180379,0.024991894140839577,0.0003145747759845108,0.00039729068521410227,0.002005950780585408,0,1,-1000,0,0,1,-1,1,-1,583990,583.989990234375,0.0,1500.0
09:52:43.938,STABILIZE,-35.3632622,149.1652374,4,-0.0006412665243260562,0.001196579309180379,0.024991894140839577,0.0003145747759845108,0.00039729068521410227,0.002005950780585408,0,1,-1000,0,0,1,-1,1,-1,583990,583.989990234375,0.0,1500.0
09:52:44.150,STABILIZE,-35.3632622,149.1652374,6,-0.0007903670775704086,0.0010117309866473079,0.024296142160892487,0.0002146455954061821,0.00033510648063383996,0.001983324298635125,0,2,-1000,0,0,0,-1,1,-1,583990,583.989990234375,0.0,1500.0
09:52:44.368,STABILIZE,-35.3632621,149.1652375,7,-0.000851718767080456,0.0009752632468007505,0.023984428495168686,0.00032225565519183874,0.00017933323397301137,0.0018109764205291867,0,1,-1000,0,0,0,-1,1,-1,583990,583.989990234375,0.0,1500.0
09:52:44.573,STABILIZE,-35.3632621,149.1652375,7,-0.000851718767080456,0.0009752632468007505,0.023984428495168686,0.00032225565519183874,0.00017933323397301137,0.0018109764205291867,0,1,-1000,0,0,0,-1,1,-1,583990,583.989990234375,0.0,1500.0
09:52:44.777,STABILIZE,-35.3632621,149.1652375,7,-0.000851718767080456,0.0009752632468007505,0.023984428495168686,0.00032225565519183874,0.00017933323397301137,0.0018109764205291867,0,1,-1000,0,0,0,-1,1,-1,583990,583.989990234375,0.0,1500.0
09:52:44.983,STABILIZE,-35.3632621,149.1652375,7,-0.000851718767080456,0.0009752632468007505,0.023984428495168686,0.00032225565519183874,0.00017933323397301137,0.0018109764205291867,0,1,-1000,0,0,0,-1,1,-1,583990,583.989990234375,0.0,1500.0
09:52:45.189,STABILIZE,-35.3632621,149.1652375,7,-0.000851718767080456,0.0009752632468007505,0.023984428495168686,0.00032225565519183874,0.00017933323397301137,0.0018109764205291867,0,1,-1000,0,0,0,-1,1,-1,583990,583.989990234375,0.0,1500.0
09:52:45.394,STABILIZE,-35.3632621,149.1652375,7,-0.000851718767080456,0.0009752632468007505,0.023984428495168686,0.00032225565519183874,0.00017933323397301137,0.0018109764205291867,0,1,-1000,0,0,0,-1,1,-1,583990,583.989990234375,0.0,1500.0
09:52:45.609,STABILIZE,-35.3632621,149.1652375,7,-0.000851718767080456,0.0009752632468007505,0.023984428495168686,0.00032225565519183874,0.00017933323397301137,0.0018109764205291867,0,1,-1000,0,0,0,-1,1,-1,583990,583.989990234375,0.0,1500.0
09:52:45.832,STABILIZE,-35.3632621,149.1652375,7,-0.000851718767080456,0.0009752632468007505,0.023984428495168686,0.00032225565519183874,0.00017933323397301137,0.0018109764205291867,0,1,-1000,0,0,0,-1,1,-1,583990,583.989990234375,0.0,1500.0
09:52:46.043,STABILIZE,-35.3632621,149.1652374,21,-0.0006413374212570488,0.0009330441826023161,0.023309068754315376,0.00038913116441108286,0.00018669484416022897,0.0017141869757324457,0,1,-1000,0,0,0,-1,0,-3,584010,584.010009765625,0.0,1500.0
09:52:46.246,STABILIZE,-35.3632621,149.1652374,23,-0.0005895336507819593,0.0009300523088313639,0.02320326678454876,0.0004127660649828613,0.00026434200117364526,0.001713282777927816,0,1,-1000,0,0,0,-1,0,-3,584010,584.010009765625,0.0,1500.0
09:52:46.456,STABILIZE,-35.3632621,149.1652374,23,-0.0005895336507819593,0.0009300523088313639,0.02320326678454876,0.0004127660649828613,0.00026434200117364526,0.001713282777927816,0,1,-1000,0,0,0,-1,0,-3,584010,584.010009765625,0.0,1500.0
09:52:46.673,STABILIZE,-35.3632621,149.1652374,23,-0.0005895336507819593,0.0009300523088313639,0.02320326678454876,0.0004127660649828613,0.00026434200117364526,0.001713282777927816,0,1,-1000,0,0,0,-1,0,-3,584010,584.010009765625,0.0,1500.0
09:52:50.461,STABILIZE,-35.3632621,149.1652374,23,-0.0005895336507819593,0.0009300523088313639,0.02320326678454876,0.0004127660649828613,0.00026434200117364526,0.001713282777927816,0,1,-1000,0,0,0,-1,0,-3,584010,584.010009765625,0.0,1500.0
09:52:50.664,STABILIZE,-35.3632621,149.1652374,23,-0.0005895336507819593,0.0009300523088313639,0.02320326678454876,0.0004127660649828613,0.00026434200117364526,0.001713282777927816,0,1,-1000,0,0,0,-1,0,-3,584010,584.010009765625,0.0,1500.0
09:52:50.870,STABILIZE,-35.3632621,149.1652374,23,-0.0005895336507819593,0.0009300523088313639,0.02320326678454876,0.0004127660649828613,0.00026434200117364526,0.001713282777927816,0,1,-1000,0,0,0,-1,0,-3,584010,584.010009765625,0.0,1500.0
09:52:51.072,STABILIZE,-35.3632621,149.1652374,23,-0.0005895336507819593,0.0009300523088313639,0.02320326678454876,0.0004127660649828613,0.00026434200117364526,0.001713282777927816,0,1,-1000,0,0,0,-1,0,-3,584010,584.010009765625,0.0,1500.0
09:52:51.281,STABILIZE,-35.3632621,149.1652374,23,-0.0005895336507819593,0.0009300523088313639,0.02320326678454876,0.0004127660649828613,0.00026434200117364526,0.001713282777927816,0,1,-1000,0,0,0,-1,0,-3,584010,584.010009765625,0.0,1500.0
09:52:51.485,STABILIZE,-35.3632621,149.1652374,23,-0.0005895336507819593,0.0009300523088313639,0.02320326678454876,0.0004127660649828613,0.00026434200117364526,0.001713282777927816,0,1,-1000,0,0,0,-1,0,-3,584010,584.010009765625,0.0,1500.0
09:52:51.704,STABILIZE,-35.3632621,149.1652374,24,-0.00048076643724925816,0.0009444062015973032,0.022609667852520943,0.00032702795579098165,0.00029548146994784474,0.0018606947269290686,0,1,-1000,0,0,0,-1,1,-2,584010,584.010009765625,0.0,1500.0
09:52:51.907,STABILIZE,-35.3632621,149.1652374,24,-0.00048076643724925816,0.0009444062015973032,0.022609667852520943,0.00032702795579098165,0.00029548146994784474,0.0018606947269290686,0,1,-1000,0,0,0,-1,1,-2,584010,584.010009765625,0.0,1500.0
09:52:52.112,STABILIZE,-35.3632621,149.1652374,24,-0.00048076643724925816,0.0009444062015973032,0.022609667852520943,0.00032702795579098165,0.00029548146994784474,0.0018606947269290686,0,1,-1000,0,0,0,-1,1,-2,584010,584.010009765625,0.0,1500.0
09:52:52.337,STABILIZE,-35.3632621,149.1652374,24,-0.00048076643724925816,0.0009444062015973032,0.022609667852520943,0.00032702795579098165,0.00029548146994784474,0.0018606947269290686,0,1,-1000,0,0,0,-1,1,-2,584010,584.010009765625,0.0,1500.0
09:52:52.539,STABILIZE,-35.3632621,149.1652374,24,-0.00048076643724925816,0.0009444062015973032,0.022609667852520943,0.00032702795579098165,0.00029548146994784474,0.0018606947269290686,0,1,-1000,0,0,0,-1,1,-2,584010,584.010009765625,0.0,1500.0
09:52:52.752,STABILIZE,-35.3632621,149.1652374,24,-0.00048076643724925816,0.0009444062015973032,0.022609667852520943,0.00032702795579098165,0.00029548146994784474,0.0018606947269290686,0,1,-1000,0,0,0,-1,1,-2,584010,584.010009765625,0.0,1500.0
09:52:52.954,STABILIZE,-35.3632621,149.1652374,24,-0.00048076643724925816,0.0009444062015973032,0.022609667852520943,0.00032702795579098165,0.00029548146994784474,0.0018606947269290686,0,1,-1000,0,0,0,-1,1,-2,584010,584.010009765625,0.0,1500.0
09:52:53.163,STABILIZE,-35.3632621,149.1652374,24,-0.00048076643724925816,0.0009444062015973032,0.022609667852520943,0.00032702795579098165,0.00029548146994784474,0.0018606947269290686,0,1,-1000,0,0,0,-1,1,-2,584010,584.010009765625,0.0,1500.0
09:52:53.370,STABILIZE,-35.3632621,149.1652374,24,-0.00048076643724925816,0.0009444062015973032,0.022609667852520943,0.00032702795579098165,0.00029548146994784474,0.0018606947269290686,0,1,-1000,0,0,0,-1,1,-2,584010,584.010009765625,0.0,1500.0
09:52:53.606,STABILIZE,-35.3632621,149.1652375,19,-0.00048076643724925816,0.0009444062015973032,0.022609667852520943,0.00032702795579098165,0.00029548146994784474,0.0018606947269290686,0,2,-1000,0,0,0,-1,1,-1,584000,584.0,0.0,1500.0
09:52:53.807,STABILIZE,-35.3632622,149.1652375,13,-0.0006254863692447543,0.0009640863863751292,0.02191793918609619,0.0003578805481083691,0.00030250445706769824,0.0016115253092721105,0,1,-1000,0,1,0,-1,1,0,584000,584.0,0.0,1500.0
09:52:54.014,STABILIZE,-35.3632622,149.1652375,13,-0.0006254863692447543,0.0009640863863751292,0.02191793918609619,0.0003578805481083691,0.00030250445706769824,0.0016115253092721105,0,1,-1000,0,1,0,-1,1,0,584000,584.0,0.0,1500.0
09:52:54.218,STABILIZE,-35.3632622,149.1652375,13,-0.0006254863692447543,0.0009640863863751292,0.02191793918609619,0.0003578805481083691,0.00030250445706769824,0.0016115253092721105,0,1,-1000,0,1,0,-1,1,0,584000,584.0,0.0,1500.0
09:52:54.428,STABILIZE,-35.3632622,149.1652375,13,-0.0006254863692447543,0.0009640863863751292,0.02191793918609619,0.0003578805481083691,0.00030250445706769824,0.0016115253092721105,0,1,-1000,0,1,0,-1,1,0,584000,584.0,0.0,1500.0
09:52:54.632,STABILIZE,-35.3632622,149.1652375,13,-0.0006254863692447543,0.0009640863863751292,0.02191793918609619,0.0003578805481083691,0.00030250445706769824,0.0016115253092721105,0,1,-1000,0,1,0,-1,1,0,584000,584.0,0.0,1500.0
09:52:54.839,STABILIZE,-35.3632622,149.1652375,13,-0.0006254863692447543,0.0009640863863751292,0.02191793918609619,0.0003578805481083691,0.00030250445706769824,0.0016115253092721105,0,1,-1000,0,1,0,-1,1,0,584000,584.0,0.0,1500.0
09:52:55.046,STABILIZE,-35.3632622,149.1652375,13,-0.0006254863692447543,0.0009640863863751292,0.02191793918609619,0.0003578805481083691,0.00030250445706769824,0.0016115253092721105,0,1,-1000,0,1,0,-1,1,0,584000,584.0,0.0,1500.0
09:52:55.288,STABILIZE,-35.3632622,149.1652375,13,-0.0006254863692447543,0.0009640863863751292,0.02191793918609619,0.0003578805481083691,0.00030250445706769824,0.0016115253092721105,0,1,-1000,0,1,0,-1,1,0,584000,584.0,0.0,1500.0
09:52:55.492,STABILIZE,-35.3632622,149.1652375,13,-0.0006254863692447543,0.0009640863863751292,0.02191793918609619,0.0003578805481083691,0.00030250445706769824,0.0016115253092721105,0,1,-1000,0,1,0,-1,1,0,584000,584.0,0.0,1500.0
09:52:55.695,STABILIZE,-35.3632622,149.1652375,13,-0.0006254863692447543,0.0009640863863751292,0.02191793918609619,0.0003578805481083691,0.00030250445706769824,0.0016115253092721105,0,1,-1000,0,1,0,-1,1,0,584000,584.0,0.0,1500.0
09:52:55.900,STABILIZE,-35.3632622,149.1652375,13,-0.0006254863692447543,0.0009640863863751292,0.02191793918609619,0.0003578805481083691,0.00030250445706769824,0.0016115253092721105,0,1,-1000,0,1,0,-1,1,0,584000,584.0,0.0,1500.0
09:52:56.105,STABILIZE,-35.3632622,149.1652375,13,-0.0006254863692447543,0.0009640863863751292,0.02191793918609619,0.0003578805481083691,0.00030250445706769824,0.0016115253092721105,0,1,-1000,0,1,0,-1,1,0,584000,584.0,0.0,1500.0
09:52:56.308,STABILIZE,-35.3632622,149.1652375,13,-0.0006254863692447543,0.0009640863863751292,0.02191793918609619,0.0003578805481083691,0.00030250445706769824,0.0016115253092721105,0,1,-1000,0,1,0,-1,1,0,584000,584.0,0.0,1500.0
09:52:56.513,STABILIZE,-35.3632622,149.1652375,13,-0.0006254863692447543,0.0009640863863751292,0.02191793918609619,0.0003578805481083691,0.00030250445706769824,0.0016115253092721105,0,1,-1000,0,1,0,-1,1,0,584000,584.0,0.0,1500.0
09:52:56.715,STABILIZE,-35.3632622,149.1652375,13,-0.0006254863692447543,0.0009640863863751292,0.02191793918609619,0.0003578805481083691,0.00030250445706769824,0.0016115253092721105,0,1,-1000,0,1,0,-1,1,0,584000,584.0,0.0,1500.0
09:52:56.918,STABILIZE,-35.3632622,149.1652375,13,-0.0006254863692447543,0.0009640863863751292,0.02191793918609619,0.0003578805481083691,0.00030250445706769824,0.0016115253092721105,0,1,-1000,0,1,0,-1,1,0,584000,584.0,0.0,1500.0
09:52:57.123,STABILIZE,-35.3632622,149.1652375,13,-0.0006254863692447543,0.0009640863863751292,0.02191793918609619,0.0003578805481083691,0.00030250445706769824,0.0016115253092721105,0,1,-1000,0,1,0,-1,1,0,584000,584.0,0.0,1500.0
09:52:57.324,STABILIZE,-35.3632622,149.1652375,13,-0.0006254863692447543,0.0009640863863751292,0.02191793918609619,0.0003578805481083691,0.00030250445706769824,0.0016115253092721105,0,1,-1000,0,1,0,-1,1,0,584000,584.0,0.0,1500.0
09:52:57.527,STABILIZE,-35.3632622,149.1652375,13,-0.0006254863692447543,0.0009640863863751292,0.02191793918609619,0.0003578805481083691,0.00030250445706769824,0.0016115253092721105,0,1,-1000,0,1,0,-1,1,0,584000,584.0,0.0,1500.0
09:52:57.730,STABILIZE,-35.3632622,149.1652375,13,-0.0006254863692447543,0.0009640863863751292,0.02191793918609619,0.0003578805481083691,0.00030250445706769824,0.0016115253092721105,0,1,-1000,0,1,0,-1,1,0,584000,584.0,0.0,1500.0
09:52:57.932,STABILIZE,-35.3632622,149.1652375,13,-0.0006254863692447543,0.0009640863863751292,0.02191793918609619,0.0003578805481083691,0.00030250445706769824,0.0016115253092721105,0,1,-1000,0,1,0,-1,1,0,584000,584.0,0.0,1500.0
09:52:58.135,STABILIZE,-35.3632622,149.1652375,13,-0.0006254863692447543,0.0009640863863751292,0.02191793918609619,0.0003578805481083691,0.00030250445706769824,0.0016115253092721105,0,1,-1000,0,1,0,-1,1,0,584000,584.0,0.0,1500.0
09:52:58.337,STABILIZE,-35.3632622,149.1652375,13,-0.0006254863692447543,0.0009640863863751292,0.02191793918609619,0.0003578805481083691,0.00030250445706769824,0.0016115253092721105,0,1,-1000,0,1,0,-1,1,0,584000,584.0,0.0,1500.0
09:52:58.539,STABILIZE,-35.3632622,149.1652375,13,-0.0006254863692447543,0.0009640863863751292,0.02191793918609619,0.0003578805481083691,0.00030250445706769824,0.0016115253092721105,0,1,-1000,0,1,0,-1,1,0,584000,584.0,0.0,1500.0
09:52:58.741,STABILIZE,-35.3632622,149.1652375,13,-0.0006254863692447543,0.0009640863863751292,0.02191793918609619,0.0003578805481083691,0.00030250445706769824,0.0016115253092721105,0,1,-1000,0,1,0,-1,1,0,584000,584.0,0.0,1500.0
09:52:58.945,STABILIZE,-35.3632622,149.1652375,13,-0.0006254863692447543,0.0009640863863751292,0.02191793918609619,0.0003578805481083691,0.00030250445706769824,0.0016115253092721105,0,1,-1000,0,1,0,-1,1,0,584000,584.0,0.0,1500.0
09:52:59.149,STABILIZE,-35.3632622,149.1652375,13,-0.0006254863692447543,0.0009640863863751292,0.02191793918609619,0.0003578805481083691,0.00030250445706769824,0.0016115253092721105,0,1,-1000,0,1,0,-1,1,0,584000,584.0,0.0,1500.0
09:52:59.353,STABILIZE,-35.3632622,149.1652375,13,-0.0006254863692447543,0.0009640863863751292,0.02191793918609619,0.0003578805481083691,0.00030250445706769824,0.0016115253092721105,0,1,-1000,0,1,0,-1,1,0,584000,584.0,0.0,1500.0
09:52:59.558,STABILIZE,-35.3632622,149.1652375,13,-0.0006254863692447543,0.0009640863863751292,0.02191793918609619,0.0003578805481083691,0.00030250445706769824,0.0016115253092721105,0,1,-1000,0,1,0,-1,1,0,584000,584.0,0.0,1500.0
09:52:59.761,STABILIZE,-35.3632622,149.1652375,13,-0.0006254863692447543,0.0009640863863751292,0.02191793918609619,0.0003578805481083691,0.00030250445706769824,0.0016115253092721105,0,1,-1000,0,1,0,-1,1,0,584000,584.0,0.0,1500.0
09:52:59.964,STABILIZE,-35.3632622,149.1652375,13,-0.0006254863692447543,0.0009640863863751292,0.02191793918609619,0.0003578805481083691,0.00030250445706769824,0.0016115253092721105,0,1,-1000,0,1,0,-1,1,0,584000,584.0,0.0,1500.0
09:53:00.166,STABILIZE,-35.3632622,149.1652375,13,-0.0006254863692447543,0.0009640863863751292,0.02191793918609619,0.0003578805481083691,0.00030250445706769824,0.0016115253092721105,0,1,-1000,0,1,0,-1,1,0,584000,584.0,0.0,1500.0
09:53:00.373,STABILIZE,-35.3632622,149.1652375,2,-0.0008634335827082396,0.0009784857975319028,0.021226797252893448,0.00035436064354144037,0.0002836014609783888,0.0014605901669710875,0,1,-1000,0,0,0,-1,1,0,583990,583.989990234375,0.0,1500.0
09:53:00.577,STABILIZE,-35.3632622,149.1652375,2,-0.0008634335827082396,0.0009784857975319028,0.021226797252893448,0.00035436064354144037,0.0002836014609783888,0.0014605901669710875,0,1,-1000,0,0,0,-1,1,0,583990,583.989990234375,0.0,1500.0
09:53:00.779,STABILIZE,-35.3632622,149.1652375,2,-0.0008634335827082396,0.0009784857975319028,0.021226797252893448,0.00035436064354144037,0.0002836014609783888,0.0014605901669710875,0,1,-1000,0,0,0,-1,1,0,583990,583.989990234375,0.0,1500.0
09:53:00.983,STABILIZE,-35.3632622,149.1652375,2,-0.0008634335827082396,0.0009784857975319028,0.021226797252893448,0.00035436064354144037,0.0002836014609783888,0.0014605901669710875,0,1,-1000,0,0,0,-1,1,0,583990,583.989990234375,0.0,1500.0
09:53:01.188,STABILIZE,-35.3632622,149.1652375,2,-0.0008634335827082396,0.0009784857975319028,0.021226797252893448,0.00035436064354144037,0.0002836014609783888,0.0014605901669710875,0,1,-1000,0,0,0,-1,1,0,583990,583.989990234375,0.0,1500.0
09:53:01.391,AUTO,-35.3632621,149.1652375,1153,0.0010832174448296428,0.0022689567413181067,0.019990071654319763,0.0005423754919320345,-0.00023619824787601829,0.001565201673656702,0,0,-1017,0,0,1,0,0,-132,585140,585.1400146484375,0.0,1500.0
09:53:01.593,AUTO,-35.3632621,149.1652375,1497,0.0014331098645925522,0.0024821744300425053,0.020071055740118027,0.0006371416384354234,0.0012268145801499486,0.002353694522753358,0,0,-1021,1,2,2,0,0,-136,585480,585.47998046875,0.0,1500.0
09:53:01.795,AUTO,-35.363262,149.1652374,1843,0.0031812964007258415,0.002438674448058009,0.0199125949293375,0.027403920888900757,-0.001972911413758993,0.0004995840135961771,0,0,-1026,27,-1,0,0,0,-143,585830,585.8300170898438,0.0,1500.0
09:53:01.997,AUTO,-35.363262,149.1652374,2204,0.014068122953176498,0.0011457379441708326,0.019823865965008736,0.04712989181280136,-0.0064755589701235294,0.0018738450016826391,0,0,-1012,47,-5,1,0,1,-147,586190,586.1900024414062,0.0,1500.0
09:53:02.200,AUTO,-35.363262,149.1652374,2204,0.014068122953176498,0.0011457379441708326,0.019823865965008736,0.04712989181280136,-0.0064755589701235294,0.0018738450016826391,0,0,-1012,47,-5,1,0,1,-147,586190,586.1900024414062,0.0,1500.0
09:53:02.403,AUTO,-35.363262,149.1652374,2204,0.014068122953176498,0.0011457379441708326,0.019823865965008736,0.04712989181280136,-0.0064755589701235294,0.0018738450016826391,0,0,-1012,47,-5,1,0,1,-147,586190,586.1900024414062,0.0,1500.0
09:53:02.606,AUTO,-35.363262,149.1652374,2204,0.014068122953176498,0.0011457379441708326,0.019823865965008736,0.04712989181280136,-0.0064755589701235294,0.0018738450016826391,0,0,-1012,47,-5,1,0,1,-147,586190,586.1900024414062,0.0,1500.0
09:53:02.814,AUTO,-35.363262,149.1652374,2204,0.014068122953176498,0.0011457379441708326,0.019823865965008736,0.04712989181280136,-0.0064755589701235294,0.0018738450016826391,0,0,-1012,47,-5,1,0,1,-147,586190,586.1900024414062,0.0,1500.0
09:53:03.021,AUTO,-35.363262,149.1652374,2204,0.014068122953176498,0.0011457379441708326,0.019823865965008736,0.04712989181280136,-0.0064755589701235294,0.0018738450016826391,0,0,-1012,47,-5,1,0,1,-147,586190,586.1900024414062,0.0,1500.0
09:53:03.234,AUTO,-35.363262,149.1652374,2204,0.014068122953176498,0.0011457379441708326,0.019823865965008736,0.04712989181280136,-0.0064755589701235294,0.0018738450016826391,0,0,-1012,47,-5,1,0,1,-147,586190,586.1900024414062,0.0,1500.0
09:53:03.439,AUTO,-35.3632614,149.1652412,4412,0.034584447741508484,0.016484081745147705,-0.03445499762892723,-0.17243579030036926,0.07649815082550049,-0.09310684353113174,4,-13,-990,-172,77,-93,9,55,-144,588400,588.3999633789062,0.0,1500.0
09:53:03.641,AUTO,-35.3632614,149.1652412,4412,0.034584447741508484,0.016484081745147705,-0.03445499762892723,-0.17243579030036926,0.07649815082550049,-0.09310684353113174,4,-13,-990,-172,77,-93,9,55,-144,588400,588.3999633789062,0.0,1500.0
09:53:03.843,AUTO,-35.3632612,149.1652427,4770,-0.005534477066248655,0.0239467341452837,-0.053905732929706573,-0.14064057171344757,-0.004663167055696249,-0.059898506850004196,5,-11,-1005,-140,-3,-60,5,54,-144,588760,588.760009765625,0.0,1500.0
09:53:04.047,AUTO,-35.363261,149.165244,5131,-0.039114270359277725,0.01610714942216873,-0.0637422502040863,-0.12458080798387527,-0.04669563099741936,-0.0235512163490057,6,-12,-1007,-124,-46,-24,2,45,-145,589120,589.1199951171875,0.0,1500.0
09:53:04.249,AUTO,-35.363261,149.165244,5131,-0.039114270359277725,0.01610714942216873,-0.0637422502040863,-0.12458080798387527,-0.04669563099741936,-0.0235512163490057,6,-12,-1007,-124,-46,-24,2,45,-145,589120,589.1199951171875,0.0,1500.0
09:53:04.452,AUTO,-35.363261,149.165244,5131,-0.039114270359277725,0.01610714942216873,-0.0637422502040863,-0.12458080798387527,-0.04669563099741936,-0.0235512163490057,6,-12,-1007,-124,-46,-24,2,45,-145,589120,589.1199951171875,0.0,1500.0
09:53:04.654,AUTO,-35.363261,149.165244,5131,-0.039114270359277725,0.01610714942216873,-0.0637422502040863,-0.12458080798387527,-0.04669563099741936,-0.0235512163490057,6,-12,-1007,-124,-46,-24,2,45,-145,589120,589.1199951171875,0.0,1500.0
09:53:04.857,AUTO,-35.363261,149.165244,5131,-0.039114270359277725,0.01610714942216873,-0.0637422502040863,-0.12458080798387527,-0.04669563099741936,-0.0235512163490057,6,-12,-1007,-124,-46,-24,2,45,-145,589120,589.1199951171875,0.0,1500.0
09:53:05.061,AUTO,-35.363261,149.165244,5131,-0.039114270359277725,0.01610714942216873,-0.0637422502040863,-0.12458080798387527,-0.04669563099741936,-0.0235512163490057,6,-12,-1007,-124,-46,-24,2,45,-145,589120,589.1199951171875,0.0,1500.0
09:53:05.268,AUTO,-35.363261,149.165244,5131,-0.039114270359277725,0.01610714942216873,-0.0637422502040863,-0.12458080798387527,-0.04669563099741936,-0.0235512163490057,6,-12,-1007,-124,-46,-24,2,45,-145,589120,589.1199951171875,0.0,1500.0
09:53:05.476,AUTO,-35.363261,149.165244,5131,-0.039114270359277725,0.01610714942216873,-0.0637422502040863,-0.12458080798387527,-0.04669563099741936,-0.0235512163490057,6,-12,-1007,-124,-46,-24,2,45,-145,589120,589.1199951171875,0.0,1500.0
09:53:05.678,AUTO,-35.363261,149.165245,6607,-0.0653136745095253,0.0003447186027187854,-0.08697549253702164,0.05117671564221382,-0.0023402038495987654,-0.01682857610285282,-2,3,-1001,51,-1,-17,-2,-28,-147,590590,590.5899658203125,0.0,1500.0
09:53:05.880,AUTO,-35.3632612,149.1652414,7723,-0.021141082048416138,0.002952148672193289,-0.09170591086149216,0.06426414847373962,0.009135212749242783,-0.003421326633542776,-5,11,-1002,64,9,-3,-7,-55,-148,591710,591.7099609375,0.0,1500.0
09:53:06.083,AUTO,-35.3632613,149.1652398,8096,-0.0048915972001850605,0.005408849101513624,-0.09178930521011353,0.06625037640333176,0.010291997343301773,-0.0013300020946189761,-6,11,-1003,66,10,-1,-9,-56,-148,592080,592.0800170898438,0.0,1500.0
09:53:06.290,AUTO,-35.3632613,149.1652398,8096,-0.0048915972001850605,0.005408849101513624,-0.09178930521011353,0.06625037640333176,0.010291997343301773,-0.0013300020946189761,-6,11,-1003,66,10,-1,-9,-56,-148,592080,592.0800170898438,0.0,1500.0
09:53:06.495,AUTO,-35.3632613,149.1652398,8096,-0.0048915972001850605,0.005408849101513624,-0.09178930521011353,0.06625037640333176,0.010291997343301773,-0.0013300020946189761,-6,11,-1003,66,10,-1,-9,-56,-148,592080,592.0800170898438,0.0,1500.0
09:53:06.699,AUTO,-35.3632613,149.1652398,8096,-0.0048915972001850605,0.005408849101513624,-0.09178930521011353,0.06625037640333176,0.010291997343301773,-0.0013300020946189761,-6,11,-1003,66,10,-1,-9,-56,-148,592080,592.0800170898438,0.0,1500.0
09:53:06.902,AUTO,-35.3632613,149.1652398,8096,-0.0048915972001850605,0.005408849101513624,-0.09178930521011353,0.06625037640333176,0.010291997343301773,-0.0013300020946189761,-6,11,-1003,66,10,-1,-9,-56,-148,592080,592.0800170898438,0.0,1500.0
09:53:07.106,AUTO,-35.3632613,149.1652398,8096,-0.0048915972001850605,0.005408849101513624,-0.09178930521011353,0.06625037640333176,0.010291997343301773,-0.0013300020946189761,-6,11,-1003,66,10,-1,-9,-56,-148,592080,592.0800170898438,0.0,1500.0
09:53:07.309,AUTO,-35.3632613,149.1652398,8096,-0.0048915972001850605,0.005408849101513624,-0.09178930521011353,0.06625037640333176,0.010291997343301773,-0.0013300020946189761,-6,11,-1003,66,10,-1,-9,-56,-148,592080,592.0800170898438,0.0,1500.0
09:53:07.512,AUTO,-35.3632623,149.1652351,9435,0.05343020334839821,0.011305900290608406,-0.08834926784038544,0.054708726704120636,-0.0039040464907884598,0.013204784132540226,-1,8,-1001,55,-3,12,-16,-26,-150,593420,593.4199829101562,0.0,1500.0
09:53:07.717,AUTO,-35.3632632,149.1652344,10547,0.029243236407637596,-0.03061201050877571,-0.047919776290655136,-0.08373693376779556,0.011044656857848167,0.015320749953389168,1,0,-997,-83,11,14,-3,10,-146,594530,594.5299682617188,0.0,1500.0
09:53:07.920,AUTO,-35.3632631,149.1652346,10908,0.011069721542298794,-0.022758848965168,-0.0507940910756588,-0.05922280251979828,0.038556057959795,-0.02386651374399662,1,-2,-1001,-58,39,-24,4,13,-145,594890,594.8900146484375,0.0,1500.0
09:53:08.126,AUTO,-35.3632631,149.1652346,10908,0.011069721542298794,-0.022758848965168,-0.0507940910756588,-0.05922280251979828,0.038556057959795,-0.02386651374399662,1,-2,-1001,-58,39,-24,4,13,-145,594890,594.8900146484375,0.0,1500.0
09:53:08.334,AUTO,-35.3632631,149.1652346,10908,0.011069721542298794,-0.022758848965168,-0.0507940910756588,-0.05922280251979828,0.038556057959795,-0.02386651374399662,1,-2,-1001,-58,39,-24,4,13,-145,594890,594.8900146484375,0.0,1500.0
09:53:08.537,AUTO,-35.3632631,149.1652346,10908,0.011069721542298794,-0.022758848965168,-0.0507940910756588,-0.05922280251979828,0.038556057959795,-0.02386651374399662,1,-2,-1001,-58,39,-24,4,13,-145,594890,594.8900146484375,0.0,1500.0
09:53:08.741,AUTO,-35.3632631,149.1652346,10908,0.011069721542298794,-0.022758848965168,-0.0507940910756588,-0.05922280251979828,0.038556057959795,-0.02386651374399662,1,-2,-1001,-58,39,-24,4,13,-145,594890,594.8900146484375,0.0,1500.0
09:53:08.943,AUTO,-35.3632631,149.1652346,10908,0.011069721542298794,-0.022758848965168,-0.0507940910756588,-0.05922280251979828,0.038556057959795,-0.02386651374399662,1,-2,-1001,-58,39,-24,4,13,-145,594890,594.8900146484375,0.0,1500.0
09:53:09.147,AUTO,-35.3632631,149.1652346,10908,0.011069721542298794,-0.022758848965168,-0.0507940910756588,-0.05922280251979828,0.038556057959795,-0.02386651374399662,1,-2,-1001,-58,39,-24,4,13,-145,594890,594.8900146484375,0.0,1500.0
09:53:09.351,AUTO,-35.3632631,149.1652346,10908,0.011069721542298794,-0.022758848965168,-0.0507940910756588,-0.05922280251979828,0.038556057959795,-0.02386651374399662,1,-2,-1001,-58,39,-24,4,13,-145,594890,594.8900146484375,0.0,1500.0
09:53:09.554,AUTO,-35.3632626,149.1652353,12005,-0.009930488653481007,-0.0018536275019869208,-0.08237945288419724,-0.0073469593189656734,0.018046913668513298,-0.04223170131444931,-1,-2,-1002,-6,18,-42,12,5,-147,595990,595.989990234375,0.0,1500.0
09:53:09.757,AUTO,-35.3632615,149.1652352,13618,0.00015960603195708245,0.010046902112662792,-0.12076208740472794,0.017349999397993088,0.005580953788012266,-0.023912692442536354,-3,0,-1000,17,6,-24,7,-4,-148,597600,597.5999755859375,0.0,1500.0
09:53:09.960,AUTO,-35.3632613,149.165235,13989,0.004037193953990936,0.010885830968618393,-0.1264568418264389,0.01335716713219881,0.001994817052036524,-0.018176747485995293,-2,0,-1000,13,2,-18,4,-4,-148,597970,597.969970703125,0.0,1500.0
09:53:10.165,AUTO,-35.3632613,149.165235,13989,0.004037193953990936,0.010885830968618393,-0.1264568418264389,0.01335716713219881,0.001994817052036524,-0.018176747485995293,-2,0,-1000,13,2,-18,4,-4,-148,597970,597.969970703125,0.0,1500.0
09:53:10.368,AUTO,-35.3632613,149.165235,13989,0.004037193953990936,0.010885830968618393,-0.1264568418264389,0.01335716713219881,0.001994817052036524,-0.018176747485995293,-2,0,-1000,13,2,-18,4,-4,-148,597970,597.969970703125,0.0,1500.0
09:53:10.573,AUTO,-35.3632613,149.165235,13989,0.004037193953990936,0.010885830968618393,-0.1264568418264389,0.01335716713219881,0.001994817052036524,-0.018176747485995293,-2,0,-1000,13,2,-18,4,-4,-148,597970,597.969970703125,0.0,1500.0
09:53:10.780,AUTO,-35.3632613,149.165235,13989,0.004037193953990936,0.010885830968618393,-0.1264568418264389,0.01335716713219881,0.001994817052036524,-0.018176747485995293,-2,0,-1000,13,2,-18,4,-4,-148,597970,597.969970703125,0.0,1500.0
09:53:10.984,AUTO,-35.3632613,149.165235,13989,0.004037193953990936,0.010885830968618393,-0.1264568418264389,0.01335716713219881,0.001994817052036524,-0.018176747485995293,-2,0,-1000,13,2,-18,4,-4,-148,597970,597.969970703125,0.0,1500.0
09:53:11.188,AUTO,-35.3632613,149.165235,13989,0.004037193953990936,0.010885830968618393,-0.1264568418264389,0.01335716713219881,0.001994817052036524,-0.018176747485995293,-2,0,-1000,13,2,-18,4,-4,-148,597970,597.969970703125,0.0,1500.0
09:53:11.392,AUTO,-35.3632613,149.165235,13989,0.004037193953990936,0.010885830968618393,-0.1264568418264389,0.01335716713219881,0.001994817052036524,-0.018176747485995293,-2,0,-1000,13,2,-18,4,-4,-148,597970,597.969970703125,0.0,1500.0
09:53:11.595,AUTO,-35.3632613,149.165235,13989,0.004037193953990936,0.010885830968618393,-0.1264568418264389,0.01335716713219881,0.001994817052036524,-0.018176747485995293,-2,0,-1000,13,2,-18,4,-4,-148,597970,597.969970703125,0.0,1500.0
09:53:11.801,AUTO,-35.3632611,149.1652347,15854,0.010403784923255444,0.00891405250877142,-0.14282335340976715,-0.0020355191081762314,-0.004653825890272856,-0.010528646409511566,0,0,-1000,-1,-3,-10,-4,4,-148,599840,599.8399658203125,0.0,1500.0
09:53:12.004,AUTO,-35.3632613,149.1652349,16980,0.006152312736958265,0.005506254266947508,-0.15136335790157318,-0.006353946402668953,-0.002932359231635928,-0.015294329263269901,1,0,-1000,-5,-2,-15,-6,8,-148,600970,600.969970703125,0.0,1500.0
09:53:12.206,AUTO,-35.3632613,149.1652349,16980,0.006152312736958265,0.005506254266947508,-0.15136335790157318,-0.006353946402668953,-0.002932359231635928,-0.015294329263269901,1,0,-1000,-5,-2,-15,-6,8,-148,600970,600.969970703125,0.0,1500.0
09:53:12.411,AUTO,-35.3632613,149.1652349,16980,0.006152312736958265,0.005506254266947508,-0.15136335790157318,-0.006353946402668953,-0.002932359231635928,-0.015294329263269901,1,0,-1000,-5,-2,-15,-6,8,-148,600970,600.969970703125,0.0,1500.0
09:53:12.614,AUTO,-35.3632613,149.1652349,16980,0.006152312736958265,0.005506254266947508,-0.15136335790157318,-0.006353946402668953,-0.002932359231635928,-0.015294329263269901,1,0,-1000,-5,-2,-15,-6,8,-148,600970,600.969970703125,0.0,1500.0
09:53:12.816,AUTO,-35.3632613,149.1652349,16980,0.006152312736958265,0.005506254266947508,-0.15136335790157318,-0.006353946402668953,-0.002932359231635928,-0.015294329263269901,1,0,-1000,-5,-2,-15,-6,8,-148,600970,600.969970703125,0.0,1500.0
09:53:13.018,AUTO,-35.3632613,149.1652349,16980,0.006152312736958265,0.005506254266947508,-0.15136335790157318,-0.006353946402668953,-0.002932359231635928,-0.015294329263269901,1,0,-1000,-5,-2,-15,-6,8,-148,600970,600.969970703125,0.0,1500.0
09:53:13.220,AUTO,-35.3632613,149.1652349,16980,0.006152312736958265,0.005506254266947508,-0.15136335790157318,-0.006353946402668953,-0.002932359231635928,-0.015294329263269901,1,0,-1000,-5,-2,-15,-6,8,-148,600970,600.969970703125,0.0,1500.0
09:53:13.422,AUTO,-35.3632613,149.1652349,16980,0.006152312736958265,0.005506254266947508,-0.15136335790157318,-0.006353946402668953,-0.002932359231635928,-0.015294329263269901,1,0,-1000,-5,-2,-15,-6,8,-148,600970,600.969970703125,0.0,1500.0
09:53:13.626,AUTO,-35.3632616,149.1652354,18118,0.002642944222316146,0.0031820740550756454,-0.16395890712738037,-0.0037956570740789175,-0.0022261240519583225,-0.018265092745423317,1,0,-1000,-3,-1,-18,-5,8,-149,602100,602.0999755859375,0.0,1500.0
09:53:13.834,AUTO,-35.3632618,149.165236,19661,0.001160263316705823,0.00162943743634969,-0.184586763381958,-0.00011569238267838955,0.0005805472028441727,-0.021501220762729645,0,0,-1000,0,1,-21,-3,6,-149,603650,603.6499633789062,0.0,1500.0
09:53:14.038,AUTO,-35.3632618,149.1652361,20047,0.00114212476182729,0.0017753483261913061,-0.19027207791805267,-0.001018240349367261,0.001828690874390304,-0.025283193215727806,0,0,-999,0,2,-25,-3,5,-150,604030,604.0299682617188,0.0,1500.0
09:53:14.241,AUTO,-35.3632618,149.1652361,20047,0.00114212476182729,0.0017753483261913061,-0.19027207791805267,-0.001018240349367261,0.001828690874390304,-0.025283193215727806,0,0,-999,0,2,-25,-3,5,-150,604030,604.0299682617188,0.0,1500.0
09:53:14.444,AUTO,-35.3632618,149.1652361,20047,0.00114212476182729,0.0017753483261913061,-0.19027207791805267,-0.001018240349367261,0.001828690874390304,-0.025283193215727806,0,0,-999,0,2,-25,-3,5,-150,604030,604.0299682617188,0.0,1500.0
09:53:14.652,AUTO,-35.3632618,149.1652361,20047,0.00114212476182729,0.0017753483261913061,-0.19027207791805267,-0.001018240349367261,0.001828690874390304,-0.025283193215727806,0,0,-999,0,2,-25,-3,5,-150,604030,604.0299682617188,0.0,1500.0
09:53:14.858,AUTO,-35.3632618,149.1652361,20047,0.00114212476182729,0.0017753483261913061,-0.19027207791805267,-0.001018240349367261,0.001828690874390304,-0.025283193215727806,0,0,-999,0,2,-25,-3,5,-150,604030,604.0299682617188,0.0,1500.0
09:53:15.060,AUTO,-35.3632618,149.1652361,20047,0.00114212476182729,0.0017753483261913061,-0.19027207791805267,-0.001018240349367261,0.001828690874390304,-0.025283193215727806,0,0,-999,0,2,-25,-3,5,-150,604030,604.0299682617188,0.0,1500.0
09:53:15.262,AUTO,-35.3632618,149.1652361,20047,0.00114212476182729,0.0017753483261913061,-0.19027207791805267,-0.001018240349367261,0.001828690874390304,-0.025283193215727806,0,0,-999,0,2,-25,-3,5,-150,604030,604.0299682617188,0.0,1500.0
09:53:15.464,AUTO,-35.3632618,149.1652361,20047,0.00114212476182729,0.0017753483261913061,-0.19027207791805267,-0.001018240349367261,0.001828690874390304,-0.025283193215727806,0,0,-999,0,2,-25,-3,5,-150,604030,604.0299682617188,0.0,1500.0
09:53:15.667,AUTO,-35.3632618,149.1652361,20047,0.00114212476182729,0.0017753483261913061,-0.19027207791805267,-0.001018240349367261,0.001828690874390304,-0.025283193215727806,0,0,-999,0,2,-25,-3,5,-150,604030,604.0299682617188,0.0,1500.0
09:53:15.872,AUTO,-35.3632619,149.1652364,22385,0.0029728699009865522,0.0028144214302301407,-0.22387197613716125,0.0005168479401618242,0.002006226684898138,-0.021396897733211517,0,0,-1000,1,2,-21,-2,3,-151,606370,606.3699951171875,0.0,1500.0
09:53:16.074,AUTO,-35.3632619,149.1652365,23169,0.002869806718081236,0.0027646163944154978,-0.2339591234922409,-0.0020016508642584085,-0.0017202370800077915,-0.018937282264232635,0,0,-1000,-1,0,-19,-2,3,-151,607150,607.1499633789062,0.0,1500.0
09:53:16.284,AUTO,-35.3632619,149.1652365,23169,0.002869806718081236,0.0027646163944154978,-0.2339591234922409,-0.0020016508642584085,-0.0017202370800077915,-0.018937282264232635,0,0,-1000,-1,0,-19,-2,3,-151,607150,607.1499633789062,0.0,1500.0
09:53:16.492,AUTO,-35.3632619,149.1652365,23169,0.002869806718081236,0.0027646163944154978,-0.2339591234922409,-0.0020016508642584085,-0.0017202370800077915,-0.018937282264232635,0,0,-1000,-1,0,-19,-2,3,-151,607150,607.1499633789062,0.0,1500.0
09:53:16.695,AUTO,-35.3632619,149.1652365,23169,0.002869806718081236,0.0027646163944154978,-0.2339591234922409,-0.0020016508642584085,-0.0017202370800077915,-0.018937282264232635,0,0,-1000,-1,0,-19,-2,3,-151,607150,607.1499633789062,0.0,1500.0
09:53:16.898,AUTO,-35.3632619,149.1652365,23169,0.002869806718081236,0.0027646163944154978,-0.2339591234922409,-0.0020016508642584085,-0.0017202370800077915,-0.018937282264232635,0,0,-1000,-1,0,-19,-2,3,-151,607150,607.1499633789062,0.0,1500.0
09:53:17.101,AUTO,-35.3632619,149.1652365,23169,0.002869806718081236,0.0027646163944154978,-0.2339591234922409,-0.0020016508642584085,-0.0017202370800077915,-0.018937282264232635,0,0,-1000,-1,0,-19,-2,3,-151,607150,607.1499633789062,0.0,1500.0
09:53:17.304,AUTO,-35.3632619,149.1652365,23169,0.002869806718081236,0.0027646163944154978,-0.2339591234922409,-0.0020016508642584085,-0.0017202370800077915,-0.018937282264232635,0,0,-1000,-1,0,-19,-2,3,-151,607150,607.1499633789062,0.0,1500.0
09:53:17.507,AUTO,-35.3632619,149.1652365,23169,0.002869806718081236,0.0027646163944154978,-0.2339591234922409,-0.0020016508642584085,-0.0017202370800077915,-0.018937282264232635,0,0,-1000,-1,0,-19,-2,3,-151,607150,607.1499633789062,0.0,1500.0
09:53:17.709,AUTO,-35.3632621,149.1652363,25922,0.010427347384393215,0.003914787899702787,-0.2626694142818451,0.015555435791611671,0.003228898858651519,0.0045168111100792885,0,1,-998,16,4,4,-3,-2,-153,609910,609.9099731445312,0.0,1500.0
09:53:17.912,AUTO,-35.3632622,149.1652362,26316,0.013591768220067024,0.004253170918673277,-0.2602970004081726,0.009226500988006592,-0.00039197990554384887,0.013178886845707893,0,1,-998,16,4,4,-3,0,-153,610300,609.9099731445312,0.0,1500.0
09:53:18.116,AUTO,-35.3632622,149.1652362,26316,0.013591768220067024,0.004253170918673277,-0.2602970004081726,0.009226500988006592,-0.00039197990554384887,0.013178886845707893,0,0,-999,9,0,12,-3,0,-153,610300,610.2999877929688,0.0,1500.0
09:53:18.320,AUTO,-35.3632622,149.1652362,26316,0.013591768220067024,0.004253170918673277,-0.2602970004081726,0.009226500988006592,-0.00039197990554384887,0.013178886845707893,0,0,-999,9,0,12,-3,0,-153,610300,610.2999877929688,0.0,1500.0
09:53:18.525,AUTO,-35.3632622,149.1652362,26316,0.013591768220067024,0.004253170918673277,-0.2602970004081726,0.009226500988006592,-0.00039197990554384887,0.013178886845707893,0,0,-999,9,0,12,-3,0,-153,610300,610.2999877929688,0.0,1500.0
09:53:18.732,AUTO,-35.3632622,149.1652362,26316,0.013591768220067024,0.004253170918673277,-0.2602970004081726,0.009226500988006592,-0.00039197990554384887,0.013178886845707893,0,0,-999,9,0,12,-3,0,-153,610300,610.2999877929688,0.0,1500.0
09:53:18.935,AUTO,-35.3632622,149.1652362,26316,0.013591768220067024,0.004253170918673277,-0.2602970004081726,0.009226500988006592,-0.00039197990554384887,0.013178886845707893,0,0,-999,9,0,12,-3,0,-153,610300,610.2999877929688,0.0,1500.0
09:53:19.137,AUTO,-35.3632622,149.1652362,26316,0.013591768220067024,0.004253170918673277,-0.2602970004081726,0.009226500988006592,-0.00039197990554384887,0.013178886845707893,0,0,-999,9,0,12,-3,0,-153,610300,610.2999877929688,0.0,1500.0
09:53:19.343,AUTO,-35.3632622,149.1652362,26316,0.013591768220067024,0.004253170918673277,-0.2602970004081726,0.009226500988006592,-0.00039197990554384887,0.013178886845707893,0,0,-999,9,0,12,-3,0,-153,610300,610.2999877929688,0.0,1500.0
09:53:19.548,AUTO,-35.3632623,149.1652365,27887,0.00853737909346819,0.0032819996122270823,-0.23819392919540405,-0.00810112152248621,-0.0010852200211957097,0.024701228365302086,0,0,-999,-12,0,24,-1,10,-152,611870,611.47998046875,0.0,1500.0
09:53:19.758,AUTO,-35.3632623,149.1652372,29066,0.001795997261069715,0.003047671401873231,-0.22028635442256927,-0.006720974575728178,-0.0012589315883815289,0.026235219091176987,1,-1,-1000,-6,0,25,-1,10,-152,613050,613.0499877929688,0.0,1500.0
09:53:19.961,AUTO,-35.3632623,149.1652375,29458,-7.849116082070395e-05,0.0025498531758785248,-0.21445126831531525,-0.0073313359171152115,-0.003257834119722247,0.023333780467510223,1,-1,-1000,-6,-2,22,-1,9,-153,613440,613.4400024414062,0.0,1500.0
09:53:20.163,AUTO,-35.3632623,149.1652375,29458,-7.849116082070395e-05,0.0025498531758785248,-0.21445126831531525,-0.0073313359171152115,-0.003257834119722247,0.023333780467510223,1,-1,-1000,-6,-2,22,-1,9,-153,613440,613.4400024414062,0.0,1500.0
09:53:20.367,AUTO,-35.3632623,149.1652375,29458,-7.849116082070395e-05,0.0025498531758785248,-0.21445126831531525,-0.0073313359171152115,-0.003257834119722247,0.023333780467510223,1,-1,-1000,-6,-2,22,-1,9,-153,613440,613.4400024414062,0.0,1500.0
09:53:20.571,AUTO,-35.3632623,149.1652375,29458,-7.849116082070395e-05,0.0025498531758785248,-0.21445126831531525,-0.0073313359171152115,-0.003257834119722247,0.023333780467510223,1,-1,-1000,-6,-2,22,-1,9,-153,613440,613.4400024414062,0.0,1500.0
09:53:20.773,AUTO,-35.3632623,149.1652375,29458,-7.849116082070395e-05,0.0025498531758785248,-0.21445126831531525,-0.0073313359171152115,-0.003257834119722247,0.023333780467510223,1,-1,-1000,-6,-2,22,-1,9,-153,613440,613.4400024414062,0.0,1500.0
09:53:20.975,AUTO,-35.3632623,149.1652375,29458,-7.849116082070395e-05,0.0025498531758785248,-0.21445126831531525,-0.0073313359171152115,-0.003257834119722247,0.023333780467510223,1,-1,-1000,-6,-2,22,-1,9,-153,613440,613.4400024414062,0.0,1500.0
09:53:21.178,AUTO,-35.3632623,149.1652375,29458,-7.849116082070395e-05,0.0025498531758785248,-0.21445126831531525,-0.0073313359171152115,-0.003257834119722247,0.023333780467510223,1,-1,-1000,-6,-2,22,-1,9,-153,613440,613.4400024414062,0.0,1500.0
09:53:21.383,AUTO,-35.3632623,149.1652375,29458,-7.849116082070395e-05,0.0025498531758785248,-0.21445126831531525,-0.0073313359171152115,-0.003257834119722247,0.023333780467510223,1,-1,-1000,-6,-2,22,-1,9,-153,613440,613.4400024414062,0.0,1500.0
09:53:21.585,AUTO,-35.3632623,149.1652379,30470,-0.0021320616360753775,0.001957558561116457,-0.2005196064710617,0.0016837050206959248,0.0005787209956906736,0.020662503316998482,0,0,-1001,2,1,20,-1,6,-153,614460,614.4599609375,0.0,1500.0
09:53:21.790,AUTO,-35.3632623,149.1652382,32044,-0.0008734477451071143,0.0012641360517591238,-0.18210378289222717,0.005153939593583345,0.0006564603536389768,0.01661570928990841,0,0,-1000,5,1,16,0,2,-153,616030,616.0299682617188,0.0,1500.0
09:53:21.992,AUTO,-35.3632623,149.1652382,32436,-0.00034146002144552767,0.0011512612691149116,-0.17781683802604675,0.0031317088287323713,0.0008545879973098636,0.01758679561316967,0,0,-1000,3,1,17,0,1,-153,616420,616.4199829101562,0.0,1500.0
09:53:22.194,AUTO,-35.3632623,149.1652382,32436,-0.00034146002144552767,0.0011512612691149116,-0.17781683802604675,0.0031317088287323713,0.0008545879973098636,0.01758679561316967,0,0,-1000,3,1,17,0,1,-153,616420,616.4199829101562,0.0,1500.0
09:53:22.396,AUTO,-35.3632623,149.1652382,32436,-0.00034146002144552767,0.0011512612691149116,-0.17781683802604675,0.0031317088287323713,0.0008545879973098636,0.01758679561316967,0,0,-1000,3,1,17,0,1,-153,616420,616.4199829101562,0.0,1500.0
09:53:22.600,AUTO,-35.3632623,149.1652382,32436,-0.00034146002144552767,0.0011512612691149116,-0.17781683802604675,0.0031317088287323713,0.0008545879973098636,0.01758679561316967,0,0,-1000,3,1,17,0,1,-153,616420,616.4199829101562,0.0,1500.0
09:53:26.386,AUTO,-35.3632623,149.1652382,32436,-0.00034146002144552767,0.0011512612691149116,-0.17781683802604675,0.0031317088287323713,0.0008545879973098636,0.01758679561316967,0,0,-1000,3,1,17,0,1,-153,616420,616.4199829101562,0.0,1500.0
09:53:26.589,AUTO,-35.3632623,149.1652382,32436,-0.00034146002144552767,0.0011512612691149116,-0.17781683802604675,0.0031317088287323713,0.0008545879973098636,0.01758679561316967,0,0,-1000,3,1,17,0,1,-153,616420,616.4199829101562,0.0,1500.0
09:53:26.793,AUTO,-35.3632623,149.1652382,32436,-0.00034146002144552767,0.0011512612691149116,-0.17781683802604675,0.0031317088287323713,0.0008545879973098636,0.01758679561316967,0,0,-1000,3,1,17,0,1,-153,616420,616.4199829101562,0.0,1500.0
09:53:26.995,AUTO,-35.3632623,149.1652382,32436,-0.00034146002144552767,0.0011512612691149116,-0.17781683802604675,0.0031317088287323713,0.0008545879973098636,0.01758679561316967,0,0,-1000,3,1,17,0,1,-153,616420,616.4199829101562,0.0,1500.0
09:53:27.201,AUTO,-35.3632623,149.1652381,34787,0.0015437199035659432,0.0007985511911101639,-0.15645535290241241,0.0022397844586521387,0.00040521862683817744,0.015643427148461342,0,0,-1000,2,1,11,0,0,-153,618770,618.3800048828125,0.0,1500.0
09:53:27.405,AUTO,-35.3632623,149.165238,35178,0.0020370595157146454,0.0007861292688176036,-0.15316781401634216,0.0015705747064203024,0.00019434612477198243,0.015214487910270691,0,0,-1000,2,1,14,0,0,-153,619160,619.1599731445312,0.0,1500.0
09:53:27.609,AUTO,-35.3632623,149.165238,35178,0.0020370595157146454,0.0007861292688176036,-0.15316781401634216,0.0015705747064203024,0.00019434612477198243,0.015214487910270691,0,0,-1000,2,1,14,0,0,-153,619160,619.1599731445312,0.0,1500.0
09:53:27.811,AUTO,-35.3632623,149.165238,35178,0.0020370595157146454,0.0007861292688176036,-0.15316781401634216,0.0015705747064203024,0.00019434612477198243,0.015214487910270691,0,0,-1000,2,1,14,0,0,-153,619160,619.1599731445312,0.0,1500.0
09:53:28.017,AUTO,-35.3632623,149.165238,35178,0.0020370595157146454,0.0007861292688176036,-0.15316781401634216,0.0015705747064203024,0.00019434612477198243,0.015214487910270691,0,0,-1000,2,1,14,0,0,-153,619160,619.1599731445312,0.0,1500.0
09:53:28.225,AUTO,-35.3632623,149.165238,35178,0.0020370595157146454,0.0007861292688176036,-0.15316781401634216,0.0015705747064203024,0.00019434612477198243,0.015214487910270691,0,0,-1000,2,1,14,0,0,-153,619160,619.1599731445312,0.0,1500.0
09:53:28.428,AUTO,-35.3632623,149.165238,35178,0.0020370595157146454,0.0007861292688176036,-0.15316781401634216,0.0015705747064203024,0.00019434612477198243,0.015214487910270691,0,0,-1000,2,1,14,0,0,-153,619160,619.1599731445312,0.0,1500.0
09:53:28.632,AUTO,-35.3632623,149.165238,35178,0.0020370595157146454,0.0007861292688176036,-0.15316781401634216,0.0015705747064203024,0.00019434612477198243,0.015214487910270691,0,0,-1000,2,1,14,0,0,-153,619160,619.1599731445312,0.0,1500.0
09:53:28.835,AUTO,-35.3632623,149.165238,35178,0.0020370595157146454,0.0007861292688176036,-0.15316781401634216,0.0015705747064203024,0.00019434612477198243,0.015214487910270691,0,0,-1000,2,1,14,0,0,-153,619160,619.1599731445312,0.0,1500.0
09:53:29.043,AUTO,-35.3632623,149.165238,35178,0.0020370595157146454,0.0007861292688176036,-0.15316781401634216,0.0015705747064203024,0.00019434612477198243,0.015214487910270691,0,0,-1000,2,1,14,0,0,-153,619160,619.1599731445312,0.0,1500.0
09:53:29.249,AUTO,-35.3632622,149.1652377,37056,0.002788197947666049,0.0010619726963341236,-0.1389290988445282,0.0034334484953433275,-0.00017647899221628904,0.011118757538497448,0,0,-1000,1,1,12,0,0,-153,621040,621.0399780273438,0.0,1500.0
09:53:29.457,AUTO,-35.3632622,149.1652376,38233,0.002829022239893675,0.0011196066625416279,-0.13174258172512054,0.001417158404365182,0.00026860868092626333,0.008477366529405117,0,0,-1000,1,1,8,0,0,-153,622220,622.219970703125,0.0,1500.0
09:53:29.668,AUTO,-35.3632622,149.1652376,38233,0.002829022239893675,0.0011196066625416279,-0.13174258172512054,0.001417158404365182,0.00026860868092626333,0.008477366529405117,0,0,-1000,1,1,8,0,0,-153,622220,622.219970703125,0.0,1500.0
09:53:29.869,AUTO,-35.3632622,149.1652376,38233,0.002829022239893675,0.0011196066625416279,-0.13174258172512054,0.001417158404365182,0.00026860868092626333,0.008477366529405117,0,0,-1000,1,1,8,0,0,-153,622220,622.219970703125,0.0,1500.0
09:53:30.074,AUTO,-35.3632622,149.1652376,38233,0.002829022239893675,0.0011196066625416279,-0.13174258172512054,0.001417158404365182,0.00026860868092626333,0.008477366529405117,0,0,-1000,1,1,8,0,0,-153,622220,622.219970703125,0.0,1500.0
09:53:30.280,AUTO,-35.3632622,149.1652376,38233,0.002829022239893675,0.0011196066625416279,-0.13174258172512054,0.001417158404365182,0.00026860868092626333,0.008477366529405117,0,0,-1000,1,1,8,0,0,-153,622220,622.219970703125,0.0,1500.0
09:53:30.484,AUTO,-35.3632622,149.1652376,38233,0.002829022239893675,0.0011196066625416279,-0.13174258172512054,0.001417158404365182,0.00026860868092626333,0.008477366529405117,0,0,-1000,1,1,8,0,0,-153,622220,622.219970703125,0.0,1500.0
09:53:30.691,AUTO,-35.3632622,149.1652376,38233,0.002829022239893675,0.0011196066625416279,-0.13174258172512054,0.001417158404365182,0.00026860868092626333,0.008477366529405117,0,0,-1000,1,1,8,0,0,-153,622220,622.219970703125,0.0,1500.0
09:53:30.909,AUTO,-35.3632622,149.1652375,40344,0.0022985374089330435,0.001355310552753508,-0.119501993060112,0.0003020782023668289,0.000146141042932868,0.010184305720031261,0,0,-1000,0,1,10,0,0,-153,624330,624.3299560546875,0.0,1500.0
09:53:31.112,AUTO,-35.3632621,149.1652375,40738,0.0022806536871939898,0.0015180051559582353,-0.1175973042845726,-0.0011509803589433432,-0.0010217458475381136,0.008151683025062084,0,0,-1000,0,0,8,0,1,-153,624720,624.719970703125,0.0,1500.0
09:53:31.317,AUTO,-35.3632621,149.1652375,40738,0.0022806536871939898,0.0015180051559582353,-0.1175973042845726,-0.0011509803589433432,-0.0010217458475381136,0.008151683025062084,0,0,-1000,0,0,8,0,1,-153,624720,624.719970703125,0.0,1500.0
09:53:31.524,AUTO,-35.3632621,149.1652375,40738,0.0022806536871939898,0.0015180051559582353,-0.1175973042845726,-0.0011509803589433432,-0.0010217458475381136,0.008151683025062084,0,0,-1000,0,0,8,0,1,-153,624720,624.719970703125,0.0,1500.0
09:53:31.732,AUTO,-35.3632621,149.1652375,40738,0.0022806536871939898,0.0015180051559582353,-0.1175973042845726,-0.0011509803589433432,-0.0010217458475381136,0.008151683025062084,0,0,-1000,0,0,8,0,1,-153,624720,624.719970703125,0.0,1500.0
09:53:31.937,AUTO,-35.3632621,149.1652375,40738,0.0022806536871939898,0.0015180051559582353,-0.1175973042845726,-0.0011509803589433432,-0.0010217458475381136,0.008151683025062084,0,0,-1000,0,0,8,0,1,-153,624720,624.719970703125,0.0,1500.0
09:53:32.141,AUTO,-35.3632621,149.1652375,40738,0.0022806536871939898,0.0015180051559582353,-0.1175973042845726,-0.0011509803589433432,-0.0010217458475381136,0.008151683025062084,0,0,-1000,0,0,8,0,1,-153,624720,624.719970703125,0.0,1500.0
09:53:32.344,AUTO,-35.3632621,149.1652374,42843,0.001974019454792142,0.001895437017083168,-0.10836178809404373,0.002557458123192191,-1.5508034266531467e-05,0.006872536148875952,0,0,-1001,3,1,6,0,1,-153,626830,626.8299560546875,0.0,1500.0
09:53:32.546,AUTO,-35.3632621,149.1652374,43233,0.0018268191488459706,0.0018595560686662793,-0.10677076131105423,-0.0014121212298050523,0.00016262836288660765,0.007141102571040392,0,0,-1000,0,1,7,-1,1,-153,627220,627.219970703125,0.0,1500.0
09:53:32.750,AUTO,-35.3632621,149.1652374,43233,0.0018268191488459706,0.0018595560686662793,-0.10677076131105423,-0.0014121212298050523,0.00016262836288660765,0.007141102571040392,0,0,-1000,0,1,7,-1,1,-153,627220,627.219970703125,0.0,1500.0
09:53:32.953,AUTO,-35.3632621,149.1652374,43233,0.0018268191488459706,0.0018595560686662793,-0.10677076131105423,-0.0014121212298050523,0.00016262836288660765,0.007141102571040392,0,0,-1000,0,1,7,-1,1,-153,627220,627.219970703125,0.0,1500.0
09:53:33.161,AUTO,-35.3632621,149.1652374,43233,0.0018268191488459706,0.0018595560686662793,-0.10677076131105423,-0.0014121212298050523,0.00016262836288660765,0.007141102571040392,0,0,-1000,0,1,7,-1,1,-153,627220,627.219970703125,0.0,1500.0
09:53:33.364,AUTO,-35.3632621,149.1652374,43233,0.0018268191488459706,0.0018595560686662793,-0.10677076131105423,-0.0014121212298050523,0.00016262836288660765,0.007141102571040392,0,0,-1000,0,1,7,-1,1,-153,627220,627.219970703125,0.0,1500.0
09:53:33.570,AUTO,-35.3632621,149.1652374,43233,0.0018268191488459706,0.0018595560686662793,-0.10677076131105423,-0.0014121212298050523,0.00016262836288660765,0.007141102571040392,0,0,-1000,0,1,7,-1,1,-153,627220,627.219970703125,0.0,1500.0
09:53:33.777,AUTO,-35.3632621,149.1652374,43233,0.0018268191488459706,0.0018595560686662793,-0.10677076131105423,-0.0014121212298050523,0.00016262836288660765,0.007141102571040392,0,0,-1000,0,1,7,-1,1,-153,627220,627.219970703125,0.0,1500.0
09:53:33.979,AUTO,-35.363262,149.1652374,45344,0.0019824316259473562,0.001323771895840764,-0.09836766123771667,0.0011930929031223059,-0.00033154035918414593,0.00646651117131114,0,0,-1000,1,0,6,-1,1,-153,629330,629.3299560546875,0.0,1500.0
09:53:34.181,AUTO,-35.363262,149.1652374,45734,0.0019184531411156058,0.0011702150804921985,-0.09677230566740036,0.0014070356264710426,0.00022120110224932432,0.005603959783911705,0,0,-1001,2,1,5,-1,1,-153,629720,629.719970703125,0.0,1500.0
09:53:34.383,AUTO,-35.363262,149.1652374,46124,0.0017988105537369847,0.0012853697407990694,-0.09559866786003113,-0.003293940331786871,-0.00030945020262151957,0.005132628139108419,0,0,-1000,-2,0,5,-1,1,-153,630110,630.1099853515625,0.0,1500.0
09:53:34.584,AUTO,-35.363262,149.1652374,46515,0.0017169381026178598,0.0012967452639713883,-0.09397043287754059,-0.0008953821961767972,3.560190089046955e-05,0.006467217113822699,0,0,-1000,0,1,6,-1,1,-153,630500,630.5,0.0,1500.0
09:53:34.790,AUTO,-35.363262,149.1652374,46515,0.0017169381026178598,0.0012967452639713883,-0.09397043287754059,-0.0008953821961767972,3.560190089046955e-05,0.006467217113822699,0,0,-1000,0,1,6,-1,1,-153,630500,630.5,0.0,1500.0
