time_stamp,MODE,lat,lon,relative_alt,roll,pitch,yaw,rollspeed,pitchspeed,yawspeed,xacc,yacc,zacc,xgyro,ygyro,zgyro,vx,vy,vz,RTL_ALT
14:56:42.993,STABILIZE,-35.3632621,149.1652374,0,0.00045648295781575143,0.0014573077205568552,0.027812542393803596,0.00024401058908551931,0.0002754549204837531,0.002444618148729205,0,1,-1000,0,0,0,-1,2,0,1500.0
14:56:43.194,STABILIZE,-35.3632621,149.1652374,0,0.00045648295781575143,0.0014573077205568552,0.027812542393803596,0.00024401058908551931,0.0002754549204837531,0.002444618148729205,0,1,-1000,0,0,0,-1,2,0,1500.0
14:56:43.395,STABILIZE,-35.3632621,149.1652374,0,0.00045648295781575143,0.0014573077205568552,0.027812542393803596,0.00024401058908551931,0.0002754549204837531,0.002444618148729205,0,1,-1000,0,0,0,-1,2,0,1500.0
14:56:43.596,STABILIZE,-35.3632621,149.1652374,0,0.00045648295781575143,0.0014573077205568552,0.027812542393803596,0.00024401058908551931,0.0002754549204837531,0.002444618148729205,0,1,-1000,0,0,0,-1,2,0,1500.0
14:56:43.797,STABILIZE,-35.3632621,149.1652374,0,0.00045648295781575143,0.0014573077205568552,0.027812542393803596,0.00024401058908551931,0.0002754549204837531,0.002444618148729205,0,1,-1000,0,0,0,-1,2,0,1500.0
14:56:43.999,STABILIZE,-35.3632621,149.1652375,0,0.0002769837446976453,0.0015309581067413092,0.026440026238560677,0.000331027404172346,0.000276146805845201,0.0022107455879449844,0,1,-1000,0,0,0,-2,0,-3,1500.0
14:56:44.200,STABILIZE,-35.3632621,149.1652375,0,0.0002769837446976453,0.0015309581067413092,0.026440026238560677,0.000331027404172346,0.000276146805845201,0.0022107455879449844,0,1,-1000,0,0,0,-2,0,-3,1500.0
14:56:44.401,STABILIZE,-35.3632621,149.1652375,0,0.0002769837446976453,0.0015309581067413092,0.026440026238560677,0.000331027404172346,0.000276146805845201,0.0022107455879449844,0,1,-1000,0,0,0,-2,0,-3,1500.0
14:56:44.602,STABILIZE,-35.3632622,149.1652374,0,0.0002538406988605857,0.0013781763846054673,0.026012470945715904,0.0003902727912645787,0.0002185958728659898,0.002122316276654601,0,1,-1000,0,0,1,-2,1,-2,1500.0
14:56:44.805,STABILIZE,-35.3632622,149.1652374,0,0.00023306385264731944,0.001331700594164431,0.025887444615364075,0.0002384148829150945,0.0003262000682298094,0.0020370003767311573,0,1,-1000,0,0,1,-1,1,-2,1500.0
14:56:45.006,STABILIZE,-35.3632622,149.1652374,0,0.00023306385264731944,0.001331700594164431,0.025887444615364075,0.0002384148829150945,0.0003262000682298094,0.0020370003767311573,0,1,-1000,0,0,1,-1,1,-2,1500.0
14:56:45.207,STABILIZE,-35.3632622,149.1652374,0,0.00023306385264731944,0.001331700594164431,0.025887444615364075,0.0002384148829150945,0.0003262000682298094,0.0020370003767311573,0,1,-1000,0,0,1,-1,1,-2,1500.0
14:56:45.408,STABILIZE,-35.3632622,149.1652374,0,0.00023306385264731944,0.001331700594164431,0.025887444615364075,0.0002384148829150945,0.0003262000682298094,0.0020370003767311573,0,1,-1000,0,0,1,-1,1,-2,1500.0
14:56:45.616,STABILIZE,-35.3632622,149.1652374,0,0.00023306385264731944,0.001331700594164431,0.025887444615364075,0.0002384148829150945,0.0003262000682298094,0.0020370003767311573,0,1,-1000,0,0,1,-1,1,-2,1500.0
14:56:45.817,STABILIZE,-35.3632622,149.1652374,0,0.00023306385264731944,0.001331700594164431,0.025887444615364075,0.0002384148829150945,0.0003262000682298094,0.0020370003767311573,0,1,-1000,0,0,1,-1,1,-2,1500.0
14:56:46.018,STABILIZE,-35.3632622,149.1652375,0,4.924844324705191e-05,0.0011184128234162927,0.02524474821984768,0.0002732070570345968,9.952110121957958e-05,0.0019820479210466146,0,1,-1000,0,0,0,-1,1,-1,1500.0
14:56:46.219,STABILIZE,-35.3632622,149.1652375,0,-5.284958206175361e-06,0.001091637765057385,0.02510710060596466,0.0002747577673289925,0.0002997885749209672,0.002173120155930519,0,1,-1000,0,0,0,-1,1,-1,1500.0
14:56:46.421,STABILIZE,-35.3632622,149.1652375,0,-6.807168392697349e-05,0.001063352101482451,0.024997500702738762,0.0003316875663585961,0.00031100414344109595,0.0019726580940186977,0,1,-1000,0,0,0,-1,2,-1,1500.0
14:56:46.622,STABILIZE,-35.3632622,149.1652375,0,-6.807168392697349e-05,0.001063352101482451,0.024997500702738762,0.0003316875663585961,0.00031100414344109595,0.0019726580940186977,0,1,-1000,0,0,0,-1,2,-1,1500.0
14:56:46.823,STABILIZE,-35.3632622,149.1652375,0,-0.00013131396553944796,0.001043751952238381,0.024859072640538216,0.0003905102494172752,0.0003166017704643309,0.0021271957084536552,0,1,-1000,0,0,0,-1,2,-1,1500.0
14:56:47.025,STABILIZE,-35.3632622,149.1652375,0,-0.00013131396553944796,0.001043751952238381,0.024859072640538216,0.0003905102494172752,0.0003166017704643309,0.0021271957084536552,0,1,-1000,0,0,0,-1,2,-1,1500.0
14:56:47.226,STABILIZE,-35.3632622,149.1652375,0,-0.00013131396553944796,0.001043751952238381,0.024859072640538216,0.0003905102494172752,0.0003166017704643309,0.0021271957084536552,0,1,-1000,0,0,0,-1,2,-1,1500.0
14:56:47.427,STABILIZE,-35.3632621,149.1652375,0,-0.00029050500597804785,0.0009894822724163532,0.024514878168702126,0.00018820405239239335,0.00024532724637538195,0.002010509604588151,0,1,-1000,0,0,0,-1,1,0,1500.0
14:56:47.628,STABILIZE,-35.3632621,149.1652375,0,-0.00029050500597804785,0.0009894822724163532,0.024514878168702126,0.00018820405239239335,0.00024532724637538195,0.002010509604588151,0,1,-1000,0,0,0,-1,1,0,1500.0
14:56:47.830,STABILIZE,-35.3632621,149.1652375,0,-0.00029050500597804785,0.0009894822724163532,0.024514878168702126,0.00018820405239239335,0.00024532724637538195,0.002010509604588151,0,1,-1000,0,0,0,-1,1,0,1500.0
14:56:48.031,STABILIZE,-35.3632621,149.1652375,0,-0.00029050500597804785,0.0009894822724163532,0.024514878168702126,0.00018820405239239335,0.00024532724637538195,0.002010509604588151,0,1,-1000,0,0,0,-1,1,0,1500.0
14:56:48.233,STABILIZE,-35.3632621,149.1652375,0,-0.000435172813013196,0.0009737713844515383,0.024227770045399666,0.00042021041736006737,0.00029788006213493645,0.0019806697964668274,0,1,-1000,0,0,1,-1,1,0,1500.0
14:56:48.435,STABILIZE,-35.3632621,149.1652375,0,-0.00046799995470792055,0.0009671648731455207,0.02411814033985138,0.00021187402307987213,0.0003357203968334943,0.0019591376185417175,0,1,-1000,0,0,0,-1,1,0,1500.0
14:56:48.637,STABILIZE,-35.3632621,149.1652375,0,-0.00046799995470792055,0.0009671648731455207,0.02411814033985138,0.00021187402307987213,0.0003357203968334943,0.0019591376185417175,0,1,-1000,0,0,0,-1,1,0,1500.0
14:56:48.839,STABILIZE,-35.3632621,149.1652375,0,-0.00046799995470792055,0.0009671648731455207,0.02411814033985138,0.00021187402307987213,0.0003357203968334943,0.0019591376185417175,0,1,-1000,0,0,0,-1,1,0,1500.0
14:56:49.040,STABILIZE,-35.3632621,149.1652375,0,-0.00046799995470792055,0.0009671648731455207,0.02411814033985138,0.00021187402307987213,0.0003357203968334943,0.0019591376185417175,0,1,-1000,0,0,0,-1,1,0,1500.0
14:56:49.241,STABILIZE,-35.3632621,149.1652375,0,-0.00046799995470792055,0.0009671648731455207,0.02411814033985138,0.00021187402307987213,0.0003357203968334943,0.0019591376185417175,0,1,-1000,0,0,0,-1,1,0,1500.0
14:56:49.443,STABILIZE,-35.3632621,149.1652375,0,-0.00046799995470792055,0.0009671648731455207,0.02411814033985138,0.00021187402307987213,0.0003357203968334943,0.0019591376185417175,0,1,-1000,0,0,0,-1,1,0,1500.0
14:56:49.644,STABILIZE,-35.3632621,149.1652375,0,-0.00046799995470792055,0.0009671648731455207,0.02411814033985138,0.00021187402307987213,0.0003357203968334943,0.0019591376185417175,0,1,-1000,0,0,0,-1,1,0,1500.0
14:56:49.845,STABILIZE,-35.3632621,149.1652375,0,-0.0006591480923816562,0.0009405935415998101,0.02369614876806736,0.0002325954264961183,0.0002206717908848077,0.0017648078501224518,0,1,-1000,0,0,0,-1,1,0,1500.0
14:56:50.046,STABILIZE,-35.3632621,149.1652375,0,-0.0006591480923816562,0.0009405935415998101,0.02369614876806736,0.0002325954264961183,0.0002206717908848077,0.0017648078501224518,0,1,-1000,0,0,0,-1,1,0,1500.0
14:56:50.248,STABILIZE,-35.3632621,149.1652375,0,-0.0006591480923816562,0.0009405935415998101,0.02369614876806736,0.0002325954264961183,0.0002206717908848077,0.0017648078501224518,0,1,-1000,0,0,0,-1,1,0,1500.0
14:56:50.449,STABILIZE,-35.3632621,149.1652375,0,-0.0007182051776908338,0.0009384071454405785,0.02345995604991913,0.00027423666324466467,0.00019369134679436684,0.0017314715078100562,0,1,-1000,0,0,0,-1,1,0,1500.0
14:56:50.651,STABILIZE,-35.3632621,149.1652375,0,-0.0007182051776908338,0.0009384071454405785,0.02345995604991913,0.00027423666324466467,0.00019369134679436684,0.0017314715078100562,0,1,-1000,0,0,0,-1,1,0,1500.0
14:56:50.852,STABILIZE,-35.3632621,149.1652375,0,-0.0007182051776908338,0.0009384071454405785,0.02345995604991913,0.00027423666324466467,0.00019369134679436684,0.0017314715078100562,0,1,-1000,0,0,0,-1,1,0,1500.0
14:56:51.053,STABILIZE,-35.3632621,149.1652375,0,-0.0007182051776908338,0.0009384071454405785,0.02345995604991913,0.00027423666324466467,0.00019369134679436684,0.0017314715078100562,0,1,-1000,0,0,0,-1,1,0,1500.0
14:56:51.255,STABILIZE,-35.3632621,149.1652375,0,-0.0007182051776908338,0.0009384071454405785,0.02345995604991913,0.00027423666324466467,0.00019369134679436684,0.0017314715078100562,0,1,-1000,0,0,0,-1,1,0,1500.0
14:56:51.456,STABILIZE,-35.3632622,149.1652375,0,-0.0006467921775765717,0.0009522671462036669,0.02314881421625614,0.00010701152496039867,0.0003037045826204121,0.0017903390107676387,0,1,-1000,0,1,0,-1,1,0,1500.0
14:56:51.658,STABILIZE,-35.3632622,149.1652375,0,-0.0006467921775765717,0.0009522671462036669,0.02314881421625614,0.00010701152496039867,0.0003037045826204121,0.0017903390107676387,0,1,-1000,0,1,0,-1,1,0,1500.0
14:56:51.859,STABILIZE,-35.3632622,149.1652375,0,-0.0006467921775765717,0.0009522671462036669,0.02314881421625614,0.00010701152496039867,0.0003037045826204121,0.0017903390107676387,0,1,-1000,0,1,0,-1,1,0,1500.0
14:56:52.060,STABILIZE,-35.3632621,149.1652375,0,-0.000695867813192308,0.0009462303132750094,0.022990833967924118,0.00029416242614388466,0.0001630413462407887,0.00172812445089221,0,1,-1000,0,1,0,-1,1,0,1500.0
14:56:52.261,STABILIZE,-35.3632621,149.1652375,0,-0.0007170252501964569,0.0009578485041856766,0.022933632135391235,0.0002641190658323467,0.00019685173174366355,0.0017554013757035136,0,1,-1000,0,0,0,-1,1,0,1500.0
14:56:52.463,STABILIZE,-35.3632621,149.1652375,0,-0.0007170252501964569,0.0009578485041856766,0.022933632135391235,0.0002641190658323467,0.00019685173174366355,0.0017554013757035136,0,1,-1000,0,0,0,-1,1,0,1500.0
14:56:52.664,STABILIZE,-35.3632622,149.1652375,0,-0.0007170252501964569,0.0009578485041856766,0.022933632135391235,0.0002641190658323467,0.00019685173174366355,0.0017554013757035136,0,2,-1000,0,0,0,-1,1,0,1500.0
14:56:52.866,STABILIZE,-35.3632622,149.1652375,0,-0.0007170252501964569,0.0009578485041856766,0.022933632135391235,0.0002641190658323467,0.00019685173174366355,0.0017554013757035136,0,2,-1000,0,0,0,-1,1,0,1500.0
14:56:53.067,STABILIZE,-35.3632622,149.1652375,0,-0.0007170252501964569,0.0009578485041856766,0.022933632135391235,0.0002641190658323467,0.00019685173174366355,0.0017554013757035136,0,2,-1000,0,0,0,-1,1,0,1500.0
14:56:53.268,STABILIZE,-35.3632622,149.1652375,0,-0.0007170252501964569,0.0009578485041856766,0.022933632135391235,0.0002641190658323467,0.00019685173174366355,0.0017554013757035136,0,2,-1000,0,0,0,-1,1,0,1500.0
14:56:53.469,STABILIZE,-35.3632622,149.1652375,0,-0.0007170252501964569,0.0009578485041856766,0.022933632135391235,0.0002641190658323467,0.00019685173174366355,0.0017554013757035136,0,2,-1000,0,0,0,-1,1,0,1500.0
14:56:53.671,STABILIZE,-35.3632622,149.1652375,0,-0.0007170252501964569,0.0009578485041856766,0.022933632135391235,0.0002641190658323467,0.00019685173174366355,0.0017554013757035136,0,2,-1000,0,0,0,-1,1,0,1500.0
14:56:53.872,STABILIZE,-35.3632622,149.1652375,0,-0.0007170252501964569,0.0009578485041856766,0.022933632135391235,0.0002641190658323467,0.00019685173174366355,0.0017554013757035136,0,2,-1000,0,0,0,-1,1,0,1500.0
14:56:54.073,STABILIZE,-35.3632622,149.1652375,0,-0.0008777096518315375,0.0009637022740207613,0.022476572543382645,0.00019614625489339232,0.00026345113292336464,0.0017131221247836947,0,2,-1000,0,0,1,-1,1,0,1500.0
14:56:54.275,STABILIZE,-35.3632622,149.1652375,0,-0.0008777096518315375,0.0009637022740207613,0.022476572543382645,0.00019614625489339232,0.00026345113292336464,0.0017131221247836947,0,2,-1000,0,1,0,-1,3,3,1500.0
14:56:54.476,STABILIZE,-35.3632622,149.1652375,0,-0.0008777096518315375,0.0009637022740207613,0.022476572543382645,0.00019614625489339232,0.00026345113292336464,0.0017131221247836947,0,2,-1000,0,1,0,-1,3,3,1500.0
14:56:54.677,STABILIZE,-35.3632622,149.1652375,0,-0.0008777096518315375,0.0009637022740207613,0.022476572543382645,0.00019614625489339232,0.00026345113292336464,0.0017131221247836947,0,1,-1000,0,0,0,-1,3,3,1500.0
14:56:54.879,STABILIZE,-35.3632622,149.1652375,0,-0.0008777096518315375,0.0009637022740207613,0.022476572543382645,0.00019614625489339232,0.00026345113292336464,0.0017131221247836947,0,1,-1000,0,0,0,-1,3,3,1500.0
14:56:55.080,STABILIZE,-35.3632622,149.1652375,0,-0.0008777096518315375,0.0009637022740207613,0.022476572543382645,0.00019614625489339232,0.00026345113292336464,0.0017131221247836947,0,1,-1000,0,0,0,-1,3,3,1500.0
14:56:55.281,STABILIZE,-35.3632622,149.1652375,0,-0.0008777096518315375,0.0009637022740207613,0.022476572543382645,0.00019614625489339232,0.00026345113292336464,0.0017131221247836947,0,1,-1000,0,0,0,-1,3,3,1500.0
14:56:55.483,STABILIZE,-35.3632622,149.1652375,0,-0.0008777096518315375,0.0009637022740207613,0.022476572543382645,0.00019614625489339232,0.00026345113292336464,0.0017131221247836947,0,1,-1000,0,0,0,-1,3,3,1500.0
14:56:55.684,STABILIZE,-35.3632622,149.1652375,0,-0.0008777096518315375,0.0009637022740207613,0.022476572543382645,0.00019614625489339232,0.00026345113292336464,0.0017131221247836947,0,1,-1000,0,0,0,-1,3,3,1500.0
14:56:55.886,STABILIZE,-35.3632622,149.1652375,0,-0.0008777096518315375,0.0009637022740207613,0.022476572543382645,0.00019614625489339232,0.00026345113292336464,0.0017131221247836947,0,1,-1000,0,0,0,-1,3,3,1500.0
14:56:56.087,STABILIZE,-35.3632622,149.1652375,0,-0.0008777096518315375,0.0009637022740207613,0.022476572543382645,0.00019614625489339232,0.00026345113292336464,0.0017131221247836947,0,1,-1000,0,0,0,-1,3,3,1500.0
14:56:56.288,STABILIZE,-35.3632622,149.1652375,0,-0.0008777096518315375,0.0009637022740207613,0.022476572543382645,0.00019614625489339232,0.00026345113292336464,0.0017131221247836947,0,1,-1000,0,0,0,-1,3,3,1500.0
14:56:56.490,STABILIZE,-35.3632622,149.1652375,0,-0.001130664604716003,0.0009717534412629902,0.021877938881516457,0.0002892021439038217,0.0003662200178951025,0.0015398222021758556,0,1,-1000,0,0,1,-1,3,3,1500.0
14:56:56.691,STABILIZE,-35.3632622,149.1652375,0,-0.001130664604716003,0.0009717534412629902,0.021877938881516457,0.0002892021439038217,0.0003662200178951025,0.0015398222021758556,0,1,-1000,0,0,1,-1,3,3,1500.0
14:56:56.892,STABILIZE,-35.3632622,149.1652375,0,-0.001130664604716003,0.0009717534412629902,0.021877938881516457,0.0002892021439038217,0.0003662200178951025,0.0015398222021758556,0,1,-1000,0,0,1,-1,3,3,1500.0
14:56:57.094,STABILIZE,-35.3632622,149.1652375,0,-0.001130664604716003,0.0009717534412629902,0.021877938881516457,0.0002892021439038217,0.0003662200178951025,0.0015398222021758556,0,1,-1000,0,0,1,-1,3,3,1500.0
14:56:57.295,STABILIZE,-35.3632622,149.1652375,0,-0.001130664604716003,0.0009717534412629902,0.021877938881516457,0.0002892021439038217,0.0003662200178951025,0.0015398222021758556,0,1,-1000,0,0,1,-1,3,3,1500.0
14:56:57.497,STABILIZE,-35.3632622,149.1652375,0,-0.0012518280418589711,0.0009811120107769966,0.021710921078920364,0.0002361287479288876,0.0002310169511474669,0.001597195747308433,0,2,-1000,0,0,0,-1,1,1,1500.0
14:56:57.698,STABILIZE,-35.3632622,149.1652375,0,-0.001276267459616065,0.0009945523925125599,0.021672101691365242,0.00011903728591278195,0.00029011041624471545,0.001575802220031619,0,1,-1000,0,1,0,-1,1,1,1500.0
14:56:57.899,STABILIZE,-35.3632622,149.1652375,0,-0.001276267459616065,0.0009945523925125599,0.021672101691365242,0.00011903728591278195,0.00029011041624471545,0.001575802220031619,0,1,-1000,0,1,0,-1,1,1,1500.0
14:56:58.100,STABILIZE,-35.3632622,149.1652375,0,-0.001276267459616065,0.0009945523925125599,0.021672101691365242,0.00011903728591278195,0.00029011041624471545,0.001575802220031619,0,1,-1000,0,1,0,-1,1,1,1500.0
14:56:58.301,STABILIZE,-35.3632622,149.1652375,0,-0.0013066743267700076,0.0009856133256107569,0.02161097154021263,0.0003195761237293482,0.0002907420275732875,0.0014906846918165684,0,1,-1000,0,0,0,-1,0,1,1500.0
14:56:58.502,STABILIZE,-35.3632622,149.1652375,0,-0.0013066743267700076,0.0009856133256107569,0.02161097154021263,0.0003195761237293482,0.0002907420275732875,0.0014906846918165684,0,1,-1000,0,0,0,-1,0,1,1500.0
14:56:58.704,STABILIZE,-35.3632622,149.1652375,0,-0.0013066743267700076,0.0009856133256107569,0.02161097154021263,0.0003195761237293482,0.0002907420275732875,0.0014906846918165684,0,1,-1000,0,0,0,-1,0,1,1500.0
14:56:58.905,STABILIZE,-35.3632622,149.1652375,0,-0.0013066743267700076,0.0009856133256107569,0.02161097154021263,0.0003195761237293482,0.0002907420275732875,0.0014906846918165684,0,1,-1000,0,0,0,-1,0,1,1500.0
14:56:59.106,AUTO,-35.3632622,149.1652375,0,-0.0013066743267700076,0.0009856133256107569,0.02161097154021263,0.0003195761237293482,0.0002907420275732875,0.0014906846918165684,0,1,-1000,0,0,0,-1,0,1,1500.0
14:56:59.308,AUTO,-35.3632622,149.1652375,0,-0.0013066743267700076,0.0009856133256107569,0.02161097154021263,0.0003195761237293482,0.0002907420275732875,0.0014906846918165684,0,1,-1000,0,0,0,-1,0,1,289200.0
14:56:59.509,AUTO,-35.3632622,149.1652375,3,-0.001287297927774489,0.0010070099961012602,0.02147289179265499,0.00028550776187330484,0.00029407168040052056,0.0014840898802503943,0,1,-1000,1,1,1,-1,0,0,289200.0
14:56:59.710,AUTO,-35.3632621,149.1652375,3,-0.0012691958108916879,0.0010167808504775167,0.021449953317642212,0.0003110790275968611,0.00034042191691696644,0.0014915223000571132,0,2,-1000,0,0,0,-1,0,0,289200.0
14:56:59.912,AUTO,-35.3632621,149.1652375,3,-0.0012691958108916879,0.0010167808504775167,0.021449953317642212,0.0003110790275968611,0.00034042191691696644,0.0014915223000571132,0,2,-1000,0,0,0,-1,0,0,289200.0
14:57:00.113,AUTO,-35.3632621,149.1652375,3,-0.0012447775807231665,0.00103810615837574,0.02140679582953453,0.0003213050076738,0.00021865806775167584,0.0015856586396694183,0,1,-1000,1,1,1,0,0,0,289200.0
14:57:00.314,AUTO,-35.3632621,149.1652375,3,-0.0012127311201766133,0.0010784369660541415,0.021360477432608604,0.00028349278727546334,0.0002766480902209878,0.0015229897107928991,0,1,-1000,1,1,1,0,0,0,289200.0
14:57:00.516,AUTO,-35.3632621,149.1652375,3,-0.001179416081868112,0.001129535841755569,0.021339545026421547,0.00014436239143833518,0.000270988792181015,0.0014260729076340795,0,1,-1000,1,1,1,0,0,0,289200.0
14:57:00.718,AUTO,-35.3632621,149.1652375,3,-0.0011382049415260553,0.0011808330891653895,0.021298298612236977,0.00021028745686635375,0.00026390812126919627,0.001599061070010066,0,1,-1000,0,1,0,0,0,0,289200.0
14:57:00.919,AUTO,-35.3632621,149.1652375,3,-0.0011382049415260553,0.0011808330891653895,0.021298298612236977,0.00021028745686635375,0.00026390812126919627,0.001599061070010066,0,1,-1000,0,1,0,0,0,0,289200.0
14:57:01.127,AUTO,-35.3632621,149.1652375,3,-0.0011382049415260553,0.0011808330891653895,0.021298298612236977,0.00021028745686635375,0.00026390812126919627,0.001599061070010066,0,1,-1000,0,1,0,0,0,0,289200.0
14:57:01.329,AUTO,-35.3632621,149.1652375,3,-0.0011382049415260553,0.0011808330891653895,0.021298298612236977,0.00021028745686635375,0.00026390812126919627,0.001599061070010066,0,1,-1000,0,1,0,0,0,0,289200.0
14:57:01.531,AUTO,-35.3632621,149.1652374,10,-0.0008247513906098902,0.001372204045765102,0.021173575893044472,0.00025454669957980514,0.00021763890981674194,0.001459386432543397,0,2,-1000,0,0,0,0,0,-1,289200.0
14:57:01.733,AUTO,-35.3632621,149.1652374,12,-0.0007703846204094589,0.001442579086869955,0.021121405065059662,0.0002617385471239686,0.00027591624530032277,0.0014125205343589187,0,1,-1000,0,1,0,0,0,-1,289200.0
14:57:01.935,AUTO,-35.3632621,149.1652374,13,-0.0007164683192968369,0.001517988508567214,0.021072179079055786,0.0003048684448003769,0.0002697797608561814,0.0014504805440083146,0,1,-1000,1,0,0,0,0,-1,289200.0
14:57:02.136,AUTO,-35.3632621,149.1652374,13,-0.0007164683192968369,0.001517988508567214,0.021072179079055786,0.0003048684448003769,0.0002697797608561814,0.0014504805440083146,0,1,-1000,1,0,0,0,0,-1,289200.0
14:57:02.338,AUTO,-35.3632621,149.1652374,13,-0.0006589212571270764,0.001588113489560783,0.021028900519013405,0.00034973357105627656,0.0002930552000179887,0.001580453710630536,0,2,-1000,0,0,0,0,0,-1,289200.0
14:57:02.540,AUTO,-35.3632621,149.1652374,14,-0.0005937324021942914,0.0016613943735137582,0.0209693294018507,0.0003485347260721028,0.00038166827289387584,0.0014232646208256483,0,1,-1000,0,0,1,0,0,-1,289200.0
14:57:02.742,AUTO,-35.3632621,149.1652375,15,-0.000524379254784435,0.0017404662212356925,0.020913293585181236,0.000327477406244725,0.0002651012619026005,0.0014483866980299354,0,1,-1000,0,1,1,0,0,-1,289200.0
14:57:02.944,AUTO,-35.3632621,149.1652375,15,-0.000524379254784435,0.0017404662212356925,0.020913293585181236,0.000327477406244725,0.0002651012619026005,0.0014483866980299354,0,1,-1000,0,1,1,0,0,-1,289200.0
14:57:03.145,AUTO,-35.3632621,149.1652375,15,-0.000524379254784435,0.0017404662212356925,0.020913293585181236,0.000327477406244725,0.0002651012619026005,0.0014483866980299354,0,1,-1000,0,1,1,0,0,-1,289200.0
14:57:03.347,AUTO,-35.3632621,149.1652375,15,-0.000524379254784435,0.0017404662212356925,0.020913293585181236,0.000327477406244725,0.0002651012619026005,0.0014483866980299354,0,1,-1000,0,1,1,0,0,-1,70827.0
14:57:03.548,AUTO,-35.3632621,149.1652375,216,0.0016205820720642805,0.00021568554802797735,0.020712794736027718,0.0022454634308815002,0.005630007945001125,0.00014862773241475224,0,0,-1130,2,6,0,0,0,-73,70827.0
14:57:03.750,AUTO,-35.3632621,149.1652375,433,0.0007678683614358306,0.0012071356177330017,0.02057180553674698,-0.007409175857901573,0.0026946684811264277,0.0016312452498823404,0,0,-1109,-6,3,1,0,0,-102,70827.0
14:57:03.953,AUTO,-35.3632621,149.1652375,715,0.000953442242462188,0.0016416094731539488,0.02049192599952221,0.00945587269961834,0.00010198354721069336,-0.00045001335092820227,0,0,-1088,10,0,0,0,0,-125,70827.0
14:57:04.155,AUTO,-35.3632621,149.1652375,715,0.000953442242462188,0.0016416094731539488,0.02049192599952221,0.00945587269961834,0.00010198354721069336,-0.00045001335092820227,0,0,-1088,10,0,0,0,0,-125,70827.0
14:57:04.356,AUTO,-35.3632621,149.1652375,1056,0.010932586155831814,0.0006828609039075673,0.020218761637806892,0.04812604561448097,-0.005840557627379894,0.001303344964981079,0,0,-1040,48,-5,0,0,1,-139,70827.0
14:57:04.558,AUTO,-35.3632621,149.1652375,1422,0.022836610674858093,-0.0009460168075747788,0.020205020904541016,0.04710498824715614,-0.006649752147495747,0.002150020096451044,0,0,-1017,47,-6,1,0,5,-145,70827.0
14:57:04.760,AUTO,-35.363262,149.1652376,1801,0.03432735055685043,-0.002821345115080476,0.02034105360507965,0.04518987238407135,-0.007605485152453184,0.0026491773314774036,0,-1,-1007,45,-6,2,1,11,-148,70827.0
14:57:04.963,AUTO,-35.363262,149.1652376,1801,0.03432735055685043,-0.002821345115080476,0.02034105360507965,0.04518987238407135,-0.007605485152453184,0.0026491773314774036,0,-1,-1007,45,-6,2,1,11,-148,70827.0
14:57:05.165,AUTO,-35.363262,149.1652376,1801,0.03432735055685043,-0.002821345115080476,0.02034105360507965,0.04518987238407135,-0.007605485152453184,0.0026491773314774036,0,-1,-1007,45,-6,2,1,11,-148,70827.0
14:57:05.367,AUTO,-35.363262,149.1652376,1801,0.03432735055685043,-0.002821345115080476,0.02034105360507965,0.04518987238407135,-0.007605485152453184,0.0026491773314774036,0,-1,-1007,45,-6,2,1,11,-148,70827.0
14:57:05.569,AUTO,-35.3632616,149.1652397,2956,0.06234670802950859,-0.00878243986517191,-0.008309144526720047,-0.012161233462393284,0.021919267252087593,-0.04404943808913231,2,-8,-992,-11,22,-44,8,43,-148,70827.0
14:57:05.770,AUTO,-35.3632614,149.1652409,3336,0.04110465198755264,0.012947154231369495,-0.03018571063876152,-0.14419598877429962,0.09292466938495636,-0.09866181761026382,3,-10,-990,-143,93,-99,9,54,-146,70827.0
14:57:05.972,AUTO,-35.3632612,149.1652424,3716,-0.0027996846474707127,0.02258176915347576,-0.050111521035432816,-0.14515584707260132,0.0021590786054730415,-0.07426252216100693,5,-12,-1007,-144,3,-74,6,54,-145,70827.0
14:57:06.174,AUTO,-35.363261,149.1652437,4094,-0.024556638672947884,0.019874854013323784,-0.0646001473069191,-0.050380319356918335,-0.011470746248960495,-0.05937998369336128,5,-11,-1010,-49,-10,-59,3,47,-147,70827.0
14:57:06.376,AUTO,-35.363261,149.1652437,4094,-0.024556638672947884,0.019874854013323784,-0.0646001473069191,-0.050380319356918335,-0.011470746248960495,-0.05937998369336128,5,-11,-1010,-49,-10,-59,3,47,-147,70827.0
14:57:06.578,AUTO,-35.363261,149.1652449,4478,-0.03350403904914856,0.01563091203570366,-0.07577668130397797,-0.03824799507856369,-0.017145462334156036,-0.0435950830578804,5,-10,-1004,-37,-16,-44,0,37,-149,70827.0
14:57:06.780,AUTO,-35.363261,149.1652457,4864,-0.04766455665230751,0.009130008518695831,-0.08270710706710815,-0.07138403505086899,-0.02898566424846649,-0.022825393825769424,4,-6,-1000,-70,-28,-23,-1,25,-149,70827.0
14:57:06.982,AUTO,-35.363261,149.1652457,4864,-0.04766455665230751,0.009130008518695831,-0.08270710706710815,-0.07138403505086899,-0.02898566424846649,-0.022825393825769424,4,-6,-1000,-70,-28,-23,-1,25,-149,70827.0
14:57:07.184,AUTO,-35.363261,149.1652457,4864,-0.04766455665230751,0.009130008518695831,-0.08270710706710815,-0.07138403505086899,-0.02898566424846649,-0.022825393825769424,4,-6,-1000,-70,-28,-23,-1,25,-149,70827.0
14:57:07.386,AUTO,-35.363261,149.1652457,4864,-0.04766455665230751,0.009130008518695831,-0.08270710706710815,-0.07138403505086899,-0.02898566424846649,-0.022825393825769424,4,-6,-1000,-70,-28,-23,-1,25,-149,263693.0
14:57:07.587,AUTO,-35.363261,149.1652456,6012,-0.06873532384634018,-0.007293395698070526,-0.08957578986883163,0.05103021115064621,-0.003416643710806966,-0.008003263734281063,-1,3,-1002,51,-2,-8,-2,-28,-149,263693.0
14:57:07.789,AUTO,-35.363261,149.1652447,6397,-0.05508487671613693,-0.007537973579019308,-0.09190654009580612,0.05702582374215126,0.0017472215695306659,-0.004307034891098738,-3,7,-1001,57,2,-4,-2,-42,-149,263693.0
14:57:07.991,AUTO,-35.3632611,149.1652435,6780,-0.04028496518731117,-0.006322795990854502,-0.09361735731363297,0.061279185116291046,0.0072380127385258675,-0.0019171737367287278,-5,8,-1001,62,8,-2,-2,-52,-149,263693.0
14:57:08.193,AUTO,-35.3632612,149.1652419,7164,-0.02452017366886139,-0.0039201583713293076,-0.09458232671022415,0.0637400895357132,0.011041028425097466,0.0004260133719071746,-7,13,-1002,64,11,0,-2,-58,-150,263693.0
14:57:08.395,AUTO,-35.3632612,149.1652419,7164,-0.02452017366886139,-0.0039201583713293076,-0.09458232671022415,0.0637400895357132,0.011041028425097466,0.0004260133719071746,-7,13,-1002,64,11,0,-2,-58,-150,263693.0
14:57:08.597,AUTO,-35.3632612,149.1652403,7551,-0.00834131333976984,-0.0007829651003703475,-0.09476667642593384,0.06629950553178787,0.013408610597252846,0.001547990832477808,-6,9,-1003,66,14,1,-3,-59,-150,263693.0
14:57:08.799,AUTO,-35.3632613,149.1652386,7939,0.008177872747182846,0.002614593366160989,-0.09440014511346817,0.06706678122282028,0.01364715676754713,0.002842755289748311,-7,12,-1003,67,14,2,-5,-57,-151,263693.0
14:57:09.001,AUTO,-35.3632613,149.1652386,7939,0.008177872747182846,0.002614593366160989,-0.09440014511346817,0.06706678122282028,0.01364715676754713,0.002842755289748311,-7,12,-1003,67,14,2,-5,-57,-151,263693.0
14:57:09.203,AUTO,-35.3632613,149.1652386,7939,0.008177872747182846,0.002614593366160989,-0.09440014511346817,0.06706678122282028,0.01364715676754713,0.002842755289748311,-7,12,-1003,67,14,2,-5,-57,-151,263693.0
14:57:09.404,AUTO,-35.3632613,149.1652386,7939,0.008177872747182846,0.002614593366160989,-0.09440014511346817,0.06706678122282028,0.01364715676754713,0.002842755289748311,-7,12,-1003,67,14,2,-5,-57,-151,263693.0
14:57:09.606,AUTO,-35.3632619,149.1652348,9114,0.05633799731731415,0.009771442040801048,-0.09103956818580627,0.0605456568300724,0.0035931935999542475,0.005134842358529568,-3,9,-1002,61,4,5,-10,-26,-153,263693.0
14:57:09.808,AUTO,-35.3632621,149.1652342,9508,0.06987089663743973,0.009041878394782543,-0.08855083584785461,0.03298646956682205,-0.01801172085106373,0.029271239414811134,0,5,-998,33,-17,28,-11,-9,-153,263693.0
14:57:10.010,AUTO,-35.3632624,149.1652341,9898,0.0633191466331482,-0.004309448879212141,-0.07806053012609482,-0.07036055624485016,-0.049607522785663605,0.04055196791887283,1,2,-992,-69,-48,40,-9,7,-151,263693.0
14:57:10.212,AUTO,-35.3632626,149.1652344,10282,0.039039239287376404,-0.010685994289815426,-0.07317817211151123,-0.10382602363824844,-0.0066910600289702415,0.009819356724619865,2,-1,-995,-103,-5,9,-5,18,-149,263693.0
14:57:10.414,AUTO,-35.3632626,149.1652344,10282,0.039039239287376404,-0.010685994289815426,-0.07317817211151123,-0.10382602363824844,-0.0066910600289702415,0.009819356724619865,2,-1,-995,-103,-5,9,-5,18,-149,263693.0
14:57:10.618,AUTO,-35.3632626,149.1652349,10663,0.015184663236141205,-0.009999355301260948,-0.07431253790855408,-0.0838714987039566,0.008087275549769402,-0.011665449477732182,3,-3,-1001,-83,8,-12,-1,23,-148,263693.0
14:57:10.821,AUTO,-35.3632626,149.1652353,11045,-0.0013248397735878825,-0.007645010948181152,-0.0796334370970726,-0.05336863920092583,0.009986737743020058,-0.024907363578677177,2,-4,-1003,-52,10,-25,1,22,-149,263693.0
14:57:11.033,AUTO,-35.3632626,149.1652353,11045,-0.0013248397735878825,-0.007645010948181152,-0.0796334370970726,-0.05336863920092583,0.009986737743020058,-0.024907363578677177,2,-4,-1003,-52,10,-25,1,22,-149,263693.0
14:57:11.235,AUTO,-35.3632626,149.1652353,11045,-0.0013248397735878825,-0.007645010948181152,-0.0796334370970726,-0.05336863920092583,0.009986737743020058,-0.024907363578677177,2,-4,-1003,-52,10,-25,1,22,-149,263693.0
14:57:11.437,AUTO,-35.3632624,149.1652365,12203,-0.01806965097784996,-0.0021228722762316465,-0.10462123900651932,0.00323826028034091,0.007046656217426062,-0.03169749677181244,0,-2,-1002,4,7,-31,6,7,-151,300000.0
14:57:11.638,AUTO,-35.3632624,149.1652365,12203,-0.01806965097784996,-0.0021228722762316465,-0.10462123900651932,0.00323826028034091,0.007046656217426062,-0.03169749677181244,0,-2,-1002,4,7,-31,6,7,-151,300000.0
14:57:11.840,AUTO,-35.3632622,149.1652366,12593,-0.01599387638270855,-0.00042207553633488715,-0.11321117728948593,0.011170665733516216,0.0076598539017140865,-0.03036261349916458,-1,-1,-1001,12,8,-30,6,1,-152,300000.0
14:57:12.042,AUTO,-35.3632621,149.1652365,12986,-0.01196344755589962,0.001087290234863758,-0.1210264340043068,0.0174295362085104,0.007373020984232426,-0.02860182151198387,-1,0,-1000,17,8,-28,6,-2,-152,300000.0
14:57:12.243,AUTO,-35.3632619,149.1652364,13375,-0.007090582977980375,0.00288396212272346,-0.12817968428134918,0.019072698429226875,0.006945024710148573,-0.026323162019252777,-2,0,-1000,19,7,-26,5,-5,-152,300000.0
14:57:12.446,AUTO,-35.3632618,149.1652363,13765,-0.002085059881210327,0.004420864395797253,-0.13442014157772064,0.0180763378739357,0.0065236445516347885,-0.02288464829325676,-2,0,-1000,18,7,-23,4,-6,-152,300000.0
14:57:12.648,AUTO,-35.3632618,149.1652363,13765,-0.002085059881210327,0.004420864395797253,-0.13442014157772064,0.0180763378739357,0.0065236445516347885,-0.02288464829325676,-2,0,-1000,18,7,-23,4,-6,-152,300000.0
14:57:12.849,AUTO,-35.3632617,149.1652361,14154,0.002196645364165306,0.0059992787428200245,-0.13997124135494232,0.017482608556747437,0.004491166677325964,-0.018987083807587624,-2,0,-1000,18,5,-19,3,-7,-152,300000.0
14:57:13.052,AUTO,-35.3632617,149.1652361,14154,0.002196645364165306,0.0059992787428200245,-0.13997124135494232,0.017482608556747437,0.004491166677325964,-0.018987083807587624,-2,0,-1000,18,5,-19,3,-7,-152,300000.0
14:57:13.254,AUTO,-35.3632617,149.1652361,14154,0.002196645364165306,0.0059992787428200245,-0.13997124135494232,0.017482608556747437,0.004491166677325964,-0.018987083807587624,-2,0,-1000,18,5,-19,3,-7,-152,300000.0
14:57:13.455,AUTO,-35.3632616,149.1652355,15320,0.00924050621688366,0.007156319450587034,-0.1511363685131073,0.0036835945211350918,0.0019220294198021293,-0.01167385559529066,-1,0,-999,4,2,-11,0,-2,-152,300000.0
14:57:13.657,AUTO,-35.3632616,149.1652355,15320,0.00924050621688366,0.007156319450587034,-0.1511363685131073,0.0036835945211350918,0.0019220294198021293,-0.01167385559529066,-1,0,-999,4,2,-11,0,-2,-152,300000.0
14:57:13.858,AUTO,-35.3632615,149.1652354,15710,0.009493264369666576,0.007095884066075087,-0.15408861637115479,-0.0005953432992100716,-0.0014251653337851167,-0.010972820222377777,-1,0,-999,0,0,-11,-1,0,-152,300000.0
14:57:14.060,AUTO,-35.3632615,149.1652354,16099,0.009229411371052265,0.006566457450389862,-0.15677690505981445,-0.0029282120522111654,-0.0034029223024845123,-0.010009129531681538,0,0,-999,-2,-2,-10,-2,1,-152,300000.0
14:57:14.261,AUTO,-35.3632615,149.1652354,16489,0.008287857286632061,0.006079137325286865,-0.1596902310848236,-0.0021312227472662926,-0.0020594887901097536,-0.011584203690290451,0,0,-1000,-1,-1,-11,-2,2,-152,300000.0
14:57:14.463,AUTO,-35.3632615,149.1652354,16878,0.007242742460221052,0.005489345174282789,-0.16271553933620453,-0.004399084020406008,-0.0012288070283830166,-0.013006825931370258,0,0,-1000,-3,0,-13,-3,4,-152,300000.0
14:57:14.665,AUTO,-35.3632615,149.1652354,16878,0.007242742460221052,0.005489345174282789,-0.16271553933620453,-0.004399084020406008,-0.0012288070283830166,-0.013006825931370258,0,0,-1000,-3,0,-13,-3,4,-152,300000.0
14:57:14.869,AUTO,-35.3632615,149.1652354,17267,0.004053597804158926,0.005232104100286961,-0.16621026396751404,-0.03990181162953377,-0.0008639926672913134,-0.013566408306360245,0,0,-996,-39,0,-13,-3,4,-152,300000.0
14:57:15.071,AUTO,-35.3632615,149.1652354,17267,0.004053597804158926,0.005232104100286961,-0.16621026396751404,-0.03990181162953377,-0.0008639926672913134,-0.013566408306360245,0,0,-996,-39,0,-13,-3,4,-152,300000.0
14:57:15.273,AUTO,-35.3632615,149.1652354,17267,0.004053597804158926,0.005232104100286961,-0.16621026396751404,-0.03990181162953377,-0.0008639926672913134,-0.013566408306360245,0,0,-996,-39,0,-13,-3,4,-152,300000.0
14:57:15.475,AUTO,-35.3632617,149.1652351,18420,-0.053823165595531464,0.015971938148140907,-0.15511566400527954,-0.017592789605259895,0.08900099247694016,0.18921998143196106,-1,2,-981,-16,89,188,-8,-15,-146,118884.0
14:57:15.676,AUTO,-35.3632619,149.1652345,18788,-0.05274374783039093,0.04546321555972099,-0.07226397842168808,-0.00872030295431614,0.09544578939676285,0.4525473117828369,-1,4,-981,-7,96,452,-17,-27,-141,118884.0
14:57:15.877,AUTO,-35.3632619,149.1652345,18788,-0.05274374783039093,0.04546321555972099,-0.07226397842168808,-0.00872030295431614,0.09544578939676285,0.4525473117828369,-1,4,-981,-7,96,452,-17,-27,-141,118884.0
14:57:16.079,AUTO,-35.3632624,149.1652336,19137,-0.030374271795153618,0.041613295674324036,0.020367424935102463,0.12324977666139603,-0.12892453372478485,0.2741507887840271,1,10,-954,123,-128,273,-27,-36,-131,118884.0
14:57:16.281,AUTO,-35.363263,149.1652325,19458,0.006624547764658928,0.002207203069701791,0.06314091384410858,0.14464101195335388,-0.15237025916576385,0.08390801399946213,1,11,-954,145,-151,83,-31,-36,-120,118884.0
14:57:16.484,AUTO,-35.3632637,149.1652315,19758,0.037730664014816284,-0.02685515582561493,0.0693056657910347,0.10071820020675659,-0.0762430727481842,-0.016559462994337082,1,10,-958,101,-75,-16,-27,-28,-109,118884.0
14:57:16.686,AUTO,-35.3632641,149.1652309,20024,0.05661841481924057,-0.037582021206617355,0.06080937385559082,0.05047398805618286,-0.022250216454267502,-0.04474235326051712,1,6,-961,51,-21,-45,-19,-15,-98,118884.0
14:57:16.888,AUTO,-35.3632641,149.1652309,20024,0.05661841481924057,-0.037582021206617355,0.06080937385559082,0.05047398805618286,-0.022250216454267502,-0.04474235326051712,1,6,-961,51,-21,-45,-19,-15,-98,118884.0
14:57:17.090,AUTO,-35.3632641,149.1652309,20024,0.05661841481924057,-0.037582021206617355,0.06080937385559082,0.05047398805618286,-0.022250216454267502,-0.04474235326051712,1,6,-961,51,-21,-45,-19,-15,-98,118884.0
14:57:17.292,AUTO,-35.3632641,149.1652309,20024,0.05661841481924057,-0.037582021206617355,0.06080937385559082,0.05047398805618286,-0.022250216454267502,-0.04474235326051712,1,6,-961,51,-21,-45,-19,-15,-98,118884.0
14:57:17.494,AUTO,-35.3632645,149.1652311,20671,0.05165303871035576,-0.02680538408458233,0.04140295088291168,-0.04174154996871948,0.03319580480456352,-0.007265199441462755,0,-4,-972,-40,33,-7,5,26,-72,118884.0
14:57:17.696,AUTO,-35.3632644,149.1652318,20847,0.04032723978161812,-0.018187889829277992,0.04024345055222511,-0.03806610032916069,0.03585543483495712,5.947683530393988e-05,0,-8,-975,-37,36,0,11,34,-65,118884.0
14:57:17.897,AUTO,-35.3632644,149.1652318,20847,0.04032723978161812,-0.018187889829277992,0.04024345055222511,-0.03806610032916069,0.03585543483495712,5.947683530393988e-05,0,-8,-975,-37,36,0,11,34,-65,118884.0
14:57:18.099,AUTO,-35.3632641,149.1652327,21006,0.0287831649184227,-0.009404901415109634,0.03979863226413727,-0.04879458621144295,0.03333524987101555,0.0036461148411035538,1,-9,-976,-48,34,3,15,40,-59,118884.0
14:57:18.301,AUTO,-35.3632637,149.1652338,21150,0.016918575391173363,-0.001430236967280507,0.03945670649409294,-0.04778086394071579,0.030368585139513016,0.003024142934009433,0,-10,-977,-47,31,2,17,42,-54,118884.0
14:57:18.507,AUTO,-35.3632632,149.1652349,21280,0.007012661080807447,0.004811073653399944,0.03912988305091858,-0.027034088969230652,0.023864420130848885,0.004080049227923155,0,-10,-978,-26,24,3,17,42,-48,118884.0
14:57:18.709,AUTO,-35.3632628,149.1652359,21395,-0.0008468546438962221,0.00931763555854559,0.03864404559135437,-0.027659546583890915,0.017462583258748055,0.0014149799244478345,0,-10,-977,-27,18,1,16,39,-43,118884.0
14:57:18.911,AUTO,-35.3632628,149.1652359,21395,-0.0008468546438962221,0.00931763555854559,0.03864404559135437,-0.027659546583890915,0.017462583258748055,0.0014149799244478345,0,-10,-977,-27,18,1,16,39,-43,118884.0
14:57:19.112,AUTO,-35.3632628,149.1652359,21395,-0.0008468546438962221,0.00931763555854559,0.03864404559135437,-0.027659546583890915,0.017462583258748055,0.0014149799244478345,0,-10,-977,-27,18,1,16,39,-43,118884.0
14:57:19.319,AUTO,-35.3632628,149.1652359,21395,-0.0008468546438962221,0.00931763555854559,0.03864404559135437,-0.027659546583890915,0.017462583258748055,0.0014149799244478345,0,-10,-977,-27,18,1,16,39,-43,118884.0
14:57:19.521,AUTO,-35.3632618,149.1652385,21650,-0.012523707002401352,0.01492722425609827,0.036683693528175354,-0.013057452626526356,0.0026095642242580652,-0.0007482494693249464,0,-7,-974,-12,3,0,9,25,-25,226354.0
14:57:19.722,AUTO,-35.3632616,149.1652391,21703,-0.014335793443024158,0.014660214073956013,0.03601918742060661,-0.039453815668821335,-0.0013272649375721812,-0.0041255708783864975,0,-5,-973,-38,0,-4,7,20,-18,226354.0
14:57:19.924,AUTO,-35.3632614,149.1652396,21738,-0.012713158503174782,0.013705560006201267,0.035340677946805954,0.08328689634799957,-0.006255739834159613,-0.004518563859164715,0,0,-971,84,-5,-4,4,15,-11,226354.0
14:57:20.125,AUTO,-35.3632614,149.1652396,21738,-0.012713158503174782,0.013705560006201267,0.035340677946805954,0.08328689634799957,-0.006255739834159613,-0.004518563859164715,0,0,-971,84,-5,-4,4,15,-11,226354.0
14:57:20.327,AUTO,-35.3632613,149.1652399,21754,-0.01126016303896904,0.01196977961808443,0.034831348806619644,-0.0042260694317519665,-0.0062454938888549805,-0.0043677412904798985,0,-8,-964,-3,-5,-4,2,10,-3,226354.0
14:57:20.529,AUTO,-35.3632612,149.1652401,21738,-0.055756717920303345,0.02423664554953575,0.03280223160982132,-0.3278745710849762,0.003039357950910926,-0.013052432797849178,0,8,-941,-326,3,-13,-1,3,12,226354.0
14:57:20.731,AUTO,-35.3632612,149.1652401,21688,-0.028542086482048035,0.009697744622826576,0.03261410444974899,0.7367603778839111,-0.08555381000041962,-0.016017358750104904,0,48,-983,738,-84,-16,-4,-6,21,226354.0
14:57:20.933,AUTO,-35.3632612,149.1652401,21688,-0.028542086482048035,0.009697744622826576,0.03261410444974899,0.7367603778839111,-0.08555381000041962,-0.016017358750104904,0,48,-983,738,-84,-16,-4,-6,21,226354.0
14:57:21.135,AUTO,-35.3632612,149.1652401,21688,-0.028542086482048035,0.009697744622826576,0.03261410444974899,0.7367603778839111,-0.08555381000041962,-0.016017358750104904,0,48,-983,738,-84,-16,-4,-6,21,226354.0
14:57:21.337,AUTO,-35.3632612,149.1652401,21688,-0.028542086482048035,0.009697744622826576,0.03261410444974899,0.7367603778839111,-0.08555381000041962,-0.016017358750104904,0,48,-983,738,-84,-16,-4,-6,21,226354.0
14:57:21.539,AUTO,-35.3632611,149.1652391,21545,0.030456459149718285,-0.04692351073026657,0.030326543375849724,-0.4668101668357849,-0.058544859290122986,-0.009727170690894127,-2,-38,-1010,-466,-57,-9,11,-4,10,226354.0
14:57:21.740,AUTO,-35.3632607,149.1652391,21519,0.03590266406536102,-0.05787631869316101,0.027943480759859085,-0.49276846647262573,-0.0396653413772583,-0.0066332025453448296,-4,-13,-1018,-491,-38,-6,23,4,5,226354.0
14:57:21.942,AUTO,-35.36326,149.1652392,21501,0.04842837527394295,-0.06688369810581207,0.02623162232339382,0.16388647258281708,-0.03195025771856308,-0.0060414718464016914,-3,12,-1003,165,-31,-6,38,16,3,226354.0
14:57:22.144,AUTO,-35.36326,149.1652392,21501,0.04842837527394295,-0.06688369810581207,0.02623162232339382,0.16388647258281708,-0.03195025771856308,-0.0060414718464016914,-3,12,-1003,165,-31,-6,38,16,3,226354.0
14:57:22.346,AUTO,-35.363259,149.1652398,21489,0.0681227520108223,-0.07671012729406357,0.06926961988210678,0.6288188099861145,-0.005750959739089012,0.39181503653526306,-9,13,-1019,629,-4,391,53,27,0,226354.0
14:57:22.548,AUTO,-35.3632576,149.1652407,21482,0.04868226498365402,-0.09376604110002518,0.25959378480911255,-0.15244904160499573,-0.040268491953611374,1.0524996519088745,-10,-37,-1008,-152,-39,1052,71,39,0,226354.0
14:57:22.751,AUTO,-35.3632558,149.165242,21479,0.017722919583320618,-0.1119537204504013,0.5255504250526428,-0.5478587746620178,-0.041240546852350235,0.9089640378952026,-18,-36,-1007,-547,-40,908,89,52,0,226354.0
14:57:22.952,AUTO,-35.3632558,149.165242,21479,0.017722919583320618,-0.1119537204504013,0.5255504250526428,-0.5478587746620178,-0.041240546852350235,0.9089640378952026,-18,-36,-1007,-547,-40,908,89,52,0,226354.0
14:57:23.154,AUTO,-35.3632558,149.165242,21479,0.017722919583320618,-0.1119537204504013,0.5255504250526428,-0.5478587746620178,-0.041240546852350235,0.9089640378952026,-18,-36,-1007,-547,-40,908,89,52,0,226354.0
14:57:23.357,AUTO,-35.3632558,149.165242,21479,0.017722919583320618,-0.1119537204504013,0.5255504250526428,-0.5478587746620178,-0.041240546852350235,0.9089640378952026,-18,-36,-1007,-547,-40,908,89,52,0,95533.0
14:57:23.560,AUTO,-35.3632479,149.1652483,21466,0.013850826770067215,-0.14336714148521423,0.6834879517555237,0.046214763075113297,-0.05722760409116745,-0.10981681197881699,-36,-31,-1001,46,-56,-109,149,94,0,95533.0
14:57:23.762,AUTO,-35.3632443,149.1652511,21460,0.009211204014718533,-0.15561725199222565,0.6523537635803223,-0.40517666935920715,-0.05761731043457985,-0.10694721341133118,-40,-43,-1003,-404,-56,-107,172,109,0,95533.0
14:57:23.964,AUTO,-35.3632403,149.1652544,21452,0.01753365434706211,-0.17098042368888855,0.6304411888122559,0.09768211841583252,-0.05473560839891434,-0.07536526769399643,-47,-10,-1005,99,-53,-75,196,125,1,95533.0
14:57:24.167,AUTO,-35.3632403,149.1652544,21452,0.01753365434706211,-0.17098042368888855,0.6304411888122559,0.09768211841583252,-0.05473560839891434,-0.07536526769399643,-47,-10,-1005,99,-53,-75,196,125,1,95533.0
14:57:24.370,AUTO,-35.3632356,149.1652581,21441,0.02955390140414238,-0.18354342877864838,0.6204466819763184,0.3780626058578491,-0.04102804511785507,-0.0222470760345459,-53,-22,-1002,379,-40,-22,222,142,2,95533.0
14:57:24.572,AUTO,-35.3632303,149.1652623,21429,0.028933078050613403,-0.18601544201374054,0.6184542179107666,-0.16856597363948822,0.017356805503368378,0.005898735485970974,-60,-56,-1007,-168,18,5,250,158,2,95533.0
14:57:24.774,AUTO,-35.3632244,149.1652669,21419,0.031213931739330292,-0.18249647319316864,0.6184667944908142,-0.16112621128559113,0.01032161619514227,-5.807878915220499e-05,-68,-46,-1009,-159,11,0,275,175,2,95533.0
14:57:24.976,AUTO,-35.3632244,149.1652669,21419,0.031213931739330292,-0.18249647319316864,0.6184667944908142,-0.16112621128559113,0.01032161619514227,-5.807878915220499e-05,-68,-46,-1009,-159,11,0,275,175,2,95533.0
14:57:25.178,AUTO,-35.3632244,149.1652669,21419,0.031213931739330292,-0.18249647319316864,0.6184667944908142,-0.16112621128559113,0.01032161619514227,-5.807878915220499e-05,-68,-46,-1009,-159,11,0,275,175,2,95533.0
14:57:25.380,AUTO,-35.3632244,149.1652669,21419,0.031213931739330292,-0.18249647319316864,0.6184667944908142,-0.16112621128559113,0.01032161619514227,-5.807878915220499e-05,-68,-46,-1009,-159,11,0,275,175,2,95533.0
14:57:25.582,AUTO,-35.3632035,149.1652833,21392,0.04663786292076111,-0.18820920586585999,0.6181729435920715,-0.16604557633399963,0.007084099110215902,0.004001609515398741,-79,-53,-1002,-165,7,4,343,222,2,95533.0
14:57:25.784,AUTO,-35.3631955,149.1652897,21383,0.05296307057142258,-0.19147203862667084,0.616450846195221,0.0914241299033165,-0.016333704814314842,-0.009039850905537605,-84,-52,-999,92,-15,-9,366,237,2,95533.0
14:57:25.985,AUTO,-35.363187,149.1652964,21373,0.05673797428607941,-0.2019577920436859,0.6145886778831482,0.05713554471731186,-0.051085662096738815,-0.00148520537186414,-95,-49,-994,57,-50,-1,386,252,3,95533.0
14:57:26.187,AUTO,-35.3631781,149.1653036,21359,0.05737480893731117,-0.21170692145824432,0.6134918332099915,-0.037559568881988525,-0.02821584790945053,0.0009056600392796099,-102,-45,-995,-36,-27,0,407,269,4,95533.0
14:57:26.389,AUTO,-35.3631781,149.1653036,21359,0.05737480893731117,-0.21170692145824432,0.6134918332099915,-0.037559568881988525,-0.02821584790945053,0.0009056600392796099,-102,-45,-995,-36,-27,0,407,269,4,95533.0
14:57:26.591,AUTO,-35.3631686,149.1653112,21344,0.059089403599500656,-0.21349819004535675,0.6121553182601929,-0.013187069445848465,-0.008658193051815033,0.0034245834685862064,-108,-42,-1000,-12,-7,3,430,286,5,95533.0
14:57:26.793,AUTO,-35.3631586,149.1653192,21329,0.06464474648237228,-0.2093767374753952,0.6115128993988037,0.054440949112176895,0.03235769644379616,0.000170501705724746,-116,-60,-1009,55,33,0,453,300,4,95533.0
14:57:26.995,AUTO,-35.3631586,149.1653192,21329,0.06464474648237228,-0.2093767374753952,0.6115128993988037,0.054440949112176895,0.03235769644379616,0.000170501705724746,-116,-60,-1009,55,33,0,453,300,4,95533.0
14:57:27.197,AUTO,-35.3631586,149.1653192,21329,0.06464474648237228,-0.2093767374753952,0.6115128993988037,0.054440949112176895,0.03235769644379616,0.000170501705724746,-116,-60,-1009,55,33,0,453,300,4,95533.0
14:57:27.400,AUTO,-35.3631586,149.1653192,21329,0.06464474648237228,-0.2093767374753952,0.6115128993988037,0.054440949112176895,0.03235769644379616,0.000170501705724746,-116,-60,-1009,55,33,0,453,300,4,300000.0
14:57:27.602,AUTO,-35.363126,149.1653455,21318,0.07488430291414261,-0.1860445886850357,0.6103518605232239,0.05862374231219292,0.038107652217149734,-0.000974981754552573,-120,-63,-995,59,39,-1,503,336,-1,300000.0
14:57:27.804,AUTO,-35.3631145,149.1653548,21322,0.07656455785036087,-0.18023139238357544,0.6103308200836182,0.0022308342158794403,0.0196540467441082,0.0042009311728179455,-121,-67,-991,3,20,3,514,346,-2,300000.0
14:57:28.005,AUTO,-35.3631028,149.1653644,21325,0.07323862612247467,-0.177670419216156,0.6113957166671753,0.03249739482998848,0.007715549785643816,0.002858074614778161,-124,-61,-988,33,8,2,525,355,-1,300000.0
14:57:28.207,AUTO,-35.3630907,149.1653744,21326,0.07639700919389725,-0.17541289329528809,0.6107445359230042,0.04087802767753601,0.029892155900597572,-0.00973154604434967,-123,-73,-982,41,30,-9,536,362,0,300000.0
14:57:28.409,AUTO,-35.3630907,149.1653744,21326,0.07639700919389725,-0.17541289329528809,0.6107445359230042,0.04087802767753601,0.029892155900597572,-0.00973154604434967,-123,-73,-982,41,30,-9,536,362,0,300000.0
14:57:28.611,AUTO,-35.3630784,149.1653844,21327,0.07820817828178406,-0.1639489084482193,0.6098852157592773,0.024374695494771004,0.06588098406791687,-0.009690547361969948,-121,-79,-999,25,67,-9,546,369,-1,300000.0
14:57:28.813,AUTO,-35.363066,149.1653946,21332,0.07838316261768341,-0.15706416964530945,0.609488308429718,-0.027562713250517845,-0.005587426014244556,0.0022333567030727863,-117,-77,-978,-26,-4,2,551,373,-2,300000.0
14:57:29.015,AUTO,-35.363066,149.1653946,21332,0.07838316261768341,-0.15706416964530945,0.609488308429718,-0.027562713250517845,-0.005587426014244556,0.0022333567030727863,-117,-77,-978,-26,-4,2,551,373,-2,300000.0
14:57:29.217,AUTO,-35.363066,149.1653946,21332,0.07838316261768341,-0.15706416964530945,0.609488308429718,-0.027562713250517845,-0.005587426014244556,0.0022333567030727863,-117,-77,-978,-26,-4,2,551,373,-2,300000.0
14:57:29.419,AUTO,-35.363066,149.1653946,21332,0.07838316261768341,-0.15706416964530945,0.609488308429718,-0.027562713250517845,-0.005587426014244556,0.0022333567030727863,-117,-77,-978,-26,-4,2,551,373,-2,300000.0
14:57:29.621,AUTO,-35.3630283,149.1654257,21332,0.07575801014900208,-0.1452142745256424,0.6101588606834412,-0.04360383749008179,0.044220034033060074,0.00680825300514698,-136,-68,-991,-42,45,6,565,383,0,300000.0
14:57:29.822,AUTO,-35.3630155,149.1654363,21333,0.07700256258249283,-0.13438963890075684,0.6099932193756104,-0.03623798489570618,0.04686473309993744,-0.005822692532092333,-140,-87,-998,-35,47,-5,567,384,0,300000.0
14:57:30.024,AUTO,-35.3630026,149.1654468,21336,0.08172056078910828,-0.12579239904880524,0.6088863015174866,0.024389132857322693,0.0066412389278411865,-0.006181113887578249,-138,-77,-989,25,7,-6,566,382,-1,300000.0
14:57:30.226,AUTO,-35.3629898,149.1654573,21340,0.08353476226329803,-0.12385521084070206,0.6079162955284119,0.0009750041645020247,-0.003975768573582172,-0.005255523137748241,-135,-80,-982,1,-3,-5,564,381,0,300000.0
14:57:30.429,AUTO,-35.3629771,149.1654678,21339,0.08432570099830627,-0.12988242506980896,0.6075162887573242,-0.023393644019961357,0.0016609992599114776,0.006973080802708864,-139,-92,-977,-22,2,6,564,379,3,300000.0
14:57:30.631,AUTO,-35.3629771,149.1654678,21339,0.08432570099830627,-0.12988242506980896,0.6075162887573242,-0.023393644019961357,0.0016609992599114776,0.006973080802708864,-139,-92,-977,-22,2,6,564,379,3,300000.0
14:57:30.833,AUTO,-35.3629643,149.1654783,21329,0.0843433290719986,-0.13389712572097778,0.6067145466804504,-0.07169266045093536,-0.0019098286284133792,-0.007285550702363253,-133,-81,-975,-70,-1,-7,564,379,6,300000.0
14:57:31.037,AUTO,-35.3629643,149.1654783,21329,0.0843433290719986,-0.13389712572097778,0.6067145466804504,-0.07169266045093536,-0.0019098286284133792,-0.007285550702363253,-133,-81,-975,-70,-1,-7,564,379,6,300000.0
14:57:31.240,AUTO,-35.3629643,149.1654783,21329,0.0843433290719986,-0.13389712572097778,0.6067145466804504,-0.07169266045093536,-0.0019098286284133792,-0.007285550702363253,-133,-81,-975,-70,-1,-7,564,379,6,300000.0
14:57:31.442,AUTO,-35.3629261,149.1655101,21273,0.07759130001068115,-0.1414976865053177,0.6046192049980164,-0.02746047079563141,-0.010333745740354061,0.0030325003899633884,-129,-80,-980,-26,-9,2,566,381,9,200.0
14:57:31.644,AUTO,-35.3629261,149.1655101,21273,0.07759130001068115,-0.1414976865053177,0.6046192049980164,-0.02746047079563141,-0.010333745740354061,0.0030325003899633884,-129,-80,-980,-26,-9,2,566,381,9,200.0
14:57:31.846,AUTO,-35.3629133,149.1655207,21250,0.0768430158495903,-0.13667355477809906,0.6043919324874878,-0.0073979757726192474,0.03128277137875557,0.008195643313229084,-121,-86,-994,-6,32,7,569,382,8,200.0
14:57:32.047,AUTO,-35.3629004,149.1655314,21232,0.07626941055059433,-0.13468503952026367,0.6042434573173523,-0.014671187847852707,0.011428928934037685,0.009740915149450302,-135,-84,-993,-13,12,9,570,381,6,200.0
14:57:32.249,AUTO,-35.3628875,149.165542,21217,0.07759042829275131,-0.1328759342432022,0.6040706634521484,-0.02372650057077408,0.010377826169133186,-0.005603034049272537,-137,-89,-991,-22,11,-6,571,380,5,200.0
14:57:32.452,AUTO,-35.3628747,149.1655526,21202,0.07904604822397232,-0.13260552287101746,0.6033366322517395,0.0322745144367218,-0.013915455900132656,-0.006809283513575792,-136,-80,-990,33,-12,-6,572,380,5,200.0
14:57:32.654,AUTO,-35.3628747,149.1655526,21202,0.07904604822397232,-0.13260552287101746,0.6033366322517395,0.0322745144367218,-0.013915455900132656,-0.006809283513575792,-136,-80,-990,33,-12,-6,572,380,5,200.0
14:57:32.856,AUTO,-35.3628618,149.1655632,21188,0.08237355947494507,-0.13077157735824585,0.6023228168487549,0.02888762764632702,-0.0008258610032498837,-0.004209885373711586,-144,-73,-996,29,0,-4,573,379,5,200.0
14:57:33.058,AUTO,-35.3628618,149.1655632,21188,0.08237355947494507,-0.13077157735824585,0.6023228168487549,0.02888762764632702,-0.0008258610032498837,-0.004209885373711586,-144,-73,-996,29,0,-4,573,379,5,200.0
14:57:33.261,AUTO,-35.3628618,149.1655632,21188,0.08237355947494507,-0.13077157735824585,0.6023228168487549,0.02888762764632702,-0.0008258610032498837,-0.004209885373711586,-144,-73,-996,29,0,-4,573,379,5,200.0
14:57:33.463,AUTO,-35.3628231,149.1655949,21151,0.08171264827251434,-0.1313183307647705,0.6017439961433411,0.029709747061133385,-0.003946431912481785,0.0035754588898271322,-138,-84,-990,30,-2,3,572,377,4,200.0
14:57:33.666,AUTO,-35.3628231,149.1655949,21151,0.08171264827251434,-0.1313183307647705,0.6017439961433411,0.029709747061133385,-0.003946431912481785,0.0035754588898271322,-138,-84,-990,30,-2,3,572,377,4,200.0
14:57:33.867,AUTO,-35.3628102,149.1656055,21138,0.0797833800315857,-0.13087323307991028,0.6017541289329529,-0.027687638998031616,0.020428577437996864,0.004717428702861071,-133,-80,-986,-27,21,4,572,378,4,200.0
14:57:34.069,AUTO,-35.3627973,149.1656161,21126,0.07870100438594818,-0.12922410666942596,0.600980818271637,-0.024037642404437065,-0.013252229429781437,-0.0003508075897116214,-139,-77,-988,-23,-11,0,572,377,4,200.0
14:57:34.271,AUTO,-35.3627843,149.1656268,21114,0.08005519211292267,-0.1276390552520752,0.6005110740661621,0.039984311908483505,0.003423190675675869,-0.0031523369252681732,-133,-81,-988,40,4,-3,572,376,3,200.0
14:57:34.473,AUTO,-35.3627714,149.1656373,21103,0.08140517771244049,-0.12769575417041779,0.6001152396202087,-0.044741690158843994,0.010005157440900803,-0.002376032527536154,-138,-85,-985,-43,11,-2,571,375,4,200.0
14:57:34.675,AUTO,-35.3627714,149.1656373,21103,0.08140517771244049,-0.12769575417041779,0.6001152396202087,-0.044741690158843994,0.010005157440900803,-0.002376032527536154,-138,-85,-985,-43,11,-2,571,375,4,200.0
14:57:34.877,AUTO,-35.3627587,149.1656477,21091,0.07989192754030228,-0.1304798573255539,0.6001869440078735,0.007610808592289686,-0.022332658991217613,0.00109446095302701,-140,-86,-987,8,-21,1,570,374,4,200.0
14:57:35.079,AUTO,-35.3627587,149.1656477,21091,0.07989192754030228,-0.1304798573255539,0.6001869440078735,0.007610808592289686,-0.022332658991217613,0.00109446095302701,-140,-86,-987,8,-21,1,570,374,4,200.0
14:57:35.280,AUTO,-35.3627587,149.1656477,21091,0.07989192754030228,-0.1304798573255539,0.6001869440078735,0.007610808592289686,-0.022332658991217613,0.00109446095302701,-140,-86,-987,8,-21,1,570,374,4,200.0
14:57:35.482,AUTO,-35.3627204,149.165679,21048,0.07580213248729706,-0.13170784711837769,0.5992617011070251,0.011981423012912273,0.0038335276767611504,-0.0022174781188368797,-135,-78,-988,12,4,-2,568,374,4,49171.0
14:57:35.684,AUTO,-35.3627076,149.1656894,21034,0.07858163118362427,-0.13725875318050385,0.5987266898155212,0.06264108419418335,-0.04320746660232544,-0.003884617704898119,-147,-83,-983,63,-42,-4,567,372,5,49171.0
14:57:35.886,AUTO,-35.3627076,149.1656894,21034,0.07858163118362427,-0.13725875318050385,0.5987266898155212,0.06264108419418335,-0.04320746660232544,-0.003884617704898119,-147,-83,-983,63,-42,-4,567,372,5,49171.0
14:57:36.088,AUTO,-35.3626948,149.1656998,21016,0.08101695030927658,-0.13425981998443604,0.5986767411231995,-0.016034523025155067,0.055699221789836884,-0.0004565214039757848,-111,-60,-987,-15,57,0,569,374,6,49171.0
14:57:36.290,AUTO,-35.3626818,149.1657103,21002,0.08007101714611053,-0.12460754811763763,0.5991042256355286,-0.004145008511841297,-0.001751815201714635,-0.001057309564203024,-133,-78,-995,-3,0,-1,568,374,2,49171.0
14:57:36.493,AUTO,-35.3626689,149.1657206,20995,0.08425991237163544,-0.12749122083187103,0.598150372505188,0.03085126355290413,0.004889918025583029,-0.0011093855137005448,-124,-95,-982,31,6,-1,568,372,2,49171.0
14:57:36.695,AUTO,-35.3626561,149.1657309,20985,0.08783940970897675,-0.12810882925987244,0.5970426201820374,0.00028949009720236063,-0.0028930967673659325,0.0004864945076406002,-136,-88,-992,1,-1,0,568,372,3,49171.0
14:57:36.897,AUTO,-35.3626561,149.1657309,20985,0.08783940970897675,-0.12810882925987244,0.5970426201820374,0.00028949009720236063,-0.0028930967673659325,0.0004864945076406002,-136,-88,-992,1,-1,0,568,372,3,49171.0
14:57:37.098,AUTO,-35.3626561,149.1657309,20985,0.08783940970897675,-0.12810882925987244,0.5970426201820374,0.00028949009720236063,-0.0028930967673659325,0.0004864945076406002,-136,-88,-992,1,-1,0,568,372,3,49171.0
14:57:37.300,AUTO,-35.3626561,149.1657309,20985,0.08783940970897675,-0.12810882925987244,0.5970426201820374,0.00028949009720236063,-0.0028930967673659325,0.0004864945076406002,-136,-88,-992,1,-1,0,568,372,3,49171.0
14:57:37.502,AUTO,-35.3626174,149.1657621,20955,0.08584044873714447,-0.11260151118040085,0.5978574156761169,-0.014985127374529839,0.06851503252983093,-0.002644769148901105,-133,-87,-1009,-14,69,-2,564,373,1,49171.0
14:57:37.704,AUTO,-35.3626048,149.1657724,20954,0.08704066276550293,-0.09826288372278214,0.5977351069450378,-0.015300128608942032,0.04543042182922363,-0.01149023324251175,-139,-68,-996,-14,46,-11,558,371,-1,49171.0
14:57:37.906,AUTO,-35.3626048,149.1657724,20954,0.08704066276550293,-0.09826288372278214,0.5977351069450378,-0.015300128608942032,0.04543042182922363,-0.01149023324251175,-139,-68,-996,-14,46,-11,558,371,-1,49171.0
14:57:38.109,AUTO,-35.3625922,149.1657826,20959,0.08985546976327896,-0.08425847440958023,0.5970327854156494,0.056156277656555176,0.08920447528362274,-0.022700747475028038,-117,-79,-987,56,90,-22,552,366,-2,49171.0
14:57:38.310,AUTO,-35.3625798,149.1657926,20968,0.08827957510948181,-0.07128161936998367,0.5975826978683472,-0.042171377688646317,0.04353942349553108,-0.0017217949498444796,-129,-78,-988,-41,45,-1,541,360,-3,49171.0
14:57:38.512,AUTO,-35.3625677,149.1658025,20976,0.0837276354432106,-0.05850603058934212,0.5983647108078003,-0.047320201992988586,0.05668662488460541,-0.00019063896615989506,-124,-81,-989,-46,57,0,529,354,-2,49171.0
14:57:38.714,AUTO,-35.3625558,149.1658124,20984,0.08258376270532608,-0.04833085462450981,0.5989333987236023,0.04349369555711746,0.033561307936906815,0.004475187510251999,-121,-76,-983,44,35,4,514,344,-2,49171.0
14:57:38.916,AUTO,-35.3625558,149.1658124,20984,0.08258376270532608,-0.04833085462450981,0.5989333987236023,0.04349369555711746,0.033561307936906815,0.004475187510251999,-121,-76,-983,44,35,4,514,344,-2,49171.0
14:57:39.118,AUTO,-35.3625558,149.1658124,20984,0.08258376270532608,-0.04833085462450981,0.5989333987236023,0.04349369555711746,0.033561307936906815,0.004475187510251999,-121,-76,-983,44,35,4,514,344,-2,49171.0
14:57:39.320,AUTO,-35.3625558,149.1658124,20984,0.08258376270532608,-0.04833085462450981,0.5989333987236023,0.04349369555711746,0.033561307936906815,0.004475187510251999,-121,-76,-983,44,35,4,514,344,-2,49171.0
14:57:39.522,AUTO,-35.3625228,149.1658396,20985,0.07603989541530609,-0.017048919573426247,0.5987663865089417,0.07729975134134293,0.04092027619481087,-0.010757822543382645,-107,-69,-989,78,41,-10,465,312,1,300000.0
14:57:39.723,AUTO,-35.3625126,149.1658481,20979,0.07639923691749573,-0.00517447991296649,0.5985377430915833,0.1890185922384262,0.04087748005986214,-0.006540102418512106,-109,-70,-994,189,42,-6,446,299,3,300000.0
