time_stamp,MODE,lat,lon,relative_alt,roll,pitch,yaw,rollspeed,pitchspeed,yawspeed,xacc,yacc,zacc,xgyro,ygyro,zgyro,vx,vy,vz,RTL_ALT
18:59:32.242,STABILIZE,-35.3632621,149.1652374,0,-0.0004281252040527761,0.0012488416396081448,0.02931518852710724,0.00016416609287261963,0.0002071626076940447,0.002651800634339452,0,1,-1000,0,0,0,-3,3,1,1500.0
18:59:32.444,STABILIZE,-35.3632621,149.1652374,0,-0.0004281252040527761,0.0012488416396081448,0.02931518852710724,0.00016416609287261963,0.0002071626076940447,0.002651800634339452,0,1,-1000,0,0,0,-3,3,1,1500.0
18:59:32.645,STABILIZE,-35.3632621,149.1652374,0,-0.0004281252040527761,0.0012488416396081448,0.02931518852710724,0.00016416609287261963,0.0002071626076940447,0.002651800634339452,0,1,-1000,0,0,0,-3,3,1,1500.0
18:59:32.847,STABILIZE,-35.3632621,149.1652374,0,-0.0004281252040527761,0.0012488416396081448,0.02931518852710724,0.00016416609287261963,0.0002071626076940447,0.002651800634339452,0,1,-1000,0,0,0,-3,3,1,1500.0
18:59:33.048,STABILIZE,-35.3632621,149.1652374,0,-0.0004281252040527761,0.0012488416396081448,0.02931518852710724,0.00016416609287261963,0.0002071626076940447,0.002651800634339452,0,1,-1000,0,0,0,-3,3,1,1500.0
18:59:33.250,STABILIZE,-35.3632621,149.1652374,0,-0.0004281252040527761,0.0012488416396081448,0.02931518852710724,0.00016416609287261963,0.0002071626076940447,0.002651800634339452,0,1,-1000,0,0,0,-3,3,1,1500.0
18:59:33.452,STABILIZE,-35.3632621,149.1652374,0,-0.0004281252040527761,0.0012488416396081448,0.02931518852710724,0.00016416609287261963,0.0002071626076940447,0.002651800634339452,0,1,-1000,0,0,0,-3,3,1,1500.0
18:59:33.655,STABILIZE,-35.3632621,149.1652374,0,-0.0004281252040527761,0.0012488416396081448,0.02931518852710724,0.00016416609287261963,0.0002071626076940447,0.002651800634339452,0,1,-1000,0,0,0,-3,3,1,1500.0
18:59:33.858,STABILIZE,-35.3632621,149.1652374,0,-0.0004281252040527761,0.0012488416396081448,0.02931518852710724,0.00016416609287261963,0.0002071626076940447,0.002651800634339452,0,1,-1000,0,0,0,-3,3,1,1500.0
18:59:34.059,STABILIZE,-35.3632621,149.1652374,0,-0.0005002859397791326,0.001268564141355455,0.028785893693566322,0.0002657347358763218,0.00020248672808520496,0.002521318383514881,0,1,-1000,0,0,0,0,0,1,1500.0
18:59:34.261,STABILIZE,-35.3632621,149.1652374,0,-0.0005002859397791326,0.001268564141355455,0.028785893693566322,0.0002657347358763218,0.00020248672808520496,0.002521318383514881,0,1,-1000,0,0,0,0,0,1,1500.0
18:59:34.464,STABILIZE,-35.3632621,149.1652374,0,-0.0005002859397791326,0.001268564141355455,0.028785893693566322,0.0002657347358763218,0.00020248672808520496,0.002521318383514881,0,1,-1000,0,0,0,0,0,1,1500.0
18:59:34.666,STABILIZE,-35.3632621,149.1652374,0,-0.0005002859397791326,0.001268564141355455,0.028785893693566322,0.0002657347358763218,0.00020248672808520496,0.002521318383514881,0,1,-1000,0,0,0,0,0,1,1500.0
18:59:34.869,STABILIZE,-35.3632621,149.1652374,0,-0.0005002859397791326,0.001268564141355455,0.028785893693566322,0.0002657347358763218,0.00020248672808520496,0.002521318383514881,0,1,-1000,0,0,0,0,0,1,1500.0
18:59:35.074,STABILIZE,-35.3632621,149.1652374,0,-0.0005002859397791326,0.001268564141355455,0.028785893693566322,0.0002657347358763218,0.00020248672808520496,0.002521318383514881,0,1,-1000,0,0,0,0,0,1,1500.0
18:59:35.277,STABILIZE,-35.3632621,149.1652374,0,-0.0005002859397791326,0.001268564141355455,0.028785893693566322,0.0002657347358763218,0.00020248672808520496,0.002521318383514881,0,1,-1000,0,0,0,0,0,1,1500.0
18:59:35.478,STABILIZE,-35.3632621,149.1652374,0,-0.0005002859397791326,0.001268564141355455,0.028785893693566322,0.0002657347358763218,0.00020248672808520496,0.002521318383514881,0,1,-1000,0,0,0,0,0,1,1500.0
18:59:35.684,STABILIZE,-35.3632621,149.1652374,0,-0.0005002859397791326,0.001268564141355455,0.028785893693566322,0.0002657347358763218,0.00020248672808520496,0.002521318383514881,0,1,-1000,0,0,0,0,0,1,1500.0
18:59:35.886,STABILIZE,-35.3632621,149.1652374,0,-0.0005002859397791326,0.001268564141355455,0.028785893693566322,0.0002657347358763218,0.00020248672808520496,0.002521318383514881,0,1,-1000,0,0,0,0,0,1,1500.0
18:59:36.088,STABILIZE,-35.3632621,149.1652374,0,-0.0003395860840100795,0.0015825943555682898,0.027516338974237442,0.0003118500462733209,0.00039694728911854327,0.0023200102150440216,0,1,-1000,0,0,0,0,0,1,1500.0
18:59:36.289,STABILIZE,-35.3632621,149.1652374,0,-0.0003395860840100795,0.0015825943555682898,0.027516338974237442,0.0003118500462733209,0.00039694728911854327,0.0023200102150440216,0,1,-1000,0,1,0,0,0,1,1500.0
18:59:36.491,STABILIZE,-35.3632621,149.1652374,0,-0.0003395860840100795,0.0015825943555682898,0.027516338974237442,0.0003118500462733209,0.00039694728911854327,0.0023200102150440216,0,1,-1000,0,1,0,0,0,1,1500.0
18:59:36.692,STABILIZE,-35.3632621,149.1652374,0,-0.0003395860840100795,0.0015825943555682898,0.027516338974237442,0.0003118500462733209,0.00039694728911854327,0.0023200102150440216,0,1,-1000,0,1,0,0,0,1,1500.0
18:59:36.894,STABILIZE,-35.3632621,149.1652374,0,-0.0003395860840100795,0.0015825943555682898,0.027516338974237442,0.0003118500462733209,0.00039694728911854327,0.0023200102150440216,0,1,-1000,0,1,0,0,0,1,1500.0
18:59:37.098,STABILIZE,-35.3632621,149.1652374,0,-0.0003395860840100795,0.0015825943555682898,0.027516338974237442,0.0003118500462733209,0.00039694728911854327,0.0023200102150440216,0,1,-1000,0,1,0,0,0,1,1500.0
18:59:37.299,STABILIZE,-35.3632621,149.1652374,0,-0.0003395860840100795,0.0015825943555682898,0.027516338974237442,0.0003118500462733209,0.00039694728911854327,0.0023200102150440216,0,1,-1000,0,1,0,0,0,1,1500.0
18:59:37.501,STABILIZE,-35.3632621,149.1652374,0,-0.0003395860840100795,0.0015825943555682898,0.027516338974237442,0.0003118500462733209,0.00039694728911854327,0.0023200102150440216,0,1,-1000,0,1,0,0,0,1,1500.0
18:59:37.705,STABILIZE,-35.3632621,149.1652374,0,-0.0003395860840100795,0.0015825943555682898,0.027516338974237442,0.0003118500462733209,0.00039694728911854327,0.0023200102150440216,0,1,-1000,0,1,0,0,0,1,1500.0
18:59:37.906,STABILIZE,-35.3632622,149.1652375,0,-0.0006521313334815204,0.001258578384295106,0.026173900812864304,0.00025134938186965883,0.00027088302886113524,0.0021453355439007282,0,1,-1000,0,1,0,-1,1,0,1500.0
18:59:38.107,STABILIZE,-35.3632622,149.1652375,0,-0.0006521313334815204,0.001258578384295106,0.026173900812864304,0.00025134938186965883,0.00027088302886113524,0.0021453355439007282,0,1,-1000,0,1,0,-1,1,0,1500.0
18:59:38.309,STABILIZE,-35.3632622,149.1652374,0,-0.0006521313334815204,0.001258578384295106,0.026173900812864304,0.00025134938186965883,0.00027088302886113524,0.0021453355439007282,0,1,-1000,0,0,0,-1,0,-2,1500.0
18:59:38.511,STABILIZE,-35.3632622,149.1652374,0,-0.0006521313334815204,0.001258578384295106,0.026173900812864304,0.00025134938186965883,0.00027088302886113524,0.0021453355439007282,0,1,-1000,0,0,0,-1,0,-2,1500.0
18:59:38.712,STABILIZE,-35.3632622,149.1652374,0,-0.0006521313334815204,0.001258578384295106,0.026173900812864304,0.00025134938186965883,0.00027088302886113524,0.0021453355439007282,0,1,-1000,0,0,0,-1,0,-2,1500.0
18:59:38.913,STABILIZE,-35.3632622,149.1652374,0,-0.0006521313334815204,0.001258578384295106,0.026173900812864304,0.00025134938186965883,0.00027088302886113524,0.0021453355439007282,0,1,-1000,0,0,0,-1,0,-2,1500.0
18:59:39.115,STABILIZE,-35.3632622,149.1652374,0,-0.0006521313334815204,0.001258578384295106,0.026173900812864304,0.00025134938186965883,0.00027088302886113524,0.0021453355439007282,0,1,-1000,0,0,0,-1,0,-2,1500.0
18:59:39.320,STABILIZE,-35.3632622,149.1652374,0,-0.0006521313334815204,0.001258578384295106,0.026173900812864304,0.00025134938186965883,0.00027088302886113524,0.0021453355439007282,0,1,-1000,0,0,0,-1,0,-2,1500.0
18:59:39.525,STABILIZE,-35.3632622,149.1652374,0,-0.0006521313334815204,0.001258578384295106,0.026173900812864304,0.00025134938186965883,0.00027088302886113524,0.0021453355439007282,0,1,-1000,0,0,0,-1,0,-2,1500.0
18:59:39.727,STABILIZE,-35.3632622,149.1652374,0,-0.0006521313334815204,0.001258578384295106,0.026173900812864304,0.00025134938186965883,0.00027088302886113524,0.0021453355439007282,0,1,-1000,0,0,0,-1,0,-2,1500.0
18:59:39.929,STABILIZE,-35.3632622,149.1652374,0,-0.0005368795827962458,0.0009455325780436397,0.02509153261780739,0.0002389515284448862,0.0002829717705026269,0.0020202978048473597,0,2,-1000,1,0,0,-1,0,-2,1500.0
18:59:40.130,STABILIZE,-35.3632622,149.1652374,0,-0.0005435336497612298,0.0009325947612524033,0.02500508911907673,0.0002299424377270043,0.000293724297080189,0.0019634952768683434,0,2,-1000,1,0,0,-1,0,-2,1500.0
18:59:40.331,STABILIZE,-35.3632622,149.1652374,0,-0.0005520436679944396,0.0009250551811419427,0.024968910962343216,0.00021023559384047985,0.0002563250600360334,0.0021145096980035305,0,1,-1000,0,0,0,-1,1,-1,1500.0
18:59:40.533,STABILIZE,-35.3632622,149.1652374,0,-0.0005520436679944396,0.0009250551811419427,0.024968910962343216,0.00021023559384047985,0.0002563250600360334,0.0021145096980035305,0,1,-1000,0,0,0,-1,1,-1,1500.0
18:59:40.735,STABILIZE,-35.3632622,149.1652374,0,-0.0005520436679944396,0.0009250551811419427,0.024968910962343216,0.00021023559384047985,0.0002563250600360334,0.0021145096980035305,0,1,-1000,0,0,0,-1,1,-1,1500.0
18:59:40.936,STABILIZE,-35.3632622,149.1652374,0,-0.0005520436679944396,0.0009250551811419427,0.024968910962343216,0.00021023559384047985,0.0002563250600360334,0.0021145096980035305,0,1,-1000,0,0,0,-1,1,-1,1500.0
18:59:41.139,STABILIZE,-35.3632622,149.1652374,0,-0.0005520436679944396,0.0009250551811419427,0.024968910962343216,0.00021023559384047985,0.0002563250600360334,0.0021145096980035305,0,1,-1000,0,0,0,-1,1,-1,1500.0
18:59:41.340,STABILIZE,-35.3632622,149.1652374,0,-0.0005936118541285396,0.0009203327936120331,0.024755604565143585,0.0002971164067275822,0.00014135724632069468,0.0019224181305617094,0,1,-1000,0,0,0,-1,1,-1,1500.0
18:59:41.541,STABILIZE,-35.3632622,149.1652374,0,-0.0005936118541285396,0.0009203327936120331,0.024755604565143585,0.0002971164067275822,0.00014135724632069468,0.0019224181305617094,0,1,-1000,0,0,0,-1,1,-1,1500.0
18:59:41.743,STABILIZE,-35.3632622,149.1652374,0,-0.0005936118541285396,0.0009203327936120331,0.024755604565143585,0.0002971164067275822,0.00014135724632069468,0.0019224181305617094,0,1,-1000,0,0,0,-1,1,-1,1500.0
18:59:41.944,STABILIZE,-35.3632622,149.1652374,0,-0.0004550224111881107,0.0009061272721737623,0.024537935853004456,0.0002125122700817883,0.0003009219071827829,0.002055130898952484,0,1,-1000,0,0,0,-1,0,-2,1500.0
18:59:42.146,STABILIZE,-35.3632622,149.1652374,4,-0.0004311925149522722,0.0009098212467506528,0.02421901375055313,0.00044394435826689005,0.00021035183453932405,0.0017746718367561698,0,1,-1000,0,0,1,-1,1,-1,1500.0
18:59:42.347,STABILIZE,-35.3632622,149.1652374,4,-0.000428808038122952,0.0009204013622365892,0.024051876738667488,0.00022287864703685045,0.00022557348711416125,0.0018907643388956785,0,2,-1000,0,1,0,-1,1,-1,1500.0
18:59:42.553,STABILIZE,-35.3632622,149.1652374,4,-0.000428808038122952,0.0009204013622365892,0.024051876738667488,0.00022287864703685045,0.00022557348711416125,0.0018907643388956785,0,2,-1000,0,1,0,-1,1,-1,1500.0
18:59:42.754,STABILIZE,-35.3632622,149.1652374,4,-0.000428808038122952,0.0009204013622365892,0.024051876738667488,0.00022287864703685045,0.00022557348711416125,0.0018907643388956785,0,2,-1000,0,1,0,-1,1,-1,1500.0
18:59:42.958,STABILIZE,-35.3632622,149.1652374,4,-0.000428808038122952,0.0009204013622365892,0.024051876738667488,0.00022287864703685045,0.00022557348711416125,0.0018907643388956785,0,2,-1000,0,1,0,-1,1,-1,1500.0
18:59:43.160,STABILIZE,-35.3632622,149.1652374,4,-0.000428808038122952,0.0009204013622365892,0.024051876738667488,0.00022287864703685045,0.00022557348711416125,0.0018907643388956785,0,2,-1000,0,1,0,-1,1,-1,1500.0
18:59:43.365,STABILIZE,-35.3632622,149.1652374,4,-0.00043687786092050374,0.0009370196494273841,0.02387542836368084,0.0002176750567741692,0.0003308318555355072,0.0017981030978262424,0,2,-1000,0,1,0,-1,1,-1,1500.0
18:59:43.568,STABILIZE,-35.3632622,149.1652374,4,-0.00043687786092050374,0.0009370196494273841,0.02387542836368084,0.0002176750567741692,0.0003308318555355072,0.0017981030978262424,0,2,-1000,0,1,0,-1,1,-1,1500.0
18:59:43.769,STABILIZE,-35.3632622,149.1652374,4,-0.00043687786092050374,0.0009370196494273841,0.02387542836368084,0.0002176750567741692,0.0003308318555355072,0.0017981030978262424,0,2,-1000,0,1,0,-1,1,-1,1500.0
18:59:43.971,STABILIZE,-35.3632622,149.1652375,3,-0.00044228730257600546,0.0009538345620967448,0.023751400411128998,0.0003054735134355724,0.0002299943589605391,0.0017933816416189075,0,1,-1000,0,0,1,-1,1,-1,1500.0
18:59:44.174,STABILIZE,-35.3632622,149.1652375,0,-0.0005325480597093701,0.0009768899763002992,0.02332961931824684,0.00029741309117525816,0.00029899971559643745,0.0017546368762850761,0,2,-1000,0,0,0,-1,2,0,1500.0
18:59:44.376,STABILIZE,-35.3632622,149.1652375,0,-0.00022235143114812672,0.0009861886501312256,0.023267259821295738,0.01226020883768797,0.00020281720208004117,0.0017973600188270211,0,2,-1000,0,0,0,-1,4,2,1500.0
18:59:44.578,STABILIZE,-35.3632622,149.1652375,0,-0.00022235143114812672,0.0009861886501312256,0.023267259821295738,0.01226020883768797,0.00020281720208004117,0.0017973600188270211,0,2,-1000,0,0,0,-1,4,2,1500.0
18:59:44.782,STABILIZE,-35.3632622,149.1652375,0,-0.00022235143114812672,0.0009861886501312256,0.023267259821295738,0.01226020883768797,0.00020281720208004117,0.0017973600188270211,0,2,-1000,0,0,0,-1,4,2,1500.0
18:59:44.984,STABILIZE,-35.3632622,149.1652375,0,-0.00022235143114812672,0.0009861886501312256,0.023267259821295738,0.01226020883768797,0.00020281720208004117,0.0017973600188270211,0,2,-1000,0,0,0,-1,4,2,1500.0
18:59:45.187,STABILIZE,-35.3632622,149.1652375,0,-0.00022235143114812672,0.0009861886501312256,0.023267259821295738,0.01226020883768797,0.00020281720208004117,0.0017973600188270211,0,2,-1000,0,0,0,-1,4,2,1500.0
18:59:45.388,STABILIZE,-35.3632622,149.1652375,0,-0.00022235143114812672,0.0009861886501312256,0.023267259821295738,0.01226020883768797,0.00020281720208004117,0.0017973600188270211,0,2,-1000,0,0,0,-1,4,2,1500.0
18:59:45.589,STABILIZE,-35.3632622,149.1652375,0,-0.00022235143114812672,0.0009861886501312256,0.023267259821295738,0.01226020883768797,0.00020281720208004117,0.0017973600188270211,0,2,-1000,0,0,0,-1,4,2,1500.0
18:59:45.795,STABILIZE,-35.3632622,149.1652375,0,-0.00022235143114812672,0.0009861886501312256,0.023267259821295738,0.01226020883768797,0.00020281720208004117,0.0017973600188270211,0,2,-1000,0,0,0,-1,4,2,1500.0
18:59:45.999,STABILIZE,-35.3632622,149.1652376,0,-0.0006135593866929412,0.0009983229683712125,0.022791463881731033,0.00026841077487915754,0.00036943028680980206,0.0016660346882417798,0,2,-1000,0,0,0,-1,3,2,1500.0
18:59:49.732,STABILIZE,-35.3632622,149.1652376,0,-0.0006985345389693975,0.0009969986276701093,0.022734129801392555,0.0003140046028420329,0.00016183621482923627,0.00167340156622231,0,1,-1000,0,0,0,-1,2,2,1500.0
18:59:49.938,STABILIZE,-35.3632622,149.1652376,0,-0.0006985345389693975,0.0009969986276701093,0.022734129801392555,0.0003140046028420329,0.00016183621482923627,0.00167340156622231,0,1,-1000,0,0,0,-1,2,2,1500.0
18:59:50.140,STABILIZE,-35.3632622,149.1652376,0,-0.0006985345389693975,0.0009969986276701093,0.022734129801392555,0.0003140046028420329,0.00016183621482923627,0.00167340156622231,0,1,-1000,0,0,0,-1,2,2,1500.0
18:59:50.341,STABILIZE,-35.3632622,149.1652376,0,-0.0006985345389693975,0.0009969986276701093,0.022734129801392555,0.0003140046028420329,0.00016183621482923627,0.00167340156622231,0,1,-1000,0,0,0,-1,2,2,1500.0
18:59:50.544,STABILIZE,-35.3632622,149.1652376,0,-0.0006985345389693975,0.0009969986276701093,0.022734129801392555,0.0003140046028420329,0.00016183621482923627,0.00167340156622231,0,1,-1000,0,0,0,-1,2,2,1500.0
18:59:50.748,STABILIZE,-35.3632622,149.1652376,0,-0.0006985345389693975,0.0009969986276701093,0.022734129801392555,0.0003140046028420329,0.00016183621482923627,0.00167340156622231,0,1,-1000,0,0,0,-1,2,2,1500.0
18:59:50.951,STABILIZE,-35.3632622,149.1652376,0,-0.0006985345389693975,0.0009969986276701093,0.022734129801392555,0.0003140046028420329,0.00016183621482923627,0.00167340156622231,0,1,-1000,0,0,0,-1,2,2,1500.0
18:59:51.155,STABILIZE,-35.3632622,149.1652376,0,-0.0006985345389693975,0.0009969986276701093,0.022734129801392555,0.0003140046028420329,0.00016183621482923627,0.00167340156622231,0,1,-1000,0,0,0,-1,2,2,1500.0
18:59:51.356,STABILIZE,-35.3632622,149.1652376,0,-0.0006985345389693975,0.0009969986276701093,0.022734129801392555,0.0003140046028420329,0.00016183621482923627,0.00167340156622231,0,1,-1000,0,0,0,-1,2,2,1500.0
18:59:51.562,STABILIZE,-35.3632622,149.1652376,0,-0.0006985345389693975,0.0009969986276701093,0.022734129801392555,0.0003140046028420329,0.00016183621482923627,0.00167340156622231,0,1,-1000,1,0,0,-1,2,2,1500.0
18:59:51.771,STABILIZE,-35.3632622,149.1652375,0,-0.0009458038257434964,0.0009809461189433932,0.02219511941075325,-4.614598583430052e-05,0.00022492761490866542,0.0016698716208338737,0,2,-1000,1,0,0,-1,2,2,1500.0
18:59:51.974,STABILIZE,-35.3632622,149.1652375,0,-0.0009458038257434964,0.0009809461189433932,0.02219511941075325,-4.614598583430052e-05,0.00022492761490866542,0.0016698716208338737,0,2,-1000,1,0,0,-1,2,2,1500.0
18:59:52.179,STABILIZE,-35.3632622,149.1652375,0,-0.0009458038257434964,0.0009809461189433932,0.02219511941075325,-4.614598583430052e-05,0.00022492761490866542,0.0016698716208338737,0,2,-1000,1,0,0,-1,2,2,1500.0
18:59:52.380,STABILIZE,-35.3632622,149.1652375,0,-0.0009458038257434964,0.0009809461189433932,0.02219511941075325,-4.614598583430052e-05,0.00022492761490866542,0.0016698716208338737,0,2,-1000,1,0,0,-1,2,2,1500.0
18:59:52.582,STABILIZE,-35.3632622,149.1652375,0,-0.0009458038257434964,0.0009809461189433932,0.02219511941075325,-4.614598583430052e-05,0.00022492761490866542,0.0016698716208338737,0,2,-1000,1,0,0,-1,2,2,1500.0
18:59:52.786,STABILIZE,-35.3632622,149.1652375,0,-0.0009458038257434964,0.0009809461189433932,0.02219511941075325,-4.614598583430052e-05,0.00022492761490866542,0.0016698716208338737,0,2,-1000,1,0,0,-1,2,2,1500.0
18:59:52.988,STABILIZE,-35.3632622,149.1652375,0,-0.0009458038257434964,0.0009809461189433932,0.02219511941075325,-4.614598583430052e-05,0.00022492761490866542,0.0016698716208338737,0,2,-1000,1,0,0,-1,2,2,1500.0
18:59:53.202,STABILIZE,-35.3632622,149.1652375,0,-0.0009458038257434964,0.0009809461189433932,0.02219511941075325,-4.614598583430052e-05,0.00022492761490866542,0.0016698716208338737,0,2,-1000,1,0,0,-1,2,2,1500.0
18:59:53.404,STABILIZE,-35.3632622,149.1652375,0,-0.0009458038257434964,0.0009809461189433932,0.02219511941075325,-4.614598583430052e-05,0.00022492761490866542,0.0016698716208338737,0,2,-1000,1,0,0,-1,2,2,1500.0
18:59:53.606,STABILIZE,-35.3632622,149.1652375,0,-0.0009458038257434964,0.0009809461189433932,0.02219511941075325,-4.614598583430052e-05,0.00022492761490866542,0.0016698716208338737,0,2,-1000,1,0,0,-1,2,2,1500.0
18:59:53.809,STABILIZE,-35.3632622,149.1652375,0,-0.0012025858741253614,0.0009769094176590443,0.021906523033976555,0.0002262396737933159,0.0002565895556472242,0.0016868868842720985,0,1,-1000,1,0,0,-1,1,1,1500.0
18:59:54.016,STABILIZE,-35.3632622,149.1652375,0,-0.0012794591020792723,0.0009577167802490294,0.02176251821219921,0.0002557351836003363,0.00018156826263293624,0.0015887434128671885,0,1,-1000,1,0,0,-1,1,1,1500.0
18:59:54.221,STABILIZE,-35.3632622,149.1652375,0,-0.0012794591020792723,0.0009577167802490294,0.02176251821219921,0.0002557351836003363,0.00018156826263293624,0.0015887434128671885,0,1,-1000,1,0,0,-1,1,1,1500.0
18:59:54.424,STABILIZE,-35.3632622,149.1652375,0,-0.0012794591020792723,0.0009577167802490294,0.02176251821219921,0.0002557351836003363,0.00018156826263293624,0.0015887434128671885,0,1,-1000,1,0,0,-1,1,1,1500.0
18:59:54.636,STABILIZE,-35.3632622,149.1652375,0,-0.0012794591020792723,0.0009577167802490294,0.02176251821219921,0.0002557351836003363,0.00018156826263293624,0.0015887434128671885,0,1,-1000,1,0,0,-1,1,1,1500.0
18:59:54.838,STABILIZE,-35.3632622,149.1652375,0,-0.0012794591020792723,0.0009577167802490294,0.02176251821219921,0.0002557351836003363,0.00018156826263293624,0.0015887434128671885,0,1,-1000,1,0,0,-1,1,1,1500.0
18:59:55.040,STABILIZE,-35.3632622,149.1652375,0,-0.0012794591020792723,0.0009577167802490294,0.02176251821219921,0.0002557351836003363,0.00018156826263293624,0.0015887434128671885,0,1,-1000,1,0,0,-1,1,1,1500.0
18:59:55.242,STABILIZE,-35.3632622,149.1652375,0,-0.0012794591020792723,0.0009577167802490294,0.02176251821219921,0.0002557351836003363,0.00018156826263293624,0.0015887434128671885,0,1,-1000,1,0,0,-1,1,1,1500.0
18:59:55.445,STABILIZE,-35.3632622,149.1652375,0,-0.0012794591020792723,0.0009577167802490294,0.02176251821219921,0.0002557351836003363,0.00018156826263293624,0.0015887434128671885,0,1,-1000,1,0,0,-1,1,1,1500.0
18:59:55.646,STABILIZE,-35.3632622,149.1652375,0,-0.0012794591020792723,0.0009577167802490294,0.02176251821219921,0.0002557351836003363,0.00018156826263293624,0.0015887434128671885,0,1,-1000,1,0,0,-1,1,1,1500.0
18:59:55.848,STABILIZE,-35.3632622,149.1652375,0,-0.0012794591020792723,0.0009577167802490294,0.02176251821219921,0.0002557351836003363,0.00018156826263293624,0.0015887434128671885,0,1,-1000,1,0,0,-1,1,1,1500.0
18:59:56.049,STABILIZE,-35.3632622,149.1652375,0,-0.0012794591020792723,0.0009577167802490294,0.02176251821219921,0.0002557351836003363,0.00018156826263293624,0.0015887434128671885,0,1,-1000,1,0,0,-1,1,1,1500.0
18:59:56.252,STABILIZE,-35.3632622,149.1652375,0,-0.0012794591020792723,0.0009577167802490294,0.02176251821219921,0.0002557351836003363,0.00018156826263293624,0.0015887434128671885,0,1,-1000,1,0,0,-1,1,1,1500.0
18:59:56.453,STABILIZE,-35.3632622,149.1652375,0,-0.0012794591020792723,0.0009577167802490294,0.02176251821219921,0.0002557351836003363,0.00018156826263293624,0.0015887434128671885,0,1,-1000,1,0,0,-1,1,1,1500.0
18:59:56.656,STABILIZE,-35.3632622,149.1652375,0,-0.0012794591020792723,0.0009577167802490294,0.02176251821219921,0.0002557351836003363,0.00018156826263293624,0.0015887434128671885,0,1,-1000,1,0,0,-1,1,1,1500.0
18:59:56.859,STABILIZE,-35.3632622,149.1652375,0,-0.0012794591020792723,0.0009577167802490294,0.02176251821219921,0.0002557351836003363,0.00018156826263293624,0.0015887434128671885,0,1,-1000,1,0,0,-1,1,1,1500.0
18:59:57.060,STABILIZE,-35.3632622,149.1652375,0,-0.0012794591020792723,0.0009577167802490294,0.02176251821219921,0.0002557351836003363,0.00018156826263293624,0.0015887434128671885,0,1,-1000,1,0,0,-1,1,1,1500.0
18:59:57.262,STABILIZE,-35.3632622,149.1652375,0,-0.0012794591020792723,0.0009577167802490294,0.02176251821219921,0.0002557351836003363,0.00018156826263293624,0.0015887434128671885,0,1,-1000,1,0,0,-1,1,1,1500.0
18:59:57.464,STABILIZE,-35.3632622,149.1652375,0,-0.0012794591020792723,0.0009577167802490294,0.02176251821219921,0.0002557351836003363,0.00018156826263293624,0.0015887434128671885,0,1,-1000,1,0,0,-1,1,1,1500.0
18:59:57.665,STABILIZE,-35.3632622,149.1652375,0,-0.0012794591020792723,0.0009577167802490294,0.02176251821219921,0.0002557351836003363,0.00018156826263293624,0.0015887434128671885,0,1,-1000,1,0,0,-1,1,1,1500.0
18:59:57.866,STABILIZE,-35.3632622,149.1652375,0,-0.0012794591020792723,0.0009577167802490294,0.02176251821219921,0.0002557351836003363,0.00018156826263293624,0.0015887434128671885,0,1,-1000,1,0,0,-1,1,1,1500.0
18:59:58.068,STABILIZE,-35.3632622,149.1652375,0,-0.0012794591020792723,0.0009577167802490294,0.02176251821219921,0.0002557351836003363,0.00018156826263293624,0.0015887434128671885,0,1,-1000,1,0,0,-1,1,1,1500.0
18:59:58.270,STABILIZE,-35.3632622,149.1652375,0,-0.0012794591020792723,0.0009577167802490294,0.02176251821219921,0.0002557351836003363,0.00018156826263293624,0.0015887434128671885,0,1,-1000,1,0,0,-1,1,1,1500.0
18:59:58.472,STABILIZE,-35.3632622,149.1652375,0,-0.0012794591020792723,0.0009577167802490294,0.02176251821219921,0.0002557351836003363,0.00018156826263293624,0.0015887434128671885,0,1,-1000,1,0,0,-1,1,1,1500.0
18:59:58.673,STABILIZE,-35.3632622,149.1652375,0,-0.0012794591020792723,0.0009577167802490294,0.02176251821219921,0.0002557351836003363,0.00018156826263293624,0.0015887434128671885,0,1,-1000,1,0,0,-1,1,1,1500.0
18:59:58.875,STABILIZE,-35.3632622,149.1652375,0,-0.0012794591020792723,0.0009577167802490294,0.02176251821219921,0.0002557351836003363,0.00018156826263293624,0.0015887434128671885,0,1,-1000,1,0,0,-1,1,1,1500.0
18:59:59.076,STABILIZE,-35.3632622,149.1652375,0,-0.0012794591020792723,0.0009577167802490294,0.02176251821219921,0.0002557351836003363,0.00018156826263293624,0.0015887434128671885,0,1,-1000,1,0,0,-1,1,1,1500.0
18:59:59.278,STABILIZE,-35.3632622,149.1652375,0,-0.0012794591020792723,0.0009577167802490294,0.02176251821219921,0.0002557351836003363,0.00018156826263293624,0.0015887434128671885,0,1,-1000,1,0,0,-1,1,1,1500.0
18:59:59.479,STABILIZE,-35.3632622,149.1652375,0,-0.0012794591020792723,0.0009577167802490294,0.02176251821219921,0.0002557351836003363,0.00018156826263293624,0.0015887434128671885,0,1,-1000,1,0,0,-1,1,1,1500.0
18:59:59.680,STABILIZE,-35.3632622,149.1652375,0,-0.0012794591020792723,0.0009577167802490294,0.02176251821219921,0.0002557351836003363,0.00018156826263293624,0.0015887434128671885,0,1,-1000,1,0,0,-1,1,1,1500.0
18:59:59.882,STABILIZE,-35.3632622,149.1652375,0,-0.0012794591020792723,0.0009577167802490294,0.02176251821219921,0.0002557351836003363,0.00018156826263293624,0.0015887434128671885,0,1,-1000,1,0,0,-1,1,1,1500.0
19:00:00.084,AUTO,-35.3632622,149.1652374,7,-0.0010848218807950616,0.0009645225363783538,0.02152063138782978,0.0003290921449661255,0.0001810922403819859,0.001417330582626164,0,1,-1000,0,0,1,-1,0,-1,1500.0
19:00:00.287,AUTO,-35.3632622,149.1652374,7,-0.0010848218807950616,0.0009645225363783538,0.02152063138782978,0.0003290921449661255,0.0001810922403819859,0.001417330582626164,0,1,-1000,0,0,1,-1,0,-1,1500.0
19:00:00.488,AUTO,-35.3632622,149.1652374,7,-0.0010848218807950616,0.0009645225363783538,0.02152063138782978,0.0003290921449661255,0.0001810922403819859,0.001417330582626164,0,1,-1000,0,0,1,-1,0,-1,1500.0
19:00:00.690,AUTO,-35.3632622,149.1652374,7,-0.0010848218807950616,0.0009645225363783538,0.02152063138782978,0.0003290921449661255,0.0001810922403819859,0.001417330582626164,0,1,-1000,0,0,1,-1,0,-1,1500.0
19:00:00.894,AUTO,-35.3632622,149.1652374,7,-0.0010848218807950616,0.0009645225363783538,0.02152063138782978,0.0003290921449661255,0.0001810922403819859,0.001417330582626164,0,1,-1000,0,0,1,-1,0,-1,1500.0
19:00:01.096,AUTO,-35.3632622,149.1652374,7,-0.0010848218807950616,0.0009645225363783538,0.02152063138782978,0.0003290921449661255,0.0001810922403819859,0.001417330582626164,0,1,-1000,0,0,1,-1,0,-1,1500.0
19:00:01.298,AUTO,-35.3632622,149.1652374,7,-0.0010848218807950616,0.0009645225363783538,0.02152063138782978,0.0003290921449661255,0.0001810922403819859,0.001417330582626164,0,1,-1000,0,0,1,-1,0,-1,1500.0
19:00:01.499,AUTO,-35.3632621,149.1652375,1404,0.023048369213938713,-0.0007715073297731578,0.02026776596903801,0.04700799286365509,-0.0071112485602498055,0.0021517996210604906,0,0,-1017,47,-6,2,0,5,-144,1500.0
19:00:01.701,AUTO,-35.3632619,149.1652381,2165,0.04542544484138489,-0.004851216915994883,0.020611530169844627,0.04255044832825661,-0.00906401127576828,0.0032189269550144672,0,-2,-1002,43,-8,2,3,20,-148,1500.0
19:00:01.904,AUTO,-35.3632618,149.1652387,2549,0.05557539314031601,-0.0074983579106628895,0.02086290530860424,0.03924359008669853,-0.010945934802293777,0.003674125298857689,1,-5,-1000,40,-10,3,5,31,-148,1500.0
19:00:02.106,AUTO,-35.3632618,149.1652387,2549,0.05557539314031601,-0.0074983579106628895,0.02086290530860424,0.03924359008669853,-0.010945934802293777,0.003674125298857689,1,-5,-1000,40,-10,3,5,31,-148,1500.0
19:00:02.308,AUTO,-35.3632618,149.1652387,2549,0.05557539314031601,-0.0074983579106628895,0.02086290530860424,0.03924359008669853,-0.010945934802293777,0.003674125298857689,1,-5,-1000,40,-10,3,5,31,-148,1500.0
19:00:02.511,AUTO,-35.3632618,149.1652387,2549,0.05557539314031601,-0.0074983579106628895,0.02086290530860424,0.03924359008669853,-0.010945934802293777,0.003674125298857689,1,-5,-1000,40,-10,3,5,31,-148,1500.0
19:00:02.712,AUTO,-35.3632618,149.1652387,2549,0.05557539314031601,-0.0074983579106628895,0.02086290530860424,0.03924359008669853,-0.010945934802293777,0.003674125298857689,1,-5,-1000,40,-10,3,5,31,-148,1500.0
19:00:02.913,AUTO,-35.3632618,149.1652387,2549,0.05557539314031601,-0.0074983579106628895,0.02086290530860424,0.03924359008669853,-0.010945934802293777,0.003674125298857689,1,-5,-1000,40,-10,3,5,31,-148,1500.0
19:00:03.115,AUTO,-35.3632618,149.1652387,2549,0.05557539314031601,-0.0074983579106628895,0.02086290530860424,0.03924359008669853,-0.010945934802293777,0.003674125298857689,1,-5,-1000,40,-10,3,5,31,-148,1500.0
19:00:03.316,AUTO,-35.3632618,149.1652387,2549,0.05557539314031601,-0.0074983579106628895,0.02086290530860424,0.03924359008669853,-0.010945934802293777,0.003674125298857689,1,-5,-1000,40,-10,3,5,31,-148,1500.0
19:00:03.523,AUTO,-35.3632618,149.1652387,2549,0.05557539314031601,-0.0074983579106628895,0.02086290530860424,0.03924359008669853,-0.010945934802293777,0.003674125298857689,1,-5,-1000,40,-10,3,5,31,-148,1500.0
19:00:03.730,AUTO,-35.3632612,149.1652418,3544,0.018075818195939064,0.022079046815633774,-0.042695917189121246,-0.18326306343078613,0.0369693823158741,-0.08153098076581955,1,-5,-1000,40,-10,3,8,56,-144,1500.0
19:00:03.966,AUTO,-35.3632608,149.1652464,5457,-0.07151681929826736,0.0008504185825586319,-0.08721401542425156,-0.08726706355810165,-0.002107046078890562,-0.030018482357263565,2,-5,-998,-65,-7,-29,0,0,-148,1500.0
19:00:04.198,AUTO,-35.3632608,149.1652464,5457,-0.07151681929826736,0.0008504185825586319,-0.08721401542425156,-0.08726706355810165,-0.002107046078890562,-0.030018482357263565,1,-2,-998,-86,-1,-30,0,0,-148,1500.0
19:00:04.490,AUTO,-35.3632608,149.1652464,5457,-0.07151681929826736,0.0008504185825586319,-0.08721401542425156,-0.08726706355810165,-0.002107046078890562,-0.030018482357263565,1,-2,-998,-86,-1,-30,0,0,-148,1500.0
19:00:04.693,AUTO,-35.3632608,149.1652464,5457,-0.07151681929826736,0.0008504185825586319,-0.08721401542425156,-0.08726706355810165,-0.002107046078890562,-0.030018482357263565,1,-2,-998,-86,-1,-30,0,0,-148,1500.0
19:00:04.897,AUTO,-35.3632608,149.1652464,5457,-0.07151681929826736,0.0008504185825586319,-0.08721401542425156,-0.08726706355810165,-0.002107046078890562,-0.030018482357263565,1,-2,-998,-86,-1,-30,0,0,-148,1500.0
19:00:05.099,AUTO,-35.3632608,149.1652464,5457,-0.07151681929826736,0.0008504185825586319,-0.08721401542425156,-0.08726706355810165,-0.002107046078890562,-0.030018482357263565,1,-2,-998,-86,-1,-30,0,0,-148,1500.0
19:00:05.301,AUTO,-35.3632608,149.1652464,5457,-0.07151681929826736,0.0008504185825586319,-0.08721401542425156,-0.08726706355810165,-0.002107046078890562,-0.030018482357263565,1,-2,-998,-86,-1,-30,0,0,-148,1500.0
19:00:05.504,AUTO,-35.3632608,149.1652464,5457,-0.07151681929826736,0.0008504185825586319,-0.08721401542425156,-0.08726706355810165,-0.002107046078890562,-0.030018482357263565,1,-2,-998,-86,-1,-30,0,0,-148,1500.0
19:00:05.707,AUTO,-35.3632615,149.1652391,7927,0.007465154863893986,0.006904649548232555,-0.10567125678062439,0.06722364574670792,0.01055188849568367,0.0005226679495535791,-5,12,-1003,67,11,0,-11,-56,-151,1500.0
19:00:05.908,AUTO,-35.3632621,149.1652364,8711,0.04033500328660011,0.010787324979901314,-0.10427813231945038,0.06482508778572083,0.004718424286693335,0.0036187039222568274,-4,12,-1003,65,5,3,-15,-39,-153,1500.0
19:00:06.110,AUTO,-35.3632621,149.1652364,8711,0.04033500328660011,0.010787324979901314,-0.10427813231945038,0.06482508778572083,0.004718424286693335,0.0036187039222568274,-4,12,-1003,65,5,3,-15,-39,-153,1500.0
19:00:06.312,AUTO,-35.3632621,149.1652364,8711,0.04033500328660011,0.010787324979901314,-0.10427813231945038,0.06482508778572083,0.004718424286693335,0.0036187039222568274,-4,12,-1003,65,5,3,-15,-39,-153,1500.0
19:00:06.517,AUTO,-35.3632621,149.1652364,8711,0.04033500328660011,0.010787324979901314,-0.10427813231945038,0.06482508778572083,0.004718424286693335,0.0036187039222568274,-4,12,-1003,65,5,3,-15,-39,-153,1500.0
19:00:06.718,AUTO,-35.3632621,149.1652364,8711,0.04033500328660011,0.010787324979901314,-0.10427813231945038,0.06482508778572083,0.004718424286693335,0.0036187039222568274,-4,12,-1003,65,5,3,-15,-39,-153,1500.0
19:00:06.920,AUTO,-35.3632621,149.1652364,8711,0.04033500328660011,0.010787324979901314,-0.10427813231945038,0.06482508778572083,0.004718424286693335,0.0036187039222568274,-4,12,-1003,65,5,3,-15,-39,-153,1500.0
19:00:07.122,AUTO,-35.3632621,149.1652364,8711,0.04033500328660011,0.010787324979901314,-0.10427813231945038,0.06482508778572083,0.004718424286693335,0.0036187039222568274,-4,12,-1003,65,5,3,-15,-39,-153,1500.0
19:00:07.325,AUTO,-35.3632621,149.1652364,8711,0.04033500328660011,0.010787324979901314,-0.10427813231945038,0.06482508778572083,0.004718424286693335,0.0036187039222568274,-4,12,-1003,65,5,3,-15,-39,-153,1500.0
19:00:07.527,AUTO,-35.3632632,149.1652357,10884,0.0015453263185918331,-0.026038724929094315,-0.06177137792110443,-0.07171846181154251,0.05620267987251282,-0.03978484496474266,1,-4,-1002,-70,56,-40,10,20,-149,1500.0
19:00:07.729,AUTO,-35.363263,149.1652362,11268,-0.011394215747714043,-0.013530008494853973,-0.07479740679264069,-0.036289386451244354,0.04317618906497955,-0.05548008158802986,0,-5,-1004,-35,43,-55,15,16,-149,1500.0
19:00:07.930,AUTO,-35.3632627,149.1652365,11654,-0.017315583303570747,-0.005020396783947945,-0.08941153436899185,-0.012512349523603916,0.029482299461960793,-0.056522101163864136,-1,-4,-1004,-11,30,-56,17,10,-150,1500.0
19:00:08.132,AUTO,-35.3632627,149.1652365,11654,-0.017315583303570747,-0.005020396783947945,-0.08941153436899185,-0.012512349523603916,0.029482299461960793,-0.056522101163864136,-1,-4,-1004,-11,30,-56,17,10,-150,1500.0
19:00:08.334,AUTO,-35.3632627,149.1652365,11654,-0.017315583303570747,-0.005020396783947945,-0.08941153436899185,-0.012512349523603916,0.029482299461960793,-0.056522101163864136,-1,-4,-1004,-11,30,-56,17,10,-150,1500.0
19:00:08.535,AUTO,-35.3632627,149.1652365,11654,-0.017315583303570747,-0.005020396783947945,-0.08941153436899185,-0.012512349523603916,0.029482299461960793,-0.056522101163864136,-1,-4,-1004,-11,30,-56,17,10,-150,1500.0
19:00:08.737,AUTO,-35.3632627,149.1652365,11654,-0.017315583303570747,-0.005020396783947945,-0.08941153436899185,-0.012512349523603916,0.029482299461960793,-0.056522101163864136,-1,-4,-1004,-11,30,-56,17,10,-150,1500.0
19:00:08.939,AUTO,-35.3632627,149.1652365,11654,-0.017315583303570747,-0.005020396783947945,-0.08941153436899185,-0.012512349523603916,0.029482299461960793,-0.056522101163864136,-1,-4,-1004,-11,30,-56,17,10,-150,1500.0
19:00:09.155,AUTO,-35.3632627,149.1652365,11654,-0.017315583303570747,-0.005020396783947945,-0.08941153436899185,-0.012512349523603916,0.029482299461960793,-0.056522101163864136,-1,-4,-1004,-11,30,-56,17,10,-150,1500.0
19:00:09.363,AUTO,-35.3632627,149.1652365,11654,-0.017315583303570747,-0.005020396783947945,-0.08941153436899185,-0.012512349523603916,0.029482299461960793,-0.056522101163864136,-1,-4,-1004,-11,30,-56,17,10,-150,1500.0
19:00:09.571,AUTO,-35.3632627,149.1652365,11654,-0.017315583303570747,-0.005020396783947945,-0.08941153436899185,-0.012512349523603916,0.029482299461960793,-0.056522101163864136,-1,-4,-1004,-11,30,-56,17,10,-150,1500.0
19:00:09.789,AUTO,-35.3632609,149.1652357,14388,0.009236346930265427,0.0144745958968997,-0.15338994562625885,0.014307040721178055,-0.00311655062250793,-0.009815541096031666,-2,1,-1000,15,-2,-10,0,-6,-152,1500.0
19:00:09.999,AUTO,-35.3632609,149.1652355,14778,0.011749165132641792,0.01352592371404171,-0.1555493026971817,0.0076150596141815186,-0.005941297858953476,-0.003345236647874117,-1,1,-999,8,-5,-3,-3,-4,-152,1500.0
19:00:10.207,AUTO,-35.3632609,149.1652355,14778,0.011749165132641792,0.01352592371404171,-0.1555493026971817,0.0076150596141815186,-0.005941297858953476,-0.003345236647874117,-1,1,-999,8,-5,-3,-3,-4,-152,1500.0
19:00:10.418,AUTO,-35.3632609,149.1652355,14778,0.011749165132641792,0.01352592371404171,-0.1555493026971817,0.0076150596141815186,-0.005941297858953476,-0.003345236647874117,-1,1,-999,8,-5,-3,-3,-4,-152,1500.0
19:00:10.623,AUTO,-35.3632609,149.1652355,14778,0.011749165132641792,0.01352592371404171,-0.1555493026971817,0.0076150596141815186,-0.005941297858953476,-0.003345236647874117,-1,1,-999,8,-5,-3,-3,-4,-152,1500.0
19:00:10.826,AUTO,-35.3632609,149.1652355,14778,0.011749165132641792,0.01352592371404171,-0.1555493026971817,0.0076150596141815186,-0.005941297858953476,-0.003345236647874117,-1,1,-999,8,-5,-3,-3,-4,-152,1500.0
19:00:11.032,AUTO,-35.3632609,149.1652355,14778,0.011749165132641792,0.01352592371404171,-0.1555493026971817,0.0076150596141815186,-0.005941297858953476,-0.003345236647874117,-1,1,-999,8,-5,-3,-3,-4,-152,1500.0
19:00:11.235,AUTO,-35.3632609,149.1652355,14778,0.011749165132641792,0.01352592371404171,-0.1555493026971817,0.0076150596141815186,-0.005941297858953476,-0.003345236647874117,-1,1,-999,8,-5,-3,-3,-4,-152,1500.0
19:00:11.437,AUTO,-35.3632609,149.1652355,14778,0.011749165132641792,0.01352592371404171,-0.1555493026971817,0.0076150596141815186,-0.005941297858953476,-0.003345236647874117,-1,1,-999,8,-5,-3,-3,-4,-152,1500.0
19:00:11.640,AUTO,-35.3632612,149.1652353,16340,0.009226962924003601,0.0064417519606649876,-0.15997815132141113,-0.009119107387959957,-0.005300465971231461,-0.008454292081296444,1,0,-999,-8,-4,-8,-7,5,-152,1500.0
19:00:11.842,AUTO,-35.3632616,149.1652358,17906,0.0029050421435385942,0.00193060003221035,-0.1728745549917221,-0.0029245857149362564,-0.003628373611718416,-0.016853854060173035,1,0,-1000,-2,-2,-16,-6,7,-152,1500.0
19:00:12.044,AUTO,-35.3632616,149.1652358,17906,0.0029050421435385942,0.00193060003221035,-0.1728745549917221,-0.0029245857149362564,-0.003628373611718416,-0.016853854060173035,1,0,-1000,-2,-2,-16,-6,7,-152,1500.0
19:00:12.246,AUTO,-35.3632616,149.1652358,17906,0.0029050421435385942,0.00193060003221035,-0.1728745549917221,-0.0029245857149362564,-0.003628373611718416,-0.016853854060173035,1,0,-1000,-2,-2,-16,-6,7,-152,1500.0
19:00:12.450,AUTO,-35.3632616,149.1652358,17906,0.0029050421435385942,0.00193060003221035,-0.1728745549917221,-0.0029245857149362564,-0.003628373611718416,-0.016853854060173035,1,0,-1000,-2,-2,-16,-6,7,-152,1500.0
19:00:12.655,AUTO,-35.3632616,149.1652358,17906,0.0029050421435385942,0.00193060003221035,-0.1728745549917221,-0.0029245857149362564,-0.003628373611718416,-0.016853854060173035,1,0,-1000,-2,-2,-16,-6,7,-152,1500.0
19:00:12.860,AUTO,-35.3632616,149.1652358,17906,0.0029050421435385942,0.00193060003221035,-0.1728745549917221,-0.0029245857149362564,-0.003628373611718416,-0.016853854060173035,1,0,-1000,-2,-2,-16,-6,7,-152,1500.0
19:00:13.062,AUTO,-35.3632616,149.1652358,17906,0.0029050421435385942,0.00193060003221035,-0.1728745549917221,-0.0029245857149362564,-0.003628373611718416,-0.016853854060173035,1,0,-1000,-2,-2,-16,-6,7,-152,1500.0
19:00:13.264,AUTO,-35.3632616,149.1652358,17906,0.0029050421435385942,0.00193060003221035,-0.1728745549917221,-0.0029245857149362564,-0.003628373611718416,-0.016853854060173035,1,0,-1000,-2,-2,-16,-6,7,-152,1500.0
19:00:13.465,AUTO,-35.3632619,149.1652363,19468,0.001115160994231701,0.0010218993993476033,-0.19337879121303558,-0.00021216442110016942,0.0005456221988424659,-0.02418668381869793,0,0,-1000,0,1,-24,-3,5,-153,1500.0
19:00:13.667,AUTO,-35.363262,149.1652365,20640,0.001971194986253977,0.0013461385387927294,-0.21004517376422882,0.00189331010915339,0.0009927828796207905,-0.021708933636546135,0,0,-1000,2,1,-21,-2,3,-153,1500.0
19:00:13.868,AUTO,-35.363262,149.1652365,21031,0.0023202497977763414,0.0018920464208349586,-0.2158171534538269,0.0022289531771093607,0.001485577318817377,-0.022084485739469528,0,0,-1000,3,2,-22,-1,3,-153,1500.0
19:00:14.069,AUTO,-35.363262,149.1652365,21031,0.0023202497977763414,0.0018920464208349586,-0.2158171534538269,0.0022289531771093607,0.001485577318817377,-0.022084485739469528,0,0,-1000,3,2,-22,-1,3,-153,1500.0
19:00:14.273,AUTO,-35.363262,149.1652365,21031,0.0023202497977763414,0.0018920464208349586,-0.2158171534538269,0.0022289531771093607,0.001485577318817377,-0.022084485739469528,0,0,-1000,3,2,-22,-1,3,-153,1500.0
19:00:14.474,AUTO,-35.363262,149.1652365,21031,0.0023202497977763414,0.0018920464208349586,-0.2158171534538269,0.0022289531771093607,0.001485577318817377,-0.022084485739469528,0,0,-1000,3,2,-22,-1,3,-153,1500.0
19:00:14.677,AUTO,-35.363262,149.1652365,21031,0.0023202497977763414,0.0018920464208349586,-0.2158171534538269,0.0022289531771093607,0.001485577318817377,-0.022084485739469528,0,0,-1000,3,2,-22,-1,3,-153,1500.0
19:00:14.879,AUTO,-35.363262,149.1652365,21031,0.0023202497977763414,0.0018920464208349586,-0.2158171534538269,0.0022289531771093607,0.001485577318817377,-0.022084485739469528,0,0,-1000,3,2,-22,-1,3,-153,1500.0
19:00:15.080,AUTO,-35.363262,149.1652365,21031,0.0023202497977763414,0.0018920464208349586,-0.2158171534538269,0.0022289531771093607,0.001485577318817377,-0.022084485739469528,0,0,-1000,3,2,-22,-1,3,-153,1500.0
19:00:15.281,AUTO,-35.363262,149.1652365,21031,0.0023202497977763414,0.0018920464208349586,-0.2158171534538269,0.0022289531771093607,0.001485577318817377,-0.022084485739469528,0,0,-1000,3,2,-22,-1,3,-153,1500.0
19:00:15.484,AUTO,-35.363262,149.1652367,22985,0.00314942910335958,0.0034728161990642548,-0.24312078952789307,0.0015093034598976374,0.00032385403756052256,-0.022390583530068398,0,0,-1000,0,1,-21,-1,3,-153,1500.0
19:00:15.685,AUTO,-35.363262,149.1652367,23772,0.0032615126110613346,0.0033299983479082584,-0.2528727948665619,0.0006022612215019763,-0.0005813045427203178,-0.017876986414194107,0,0,-1000,1,0,-17,-1,3,-153,1500.0
19:00:15.887,AUTO,-35.363262,149.1652367,24162,0.0031983971130102873,0.0030367025174200535,-0.2573949992656708,-0.00040657143108546734,-0.0018064298201352358,-0.018362851813435555,0,0,-1000,0,0,-18,-1,3,-153,1500.0
19:00:16.089,AUTO,-35.363262,149.1652367,24162,0.0031983971130102873,0.0030367025174200535,-0.2573949992656708,-0.00040657143108546734,-0.0018064298201352358,-0.018362851813435555,0,0,-1000,0,0,-18,-1,3,-153,1500.0
19:00:16.291,AUTO,-35.363262,149.1652367,24162,0.0031983971130102873,0.0030367025174200535,-0.2573949992656708,-0.00040657143108546734,-0.0018064298201352358,-0.018362851813435555,0,0,-1000,0,0,-18,-1,3,-153,1500.0
19:00:16.494,AUTO,-35.363262,149.1652367,24162,0.0031983971130102873,0.0030367025174200535,-0.2573949992656708,-0.00040657143108546734,-0.0018064298201352358,-0.018362851813435555,0,0,-1000,0,0,-18,-1,3,-153,1500.0
19:00:16.696,AUTO,-35.363262,149.1652367,24162,0.0031983971130102873,0.0030367025174200535,-0.2573949992656708,-0.00040657143108546734,-0.0018064298201352358,-0.018362851813435555,0,0,-1000,0,0,-18,-1,3,-153,1500.0
19:00:16.897,AUTO,-35.363262,149.1652367,24162,0.0031983971130102873,0.0030367025174200535,-0.2573949992656708,-0.00040657143108546734,-0.0018064298201352358,-0.018362851813435555,0,0,-1000,0,0,-18,-1,3,-153,1500.0
19:00:17.099,AUTO,-35.363262,149.1652367,24162,0.0031983971130102873,0.0030367025174200535,-0.2573949992656708,-0.00040657143108546734,-0.0018064298201352358,-0.018362851813435555,0,0,-1000,0,0,-18,-1,3,-153,1500.0
19:00:17.302,AUTO,-35.363262,149.1652367,24162,0.0031983971130102873,0.0030367025174200535,-0.2573949992656708,-0.00040657143108546734,-0.0018064298201352358,-0.018362851813435555,0,0,-1000,0,0,-18,-1,3,-153,1500.0
19:00:17.503,AUTO,-35.363262,149.1652368,25717,-0.00837333220988512,0.007261846214532852,-0.2611128091812134,0.027728954330086708,-0.0016570580191910267,0.022182272747159004,0,0,-1005,28,0,22,-4,0,-152,1500.0
19:00:17.705,AUTO,-35.3632622,149.1652368,26887,0.009409013204276562,0.00295940856449306,-0.23973655700683594,0.006901716347783804,-0.004631174728274345,0.02652258612215519,0,0,-1000,7,-3,26,-5,1,-153,1500.0
19:00:17.907,AUTO,-35.3632623,149.1652368,27277,0.01073636393994093,0.0019044582732021809,-0.23263278603553772,0.0035014967434108257,-0.00337528926320374,0.028577499091625214,0,0,-999,4,-2,28,-4,3,-153,1500.0
19:00:18.110,AUTO,-35.3632623,149.1652368,27277,0.01073636393994093,0.0019044582732021809,-0.23263278603553772,0.0035014967434108257,-0.00337528926320374,0.028577499091625214,0,0,-999,4,-2,28,-4,3,-153,1500.0
19:00:18.313,AUTO,-35.3632623,149.1652368,27277,0.01073636393994093,0.0019044582732021809,-0.23263278603553772,0.0035014967434108257,-0.00337528926320374,0.028577499091625214,0,0,-999,4,-2,28,-4,3,-153,1500.0
19:00:18.517,AUTO,-35.3632623,149.1652368,27277,0.01073636393994093,0.0019044582732021809,-0.23263278603553772,0.0035014967434108257,-0.00337528926320374,0.028577499091625214,0,0,-999,4,-2,28,-4,3,-153,1500.0
19:00:18.720,AUTO,-35.3632623,149.1652368,27277,0.01073636393994093,0.0019044582732021809,-0.23263278603553772,0.0035014967434108257,-0.00337528926320374,0.028577499091625214,0,0,-999,4,-2,28,-4,3,-153,1500.0
19:00:18.921,AUTO,-35.3632623,149.1652368,27277,0.01073636393994093,0.0019044582732021809,-0.23263278603553772,0.0035014967434108257,-0.00337528926320374,0.028577499091625214,0,0,-999,4,-2,28,-4,3,-153,1500.0
19:00:19.122,AUTO,-35.3632623,149.1652368,27277,0.01073636393994093,0.0019044582732021809,-0.23263278603553772,0.0035014967434108257,-0.00337528926320374,0.028577499091625214,0,0,-999,4,-2,28,-4,3,-153,1500.0
19:00:19.324,AUTO,-35.3632623,149.1652368,27277,0.01073636393994093,0.0019044582732021809,-0.23263278603553772,0.0035014967434108257,-0.00337528926320374,0.028577499091625214,0,0,-999,4,-2,28,-4,3,-153,1500.0
19:00:19.525,AUTO,-35.3632624,149.165237,28450,0.007080222945660353,0.0008023709524422884,-0.21459798514842987,-0.005348200909793377,0.0010763377649709582,0.022470107302069664,1,0,-1000,-4,1,22,-2,7,-153,1500.0
19:00:19.727,AUTO,-35.3632624,149.1652377,30006,0.0002915063814725727,0.0016150041483342648,-0.1951102912425995,-0.0056058429181575775,0.0010255001252517104,0.019117344170808792,0,-1,-1000,-4,2,18,0,7,-153,1500.0
19:00:19.929,AUTO,-35.3632624,149.1652378,30401,-0.00027885407325811684,0.0016477450262755156,-0.19045527279376984,0.00015497952699661255,0.0001568295992910862,0.019171416759490967,0,0,-1001,1,1,19,0,6,-153,1500.0
19:00:20.131,AUTO,-35.3632624,149.1652378,30401,-0.00027885407325811684,0.0016477450262755156,-0.19045527279376984,0.00015497952699661255,0.0001568295992910862,0.019171416759490967,0,0,-1001,1,1,19,0,6,-153,1500.0
19:00:20.332,AUTO,-35.3632624,149.1652378,30401,-0.00027885407325811684,0.0016477450262755156,-0.19045527279376984,0.00015497952699661255,0.0001568295992910862,0.019171416759490967,0,0,-1001,1,1,19,0,6,-153,1500.0
19:00:20.534,AUTO,-35.3632624,149.1652378,30401,-0.00027885407325811684,0.0016477450262755156,-0.19045527279376984,0.00015497952699661255,0.0001568295992910862,0.019171416759490967,0,0,-1001,1,1,19,0,6,-153,1500.0
19:00:20.736,AUTO,-35.3632624,149.1652378,30401,-0.00027885407325811684,0.0016477450262755156,-0.19045527279376984,0.00015497952699661255,0.0001568295992910862,0.019171416759490967,0,0,-1001,1,1,19,0,6,-153,1500.0
19:00:20.937,AUTO,-35.3632624,149.1652378,30401,-0.00027885407325811684,0.0016477450262755156,-0.19045527279376984,0.00015497952699661255,0.0001568295992910862,0.019171416759490967,0,0,-1001,1,1,19,0,6,-153,1500.0
19:00:21.139,AUTO,-35.3632624,149.1652378,30401,-0.00027885407325811684,0.0016477450262755156,-0.19045527279376984,0.00015497952699661255,0.0001568295992910862,0.019171416759490967,0,0,-1001,1,1,19,0,6,-153,1500.0
19:00:21.342,AUTO,-35.3632624,149.1652378,30401,-0.00027885407325811684,0.0016477450262755156,-0.19045527279376984,0.00015497952699661255,0.0001568295992910862,0.019171416759490967,0,0,-1001,1,1,19,0,6,-153,1500.0
19:00:21.552,AUTO,-35.3632624,149.1652382,31953,-0.0004965330590493977,0.0012265000259503722,-0.17415505647659302,0.0048028212040662766,0.00075719621963799,0.016828492283821106,0,0,-1000,5,1,16,0,2,-153,1500.0
19:00:21.754,AUTO,-35.3632623,149.1652382,33122,0.0004892005817964673,0.0008250817190855742,-0.1631731241941452,0.002820584923028946,-0.00040790432831272483,0.01320677250623703,0,0,-1001,4,0,13,0,1,-153,1500.0
19:00:21.958,AUTO,-35.3632623,149.1652382,33512,0.0006754143396392465,0.0008727419190108776,-0.1597425788640976,-0.002762093674391508,-0.00025425711646676064,0.013742008246481419,0,0,-999,-1,0,13,0,0,-153,1500.0
19:00:22.160,AUTO,-35.3632623,149.1652382,33512,0.0006754143396392465,0.0008727419190108776,-0.1597425788640976,-0.002762093674391508,-0.00025425711646676064,0.013742008246481419,0,0,-999,-1,0,13,0,0,-153,1500.0
19:00:22.365,AUTO,-35.3632623,149.1652382,33512,0.0006754143396392465,0.0008727419190108776,-0.1597425788640976,-0.002762093674391508,-0.00025425711646676064,0.013742008246481419,0,0,-999,-1,0,13,0,0,-153,1500.0
19:00:22.567,AUTO,-35.3632623,149.1652382,33512,0.0006754143396392465,0.0008727419190108776,-0.1597425788640976,-0.002762093674391508,-0.00025425711646676064,0.013742008246481419,0,0,-999,-1,0,13,0,0,-153,1500.0
19:00:22.768,AUTO,-35.3632623,149.1652382,33512,0.0006754143396392465,0.0008727419190108776,-0.1597425788640976,-0.002762093674391508,-0.00025425711646676064,0.013742008246481419,0,0,-999,-1,0,13,0,0,-153,1500.0
19:00:22.971,AUTO,-35.3632623,149.1652382,33512,0.0006754143396392465,0.0008727419190108776,-0.1597425788640976,-0.002762093674391508,-0.00025425711646676064,0.013742008246481419,0,0,-999,-1,0,13,0,0,-153,1500.0
19:00:23.172,AUTO,-35.3632623,149.1652382,33512,0.0006754143396392465,0.0008727419190108776,-0.1597425788640976,-0.002762093674391508,-0.00025425711646676064,0.013742008246481419,0,0,-999,-1,0,13,0,0,-153,1500.0
19:00:23.374,AUTO,-35.3632623,149.1652382,33512,0.0006754143396392465,0.0008727419190108776,-0.1597425788640976,-0.002762093674391508,-0.00025425711646676064,0.013742008246481419,0,0,-999,-1,0,13,0,0,-153,1500.0
19:00:23.575,AUTO,-35.3632623,149.1652382,33512,0.0006754143396392465,0.0008727419190108776,-0.1597425788640976,-0.002762093674391508,-0.00025425711646676064,0.013742008246481419,0,0,-999,-1,0,13,0,0,-153,1500.0
19:00:23.777,AUTO,-35.3632622,149.165238,36087,0.0018947703065350652,0.0011220579035580158,-0.14021411538124084,0.0043909307569265366,0.0014488493325188756,0.012012184597551823,0,0,-1000,5,2,12,0,0,-153,1500.0
19:00:23.980,AUTO,-35.3632622,149.1652379,36477,0.0018774106865748763,0.0010514610912650824,-0.13765552639961243,-0.0026295692659914494,-0.0004494640161283314,0.008988061919808388,0,0,-1000,-1,0,9,0,0,-153,1500.0
19:00:24.181,AUTO,-35.3632622,149.1652379,36477,0.0018774106865748763,0.0010514610912650824,-0.13765552639961243,-0.0026295692659914494,-0.0004494640161283314,0.008988061919808388,0,0,-1000,-1,0,9,0,0,-153,1500.0
19:00:24.383,AUTO,-35.3632622,149.1652379,36477,0.0018774106865748763,0.0010514610912650824,-0.13765552639961243,-0.0026295692659914494,-0.0004494640161283314,0.008988061919808388,0,0,-1000,-1,0,9,0,0,-153,1500.0
19:00:24.587,AUTO,-35.3632622,149.1652379,36477,0.0018774106865748763,0.0010514610912650824,-0.13765552639961243,-0.0026295692659914494,-0.0004494640161283314,0.008988061919808388,0,0,-1000,-1,0,9,0,0,-153,1500.0
19:00:24.790,AUTO,-35.3632622,149.1652379,36477,0.0018774106865748763,0.0010514610912650824,-0.13765552639961243,-0.0026295692659914494,-0.0004494640161283314,0.008988061919808388,0,0,-1000,-1,0,9,0,0,-153,1500.0
19:00:24.992,AUTO,-35.3632622,149.1652379,36477,0.0018774106865748763,0.0010514610912650824,-0.13765552639961243,-0.0026295692659914494,-0.0004494640161283314,0.008988061919808388,0,0,-1000,-1,0,9,0,0,-153,1500.0
19:00:25.196,AUTO,-35.3632622,149.1652379,36477,0.0018774106865748763,0.0010514610912650824,-0.13765552639961243,-0.0026295692659914494,-0.0004494640161283314,0.008988061919808388,0,0,-1000,-1,0,9,0,0,-153,1500.0
19:00:25.420,AUTO,-35.3632622,149.1652379,36477,0.0018774106865748763,0.0010514610912650824,-0.13765552639961243,-0.0026295692659914494,-0.0004494640161283314,0.008988061919808388,0,0,-1000,-1,0,9,0,0,-153,1500.0
19:00:25.667,AUTO,-35.3632621,149.1652377,38813,0.0023436793126165867,0.001732913893647492,-0.12413696944713593,-0.0006357609527185559,0.0019799652509391308,0.008612487465143204,0,0,-1000,0,1,8,0,0,-153,1500.0
19:00:25.876,AUTO,-35.3632621,149.1652377,39593,0.002609538147225976,0.0016342343296855688,-0.12015172094106674,0.004541962407529354,0.002182834781706333,0.008882169611752033,0,0,-1000,5,3,9,0,0,-153,1500.0
19:00:26.123,AUTO,-35.3632621,149.1652377,39593,0.002609538147225976,0.0016342343296855688,-0.12015172094106674,0.004541962407529354,0.002182834781706333,0.008882169611752033,0,0,-1000,5,3,9,0,0,-153,1500.0
19:00:26.339,AUTO,-35.3632621,149.1652377,39593,0.002609538147225976,0.0016342343296855688,-0.12015172094106674,0.004541962407529354,0.002182834781706333,0.008882169611752033,0,0,-1000,5,3,9,0,0,-153,1500.0
19:00:26.541,AUTO,-35.3632621,149.1652377,39593,0.002609538147225976,0.0016342343296855688,-0.12015172094106674,0.004541962407529354,0.002182834781706333,0.008882169611752033,0,0,-1000,5,3,9,0,0,-153,1500.0
19:00:26.743,AUTO,-35.3632621,149.1652377,39593,0.002609538147225976,0.0016342343296855688,-0.12015172094106674,0.004541962407529354,0.002182834781706333,0.008882169611752033,0,0,-1000,5,3,9,0,0,-153,1500.0
19:00:26.945,AUTO,-35.3632621,149.1652377,39593,0.002609538147225976,0.0016342343296855688,-0.12015172094106674,0.004541962407529354,0.002182834781706333,0.008882169611752033,0,0,-1000,5,3,9,0,0,-153,1500.0
19:00:27.147,AUTO,-35.3632621,149.1652377,39593,0.002609538147225976,0.0016342343296855688,-0.12015172094106674,0.004541962407529354,0.002182834781706333,0.008882169611752033,0,0,-1000,5,3,9,0,0,-153,1500.0
19:00:27.349,AUTO,-35.3632621,149.1652377,39593,0.002609538147225976,0.0016342343296855688,-0.12015172094106674,0.004541962407529354,0.002182834781706333,0.008882169611752033,0,0,-1000,5,3,9,0,0,-153,1500.0
19:00:27.552,AUTO,-35.3632621,149.1652377,39593,0.002609538147225976,0.0016342343296855688,-0.12015172094106674,0.004541962407529354,0.002182834781706333,0.008882169611752033,0,0,-1000,5,3,9,0,0,-153,1500.0
19:00:27.758,AUTO,-35.3632621,149.1652376,41540,0.0023295327555388212,0.0014808143023401499,-0.11134275048971176,-0.0014518637908622622,-0.0002484507276676595,0.007042459212243557,0,0,-1000,0,0,7,-1,1,-153,1500.0
19:00:27.959,AUTO,-35.363262,149.1652375,42711,0.0021569395903497934,0.0014957995153963566,-0.10632137209177017,7.104116957634687e-05,-0.0013473486760631204,0.009124455973505974,0,0,-1000,1,0,9,-1,1,-153,1500.0
19:00:28.164,AUTO,-35.363262,149.1652375,42711,0.0021569395903497934,0.0014957995153963566,-0.10632137209177017,7.104116957634687e-05,-0.0013473486760631204,0.009124455973505974,0,0,-1000,1,0,9,-1,1,-153,1500.0
19:00:28.370,AUTO,-35.363262,149.1652375,42711,0.0021569395903497934,0.0014957995153963566,-0.10632137209177017,7.104116957634687e-05,-0.0013473486760631204,0.009124455973505974,0,0,-1000,1,0,9,-1,1,-153,1500.0
19:00:28.571,AUTO,-35.363262,149.1652375,42711,0.0021569395903497934,0.0014957995153963566,-0.10632137209177017,7.104116957634687e-05,-0.0013473486760631204,0.009124455973505974,0,0,-1000,1,0,9,-1,1,-153,1500.0
19:00:28.772,AUTO,-35.363262,149.1652375,42711,0.0021569395903497934,0.0014957995153963566,-0.10632137209177017,7.104116957634687e-05,-0.0013473486760631204,0.009124455973505974,0,0,-1000,1,0,9,-1,1,-153,1500.0
19:00:28.974,AUTO,-35.363262,149.1652375,42711,0.0021569395903497934,0.0014957995153963566,-0.10632137209177017,7.104116957634687e-05,-0.0013473486760631204,0.009124455973505974,0,0,-1000,1,0,9,-1,1,-153,1500.0
19:00:29.176,AUTO,-35.363262,149.1652375,42711,0.0021569395903497934,0.0014957995153963566,-0.10632137209177017,7.104116957634687e-05,-0.0013473486760631204,0.009124455973505974,0,0,-1000,1,0,9,-1,1,-153,1500.0
19:00:29.381,AUTO,-35.363262,149.1652375,42711,0.0021569395903497934,0.0014957995153963566,-0.10632137209177017,7.104116957634687e-05,-0.0013473486760631204,0.009124455973505974,0,0,-1000,1,0,9,-1,1,-153,1500.0
19:00:29.599,AUTO,-35.363262,149.1652375,42711,0.0021569395903497934,0.0014957995153963566,-0.10632137209177017,7.104116957634687e-05,-0.0013473486760631204,0.009124455973505974,0,0,-1000,1,0,9,-1,1,-153,1500.0
19:00:29.819,AUTO,-35.363262,149.1652374,45598,0.002123388461768627,0.0010716934921219945,-0.09557053446769714,-0.001804610132239759,-0.0002246435615234077,0.0030037008691579103,0,0,-1001,0,0,6,-1,1,-153,1500.0
19:00:30.021,AUTO,-35.363262,149.1652374,45987,0.0021400400437414646,0.0010388257214799523,-0.09402687102556229,-0.001805006992071867,0.000626328052021563,0.005839431192725897,0,0,-1000,0,1,6,-1,1,-153,1500.0
19:00:30.236,AUTO,-35.363262,149.1652374,45987,0.0021400400437414646,0.0010388257214799523,-0.09402687102556229,-0.001805006992071867,0.000626328052021563,0.005839431192725897,0,0,-1000,0,1,6,-1,1,-153,1500.0
19:00:30.454,AUTO,-35.363262,149.1652374,45987,0.0021400400437414646,0.0010388257214799523,-0.09402687102556229,-0.001805006992071867,0.000626328052021563,0.005839431192725897,0,0,-1000,0,1,6,-1,1,-153,1500.0
19:00:30.657,AUTO,-35.363262,149.1652374,45987,0.0021400400437414646,0.0010388257214799523,-0.09402687102556229,-0.001805006992071867,0.000626328052021563,0.005839431192725897,0,0,-1000,0,1,6,-1,1,-153,1500.0
19:00:30.860,AUTO,-35.363262,149.1652374,45987,0.0021400400437414646,0.0010388257214799523,-0.09402687102556229,-0.001805006992071867,0.000626328052021563,0.005839431192725897,0,0,-1000,0,1,6,-1,1,-153,1500.0
19:00:31.062,AUTO,-35.363262,149.1652374,45987,0.0021400400437414646,0.0010388257214799523,-0.09402687102556229,-0.001805006992071867,0.000626328052021563,0.005839431192725897,0,0,-1000,0,1,6,-1,1,-153,1500.0
19:00:31.264,AUTO,-35.363262,149.1652374,45987,0.0021400400437414646,0.0010388257214799523,-0.09402687102556229,-0.001805006992071867,0.000626328052021563,0.005839431192725897,0,0,-1000,0,1,6,-1,1,-153,1500.0
19:00:31.466,AUTO,-35.363262,149.1652374,45987,0.0021400400437414646,0.0010388257214799523,-0.09402687102556229,-0.001805006992071867,0.000626328052021563,0.005839431192725897,0,0,-1000,0,1,6,-1,1,-153,1500.0
19:00:31.669,AUTO,-35.363262,149.1652374,45987,0.0021400400437414646,0.0010388257214799523,-0.09402687102556229,-0.001805006992071867,0.000626328052021563,0.005839431192725897,0,0,-1000,0,1,6,-1,1,-153,1500.0
19:00:31.872,AUTO,-35.363262,149.1652374,45987,0.0021400400437414646,0.0010388257214799523,-0.09402687102556229,-0.001805006992071867,0.000626328052021563,0.005839431192725897,0,0,-1000,0,1,6,-1,1,-153,1500.0
19:00:32.074,AUTO,-35.363263,149.165236,48383,-0.03883097320795059,0.024212222546339035,0.2533944845199585,0.1133238673210144,-0.2133902907371521,0.2151886224746704,2,4,-940,0,-110,404,-31,-35,-112,1500.0
19:00:32.276,AUTO,-35.3632643,149.165234,48888,0.012764678336679935,-0.04596656560897827,0.30406248569488525,0.07265389710664749,-0.0682329386472702,0.03260679543018341,2,10,-956,73,-67,32,-21,-32,-86,1500.0
19:00:32.477,AUTO,-35.3632643,149.165234,48888,0.012764678336679935,-0.04596656560897827,0.30406248569488525,0.07265389710664749,-0.0682329386472702,0.03260679543018341,2,10,-956,73,-67,32,-21,-32,-86,1500.0
19:00:32.683,AUTO,-35.3632643,149.165234,48888,0.012764678336679935,-0.04596656560897827,0.30406248569488525,0.07265389710664749,-0.0682329386472702,0.03260679543018341,2,10,-956,73,-67,32,-21,-32,-86,1500.0
19:00:32.885,AUTO,-35.3632643,149.165234,48888,0.012764678336679935,-0.04596656560897827,0.30406248569488525,0.07265389710664749,-0.0682329386472702,0.03260679543018341,2,10,-956,73,-67,32,-21,-32,-86,1500.0
19:00:33.089,AUTO,-35.3632643,149.165234,48888,0.012764678336679935,-0.04596656560897827,0.30406248569488525,0.07265389710664749,-0.0682329386472702,0.03260679543018341,2,10,-956,73,-67,32,-21,-32,-86,1500.0
19:00:33.290,AUTO,-35.3632643,149.165234,48888,0.012764678336679935,-0.04596656560897827,0.30406248569488525,0.07265389710664749,-0.0682329386472702,0.03260679543018341,2,10,-956,73,-67,32,-21,-32,-86,1500.0
