time_stamp,MODE,lat,lon,relative_alt,roll,pitch,yaw,rollspeed,pitchspeed,yawspeed,xacc,yacc,zacc,xgyro,ygyro,zgyro,vx,vy,vz,RTL_ALT
05:33:39.776,STABILIZE,-35.3632622,149.1652375,30,0.00025978992925956845,0.001409161719493568,0.027131546288728714,0.00016836152644827962,0.00016789018991403282,0.00224597891792655,0,1,-1000,1,0,0,-2,2,0,233826.0
05:33:39.977,STABILIZE,-35.3632622,149.1652375,29,0.00017160517745651305,0.001356234890408814,0.026956506073474884,0.00020619312999770045,0.00024107686476781964,0.0023143587168306112,0,1,-1000,0,0,0,-2,2,0,233826.0
05:33:40.177,STABILIZE,-35.3632622,149.1652375,29,0.00017160517745651305,0.001356234890408814,0.026956506073474884,0.00020619312999770045,0.00024107686476781964,0.0023143587168306112,0,1,-1000,0,0,0,-2,2,0,233826.0
05:33:40.378,STABILIZE,-35.3632622,149.1652375,29,0.00017160517745651305,0.001356234890408814,0.026956506073474884,0.00020619312999770045,0.00024107686476781964,0.0023143587168306112,0,1,-1000,0,0,0,-2,2,0,233826.0
05:33:40.579,STABILIZE,-35.3632622,149.1652375,29,0.00017160517745651305,0.001356234890408814,0.026956506073474884,0.00020619312999770045,0.00024107686476781964,0.0023143587168306112,0,1,-1000,0,0,0,-2,2,0,233826.0
05:33:40.780,STABILIZE,-35.3632622,149.1652375,29,0.00017160517745651305,0.001356234890408814,0.026956506073474884,0.00020619312999770045,0.00024107686476781964,0.0023143587168306112,0,1,-1000,0,0,0,-2,2,0,233826.0
05:33:40.980,STABILIZE,-35.3632622,149.1652375,29,0.00017160517745651305,0.001356234890408814,0.026956506073474884,0.00020619312999770045,0.00024107686476781964,0.0023143587168306112,0,1,-1000,0,0,0,-2,2,0,233826.0
05:33:41.181,STABILIZE,-35.3632622,149.1652375,29,-0.0002141063887393102,0.0011439365334808826,0.026342371478676796,0.00026251733652316034,0.00024081638548523188,0.0021730298176407814,0,1,-1000,0,0,0,-2,2,0,233826.0
05:33:41.381,STABILIZE,-35.3632622,149.1652375,29,-0.0002141063887393102,0.0011439365334808826,0.026342371478676796,0.00026251733652316034,0.00024081638548523188,0.0021730298176407814,0,1,-1000,0,0,0,-2,2,0,233826.0
05:33:41.582,STABILIZE,-35.3632622,149.1652375,20,-0.00036273227306082845,0.0010742131853476167,0.026089482009410858,0.00022427988005802035,0.000225220515858382,0.0021212215069681406,0,1,-1000,0,0,0,-1,1,1,233826.0
05:33:41.784,STABILIZE,-35.3632622,149.1652375,19,-0.00036273227306082845,0.0010742131853476167,0.026089482009410858,0.00022427988005802035,0.000225220515858382,0.0021212215069681406,0,1,-1000,0,0,0,-1,1,1,233826.0
05:33:41.985,STABILIZE,-35.3632622,149.1652375,19,-0.00036273227306082845,0.0010742131853476167,0.026089482009410858,0.00022427988005802035,0.000225220515858382,0.0021212215069681406,0,1,-1000,0,0,0,-1,1,1,233826.0
05:33:42.187,STABILIZE,-35.3632622,149.1652375,19,-0.00036273227306082845,0.0010742131853476167,0.026089482009410858,0.00022427988005802035,0.000225220515858382,0.0021212215069681406,0,1,-1000,0,0,0,-1,1,1,233826.0
05:33:42.388,STABILIZE,-35.3632622,149.1652375,19,-0.00036273227306082845,0.0010742131853476167,0.026089482009410858,0.00022427988005802035,0.000225220515858382,0.0021212215069681406,0,1,-1000,0,0,0,-1,1,1,233826.0
05:33:42.590,STABILIZE,-35.3632622,149.1652375,19,-0.00036273227306082845,0.0010742131853476167,0.026089482009410858,0.00022427988005802035,0.000225220515858382,0.0021212215069681406,0,1,-1000,0,0,0,-1,1,1,233826.0
05:33:42.792,STABILIZE,-35.3632622,149.1652375,19,-0.00036273227306082845,0.0010742131853476167,0.026089482009410858,0.00022427988005802035,0.000225220515858382,0.0021212215069681406,0,1,-1000,0,0,0,-1,1,1,233826.0
05:33:42.994,STABILIZE,-35.3632621,149.1652375,8,-0.0004017915343865752,0.0009253346943296492,0.025386590510606766,0.0001964227412827313,0.0002913177595473826,0.0019833361729979515,0,1,-1000,0,0,0,-1,2,2,233826.0
05:33:43.196,STABILIZE,-35.3632621,149.1652375,8,-0.0004017915343865752,0.0009253346943296492,0.025386590510606766,0.0001964227412827313,0.0002913177595473826,0.0019833361729979515,0,1,-1000,0,0,0,-1,2,2,233826.0
05:33:43.397,STABILIZE,-35.3632621,149.1652375,5,-0.0004757459682878107,0.0009178280597552657,0.025299185886979103,0.00017738528549671173,0.00024801085237413645,0.001910460414364934,0,1,-1000,0,0,0,-1,2,2,233826.0
05:33:43.599,STABILIZE,-35.3632621,149.1652375,3,-0.0005474947392940521,0.0009134527645073831,0.025182435289025307,0.0001901513896882534,0.0003782008425332606,0.0018708114512264729,0,1,-1000,0,0,0,-1,2,2,233826.0
05:33:43.800,STABILIZE,-35.3632621,149.1652375,3,-0.0005474947392940521,0.0009134527645073831,0.025182435289025307,0.0001901513896882534,0.0003782008425332606,0.0018708114512264729,0,1,-1000,0,0,0,-1,2,2,233826.0
05:33:44.002,STABILIZE,-35.3632621,149.1652375,1,-0.0006729073938913643,0.0009109721286222339,0.024994967505335808,0.00024647131795063615,4.1223305743187666e-05,0.0019981907680630684,0,1,-1000,0,0,0,-1,1,2,233826.0
05:33:44.204,STABILIZE,-35.3632621,149.1652375,1,-0.0006729073938913643,0.0009109721286222339,0.024994967505335808,0.00024647131795063615,4.1223305743187666e-05,0.0019981907680630684,0,1,-1000,0,0,0,-1,1,2,233826.0
05:33:44.405,STABILIZE,-35.3632621,149.1652375,1,-0.0006729073938913643,0.0009109721286222339,0.024994967505335808,0.00024647131795063615,4.1223305743187666e-05,0.0019981907680630684,0,1,-1000,0,0,0,-1,1,2,233826.0
05:33:44.607,STABILIZE,-35.3632621,149.1652375,1,-0.0006729073938913643,0.0009109721286222339,0.024994967505335808,0.00024647131795063615,4.1223305743187666e-05,0.0019981907680630684,0,1,-1000,0,0,0,-1,1,2,233826.0
05:33:44.809,STABILIZE,-35.3632621,149.1652375,1,-0.0006729073938913643,0.0009109721286222339,0.024994967505335808,0.00024647131795063615,4.1223305743187666e-05,0.0019981907680630684,0,1,-1000,0,0,0,-1,1,2,233826.0
05:33:45.010,STABILIZE,-35.3632621,149.1652375,1,-0.0008634747355245054,0.0009039890137501061,0.0246138796210289,0.00019200443057343364,0.00019259355030953884,0.0017681489698588848,0,1,-1000,0,0,0,-1,1,2,233826.0
05:33:45.212,STABILIZE,-35.3632621,149.1652375,1,-0.0008634747355245054,0.0009039890137501061,0.0246138796210289,0.00019200443057343364,0.00019259355030953884,0.0017681489698588848,0,1,-1000,0,0,0,-1,1,2,233826.0
05:33:45.414,STABILIZE,-35.3632621,149.1652375,1,-0.0008634747355245054,0.0009039890137501061,0.0246138796210289,0.00019200443057343364,0.00019259355030953884,0.0017681489698588848,0,1,-1000,0,0,0,-1,1,2,233826.0
05:33:45.616,STABILIZE,-35.3632621,149.1652375,0,-0.0009298769291490316,0.0009110863320529461,0.024426359683275223,0.00030678726034238935,0.00034798990236595273,0.0017908646259456873,0,1,-1000,0,0,1,-1,1,1,233826.0
05:33:45.818,STABILIZE,-35.3632621,149.1652375,0,-0.0009298769291490316,0.0009110863320529461,0.024426359683275223,0.00030678726034238935,0.00034798990236595273,0.0017908646259456873,0,1,-1000,0,0,1,-1,1,1,233826.0
05:33:46.019,STABILIZE,-35.3632621,149.1652375,0,-0.0009298769291490316,0.0009110863320529461,0.024426359683275223,0.00030678726034238935,0.00034798990236595273,0.0017908646259456873,0,29,-958,17,1,0,-1,2,3,233826.0
05:33:46.221,STABILIZE,-35.3632621,149.1652375,0,-0.0009298769291490316,0.0009110863320529461,0.024426359683275223,0.00030678726034238935,0.00034798990236595273,0.0017908646259456873,0,29,-958,17,1,0,-1,2,3,233826.0
05:33:46.422,STABILIZE,-35.3632621,149.1652375,0,-0.0009298769291490316,0.0009110863320529461,0.024426359683275223,0.00030678726034238935,0.00034798990236595273,0.0017908646259456873,0,29,-958,17,1,0,-1,2,3,233826.0
05:33:46.623,STABILIZE,-35.3632621,149.1652375,0,-0.0009298769291490316,0.0009110863320529461,0.024426359683275223,0.00030678726034238935,0.00034798990236595273,0.0017908646259456873,0,29,-958,17,1,0,-1,2,3,233826.0
05:33:46.825,STABILIZE,-35.3632621,149.1652375,0,-0.0009298769291490316,0.0009110863320529461,0.024426359683275223,0.00030678726034238935,0.00034798990236595273,0.0017908646259456873,0,1,-1000,0,0,0,-1,2,3,233826.0
05:33:47.026,STABILIZE,-35.3632621,149.1652375,0,-0.0008527484023943543,0.0009593747090548277,0.02394954115152359,0.00025248737074434757,0.00024297012714669108,0.0018536648713052273,0,1,-1000,1,1,0,-1,2,3,233826.0
05:33:47.228,STABILIZE,-35.3632621,149.1652375,0,-0.0008527484023943543,0.0009593747090548277,0.02394954115152359,0.00025248737074434757,0.00024297012714669108,0.0018536648713052273,0,1,-1000,1,1,0,-1,2,3,233826.0
05:33:47.429,STABILIZE,-35.3632621,149.1652375,0,-0.0008957810350693762,0.0009634096641093493,0.023882921785116196,0.0002732557477429509,0.0003403304726816714,0.0017435761401429772,0,1,-1000,1,1,0,-1,1,2,233826.0
05:33:47.630,STABILIZE,-35.3632621,149.1652375,0,-0.0009347955929115415,0.0009783947607502341,0.023812273517251015,0.00024805229622870684,0.00035698612919077277,0.001769654219970107,0,2,-1000,0,0,0,-1,1,2,233826.0
05:33:47.831,STABILIZE,-35.3632621,149.1652375,0,-0.0009347955929115415,0.0009783947607502341,0.023812273517251015,0.00024805229622870684,0.00035698612919077277,0.001769654219970107,0,2,-1000,0,0,0,-1,1,2,233826.0
05:33:48.033,STABILIZE,-35.3632621,149.1652375,0,-0.001018330454826355,0.0009761396213434637,0.02366095408797264,0.0002515551750548184,0.00022585783153772354,0.0017285116482526064,0,1,-1000,0,0,0,-1,1,1,233826.0
05:33:48.234,STABILIZE,-35.3632621,149.1652375,0,-0.001018330454826355,0.0009761396213434637,0.02366095408797264,0.0002515551750548184,0.00022585783153772354,0.0017285116482526064,0,1,-1000,0,0,0,-1,1,1,233826.0
05:33:48.435,STABILIZE,-35.3632621,149.1652375,0,-0.001018330454826355,0.0009761396213434637,0.02366095408797264,0.0002515551750548184,0.00022585783153772354,0.0017285116482526064,0,1,-1000,0,0,0,-1,1,1,233826.0
05:33:48.637,STABILIZE,-35.3632621,149.1652375,0,-0.001018330454826355,0.0009761396213434637,0.02366095408797264,0.0002515551750548184,0.00022585783153772354,0.0017285116482526064,0,1,-1000,0,0,0,-1,1,1,233826.0
05:33:48.838,STABILIZE,-35.3632621,149.1652375,0,-0.001018330454826355,0.0009761396213434637,0.02366095408797264,0.0002515551750548184,0.00022585783153772354,0.0017285116482526064,0,1,-1000,0,0,0,-1,1,1,233826.0
05:33:49.040,STABILIZE,-35.3632622,149.1652375,0,-0.0011307453969493508,0.0009862761944532394,0.023400938138365746,0.000227241194806993,0.00024270458379760385,0.0016647481825202703,0,1,-1000,0,0,0,-1,1,1,233826.0
05:33:49.241,STABILIZE,-35.3632622,149.1652375,0,-0.0011307453969493508,0.0009862761944532394,0.023400938138365746,0.000227241194806993,0.00024270458379760385,0.0016647481825202703,0,1,-1000,0,0,0,-1,1,1,233826.0
05:33:49.442,STABILIZE,-35.3632622,149.1652375,0,-0.001155132194980979,0.00098478386644274,0.02333659492433071,0.00017029413720592856,0.0003282566904090345,0.0016094520688056946,0,1,-1000,0,0,1,-1,1,1,233826.0
05:33:49.644,STABILIZE,-35.3632622,149.1652375,0,-0.0010182334808632731,0.0009913728572428226,0.023260224610567093,-0.00014460182865150273,0.00032088940497487783,0.0015860304702073336,0,-29,-1047,0,0,0,-1,0,-1,233826.0
05:33:49.845,STABILIZE,-35.3632622,149.1652375,0,-0.0009992241393774748,0.0009884247556328773,0.02321387268602848,0.00025190628366544843,0.0003491017851047218,0.0016285763122141361,0,1,-1000,0,0,0,-1,0,-1,233826.0
05:33:50.047,STABILIZE,-35.3632622,149.1652375,0,-0.0009992241393774748,0.0009884247556328773,0.02321387268602848,0.00025190628366544843,0.0003491017851047218,0.0016285763122141361,0,1,-1000,0,0,0,-1,0,-1,233826.0
05:33:50.249,STABILIZE,-35.3632622,149.1652375,0,-0.0009992241393774748,0.0009884247556328773,0.02321387268602848,0.00025190628366544843,0.0003491017851047218,0.0016285763122141361,0,1,-1000,0,0,0,-1,0,-1,233826.0
05:33:50.455,STABILIZE,-35.3632622,149.1652375,0,-0.0009992241393774748,0.0009884247556328773,0.02321387268602848,0.00025190628366544843,0.0003491017851047218,0.0016285763122141361,0,1,-1000,0,0,0,-1,0,-1,233826.0
05:33:50.661,STABILIZE,-35.3632622,149.1652375,0,-0.0009992241393774748,0.0009884247556328773,0.02321387268602848,0.00025190628366544843,0.0003491017851047218,0.0016285763122141361,0,1,-1000,0,0,0,-1,0,-1,233826.0
05:33:50.863,STABILIZE,-35.3632622,149.1652375,0,-0.0009992241393774748,0.0009884247556328773,0.02321387268602848,0.00025190628366544843,0.0003491017851047218,0.0016285763122141361,0,1,-1000,0,0,0,-1,0,-1,233826.0
05:33:51.064,STABILIZE,-35.3632622,149.1652375,10,-0.0007898056064732373,0.0009823525324463844,0.0228915773332119,0.00029501982498914003,0.00025721878046169877,0.001647809986025095,0,1,-1000,0,1,0,-1,0,-1,233826.0
05:33:51.265,STABILIZE,-35.3632622,149.1652375,11,-0.0007637689122930169,0.0009772523771971464,0.02282169833779335,0.00020522676641121507,0.00027493509696796536,0.001653887564316392,0,1,-1000,1,0,0,-1,0,-1,233826.0
05:33:51.467,STABILIZE,-35.3632622,149.1652375,11,-0.0007637689122930169,0.0009772523771971464,0.02282169833779335,0.00020522676641121507,0.00027493509696796536,0.001653887564316392,0,1,-1000,1,0,0,-1,0,-1,233826.0
05:33:51.668,STABILIZE,-35.3632622,149.1652375,11,-0.0007415870786644518,0.0009805660229176283,0.02276807464659214,0.0003710520686581731,0.00024523743195459247,0.001598202739842236,0,1,-1000,1,0,0,-1,0,-1,233826.0
05:33:51.870,STABILIZE,-35.3632622,149.1652375,11,-0.000728572194930166,0.0009771526092663407,0.022689994424581528,0.0002256485167890787,0.00023786112433299422,0.0015955495182424784,0,2,-1000,0,0,1,-1,0,-1,233826.0
05:33:52.072,STABILIZE,-35.3632622,149.1652375,15,-0.000717892253305763,0.000968168955296278,0.02261524088680744,0.00026639160932973027,0.00021483044838532805,0.001672340789809823,0,1,-1000,0,1,0,-1,1,0,233826.0
05:33:52.274,STABILIZE,-35.3632622,149.1652375,15,-0.000717892253305763,0.000968168955296278,0.02261524088680744,0.00026639160932973027,0.00021483044838532805,0.001672340789809823,0,1,-1000,0,1,0,-1,1,0,233826.0
05:33:52.475,STABILIZE,-35.3632622,149.1652375,15,-0.000717892253305763,0.000968168955296278,0.02261524088680744,0.00026639160932973027,0.00021483044838532805,0.001672340789809823,0,1,-1000,0,1,0,-1,1,0,233826.0
05:33:52.677,STABILIZE,-35.3632622,149.1652375,15,-0.000717892253305763,0.000968168955296278,0.02261524088680744,0.00026639160932973027,0.00021483044838532805,0.001672340789809823,0,1,-1000,0,1,0,-1,1,0,233826.0
05:33:52.878,STABILIZE,-35.3632622,149.1652375,18,-0.0006981572369113564,0.0009681335650384426,0.022417515516281128,0.0004082809900864959,0.00013819336891174316,0.0014906313735991716,0,1,-1000,0,1,1,-1,1,0,233826.0
05:33:53.080,STABILIZE,-35.3632622,149.1652375,20,-0.0006981572369113564,0.0009681335650384426,0.022417515516281128,0.0004082809900864959,0.00013819336891174316,0.0014906313735991716,0,1,-1001,0,0,0,-1,0,-2,233826.0
05:33:53.281,STABILIZE,-35.3632622,149.1652375,20,-0.0006981572369113564,0.0009681335650384426,0.022417515516281128,0.0004082809900864959,0.00013819336891174316,0.0014906313735991716,0,1,-1000,0,0,1,-1,0,-2,233826.0
05:33:53.483,STABILIZE,-35.3632622,149.1652375,20,-0.0006981572369113564,0.0009681335650384426,0.022417515516281128,0.0004082809900864959,0.00013819336891174316,0.0014906313735991716,0,1,-1000,0,0,1,-1,0,-2,233826.0
05:33:53.684,STABILIZE,-35.3632622,149.1652375,26,-0.0006981572369113564,0.0009681335650384426,0.022417515516281128,0.0004082809900864959,0.00013819336891174316,0.0014906313735991716,0,1,-1000,1,0,1,-1,0,-2,233826.0
05:33:53.886,STABILIZE,-35.3632622,149.1652375,26,-0.0006981572369113564,0.0009681335650384426,0.022417515516281128,0.0004082809900864959,0.00013819336891174316,0.0014906313735991716,0,1,-1000,0,1,0,-1,0,-2,233826.0
05:33:54.089,STABILIZE,-35.3632622,149.1652375,29,-0.0006981572369113564,0.0009681335650384426,0.022417515516281128,0.0004082809900864959,0.00013819336891174316,0.0014906313735991716,0,1,-1000,0,0,0,-1,1,-1,233826.0
05:33:54.297,AUTO,-35.3632622,149.1652375,29,-0.0006981572369113564,0.0009681335650384426,0.022417515516281128,0.0004082809900864959,0.00013819336891174316,0.0014906313735991716,0,1,-1000,0,0,0,-1,1,-1,233826.0
05:33:54.500,AUTO,-35.3632622,149.1652375,29,-0.0006981572369113564,0.0009681335650384426,0.022417515516281128,0.0004082809900864959,0.00013819336891174316,0.0014906313735991716,0,1,-1000,0,0,0,-1,1,-1,233826.0
05:33:54.701,AUTO,-35.3632622,149.1652375,29,-0.0006981572369113564,0.0009681335650384426,0.022417515516281128,0.0004082809900864959,0.00013819336891174316,0.0014906313735991716,0,1,-1000,0,0,0,-1,1,-1,233826.0
05:33:54.903,AUTO,-35.3632622,149.1652375,2,-0.00047366280341520905,0.0009680254734121263,0.021883200854063034,0.00033831055043265224,0.00024167721858248115,0.0014716103905811906,0,1,-1000,0,0,0,-1,1,-1,233826.0
05:33:55.105,AUTO,-35.3632621,149.1652375,2,-0.0004741374868899584,0.0009717403445392847,0.021824117749929428,0.00026374816661700606,0.0003020258154720068,0.001627566060051322,0,1,-1000,1,0,0,-1,1,-1,233826.0
05:33:55.321,AUTO,-35.3632621,149.1652375,3,-0.00047105250996537507,0.0009959491435438395,0.021742939949035645,0.00025828357320278883,0.00032859196653589606,0.001423780806362629,0,1,-1000,1,0,1,0,1,-1,233826.0
05:33:55.524,AUTO,-35.3632621,149.1652375,3,-0.0004424889339134097,0.0010273796506226063,0.021677065640687943,0.00033834250643849373,0.00020144658628851175,0.0015642894431948662,0,2,-1000,1,0,1,0,0,-1,300000.0
05:33:55.725,AUTO,-35.3632621,149.1652375,3,-0.0004424889339134097,0.0010273796506226063,0.021677065640687943,0.00033834250643849373,0.00020144658628851175,0.0015642894431948662,0,2,-1000,1,0,1,0,0,-1,300000.0
05:33:55.927,AUTO,-35.3632621,149.1652375,4,-0.00041648390470072627,0.0010799779556691647,0.02162204682826996,0.00022553210146725178,0.00026366504607722163,0.001403213245794177,0,1,-1000,0,0,0,0,0,0,300000.0
05:33:56.129,AUTO,-35.3632621,149.1652375,4,-0.00037226927815936506,0.0011259824968874454,0.02154337801039219,0.00017505994765087962,0.0003374097286723554,0.0014226266648620367,0,2,-1000,1,0,1,0,0,0,300000.0
05:33:56.331,AUTO,-35.3632621,149.1652375,4,-0.00037226927815936506,0.0011259824968874454,0.02154337801039219,0.00017505994765087962,0.0003374097286723554,0.0014226266648620367,0,2,-1000,1,0,1,0,0,0,300000.0
05:33:56.532,AUTO,-35.3632621,149.1652375,4,-0.00037226927815936506,0.0011259824968874454,0.02154337801039219,0.00017505994765087962,0.0003374097286723554,0.0014226266648620367,0,2,-1000,1,0,1,0,0,0,300000.0
05:33:56.734,AUTO,-35.3632621,149.1652375,4,-0.00037226927815936506,0.0011259824968874454,0.02154337801039219,0.00017505994765087962,0.0003374097286723554,0.0014226266648620367,0,2,-1000,1,0,1,0,0,0,300000.0
05:33:56.936,AUTO,-35.3632621,149.1652374,8,-0.0002116303949151188,0.001317475107498467,0.021303433924913406,0.0002710320404730737,0.00023679726291447878,0.0014812638983130455,0,2,-1000,0,0,0,0,0,-1,300000.0
05:33:57.137,AUTO,-35.3632621,149.1652374,8,-0.00014519115211442113,0.0013882805360481143,0.02122965268790722,0.00033461954444646835,0.00028250488685444,0.0014330206904560328,0,1,-1000,0,1,1,0,0,-1,300000.0
05:33:57.339,AUTO,-35.3632621,149.1652374,8,-8.171944500645623e-05,0.0014536600792780519,0.02116072177886963,0.00024403631687164307,0.00024902232689782977,0.0013965871185064316,0,1,-1000,1,0,1,0,0,-1,300000.0
05:33:57.540,AUTO,-35.3632621,149.1652374,9,-1.9173148757545277e-05,0.001523046987131238,0.021098971366882324,0.0003425684990361333,0.00028552516596391797,0.0014445834094658494,0,1,-1000,0,1,0,0,0,-1,300000.0
05:33:57.742,AUTO,-35.3632621,149.1652374,9,-1.9173148757545277e-05,0.001523046987131238,0.021098971366882324,0.0003425684990361333,0.00028552516596391797,0.0014445834094658494,0,1,-1000,0,1,0,0,0,-1,300000.0
05:33:57.944,AUTO,-35.3632621,149.1652374,9,5.178758146939799e-05,0.0015998177696019411,0.02100965939462185,0.00031783810118213296,0.0003203140804544091,0.0014248134102672338,0,2,-1000,0,0,1,0,0,-1,300000.0
05:33:58.146,AUTO,-35.3632621,149.1652375,8,0.00012679344217758626,0.0016771279042586684,0.020932158455252647,0.00034163956297561526,0.0003165563684888184,0.001438661478459835,0,1,-1000,1,1,1,0,0,-1,300000.0
05:33:58.349,AUTO,-35.3632621,149.1652375,8,0.00012679344217758626,0.0016771279042586684,0.020932158455252647,0.00034163956297561526,0.0003165563684888184,0.001438661478459835,0,1,-1000,1,1,1,0,0,-1,300000.0
05:33:58.558,AUTO,-35.3632621,149.1652375,8,0.00012679344217758626,0.0016771279042586684,0.020932158455252647,0.00034163956297561526,0.0003165563684888184,0.001438661478459835,0,1,-1000,1,1,1,0,0,-1,300000.0
05:33:58.764,AUTO,-35.3632621,149.1652375,210,0.0022021818440407515,0.00027141740429215133,0.020791856572031975,-0.006529271602630615,0.004383808467537165,0.0017068031011149287,0,0,-1130,-5,4,1,0,0,-74,300000.0
05:33:58.966,AUTO,-35.3632621,149.1652375,210,0.0022021818440407515,0.00027141740429215133,0.020791856572031975,-0.006529271602630615,0.004383808467537165,0.0017068031011149287,0,0,-1130,-5,4,1,0,0,-74,300000.0
05:33:59.167,AUTO,-35.3632621,149.1652375,430,0.001550144050270319,0.0011208439245820045,0.020732980221509933,-0.0027303099632263184,0.0022591184824705124,0.001471898634918034,0,0,-1109,-2,3,0,0,0,-102,300000.0
05:33:59.369,AUTO,-35.3632621,149.1652375,716,0.00182764558121562,0.0014483798295259476,0.02056930400431156,0.013388194143772125,-2.1369021851569414e-05,-0.0005435612984001637,0,0,-1086,14,0,0,0,0,-126,200.0
05:33:59.571,AUTO,-35.3632621,149.1652375,1055,0.012148605659604073,0.00046853217645548284,0.020305655896663666,0.04819374904036522,-0.006148675922304392,0.0013553423341363668,0,0,-1038,48,-5,1,0,1,-139,200.0
05:33:59.772,AUTO,-35.3632621,149.1652375,1420,0.024048957973718643,-0.001215120661072433,0.020283367484807968,0.04697965830564499,-0.006606364622712135,0.0021474442910403013,0,0,-1016,47,-5,1,1,5,-145,200.0
05:33:59.974,AUTO,-35.3632621,149.1652375,1420,0.024048957973718643,-0.001215120661072433,0.020283367484807968,0.04697965830564499,-0.006606364622712135,0.0021474442910403013,0,0,-1016,47,-5,1,1,5,-145,200.0
05:34:00.176,AUTO,-35.363262,149.1652377,1800,0.035622891038656235,-0.0031490575056523085,0.020408662036061287,0.045076943933963776,-0.00842329766601324,0.0028375000692903996,0,-1,-1006,45,-7,2,1,12,-148,200.0
05:34:00.378,AUTO,-35.363262,149.1652377,1800,0.035622891038656235,-0.0031490575056523085,0.020408662036061287,0.045076943933963776,-0.00842329766601324,0.0028375000692903996,0,-1,-1006,45,-7,2,1,12,-148,200.0
05:34:00.579,AUTO,-35.363262,149.1652377,1800,0.035622891038656235,-0.0031490575056523085,0.020408662036061287,0.045076943933963776,-0.00842329766601324,0.0028375000692903996,0,-1,-1006,45,-7,2,1,12,-148,200.0
05:34:00.781,AUTO,-35.3632616,149.1652397,2945,0.06251184642314911,-0.008535925298929214,-0.010197632014751434,-0.02235010266304016,0.030113903805613518,-0.053244128823280334,0,-8,-991,-21,30,-53,8,44,-147,200.0
05:34:00.983,AUTO,-35.3632616,149.1652397,2945,0.06251184642314911,-0.008535925298929214,-0.010197632014751434,-0.02235010266304016,0.030113903805613518,-0.053244128823280334,0,-8,-991,-21,30,-53,8,44,-147,200.0
05:34:01.184,AUTO,-35.3632614,149.165241,3322,0.03912406042218208,0.01427858229726553,-0.032883286476135254,-0.15422941744327545,0.09010639786720276,-0.09834989160299301,3,-13,-990,-153,90,-98,9,54,-145,200.0
05:34:01.387,AUTO,-35.3632612,149.1652425,3696,-0.003958780784159899,0.023124966770410538,-0.05216163396835327,-0.13886484503746033,-2.4063570890575647e-05,-0.07041255384683609,4,-11,-1007,-138,0,-70,6,54,-144,200.0
05:34:01.590,AUTO,-35.363261,149.1652438,4073,-0.024309715256094933,0.019704634323716164,-0.06604993343353271,-0.047150176018476486,-0.013009482994675636,-0.05814288184046745,5,-10,-1010,-46,-12,-58,2,47,-147,200.0
05:34:01.792,AUTO,-35.3632609,149.1652449,4455,-0.03305211663246155,0.015094409696757793,-0.0769139751791954,-0.03879502788186073,-0.01872355304658413,-0.04162074625492096,5,-9,-1003,-38,-18,-41,0,36,-148,200.0
05:34:01.994,AUTO,-35.3632609,149.1652449,4455,-0.03305211663246155,0.015094409696757793,-0.0769139751791954,-0.03879502788186073,-0.01872355304658413,-0.04162074625492096,5,-9,-1003,-38,-18,-41,0,36,-148,200.0
05:34:02.197,AUTO,-35.3632609,149.1652458,4839,-0.04787914454936981,0.00862465612590313,-0.08384453505277634,-0.07130316644906998,-0.029559310525655746,-0.021512076258659363,4,-7,-1000,-70,-28,-21,-1,25,-148,200.0
05:34:02.399,AUTO,-35.3632609,149.1652458,4839,-0.04787914454936981,0.00862465612590313,-0.08384453505277634,-0.07130316644906998,-0.029559310525655746,-0.021512076258659363,4,-7,-1000,-70,-28,-21,-1,25,-148,200.0
05:34:02.601,AUTO,-35.3632609,149.1652458,4839,-0.04787914454936981,0.00862465612590313,-0.08384453505277634,-0.07130316644906998,-0.029559310525655746,-0.021512076258659363,4,-7,-1000,-70,-28,-21,-1,25,-148,200.0
05:34:02.803,AUTO,-35.363261,149.1652457,5986,-0.06804776191711426,-0.007213970646262169,-0.09112679958343506,0.0514400377869606,-0.003171664196997881,-0.008147746324539185,-2,4,-1002,51,-2,-8,-2,-28,-148,200.0
05:34:03.005,AUTO,-35.363261,149.1652457,5986,-0.06804776191711426,-0.007213970646262169,-0.09112679958343506,0.0514400377869606,-0.003171664196997881,-0.008147746324539185,-2,4,-1002,51,-2,-8,-2,-28,-148,200.0
05:34:03.207,AUTO,-35.363261,149.1652447,6373,-0.0542198084294796,-0.007402321789413691,-0.09330061823129654,0.05782065540552139,0.0021445562597364187,-0.004814751911908388,-3,6,-1001,58,2,-5,-2,-43,-148,200.0
05:34:03.409,AUTO,-35.3632611,149.1652434,6755,-0.03931300342082977,-0.0061225309036672115,-0.09488655626773834,0.061557117849588394,0.0073562730103731155,-0.0019598649814724922,-5,8,-1001,62,7,-2,-2,-53,-148,200.0
05:34:03.611,AUTO,-35.3632612,149.1652419,7139,-0.023579763248562813,-0.0036883631255477667,-0.09582766890525818,0.06493552774190903,0.01145017147064209,-0.0002301438944414258,-6,8,-1002,65,12,0,-3,-58,-149,200.0
05:34:03.813,AUTO,-35.3632612,149.1652402,7524,-0.007215244695544243,-0.0005241197068244219,-0.09607602655887604,0.06622706353664398,0.01328869629651308,0.0017215075204148889,-7,14,-1003,66,14,1,-4,-59,-149,200.0
05:34:04.016,AUTO,-35.3632614,149.1652386,7911,0.009363321587443352,0.002867204137146473,-0.09569437056779861,0.06572593003511429,0.013146300800144672,0.0033485223539173603,-7,14,-1004,66,13,2,-5,-56,-150,200.0
05:34:04.218,AUTO,-35.3632614,149.1652386,7911,0.009363321587443352,0.002867204137146473,-0.09569437056779861,0.06572593003511429,0.013146300800144672,0.0033485223539173603,-7,14,-1004,66,13,2,-5,-56,-150,200.0
05:34:04.421,AUTO,-35.3632614,149.1652386,7911,0.009363321587443352,0.002867204137146473,-0.09569437056779861,0.06572593003511429,0.013146300800144672,0.0033485223539173603,-7,14,-1004,66,13,2,-5,-56,-150,200.0
05:34:04.622,AUTO,-35.3632614,149.1652386,7911,0.009363321587443352,0.002867204137146473,-0.09569437056779861,0.06572593003511429,0.013146300800144672,0.0033485223539173603,-7,14,-1004,66,13,2,-5,-56,-150,200.0
05:34:04.825,AUTO,-35.3632619,149.1652348,9080,0.0571470744907856,0.009739304892718792,-0.09187407046556473,0.06033550202846527,0.0031739939004182816,0.005377928726375103,-3,8,-1002,61,3,5,-10,-26,-152,200.0
05:34:05.027,AUTO,-35.3632622,149.1652342,9472,0.07087387144565582,0.009059900417923927,-0.0893196314573288,0.03309227153658867,-0.01736108586192131,0.029838280752301216,-1,6,-998,33,-16,29,-11,-9,-152,200.0
05:34:05.229,AUTO,-35.3632622,149.1652342,9472,0.07087387144565582,0.009059900417923927,-0.0893196314573288,0.03309227153658867,-0.01736108586192131,0.029838280752301216,-1,6,-998,33,-16,29,-11,-9,-152,200.0
05:34:05.430,AUTO,-35.3632624,149.1652341,9861,0.06479668617248535,-0.005183094646781683,-0.07794702053070068,-0.07165909558534622,-0.05552990362048149,0.04507556930184364,1,2,-991,-70,-54,44,-10,7,-150,200.0
05:34:05.632,AUTO,-35.3632626,149.1652344,10246,0.04013779014348984,-0.012580858543515205,-0.07189348340034485,-0.10204008221626282,-0.007624534890055656,0.012779024429619312,3,0,-996,-101,-7,12,-5,19,-148,200.0
05:34:05.834,AUTO,-35.3632627,149.1652348,10627,0.01638403907418251,-0.011568678542971611,-0.07271967083215714,-0.08362724632024765,0.01111538615077734,-0.011951558291912079,3,-2,-1000,-83,11,-12,-1,23,-147,200.0
05:34:06.036,AUTO,-35.3632627,149.1652354,11012,-0.0017141882563009858,-0.008684809319674969,-0.07838127017021179,-0.054646000266075134,0.011211601085960865,-0.026003804057836533,2,-4,-1003,-53,11,-26,2,23,-148,200.0
05:34:06.238,AUTO,-35.3632627,149.1652354,11012,-0.0017141882563009858,-0.008684809319674969,-0.07838127017021179,-0.054646000266075134,0.011211601085960865,-0.026003804057836533,2,-4,-1003,-53,11,-26,2,23,-148,200.0
05:34:06.440,AUTO,-35.3632627,149.1652354,11012,-0.0017141882563009858,-0.008684809319674969,-0.07838127017021179,-0.054646000266075134,0.011211601085960865,-0.026003804057836533,2,-4,-1003,-53,11,-26,2,23,-148,200.0
05:34:06.641,AUTO,-35.3632627,149.1652354,11012,-0.0017141882563009858,-0.008684809319674969,-0.07838127017021179,-0.054646000266075134,0.011211601085960865,-0.026003804057836533,2,-4,-1003,-53,11,-26,2,23,-148,200.0
05:34:06.843,AUTO,-35.3632624,149.1652366,12164,-0.01863800920546055,-0.0023070781026035547,-0.10428979247808456,0.005375488195568323,0.007671630010008812,-0.032731279730796814,0,-2,-1002,6,8,-32,7,7,-150,200.0
05:34:07.045,AUTO,-35.3632623,149.1652367,12552,-0.016197070479393005,-0.0005615463596768677,-0.11304671317338943,0.0155464056879282,0.00834097433835268,-0.03204181045293808,-1,-1,-1001,16,8,-32,7,1,-151,200.0
05:34:07.247,AUTO,-35.3632623,149.1652367,12552,-0.016197070479393005,-0.0005615463596768677,-0.11304671317338943,0.0155464056879282,0.00834097433835268,-0.03204181045293808,-1,-1,-1001,16,8,-32,7,1,-151,200.0
05:34:07.449,AUTO,-35.3632621,149.1652366,12941,-0.011737494729459286,0.0014159980928525329,-0.12131044268608093,0.01898566447198391,0.007672747131437063,-0.029672887176275253,-1,-1,-1000,19,8,-29,6,-3,-151,227817.0
05:34:07.651,AUTO,-35.3632619,149.1652366,13331,-0.0066064936108887196,0.0033616526052355766,-0.12873871624469757,0.020345069468021393,0.007740000728517771,-0.025859031826257706,-2,0,-1000,21,8,-26,5,-6,-151,227817.0
05:34:07.853,AUTO,-35.3632618,149.1652364,13720,-0.0016887688543647528,0.004866683389991522,-0.13489410281181335,0.020324718207120895,0.0052325110882520676,-0.019990304484963417,-2,0,-1000,21,6,-20,4,-7,-151,227817.0
05:34:08.056,AUTO,-35.3632617,149.1652361,14110,0.002695574192330241,0.006396438926458359,-0.1404339075088501,0.017962394282221794,0.005157080013304949,-0.01775679737329483,-2,0,-1000,18,5,-17,3,-7,-151,227817.0
05:34:08.266,AUTO,-35.3632617,149.1652361,14110,0.002695574192330241,0.006396438926458359,-0.1404339075088501,0.017962394282221794,0.005157080013304949,-0.01775679737329483,-2,0,-1000,18,5,-17,3,-7,-151,227817.0
05:34:08.470,AUTO,-35.3632617,149.1652361,14110,0.002695574192330241,0.006396438926458359,-0.1404339075088501,0.017962394282221794,0.005157080013304949,-0.01775679737329483,-2,0,-1000,18,5,-17,3,-7,-151,227817.0
05:34:08.672,AUTO,-35.3632617,149.1652361,14110,0.002695574192330241,0.006396438926458359,-0.1404339075088501,0.017962394282221794,0.005157080013304949,-0.01775679737329483,-2,0,-1000,18,5,-17,3,-7,-151,227817.0
05:34:08.874,AUTO,-35.3632615,149.1652356,15279,0.0098869688808918,0.007730250712484121,-0.151744082570076,0.0028327396139502525,-0.00046104477951303124,-0.010644838213920593,-1,0,-1000,3,0,-10,0,-3,-151,227817.0
05:34:09.076,AUTO,-35.3632615,149.1652355,15673,0.010302468203008175,0.007508305832743645,-0.1546105146408081,0.0008033292251639068,-0.0012581711634993553,-0.00878065824508667,0,0,-1000,1,0,-9,-1,-1,-151,227817.0
05:34:09.277,AUTO,-35.3632615,149.1652354,16061,0.010069357231259346,0.00686924671754241,-0.15713879466056824,-0.0021582862827926874,-0.00331149622797966,-0.01083383895456791,0,0,-1000,-1,-2,-11,-2,0,-151,227817.0
05:34:09.479,AUTO,-35.3632615,149.1652354,16061,0.010069357231259346,0.00686924671754241,-0.15713879466056824,-0.0021582862827926874,-0.00331149622797966,-0.01083383895456791,0,0,-1000,-1,-2,-11,-2,0,-151,227817.0
05:34:09.680,AUTO,-35.3632615,149.1652354,16451,0.00910924095660448,0.005937568843364716,-0.1596187949180603,-0.004432423505932093,-0.0025340637657791376,-0.012941952794790268,0,0,-1000,-3,-1,-13,-3,2,-151,227817.0
05:34:09.882,AUTO,-35.3632615,149.1652355,16840,0.007859943434596062,0.00534975016489625,-0.16246338188648224,-0.0041113849729299545,-0.0014307477977126837,-0.012332075275480747,0,0,-1000,-3,0,-12,-3,4,-151,227817.0
05:34:10.084,AUTO,-35.3632615,149.1652355,17228,0.006417118012905121,0.004935128148645163,-0.16576321423053741,-0.006509375758469105,-0.00134185585193336,-0.013079728931188583,0,0,-1000,-5,0,-13,-3,5,-151,227817.0
05:34:10.288,AUTO,-35.3632615,149.1652355,17228,0.006417118012905121,0.004935128148645163,-0.16576321423053741,-0.006509375758469105,-0.00134185585193336,-0.013079728931188583,0,0,-1000,-5,0,-13,-3,5,-151,227817.0
05:34:10.490,AUTO,-35.3632615,149.1652355,17228,0.006417118012905121,0.004935128148645163,-0.16576321423053741,-0.006509375758469105,-0.00134185585193336,-0.013079728931188583,0,0,-1000,-5,0,-13,-3,5,-151,227817.0
05:34:10.692,AUTO,-35.3632615,149.1652355,17228,0.006417118012905121,0.004935128148645163,-0.16576321423053741,-0.006509375758469105,-0.00134185585193336,-0.013079728931188583,0,0,-1000,-5,0,-13,-3,5,-151,227817.0
05:34:10.894,AUTO,-35.3632616,149.1652357,18391,0.003638472408056259,0.0035088721197098494,-0.17738527059555054,-0.00047190251643769443,-0.00015969236847013235,-0.017163220793008804,0,0,-1000,0,0,-17,-3,5,-151,227817.0
05:34:11.096,AUTO,-35.3632617,149.1652358,18780,0.0032618879340589046,0.0035152588970959187,-0.18209166824817657,0.001022728974930942,0.00041002611396834254,-0.018044568598270416,0,0,-1000,1,1,-18,-3,5,-151,227817.0
05:34:11.297,AUTO,-35.3632617,149.1652359,19170,0.0029882416129112244,0.003296534065157175,-0.18680112063884735,-0.001626711804419756,-0.0015614645089954138,-0.018805956467986107,0,0,-1000,0,0,-19,-3,5,-152,227817.0
05:34:11.499,AUTO,-35.3632617,149.1652359,19170,0.0029882416129112244,0.003296534065157175,-0.18680112063884735,-0.001626711804419756,-0.0015614645089954138,-0.018805956467986107,0,0,-1000,0,0,-19,-3,5,-152,300000.0
05:34:11.700,AUTO,-35.3632617,149.165236,19559,0.0025720959529280663,0.0030710254795849323,-0.19171589612960815,0.0016679962864145637,5.298189353197813e-05,-0.020401855930685997,0,0,-1000,2,0,-20,-3,5,-152,300000.0
05:34:11.902,AUTO,-35.3632617,149.1652361,19951,0.0024107052013278008,0.0027528530918061733,-0.1965634524822235,0.0006797281093895435,-7.471191929653287e-05,-0.02122071199119091,0,0,-1000,1,0,-21,-3,5,-152,300000.0
05:34:12.104,AUTO,-35.3632618,149.1652361,20341,0.002430973807349801,0.0027963449247181416,-0.20165221393108368,-0.0001228201435878873,0.0015340714016929269,-0.02060159482061863,0,0,-1000,0,2,-20,-3,4,-152,300000.0
05:34:12.306,AUTO,-35.3632618,149.1652361,20341,0.002430973807349801,0.0027963449247181416,-0.20165221393108368,-0.0001228201435878873,0.0015340714016929269,-0.02060159482061863,0,0,-1000,0,2,-20,-3,4,-152,300000.0
05:34:12.507,AUTO,-35.3632618,149.1652361,20341,0.002430973807349801,0.0027963449247181416,-0.20165221393108368,-0.0001228201435878873,0.0015340714016929269,-0.02060159482061863,0,0,-1000,0,2,-20,-3,4,-152,300000.0
05:34:12.709,AUTO,-35.3632618,149.1652361,20341,0.002430973807349801,0.0027963449247181416,-0.20165221393108368,-0.0001228201435878873,0.0015340714016929269,-0.02060159482061863,0,0,-1000,0,2,-20,-3,4,-152,300000.0
05:34:12.911,AUTO,-35.3632618,149.1652363,21509,0.0023987451568245888,0.003056613262742758,-0.2173718512058258,0.0003791750641539693,0.0015715507324784994,-0.02122136577963829,0,0,-1000,1,2,-21,-2,3,-152,300000.0
05:34:13.112,AUTO,-35.3632618,149.1652364,21899,0.002324627945199609,0.0031275132205337286,-0.2226117104291916,-0.0003409394412301481,0.0022282490972429514,-0.02147567644715309,0,0,-1000,0,3,-21,-2,3,-152,300000.0
05:34:13.315,AUTO,-35.3632618,149.1652364,22295,0.0023627490736544132,0.0031661251559853554,-0.2277875393629074,-0.0016722846776247025,-0.001637729350477457,-0.02057454362511635,0,0,-1000,0,-1,-20,-2,3,-152,300000.0
05:34:13.517,AUTO,-35.3632618,149.1652365,22685,0.002385022584348917,0.002826482057571411,-0.2326793670654297,0.0017769418191164732,-0.0009353137575089931,-0.020899714902043343,0,0,-1000,2,0,-21,-2,3,-152,300000.0
05:34:13.718,AUTO,-35.3632618,149.1652365,22685,0.002385022584348917,0.002826482057571411,-0.2326793670654297,0.0017769418191164732,-0.0009353137575089931,-0.020899714902043343,0,0,-1000,2,0,-21,-2,3,-152,300000.0
05:34:13.920,AUTO,-35.3632618,149.1652365,23075,0.0024982879403978586,0.0026539568789303303,-0.23754651844501495,0.0015886141918599606,0.0006939236773177981,-0.020236006006598473,0,0,-1000,2,1,-20,-2,3,-152,300000.0
05:34:14.121,AUTO,-35.3632619,149.1652366,23465,0.0024428246542811394,0.002710334025323391,-0.24250684678554535,0.001949880039319396,0.0006080634775571525,-0.020622944459319115,0,0,-1000,2,1,-20,-2,3,-152,300000.0
05:34:14.323,AUTO,-35.3632619,149.1652366,23465,0.0024428246542811394,0.002710334025323391,-0.24250684678554535,0.001949880039319396,0.0006080634775571525,-0.020622944459319115,0,0,-1000,2,1,-20,-2,3,-152,300000.0
05:34:14.525,AUTO,-35.3632619,149.1652366,23465,0.0024428246542811394,0.002710334025323391,-0.24250684678554535,0.001949880039319396,0.0006080634775571525,-0.020622944459319115,0,0,-1000,2,1,-20,-2,3,-152,300000.0
05:34:14.726,AUTO,-35.3632619,149.1652366,23465,0.0024428246542811394,0.002710334025323391,-0.24250684678554535,0.001949880039319396,0.0006080634775571525,-0.020622944459319115,0,0,-1000,2,1,-20,-2,3,-152,300000.0
05:34:14.928,AUTO,-35.3632619,149.1652366,24626,0.0028817825950682163,0.0019833375699818134,-0.2564191520214081,-0.0010383506305515766,0.0012148779351264238,-0.020798491314053535,0,0,-1000,0,2,-20,-2,3,-152,300000.0
05:34:15.130,AUTO,-35.3632619,149.1652367,25015,5.842529935762286e-05,0.002198033034801483,-0.26061174273490906,-0.0964297279715538,0.007112298626452684,-0.004731124732643366,0,-3,-981,-95,7,-4,-2,3,-151,300000.0
05:34:15.331,AUTO,-35.363262,149.1652367,25401,-0.011154691688716412,0.004631510004401207,-0.26033174991607666,-0.0028526405803859234,0.00887085311114788,0.006975638214498758,0,0,-1002,-1,9,6,-2,0,-151,300000.0
05:34:15.533,AUTO,-35.363262,149.1652366,25789,-0.004096751566976309,0.005555923096835613,-0.25740763545036316,0.038111090660095215,0.0017162574222311378,0.014324218034744263,0,0,-1002,39,2,14,-4,-1,-152,229959.0
05:34:15.734,AUTO,-35.363262,149.1652366,25789,-0.004096751566976309,0.005555923096835613,-0.25740763545036316,0.038111090660095215,0.0017162574222311378,0.014324218034744263,0,0,-1002,39,2,14,-4,-1,-152,229959.0
05:34:15.936,AUTO,-35.3632621,149.1652366,26178,0.004247840028256178,0.004898834973573685,-0.2524447739124298,0.02936680242419243,-0.0028582336381077766,0.022058364003896713,0,1,-1001,30,-2,21,-5,-1,-152,229959.0
05:34:16.138,AUTO,-35.3632622,149.1652365,26567,0.009364571422338486,0.003892651991918683,-0.24602878093719482,0.015405561774969101,-0.0029107427690178156,0.026722611859440804,0,0,-1000,16,-2,26,-5,0,-152,229959.0
05:34:16.340,AUTO,-35.3632622,149.1652365,26567,0.009364571422338486,0.003892651991918683,-0.24602878093719482,0.015405561774969101,-0.0029107427690178156,0.026722611859440804,0,0,-1000,16,-2,26,-5,0,-152,229959.0
05:34:16.542,AUTO,-35.3632622,149.1652365,26567,0.009364571422338486,0.003892651991918683,-0.24602878093719482,0.015405561774969101,-0.0029107427690178156,0.026722611859440804,0,0,-1000,16,-2,26,-5,0,-152,229959.0
05:34:16.743,AUTO,-35.3632622,149.1652365,26567,0.009364571422338486,0.003892651991918683,-0.24602878093719482,0.015405561774969101,-0.0029107427690178156,0.026722611859440804,0,0,-1000,16,-2,26,-5,0,-152,229959.0
05:34:16.945,AUTO,-35.3632624,149.1652365,27733,0.010359818115830421,0.00142933358438313,-0.2268633395433426,-0.0057865334674716,0.00024302909150719643,0.025147784501314163,0,0,-999,-4,1,24,-3,6,-152,229959.0
05:34:17.148,AUTO,-35.3632624,149.1652367,28121,0.005572738125920296,0.003606104524806142,-0.21583150327205658,-0.05515970289707184,0.041278496384620667,0.11175274103879929,0,-1,-979,-54,42,111,-2,7,-150,229959.0
05:34:17.350,AUTO,-35.3632624,149.1652368,28495,-0.017509572207927704,0.026146452873945236,-0.15591737627983093,-0.11894626170396805,0.11367093771696091,0.3595637381076813,2,-1,-972,-118,114,359,-5,5,-143,229959.0
05:34:17.553,AUTO,-35.3632626,149.1652368,28853,-0.04785947874188423,0.05906284600496292,-0.029459672048687935,-0.16267593204975128,0.10595308244228363,0.6315348148345947,2,0,-977,-161,107,631,-15,-2,-136,229959.0
05:34:17.754,AUTO,-35.3632626,149.1652368,28853,-0.04785947874188423,0.05906284600496292,-0.029459672048687935,-0.16267593204975128,0.10595308244228363,0.6315348148345947,2,0,-977,-161,107,631,-15,-2,-136,229959.0
05:34:17.956,AUTO,-35.3632631,149.1652366,29189,-0.055828291922807693,0.05862728878855705,0.09747794270515442,0.020509935915470123,-0.15235930681228638,0.35731130838394165,4,4,-944,21,-151,357,-28,-15,-124,229959.0
05:34:18.158,AUTO,-35.3632638,149.165236,29491,-0.03276326507329941,0.012399224564433098,0.1523251235485077,0.12027525156736374,-0.1909143030643463,0.11188817024230957,5,9,-946,121,-190,111,-34,-25,-110,229959.0
05:34:18.368,AUTO,-35.3632638,149.165236,29491,-0.03276326507329941,0.012399224564433098,0.1523251235485077,0.12027525156736374,-0.1909143030643463,0.11188817024230957,5,9,-946,121,-190,111,-34,-25,-110,229959.0
05:34:18.576,AUTO,-35.3632638,149.165236,29491,-0.03276326507329941,0.012399224564433098,0.1523251235485077,0.12027525156736374,-0.1909143030643463,0.11188817024230957,5,9,-946,121,-190,111,-34,-25,-110,229959.0
05:34:18.778,AUTO,-35.3632654,149.1652339,30209,0.03279857337474823,-0.05018504709005356,0.14626485109329224,0.06846104562282562,-0.007541613187640905,-0.041549570858478546,0,6,-965,69,-6,-41,-10,-14,-77,229959.0
05:34:18.979,AUTO,-35.3632654,149.1652339,30209,0.03279857337474823,-0.05018504709005356,0.14626485109329224,0.06846104562282562,-0.007541613187640905,-0.041549570858478546,0,6,-965,69,-6,-41,-10,-14,-77,229959.0
05:34:19.181,AUTO,-35.3632655,149.1652336,30398,0.03908837214112282,-0.0478624626994133,0.1363055258989334,-0.02141190879046917,0.017896439880132675,-0.03331124410033226,0,0,-969,-20,18,-33,0,-3,-69,229959.0
05:34:19.383,AUTO,-35.3632655,149.1652336,30568,0.03982867673039436,-0.04045373201370239,0.12906260788440704,0.041376180946826935,0.034968212246894836,-0.023842057213187218,-1,2,-974,42,36,-24,9,6,-61,229959.0
05:34:19.585,AUTO,-35.3632652,149.1652337,30718,0.03773931413888931,-0.03040558472275734,0.1244666576385498,0.0266867745667696,0.042228516191244125,-0.01369672454893589,-2,-4,-977,27,43,-13,16,14,-55,27229.0
05:34:19.788,AUTO,-35.3632648,149.1652341,30852,0.026544636115431786,-0.019993826746940613,0.12127520143985748,-0.2662102282047272,0.04054158180952072,-0.009049419313669205,-3,-14,-978,-264,41,-9,21,21,-50,27229.0
05:34:19.990,AUTO,-35.3632648,149.1652341,30852,0.026544636115431786,-0.019993826746940613,0.12127520143985748,-0.2662102282047272,0.04054158180952072,-0.009049419313669205,-3,-14,-978,-264,41,-9,21,21,-50,27229.0
05:34:20.192,AUTO,-35.3632643,149.1652346,30971,0.024335283786058426,-0.011111913248896599,0.1186322495341301,0.27574586868286133,0.03115595132112503,-0.0021584564819931984,-3,15,-972,277,32,-2,23,26,-43,27229.0
05:34:20.394,AUTO,-35.3632643,149.1652346,30971,0.024335283786058426,-0.011111913248896599,0.1186322495341301,0.27574586868286133,0.03115595132112503,-0.0021584564819931984,-3,15,-972,277,32,-2,23,26,-43,27229.0
05:34:20.596,AUTO,-35.3632643,149.1652346,30971,0.024335283786058426,-0.011111913248896599,0.1186322495341301,0.27574586868286133,0.03115595132112503,-0.0021584564819931984,-3,15,-972,277,32,-2,23,26,-43,27229.0
05:34:20.798,AUTO,-35.3632626,149.1652367,31239,-0.0046317861415445805,0.010639756917953491,0.11036089062690735,-0.6139868497848511,0.02154669165611267,-0.0043962146155536175,-1,-29,-979,-612,22,-4,22,27,-28,27229.0
05:34:20.999,AUTO,-35.3632626,149.1652367,31239,-0.0046317861415445805,0.010639756917953491,0.11036089062690735,-0.6139868497848511,0.02154669165611267,-0.0043962146155536175,-1,-29,-979,-612,22,-4,22,27,-28,27229.0
05:34:21.201,AUTO,-35.3632621,149.1652373,31302,-0.00527848768979311,0.014146150089800358,0.1080155298113823,0.0260759387165308,0.011127143166959286,-0.0018996744183823466,-1,12,-976,28,12,-2,19,25,-22,27229.0
05:34:21.402,AUTO,-35.3632617,149.1652378,31349,0.00344608211889863,0.015757203102111816,0.10617813467979431,0.6378375291824341,0.0010760088916867971,-0.005295263137668371,-1,24,-982,639,1,-5,15,22,-16,27229.0
05:34:21.604,AUTO,-35.3632614,149.1652383,31379,0.007887918502092361,0.01489980984479189,0.1044999361038208,0.4833044707775116,-0.009470256045460701,-0.0069529213942587376,0,4,-973,483,-8,-6,11,18,-8,27229.0
05:34:21.806,AUTO,-35.3632612,149.1652386,31389,-0.00014262455806601793,0.013784816488623619,0.10309330374002457,-0.2493479996919632,-0.006594999693334103,-0.0076185353100299835,0,-36,-950,-249,-5,-7,8,14,-1,27229.0
05:34:22.008,AUTO,-35.3632612,149.1652386,31389,-0.00014262455806601793,0.013784816488623619,0.10309330374002457,-0.2493479996919632,-0.006594999693334103,-0.0076185353100299835,0,-36,-950,-249,-5,-7,8,14,-1,27229.0
05:34:22.210,AUTO,-35.363261,149.1652388,31372,-0.03657161444425583,0.03920729458332062,0.10330799221992493,-0.8959469795227051,0.037520069628953934,-0.015769843012094498,0,-44,-944,-895,38,-15,2,7,13,27229.0
05:34:22.413,AUTO,-35.363261,149.1652388,31372,-0.03657161444425583,0.03920729458332062,0.10330799221992493,-0.8959469795227051,0.037520069628953934,-0.015769843012094498,0,-44,-944,-895,38,-15,2,7,13,27229.0
05:34:22.616,AUTO,-35.363261,149.1652388,31372,-0.03657161444425583,0.03920729458332062,0.10330799221992493,-0.8959469795227051,0.037520069628953934,-0.015769843012094498,0,-44,-944,-895,38,-15,2,7,13,27229.0
05:34:22.818,AUTO,-35.3632616,149.1652381,31248,-0.006293272599577904,0.025585776194930077,0.0970437079668045,0.5468698740005493,-0.0212412029504776,-0.007978932000696659,2,47,-1025,549,-20,-7,-20,-9,9,27229.0
05:34:23.020,AUTO,-35.3632621,149.1652375,31222,0.00646709930151701,0.021218102425336838,0.09601323306560516,0.7629752159118652,-0.011755271814763546,-0.015273983590304852,2,39,-1015,764,-10,-15,-25,-11,6,154925.0
05:34:23.222,AUTO,-35.3632621,149.1652375,31222,0.00646709930151701,0.021218102425336838,0.09601323306560516,0.7629752159118652,-0.011755271814763546,-0.015273983590304852,2,39,-1015,764,-10,-15,-25,-11,6,154925.0
05:34:23.423,AUTO,-35.3632627,149.1652368,31202,0.009160720743238926,0.019931616261601448,0.09562493860721588,0.2008577585220337,0.0024172009434551,-0.015676546841859818,2,0,-1004,201,3,-15,-30,-13,3,154925.0
05:34:23.625,AUTO,-35.3632635,149.165236,31189,-0.0006724459817633033,0.022999176755547523,0.0947171151638031,-0.5808947086334229,0.01935620605945587,-0.02465386688709259,3,-25,-996,-580,20,-24,-35,-13,1,154925.0
05:34:23.827,AUTO,-35.3632644,149.1652352,31179,-0.007947571575641632,0.030587345361709595,0.09368003904819489,-0.5227251052856445,0.042827267199754715,-0.017852704972028732,5,-4,-1016,-520,43,-17,-41,-13,0,154925.0
05:34:24.030,AUTO,-35.3632654,149.1652344,31176,-0.006431034300476313,0.044817179441452026,0.09170279651880264,0.14752864837646484,0.06175960600376129,-0.01591779850423336,6,39,-999,150,62,-15,-49,-13,-1,154925.0
05:34:24.232,AUTO,-35.3632654,149.1652344,31176,-0.006431034300476313,0.044817179441452026,0.09170279651880264,0.14752864837646484,0.06175960600376129,-0.01591779850423336,6,39,-999,150,62,-15,-49,-13,-1,154925.0
05:34:24.434,AUTO,-35.3632654,149.1652344,31176,-0.006431034300476313,0.044817179441452026,0.09170279651880264,0.14752864837646484,0.06175960600376129,-0.01591779850423336,6,39,-999,150,62,-15,-49,-13,-1,154925.0
05:34:24.635,AUTO,-35.3632654,149.1652344,31176,-0.006431034300476313,0.044817179441452026,0.09170279651880264,0.14752864837646484,0.06175960600376129,-0.01591779850423336,6,39,-999,150,62,-15,-49,-13,-1,154925.0
05:34:24.837,AUTO,-35.3632701,149.1652316,31165,-0.05433846637606621,0.061496421694755554,-0.3540930151939392,-0.5879065990447998,0.04939569532871246,-0.8919238448143005,4,-10,-998,-587,50,-891,-89,-23,-1,154925.0
05:34:25.039,AUTO,-35.3632724,149.1652304,31162,-0.08510934561491013,0.05345337837934494,-0.567459762096405,-0.5790626406669617,0.029383892193436623,-0.8459129333496094,-2,14,-1000,-577,30,-846,-106,-27,0,154925.0
05:34:25.241,AUTO,-35.3632724,149.1652304,31162,-0.08510934561491013,0.05345337837934494,-0.567459762096405,-0.5790626406669617,0.029383892193436623,-0.8459129333496094,-2,14,-1000,-577,30,-846,-106,-27,0,154925.0
05:34:25.443,AUTO,-35.363275,149.1652292,31157,-0.10208045691251755,0.0364237017929554,-0.767554521560669,0.21220216155052185,-0.004325109999626875,-0.7834211587905884,-7,61,-1005,214,-3,-783,-124,-33,0,154925.0
05:34:25.644,AUTO,-35.3632782,149.1652278,31153,-0.11124417185783386,0.013217898085713387,-0.9532446265220642,0.5431890487670898,-0.025281811133027077,-0.7548021078109741,-11,58,-1004,544,-24,-754,-145,-41,0,154925.0
05:34:25.846,AUTO,-35.3632817,149.1652262,31145,-0.12574870884418488,-0.012561189942061901,-1.1332175731658936,-0.05229989439249039,-0.018330354243516922,-0.7107384204864502,-23,23,-999,-51,-17,-710,-167,-50,0,154925.0
05:34:26.048,AUTO,-35.3632858,149.1652244,31137,-0.12470240145921707,-0.04125027731060982,-1.3125033378601074,-0.46383145451545715,-0.0048601203598082066,-0.7083970308303833,-32,11,-1013,-462,-3,-708,-188,-59,0,154925.0
05:34:26.251,AUTO,-35.3632858,149.1652244,31137,-0.12470240145921707,-0.04125027731060982,-1.3125033378601074,-0.46383145451545715,-0.0048601203598082066,-0.7083970308303833,-32,11,-1013,-462,-3,-708,-188,-59,0,154925.0
05:34:26.453,AUTO,-35.3632858,149.1652244,31137,-0.12470240145921707,-0.04125027731060982,-1.3125033378601074,-0.46383145451545715,-0.0048601203598082066,-0.7083970308303833,-32,11,-1013,-462,-3,-708,-188,-59,0,154925.0
05:34:26.655,AUTO,-35.3632858,149.1652244,31137,-0.12470240145921707,-0.04125027731060982,-1.3125033378601074,-0.46383145451545715,-0.0048601203598082066,-0.7083970308303833,-32,11,-1013,-462,-3,-708,-188,-59,0,154925.0
05:34:26.857,AUTO,-35.3633001,149.165218,31138,-0.027662215754389763,-0.08072420954704285,-1.84958815574646,0.41941025853157043,-0.08735299855470657,-0.6918678879737854,-56,26,-988,420,-86,-691,-220,-78,-2,154925.0
05:34:27.059,AUTO,-35.3633053,149.1652156,31136,-0.040534667670726776,-0.11366637796163559,-2.0290212631225586,-0.2945757210254669,-0.10365764051675797,-0.6560271382331848,-59,-14,-997,-293,-102,-655,-231,-86,0,200.0
05:34:27.262,AUTO,-35.3633108,149.1652129,31128,-0.048756491392850876,-0.15739522874355316,-2.2106189727783203,-0.4692620635032654,-0.15940964221954346,-0.7293010950088501,-60,-17,-989,-467,-158,-729,-250,-97,2,200.0
05:34:27.463,AUTO,-35.3633108,149.1652129,31128,-0.048756491392850876,-0.15739522874355316,-2.2106189727783203,-0.4692620635032654,-0.15940964221954346,-0.7293010950088501,-60,-17,-989,-467,-158,-729,-250,-97,2,200.0
05:34:27.665,AUTO,-35.3633167,149.1652099,31113,-0.02556990459561348,-0.20146183669567108,-2.3927042484283447,0.14729568362236023,-0.06896203756332397,-0.7271603941917419,-65,2,-994,149,-68,-727,-277,-112,6,200.0
05:34:27.868,AUTO,-35.3633232,149.1652066,31096,0.020452916622161865,-0.1833948791027069,-2.575124979019165,0.43426012992858887,0.15233063697814941,-0.7145040035247803,-65,-19,-1012,436,152,-714,-307,-126,4,200.0
05:34:28.070,AUTO,-35.3633303,149.165203,31088,0.04336482658982277,-0.12920963764190674,-2.708613157272339,-0.08903118222951889,0.2103448510169983,-0.3289625346660614,-82,-57,-1029,-87,211,-328,-326,-135,-1,200.0
05:34:28.272,AUTO,-35.3633303,149.165203,31088,0.04336482658982277,-0.12920963764190674,-2.708613157272339,-0.08903118222951889,0.2103448510169983,-0.3289625346660614,-82,-57,-1029,-87,211,-328,-326,-135,-1,200.0
05:34:28.474,AUTO,-35.3633303,149.165203,31088,0.04336482658982277,-0.12920963764190674,-2.708613157272339,-0.08903118222951889,0.2103448510169983,-0.3289625346660614,-82,-57,-1029,-87,211,-328,-326,-135,-1,200.0
05:34:28.676,AUTO,-35.3633303,149.165203,31088,0.04336482658982277,-0.12920963764190674,-2.708613157272339,-0.08903118222951889,0.2103448510169983,-0.3289625346660614,-82,-57,-1029,-87,211,-328,-326,-135,-1,200.0
05:34:28.879,AUTO,-35.3633525,149.1651916,31124,0.06017690151929855,-0.12553349137306213,-2.7041878700256348,0.4534107744693756,-0.2847200334072113,0.12006533145904541,-74,-30,-962,454,-284,119,-332,-141,0,200.0
05:34:29.080,AUTO,-35.3633601,149.1651877,31109,0.049895621836185455,-0.19562019407749176,-2.6888327598571777,-0.14117668569087982,-0.2646437883377075,0.1168222427368164,-75,-63,-974,-140,-263,116,-350,-151,9,200.0
05:34:29.282,AUTO,-35.3633683,149.1651834,31075,0.04347734525799751,-0.2571502923965454,-2.684473991394043,-0.26448071002960205,-0.23167063295841217,0.0270921029150486,-81,-61,-984,-262,-230,27,-382,-165,16,200.0
05:34:29.484,AUTO,-35.3633683,149.1651834,31075,0.04347734525799751,-0.2571502923965454,-2.684473991394043,-0.26448071002960205,-0.23167063295841217,0.0270921029150486,-81,-61,-984,-262,-230,27,-382,-165,16,200.0
05:34:29.686,AUTO,-35.3633773,149.1651787,31029,0.047001078724861145,-0.25306031107902527,-2.684922218322754,0.037893638014793396,0.22938863933086395,-0.009928122162818909,-90,-35,-1035,39,230,-10,-421,-185,17,200.0
05:34:29.888,AUTO,-35.363387,149.1651735,31003,0.05334803834557533,-0.17055286467075348,-2.68711256980896,0.07790585607290268,0.3686397671699524,-0.028969908133149147,-79,-69,-1060,79,369,-29,-449,-197,2,200.0
05:34:30.090,AUTO,-35.363397,149.1651682,31016,0.05916015803813934,-0.07796002179384232,-2.68929386138916,-0.14348915219306946,0.34283149242401123,-0.015225259587168694,-101,-70,-1052,-141,343,-15,-454,-199,-13,200.0
05:34:30.292,AUTO,-35.363397,149.1651682,31016,0.05916015803813934,-0.07796002179384232,-2.68929386138916,-0.14348915219306946,0.34283149242401123,-0.015225259587168694,-101,-70,-1052,-141,343,-15,-454,-199,-13,200.0
05:34:30.495,AUTO,-35.363397,149.1651682,31016,0.05916015803813934,-0.07796002179384232,-2.68929386138916,-0.14348915219306946,0.34283149242401123,-0.015225259587168694,-101,-70,-1052,-141,343,-15,-454,-199,-13,200.0
05:34:30.698,AUTO,-35.363397,149.1651682,31016,0.05916015803813934,-0.07796002179384232,-2.68929386138916,-0.14348915219306946,0.34283149242401123,-0.015225259587168694,-101,-70,-1052,-141,343,-15,-454,-199,-13,200.0
05:34:30.900,AUTO,-35.3634261,149.1651529,31126,0.06590462476015091,-0.122105173766613,-2.6885879039764404,-0.27314385771751404,-0.3461315929889679,0.09383591264486313,-81,-74,-927,-272,-345,94,-415,-185,2,200.0
05:34:31.102,AUTO,-35.3634356,149.1651478,31101,0.0529666505753994,-0.20561766624450684,-2.690441131591797,-0.3273042142391205,-0.3256258964538574,-0.01724012941122055,-81,-60,-939,-325,-324,-17,-430,-193,17,200.0
05:34:31.304,AUTO,-35.3634458,149.1651423,31042,0.052606645971536636,-0.27603548765182495,-2.6917431354522705,0.08514678478240967,-0.2572241723537445,-0.023177364841103554,-97,-47,-974,86,-256,-22,-462,-207,28,200.0
05:34:31.506,AUTO,-35.3634458,149.1651423,31042,0.052606645971536636,-0.27603548765182495,-2.6917431354522705,0.08514678478240967,-0.2572241723537445,-0.023177364841103554,-97,-47,-974,86,-256,-22,-462,-207,28,200.0
05:34:31.708,AUTO,-35.3634567,149.1651363,30962,0.04919981583952904,-0.3164530098438263,-2.6917402744293213,0.03549324721097946,0.032821282744407654,0.0006046844064258039,-126,-66,-1015,37,33,0,-506,-226,34,200.0
05:34:31.909,AUTO,-35.3634685,149.16513,30888,0.04613042622804642,-0.257096529006958,-2.6852827072143555,0.009498913772404194,0.3374684751033783,0.04796014353632927,-138,-65,-1085,11,338,48,-548,-242,22,200.0
05:34:32.112,AUTO,-35.3634811,149.1651233,30866,0.056281037628650665,-0.1366705745458603,-2.6780028343200684,0.1550000160932541,0.557155430316925,-0.08484142273664474,-135,-79,-1148,156,557,-84,-571,-247,-8,200.0
05:34:32.315,AUTO,-35.3634811,149.1651233,30866,0.056281037628650665,-0.1366705745458603,-2.6780028343200684,0.1550000160932541,0.557155430316925,-0.08484142273664474,-135,-79,-1148,156,557,-84,-571,-247,-8,200.0
05:34:32.517,AUTO,-35.3634811,149.1651233,30866,0.056281037628650665,-0.1366705745458603,-2.6780028343200684,0.1550000160932541,0.557155430316925,-0.08484142273664474,-135,-79,-1148,156,557,-84,-571,-247,-8,200.0
05:34:32.719,AUTO,-35.3634811,149.1651233,30866,0.056281037628650665,-0.1366705745458603,-2.6780028343200684,0.1550000160932541,0.557155430316925,-0.08484142273664474,-135,-79,-1148,156,557,-84,-571,-247,-8,200.0
05:34:32.921,AUTO,-35.3635174,149.1651046,31105,0.0980275496840477,-0.013204301707446575,-2.698837995529175,0.3130357563495636,-0.2761906385421753,0.018672237172722816,-100,-52,-885,314,-275,18,-498,-217,-23,200.0
05:34:33.123,AUTO,-35.3635285,149.1650988,31139,0.08925460278987885,-0.0011577570112422109,-2.6964967250823975,-0.5206179022789001,0.2606881856918335,0.0037229140289127827,-114,-99,-968,-520,261,4,-477,-211,-6,200.0
05:34:33.324,AUTO,-35.3635389,149.1650932,31153,0.07052083313465118,0.07764097303152084,-2.6921920776367188,-0.7866455316543579,0.3240276873111725,0.0057201627641916275,-98,-88,-997,-784,324,5,-444,-201,-2,200.0
05:34:33.526,AUTO,-35.3635485,149.1650879,31157,0.06875816732645035,0.1135719045996666,-2.6927175521850586,-0.11939643323421478,-0.03299955651164055,-0.08144070953130722,-88,-34,-969,-115,-32,-81,-399,-184,2,200.0
05:34:33.728,AUTO,-35.3635485,149.1650879,31157,0.06875816732645035,0.1135719045996666,-2.6927175521850586,-0.11939643323421478,-0.03299955651164055,-0.08144070953130722,-88,-34,-969,-115,-32,-81,-399,-184,2,200.0
05:34:33.930,AUTO,-35.3635572,149.1650831,31136,0.06698612868785858,0.08779137581586838,-2.6932146549224854,0.3576691746711731,-0.11806121468544006,-0.0773068219423294,-80,-18,-1005,361,-116,-77,-358,-168,11,200.0
05:34:34.132,AUTO,-35.3635649,149.1650788,31099,0.07276933640241623,0.060180362313985825,-2.6947731971740723,0.6952850222587585,-0.07793871313333511,-0.04418765380978584,-71,-8,-1024,698,-77,-44,-325,-155,15,200.0
05:34:34.334,AUTO,-35.3635649,149.1650788,31099,0.07276933640241623,0.060180362313985825,-2.6947731971740723,0.6952850222587585,-0.07793871313333511,-0.04418765380978584,-71,-8,-1024,698,-77,-44,-325,-155,15,200.0
05:34:34.536,AUTO,-35.3635649,149.1650788,31099,0.07276933640241623,0.060180362313985825,-2.6947731971740723,0.6952850222587585,-0.07793871313333511,-0.04418765380978584,-71,-8,-1024,698,-77,-44,-325,-155,15,200.0
05:34:34.738,AUTO,-35.3635649,149.1650788,31099,0.07276933640241623,0.060180362313985825,-2.6947731971740723,0.6952850222587585,-0.07793871313333511,-0.04418765380978584,-71,-8,-1024,698,-77,-44,-325,-155,15,200.0
05:34:34.940,AUTO,-35.3635846,149.1650671,30989,0.03458363562822342,-0.048177946358919144,-2.696948766708374,-0.5065574049949646,-0.3407195806503296,0.07854269444942474,-52,-79,-974,-505,-340,78,-264,-128,15,200.0
05:34:35.142,AUTO,-35.3635906,149.1650636,30948,0.021459896117448807,-0.12684781849384308,-2.6973485946655273,-0.747348964214325,-0.27387574315071106,0.014232756569981575,-60,-63,-983,-745,-273,14,-271,-130,17,150999.0
05:34:35.344,AUTO,-35.3635969,149.1650599,30902,0.018449964001774788,-0.18901924788951874,-2.698751449584961,-0.07916784286499023,-0.22692835330963135,-0.04681498184800148,-64,-25,-1007,-76,-226,-46,-294,-137,17,150999.0
05:34:35.545,AUTO,-35.3636039,149.1650561,30856,0.0261923186480999,-0.2345428615808487,-2.698657274246216,0.3403129279613495,-0.045403748750686646,-0.0043128421530127525,-78,-21,-1010,342,-44,-4,-329,-148,18,150999.0
05:34:35.747,AUTO,-35.3636039,149.1650561,30856,0.0261923186480999,-0.2345428615808487,-2.698657274246216,0.3403129279613495,-0.045403748750686646,-0.0043128421530127525,-78,-21,-1010,342,-44,-4,-329,-148,18,150999.0
05:34:35.949,AUTO,-35.3636119,149.165052,30819,0.03536016494035721,-0.15930399298667908,-2.7021446228027344,-0.0928557738661766,0.5002425312995911,-0.043150611221790314,-83,-54,-1068,-91,501,-43,-362,-157,7,150999.0
05:34:36.151,AUTO,-35.3636203,149.165048,30825,0.048158999532461166,-0.026492398232221603,-2.7044124603271484,-0.0475793220102787,0.5050035715103149,-0.018694929778575897,-85,-44,-1064,-45,506,-18,-366,-155,-11,150999.0
