time_stamp,MODE,lat,lon,relative_alt,roll,pitch,yaw,rollspeed,pitchspeed,yawspeed,xacc,yacc,zacc,xgyro,ygyro,zgyro,vx,vy,vz,RTL_ALT
18:48:02.701,STABILIZE,-35.3632621,149.1652374,63,0.00034282621345482767,0.001521987491287291,0.02972310781478882,0.00019991985755041242,0.0003528700617607683,0.002524001756682992,0,1,-1000,0,0,0,-1,1,-1,11851.0
18:48:02.901,STABILIZE,-35.3632621,149.1652374,59,0.0003510626556817442,0.0015592274721711874,0.029506606981158257,0.00010372555698268116,0.0002063905994873494,0.002458695089444518,0,1,-1000,0,0,0,-1,1,-1,11851.0
18:48:03.102,STABILIZE,-35.3632621,149.1652374,55,0.0003509900125209242,0.0015859354753047228,0.029299603775143623,0.00030354916816577315,0.0003248750581406057,0.0024592916015535593,0,1,-1000,0,0,0,-1,1,0,11851.0
18:48:03.315,STABILIZE,-35.3632621,149.1652374,55,0.0003509900125209242,0.0015859354753047228,0.029299603775143623,0.00030354916816577315,0.0003248750581406057,0.0024592916015535593,0,1,-1000,0,0,0,-1,1,0,11851.0
18:48:03.520,STABILIZE,-35.3632621,149.1652374,55,0.0003509900125209242,0.0015859354753047228,0.029299603775143623,0.00030354916816577315,0.0003248750581406057,0.0024592916015535593,0,1,-1000,0,0,0,-1,1,0,11851.0
18:48:03.722,STABILIZE,-35.3632621,149.1652374,55,0.0003509900125209242,0.0015859354753047228,0.029299603775143623,0.00030354916816577315,0.0003248750581406057,0.0024592916015535593,0,1,-1000,0,0,0,-1,1,0,11851.0
18:48:03.924,STABILIZE,-35.3632621,149.1652374,55,0.0003509900125209242,0.0015859354753047228,0.029299603775143623,0.00030354916816577315,0.0003248750581406057,0.0024592916015535593,0,1,-1000,0,0,0,-1,1,0,11851.0
18:48:04.126,STABILIZE,-35.3632621,149.1652375,49,0.00019616520148701966,0.0015543593326583505,0.028554674237966537,0.0002609414514154196,0.00021966660278849304,0.0023788916878402233,0,1,-1000,0,0,0,-1,0,-4,11851.0
18:48:04.328,STABILIZE,-35.3632621,149.1652374,58,0.00013596461212728173,0.0015235829632729292,0.02835763432085514,0.00031824895995669067,0.00020859763026237488,0.002215736545622349,0,1,-1000,0,0,0,-2,0,-4,11851.0
18:48:04.530,STABILIZE,-35.3632621,149.1652374,58,0.00013596461212728173,0.0015235829632729292,0.02835763432085514,0.00031824895995669067,0.00020859763026237488,0.002215736545622349,0,1,-1000,0,0,0,-2,0,-4,11851.0
18:48:04.732,STABILIZE,-35.3632621,149.1652374,58,0.00013596461212728173,0.0015235829632729292,0.02835763432085514,0.00031824895995669067,0.00020859763026237488,0.002215736545622349,0,1,-1000,0,0,0,-2,0,-4,11851.0
18:48:04.933,STABILIZE,-35.3632621,149.1652374,58,0.00013596461212728173,0.0015235829632729292,0.02835763432085514,0.00031824895995669067,0.00020859763026237488,0.002215736545622349,0,1,-1000,0,0,0,-2,0,-4,11851.0
18:48:05.135,STABILIZE,-35.3632622,149.1652374,64,0.000273033365374431,0.0013597776414826512,0.02785581909120083,0.0002433040353935212,0.0002891633484978229,0.0021903591696172953,0,1,-1000,0,1,0,-2,0,-3,11851.0
18:48:05.336,STABILIZE,-35.3632622,149.1652374,64,0.000273033365374431,0.0013597776414826512,0.02785581909120083,0.0002433040353935212,0.0002891633484978229,0.0021903591696172953,0,1,-1000,0,1,0,-2,0,-3,11851.0
18:48:05.538,STABILIZE,-35.3632622,149.1652374,64,0.000273033365374431,0.0013597776414826512,0.02785581909120083,0.0002433040353935212,0.0002891633484978229,0.0021903591696172953,0,1,-1000,0,1,0,-2,0,-3,11851.0
18:48:05.740,STABILIZE,-35.3632622,149.1652374,64,0.00027318537468090653,0.0011905963765457273,0.027349891141057014,0.000307315873214975,0.0002264969516545534,0.002232188358902931,0,1,-1000,0,0,0,-1,1,-3,11851.0
18:48:05.942,STABILIZE,-35.3632622,149.1652374,64,0.00027318537468090653,0.0011905963765457273,0.027349891141057014,0.000307315873214975,0.0002264969516545534,0.002232188358902931,0,1,-1000,0,0,0,-1,1,-3,11851.0
18:48:06.143,STABILIZE,-35.3632622,149.1652374,63,0.00027318537468090653,0.0011905963765457273,0.027349891141057014,0.000307315873214975,0.0002264969516545534,0.002232188358902931,0,1,-1000,0,0,0,-1,1,-2,11851.0
18:48:06.345,STABILIZE,-35.3632622,149.1652374,63,0.00027318537468090653,0.0011905963765457273,0.027349891141057014,0.000307315873214975,0.0002264969516545534,0.002232188358902931,0,1,-1000,0,0,0,-1,1,-2,11851.0
18:48:06.547,STABILIZE,-35.3632622,149.1652374,63,0.00027318537468090653,0.0011905963765457273,0.027349891141057014,0.000307315873214975,0.0002264969516545534,0.002232188358902931,0,1,-1000,0,0,0,-1,1,-2,11851.0
18:48:06.749,STABILIZE,-35.3632622,149.1652375,61,0.00010941383516183123,0.0010192421032115817,0.026695242151618004,0.0002601316955406219,0.0002622966421768069,0.0020078886300325394,0,1,-1000,0,0,0,-1,2,-1,11851.0
18:48:06.950,STABILIZE,-35.3632622,149.1652375,61,0.00010941383516183123,0.0010192421032115817,0.026695242151618004,0.0002601316955406219,0.0002622966421768069,0.0020078886300325394,0,1,-1000,0,0,0,-1,2,-1,11851.0
18:48:07.154,STABILIZE,-35.3632622,149.1652375,61,0.00010941383516183123,0.0010192421032115817,0.026695242151618004,0.0002601316955406219,0.0002622966421768069,0.0020078886300325394,0,1,-1000,0,0,0,-1,2,-1,11851.0
18:48:07.355,STABILIZE,-35.3632622,149.1652375,61,0.00010941383516183123,0.0010192421032115817,0.026695242151618004,0.0002601316955406219,0.0002622966421768069,0.0020078886300325394,0,1,-1000,0,0,0,-1,2,-1,11851.0
18:48:07.557,STABILIZE,-35.3632622,149.1652375,61,0.00010941383516183123,0.0010192421032115817,0.026695242151618004,0.0002601316955406219,0.0002622966421768069,0.0020078886300325394,0,1,-1000,0,0,0,-1,2,-1,11851.0
18:48:07.759,STABILIZE,-35.3632621,149.1652375,55,-0.00011470801837276667,0.0009231242001987994,0.026096927002072334,0.00033339671790599823,0.00031412922544404864,0.002059187740087509,0,1,-1000,0,0,0,-1,2,-1,11851.0
18:48:07.960,STABILIZE,-35.3632621,149.1652375,54,-0.00011470801837276667,0.0009231242001987994,0.026096927002072334,0.00033339671790599823,0.00031412922544404864,0.002059187740087509,0,1,-1000,0,0,0,-1,2,0,11851.0
18:48:08.162,STABILIZE,-35.3632621,149.1652375,54,-0.00011470801837276667,0.0009231242001987994,0.026096927002072334,0.00033339671790599823,0.00031412922544404864,0.002059187740087509,0,1,-1000,0,0,0,-1,2,0,11851.0
18:48:08.363,STABILIZE,-35.3632621,149.1652375,52,-0.0002188904763897881,0.0009039455326274037,0.025831159204244614,0.00015672179870307446,0.0002292850986123085,0.002143748104572296,0,1,-1000,0,0,0,-1,2,0,11851.0
18:48:08.565,STABILIZE,-35.3632621,149.1652375,52,-0.0002188904763897881,0.0009039455326274037,0.025831159204244614,0.00015672179870307446,0.0002292850986123085,0.002143748104572296,0,1,-1000,0,0,0,-1,2,0,11851.0
18:48:08.767,STABILIZE,-35.3632621,149.1652375,49,-0.0003305271384306252,0.000901414081454277,0.025592878460884094,0.000248204218223691,0.000120070471893996,0.001987879164516926,0,1,-1000,0,0,0,-1,2,0,11851.0
18:48:08.968,STABILIZE,-35.3632621,149.1652375,47,-0.0003305271384306252,0.000901414081454277,0.025592878460884094,0.000248204218223691,0.000120070471893996,0.001987879164516926,0,1,-1000,0,0,0,-1,2,0,11851.0
18:48:09.170,STABILIZE,-35.3632621,149.1652375,47,-0.0003305271384306252,0.000901414081454277,0.025592878460884094,0.000248204218223691,0.000120070471893996,0.001987879164516926,0,1,-1000,0,0,0,-1,2,0,11851.0
18:48:09.372,STABILIZE,-35.3632621,149.1652375,47,-0.0003305271384306252,0.000901414081454277,0.025592878460884094,0.000248204218223691,0.000120070471893996,0.001987879164516926,0,1,-1000,0,0,0,-1,2,0,11851.0
18:48:09.574,STABILIZE,-35.3632621,149.1652375,47,-0.0003305271384306252,0.000901414081454277,0.025592878460884094,0.000248204218223691,0.000120070471893996,0.001987879164516926,0,1,-1000,0,0,0,-1,2,0,11851.0
18:48:09.776,STABILIZE,-35.3632621,149.1652375,47,-0.0003305271384306252,0.000901414081454277,0.025592878460884094,0.000248204218223691,0.000120070471893996,0.001987879164516926,0,1,-1000,0,0,0,-1,2,0,11851.0
18:48:09.978,STABILIZE,-35.3632621,149.1652375,40,-0.0005763234221376479,0.0008947117603383958,0.02498863823711872,0.00015964300837367773,0.00015467742923647165,0.0019576619379222393,0,1,-1000,0,0,0,-1,1,0,11851.0
18:48:10.179,STABILIZE,-35.3632621,149.1652375,40,-0.0005763234221376479,0.0008947117603383958,0.02498863823711872,0.00015964300837367773,0.00015467742923647165,0.0019576619379222393,0,1,-1000,0,0,0,-1,1,0,11851.0
18:48:10.380,STABILIZE,-35.3632621,149.1652375,38,-0.000619203201495111,0.0009000942227430642,0.024895038455724716,0.00012053298996761441,0.00026725244242697954,0.001865923055447638,0,2,-1000,0,0,0,-1,1,0,11851.0
18:48:10.582,STABILIZE,-35.3632621,149.1652375,36,-0.0006612736615352333,0.0009118771413341165,0.02480166032910347,0.0002744088415056467,0.0004490416613407433,0.0018158170860260725,0,1,-1000,0,0,0,-1,1,0,11851.0
18:48:10.784,STABILIZE,-35.3632621,149.1652375,34,-0.0007020834018476307,0.0009221191867254674,0.02468540519475937,0.0002734636073000729,0.00018285075202584267,0.0018656919710338116,0,1,-1000,0,0,1,-1,1,0,11851.0
18:48:10.985,STABILIZE,-35.3632621,149.1652375,34,-0.0007020834018476307,0.0009221191867254674,0.02468540519475937,0.0002734636073000729,0.00018285075202584267,0.0018656919710338116,0,1,-1000,0,0,1,-1,1,0,11851.0
18:48:11.187,STABILIZE,-35.3632621,149.1652375,34,-0.0007020834018476307,0.0009221191867254674,0.02468540519475937,0.0002734636073000729,0.00018285075202584267,0.0018656919710338116,0,1,-1000,0,0,1,-1,1,0,11851.0
18:48:11.389,STABILIZE,-35.3632621,149.1652375,34,-0.0007020834018476307,0.0009221191867254674,0.02468540519475937,0.0002734636073000729,0.00018285075202584267,0.0018656919710338116,0,1,-1000,0,0,1,-1,1,0,11851.0
18:48:11.591,STABILIZE,-35.3632621,149.1652375,34,-0.0007020834018476307,0.0009221191867254674,0.02468540519475937,0.0002734636073000729,0.00018285075202584267,0.0018656919710338116,0,1,-1000,0,0,1,-1,1,0,11851.0
18:48:11.793,STABILIZE,-35.3632621,149.1652375,34,-0.0007020834018476307,0.0009221191867254674,0.02468540519475937,0.0002734636073000729,0.00018285075202584267,0.0018656919710338116,0,1,-1000,0,0,1,-1,1,0,11851.0
18:48:11.995,STABILIZE,-35.3632621,149.1652375,26,-0.0007020834018476307,0.0009221191867254674,0.02468540519475937,0.0002734636073000729,0.00018285075202584267,0.0018656919710338116,0,1,-1000,1,0,0,-1,1,0,11851.0
18:48:12.196,STABILIZE,-35.3632621,149.1652375,26,-0.0007020834018476307,0.0009221191867254674,0.02468540519475937,0.0002734636073000729,0.00018285075202584267,0.0018656919710338116,0,1,-1000,1,0,0,-1,1,0,11851.0
18:48:12.398,STABILIZE,-35.3632621,149.1652375,24,-0.0008936990634538233,0.0009715771302580833,0.02418106608092785,0.00015267549315467477,0.0003658815403468907,0.0017464237753301859,0,1,-1000,0,0,0,-1,1,0,11851.0
18:48:12.599,STABILIZE,-35.3632621,149.1652375,23,-0.0008936990634538233,0.0009715771302580833,0.02418106608092785,0.00015267549315467477,0.0003658815403468907,0.0017464237753301859,0,2,-1000,0,0,0,-1,1,1,11851.0
18:48:12.801,STABILIZE,-35.3632621,149.1652375,23,-0.0008936990634538233,0.0009715771302580833,0.02418106608092785,0.00015267549315467477,0.0003658815403468907,0.0017464237753301859,0,2,-1000,0,0,0,-1,1,1,11851.0
18:48:13.002,STABILIZE,-35.3632621,149.1652375,20,-0.0008936990634538233,0.0009715771302580833,0.02418106608092785,0.00015267549315467477,0.0003658815403468907,0.0017464237753301859,0,1,-1000,0,0,0,-1,1,1,11851.0
18:48:13.204,STABILIZE,-35.3632621,149.1652375,20,-0.0008936990634538233,0.0009715771302580833,0.02418106608092785,0.00015267549315467477,0.0003658815403468907,0.0017464237753301859,0,1,-1000,0,0,0,-1,1,1,11851.0
18:48:13.406,STABILIZE,-35.3632621,149.1652375,20,-0.0008936990634538233,0.0009715771302580833,0.02418106608092785,0.00015267549315467477,0.0003658815403468907,0.0017464237753301859,0,1,-1000,0,0,0,-1,1,1,11851.0
18:48:13.622,STABILIZE,-35.3632621,149.1652375,20,-0.0008936990634538233,0.0009715771302580833,0.02418106608092785,0.00015267549315467477,0.0003658815403468907,0.0017464237753301859,0,1,-1000,0,0,0,-1,1,1,11851.0
18:48:13.824,STABILIZE,-35.3632622,149.1652375,16,-0.0010245838202536106,0.0009940564632415771,0.02373345009982586,0.00024706264957785606,0.00026032805908471346,0.0017183602321892977,0,1,-1000,0,0,0,-1,1,1,11851.0
18:48:14.025,STABILIZE,-35.3632622,149.1652375,15,-0.0010384133784100413,0.0009901850717142224,0.023661380633711815,0.00023645296460017562,0.0002861432731151581,0.0017442302778363228,0,1,-1000,0,0,0,-1,1,1,11851.0
18:48:14.227,STABILIZE,-35.3632622,149.1652375,15,-0.0010384133784100413,0.0009901850717142224,0.023661380633711815,0.00023645296460017562,0.0002861432731151581,0.0017442302778363228,0,1,-1000,0,0,0,-1,1,1,11851.0
18:48:14.429,STABILIZE,-35.3632622,149.1652375,15,-0.0010384133784100413,0.0009901850717142224,0.023661380633711815,0.00023645296460017562,0.0002861432731151581,0.0017442302778363228,0,1,-1000,0,0,0,-1,1,1,11851.0
18:48:14.630,STABILIZE,-35.3632622,149.1652375,9,-0.0007494621677324176,0.000992300221696496,0.02351379580795765,0.00020281848264858127,0.00022952898871153593,0.0016911684069782495,0,1,-1000,0,0,0,-1,3,4,11851.0
18:48:14.832,STABILIZE,-35.3632622,149.1652375,9,-0.0007494621677324176,0.000992300221696496,0.02351379580795765,0.00020281848264858127,0.00022952898871153593,0.0016911684069782495,0,1,-1000,0,0,0,-1,3,4,11851.0
18:48:15.034,STABILIZE,-35.3632622,149.1652375,9,-0.0008280703914351761,0.0009864483727142215,0.023346342146396637,0.0002806624979712069,0.00023106992011889815,0.0016296104295179248,0,1,-1000,0,0,0,-1,3,4,11851.0
18:48:15.236,STABILIZE,-35.3632622,149.1652375,9,-0.0008280703914351761,0.0009864483727142215,0.023346342146396637,0.0002806624979712069,0.00023106992011889815,0.0016296104295179248,0,1,-1000,0,0,0,-1,3,4,11851.0
18:48:15.437,STABILIZE,-35.3632622,149.1652375,9,-0.0008280703914351761,0.0009864483727142215,0.023346342146396637,0.0002806624979712069,0.00023106992011889815,0.0016296104295179248,0,1,-1000,0,0,0,-1,3,4,11851.0
18:48:15.639,STABILIZE,-35.3632622,149.1652375,9,-0.0008280703914351761,0.0009864483727142215,0.023346342146396637,0.0002806624979712069,0.00023106992011889815,0.0016296104295179248,0,1,-1000,0,0,0,-1,3,4,11851.0
18:48:15.841,STABILIZE,-35.3632622,149.1652375,9,-0.0008280703914351761,0.0009864483727142215,0.023346342146396637,0.0002806624979712069,0.00023106992011889815,0.0016296104295179248,0,1,-1000,0,0,0,-1,3,4,11851.0
18:48:16.043,STABILIZE,-35.3632622,149.1652375,9,-0.0008280703914351761,0.0009864483727142215,0.023346342146396637,0.0002806624979712069,0.00023106992011889815,0.0016296104295179248,0,1,-1000,0,0,0,-1,3,4,11851.0
18:48:16.244,STABILIZE,-35.3632622,149.1652375,0,-0.0011096112430095673,0.0009842992294579744,0.022987939417362213,0.00029075477505102754,0.00019374670227989554,0.0016279038973152637,0,1,-1000,1,0,0,-1,1,3,11851.0
18:48:16.445,STABILIZE,-35.3632622,149.1652375,0,-0.0011096112430095673,0.0009842992294579744,0.022987939417362213,0.00029075477505102754,0.00019374670227989554,0.0016279038973152637,0,1,-1000,1,0,0,-1,1,3,11851.0
18:48:16.647,STABILIZE,-35.3632622,149.1652375,0,-0.0011096112430095673,0.0009842992294579744,0.022987939417362213,0.00029075477505102754,0.00019374670227989554,0.0016279038973152637,0,2,-1000,1,0,1,-1,1,3,11851.0
18:48:16.848,STABILIZE,-35.3632622,149.1652375,0,-0.0011912722839042544,0.0009784068679437041,0.022861065343022346,0.00030208309181034565,0.00027885293820872903,0.0015874288510531187,0,2,-1000,1,1,0,-1,1,2,11851.0
18:48:17.049,STABILIZE,-35.3632622,149.1652375,0,-0.0011912722839042544,0.0009784068679437041,0.022861065343022346,0.00030208309181034565,0.00027885293820872903,0.0015874288510531187,0,1,-1000,1,1,0,-1,1,2,11851.0
18:48:17.251,AUTO,-35.3632622,149.1652375,0,-0.0011912722839042544,0.0009784068679437041,0.022861065343022346,0.00030208309181034565,0.00027885293820872903,0.0015874288510531187,0,1,-1000,1,1,0,-1,1,2,11851.0
18:48:17.453,AUTO,-35.3632622,149.1652375,0,-0.0011912722839042544,0.0009784068679437041,0.022861065343022346,0.00030208309181034565,0.00027885293820872903,0.0015874288510531187,0,1,-1000,1,1,0,-1,1,2,11851.0
18:48:17.654,AUTO,-35.3632622,149.1652375,0,-0.0011912722839042544,0.0009784068679437041,0.022861065343022346,0.00030208309181034565,0.00027885293820872903,0.0015874288510531187,0,1,-1000,1,1,0,-1,1,2,11851.0
18:48:17.856,AUTO,-35.3632622,149.1652375,4,-0.0012840568087995052,0.0009794540237635374,0.022687435150146484,0.00020846619736403227,0.0001849890686571598,0.001639755442738533,0,1,-1000,1,0,1,-1,1,2,11851.0
18:48:18.058,AUTO,-35.3632622,149.1652375,3,-0.0008107519242912531,0.000980665790848434,0.02264517731964588,0.00030154886189848185,0.0004012238932773471,0.0015095327980816364,0,1,-1000,0,0,1,-1,0,2,11851.0
18:48:18.270,AUTO,-35.3632621,149.1652375,1,-0.0008009258308447897,0.0009958134032785892,0.022583577781915665,0.0002225188654847443,0.0003468815702944994,0.0015161576448008418,0,1,-1000,1,1,0,0,0,1,11851.0
18:48:18.492,AUTO,-35.3632621,149.1652375,1,-0.0007852373528294265,0.001026033191010356,0.022519918158650398,0.0002615249832160771,0.00038169248728081584,0.001595096429809928,0,1,-1000,0,0,1,0,0,1,11851.0
18:48:18.809,AUTO,-35.3632621,149.1652375,0,-0.000748569960705936,0.0010766875930130482,0.022455664351582527,0.00043435278348624706,0.0002603826578706503,0.001578740542754531,0,1,-1000,0,0,1,0,0,1,11851.0
18:48:19.071,AUTO,-35.3632621,149.1652375,0,-0.0007122343522496521,0.0011255338322371244,0.022372646257281303,0.0003382015856914222,0.00032189098419621587,0.0015168542740866542,0,1,-1000,0,0,1,0,0,1,11851.0
18:48:19.314,AUTO,-35.3632621,149.1652375,0,-0.0007122343522496521,0.0011255338322371244,0.022372646257281303,0.0003382015856914222,0.00032189098419621587,0.0015168542740866542,0,1,-1000,0,0,1,0,0,1,11851.0
18:48:19.558,AUTO,-35.3632621,149.1652375,0,-0.0007122343522496521,0.0011255338322371244,0.022372646257281303,0.0003382015856914222,0.00032189098419621587,0.0015168542740866542,0,1,-1000,0,0,1,0,0,1,11851.0
18:48:19.760,AUTO,-35.3632621,149.1652375,0,-0.0005669458769261837,0.001326233264990151,0.022182490676641464,0.00023554899962618947,0.0003525803913362324,0.001510153291746974,0,2,-1000,1,0,0,0,0,1,11851.0
18:48:19.961,AUTO,-35.3632621,149.1652375,0,-0.0005141879082657397,0.0013953690649941564,0.022111045196652412,0.00031215022318065166,0.0002942602150142193,0.0015075916890054941,0,1,-1000,0,0,0,0,0,1,11851.0
18:48:20.163,AUTO,-35.3632621,149.1652375,0,-0.0005141879082657397,0.0013953690649941564,0.022111045196652412,0.00031215022318065166,0.0002942602150142193,0.0015075916890054941,0,1,-1000,0,0,0,0,0,1,11851.0
18:48:20.365,AUTO,-35.3632621,149.1652375,1,-0.00045982643496245146,0.0014690838288515806,0.02203867956995964,0.00027585780480876565,0.00030436861561611295,0.0014414908364415169,0,2,-1000,0,0,0,0,0,1,276042.0
18:48:20.567,AUTO,-35.3632621,149.1652375,1,-0.00041315151611343026,0.0015496885171160102,0.021968401968479156,0.00023893709294497967,0.00037587113911285996,0.0014209593646228313,0,1,-1000,1,0,0,0,0,0,276042.0
18:48:20.768,AUTO,-35.3632621,149.1652375,2,-0.00035627110628411174,0.001625017262995243,0.021889856085181236,0.00038000260246917605,0.00035675131948664784,0.0015549620147794485,0,1,-1000,1,0,0,0,0,0,276042.0
18:48:20.970,AUTO,-35.3632621,149.1652375,2,-0.0002936539240181446,0.0017032019095495343,0.021796032786369324,0.0003014506655745208,0.0004099910147488117,0.0013542299857363105,0,1,-1000,0,0,1,0,0,0,276042.0
18:48:21.172,AUTO,-35.3632621,149.1652375,2,-0.0002936539240181446,0.0017032019095495343,0.021796032786369324,0.0003014506655745208,0.0004099910147488117,0.0013542299857363105,0,1,-1000,0,0,1,0,0,0,276042.0
18:48:21.374,AUTO,-35.3632621,149.1652375,4,0.0006065941997803748,0.0012701551895588636,0.021759506314992905,0.013907280750572681,-0.012893742881715298,0.002192007377743721,0,0,-1059,14,-12,1,0,0,-2,276042.0
18:48:21.576,AUTO,-35.3632621,149.1652375,4,0.0006065941997803748,0.0012701551895588636,0.021759506314992905,0.013907280750572681,-0.012893742881715298,0.002192007377743721,0,0,-1059,14,-12,1,0,0,-2,276042.0
18:48:21.778,AUTO,-35.3632621,149.1652375,4,0.0006065941997803748,0.0012701551895588636,0.021759506314992905,0.013907280750572681,-0.012893742881715298,0.002192007377743721,0,0,-1059,14,-12,1,0,0,-2,276042.0
18:48:21.980,AUTO,-35.3632621,149.1652375,258,0.002502867951989174,0.0005397965433076024,0.021824894472956657,-0.008252914063632488,0.004304026253521442,0.00029860466020181775,0,0,-1123,-7,5,0,0,0,-80,276042.0
18:48:22.182,AUTO,-35.3632621,149.1652375,494,0.001593057531863451,0.0013843398774042726,0.021707255393266678,-0.0033870628103613853,0.003586015896871686,0.00018752907635644078,0,0,-1102,-2,3,0,0,0,-107,276042.0
18:48:22.383,AUTO,-35.3632621,149.1652375,797,0.0030566949862986803,0.0016662738053128123,0.021496346220374107,0.02898561581969261,-0.0018209898844361305,0.0002988821652252227,0,0,-1073,29,-1,0,0,0,-129,276042.0
18:48:22.585,AUTO,-35.3632621,149.1652375,1147,0.01420810166746378,0.00032505832496099174,0.021332640200853348,0.04763418436050415,-0.006490296218544245,0.0016546875704079866,0,0,-1032,48,-5,1,0,2,-140,276042.0
18:48:22.787,AUTO,-35.3632621,149.1652375,1147,0.01420810166746378,0.00032505832496099174,0.021332640200853348,0.04763418436050415,-0.006490296218544245,0.0016546875704079866,0,0,-1032,48,-5,1,0,2,-140,276042.0
18:48:22.989,AUTO,-35.363262,149.1652375,1519,0.025969726964831352,-0.0014669259544461966,0.02135603316128254,0.04621300846338272,-0.006878772284835577,0.0024766975548118353,0,0,-1013,46,-6,2,1,7,-145,276042.0
18:48:23.191,AUTO,-35.363262,149.1652378,1902,0.03724277392029762,-0.0034646971616894007,0.021495098248124123,0.04451277479529381,-0.008832825347781181,0.0029687220230698586,0,-2,-1005,45,-8,2,2,13,-147,276042.0
18:48:23.393,AUTO,-35.363262,149.1652378,1902,0.03724277392029762,-0.0034646971616894007,0.021495098248124123,0.04451277479529381,-0.008832825347781181,0.0029687220230698586,0,-2,-1005,45,-8,2,2,13,-147,276042.0
18:48:23.594,AUTO,-35.363262,149.1652378,1902,0.03724277392029762,-0.0034646971616894007,0.021495098248124123,0.04451277479529381,-0.008832825347781181,0.0029687220230698586,0,-2,-1005,45,-8,2,2,13,-147,276042.0
18:48:23.797,AUTO,-35.363262,149.1652378,1902,0.03724277392029762,-0.0034646971616894007,0.021495098248124123,0.04451277479529381,-0.008832825347781181,0.0029687220230698586,0,-2,-1005,45,-8,2,2,13,-147,276042.0
18:48:23.999,AUTO,-35.3632616,149.1652401,3063,0.059181153774261475,-0.005348920356482267,-0.012779038399457932,-0.055288851261138916,0.06279238313436508,-0.07738883048295975,0,-9,-990,-54,63,-77,9,46,-147,276042.0
18:48:24.201,AUTO,-35.3632613,149.1652414,3443,0.03036450780928135,0.018823167309165,-0.037234652787446976,-0.16916903853416443,0.0710124671459198,-0.09120149910449982,5,-11,-992,-168,71,-91,9,54,-145,276042.0
18:48:24.465,AUTO,-35.3632611,149.1652429,3819,-0.01306852325797081,0.02611055225133896,-0.05969223007559776,-0.1276266723871231,0.03461048752069473,-0.11320596933364868,3,-11,-1010,-127,35,-113,5,53,-145,276042.0
18:48:24.708,AUTO,-35.363261,149.1652442,4199,-0.03302006423473358,0.038204777985811234,-0.09002809226512909,-0.03988903388381004,0.055258773267269135,-0.1304442584514618,3,-12,-1011,-39,55,-130,-1,44,-147,276042.0
18:48:24.949,AUTO,-35.363261,149.1652452,4593,-0.04042026400566101,0.040301598608493805,-0.11178745329380035,-0.033725157380104065,-0.04270385950803757,-0.04115939885377884,7,-6,-1003,-33,-42,-41,-10,33,-149,276042.0
18:48:25.183,AUTO,-35.3632613,149.165246,4979,-0.05312371626496315,0.016139183193445206,-0.10781679302453995,-0.059335656464099884,-0.12350056320428848,0.03939668461680412,6,-5,-1001,-58,-123,38,-16,20,-149,276042.0
18:48:25.432,AUTO,-35.3632613,149.165246,4979,-0.05312371626496315,0.016139183193445206,-0.10781679302453995,-0.059335656464099884,-0.12350056320428848,0.03939668461680412,6,-5,-1001,-58,-123,38,-16,20,-149,276042.0
18:48:25.650,AUTO,-35.3632613,149.165246,4979,-0.05312371626496315,0.016139183193445206,-0.10781679302453995,-0.059335656464099884,-0.12350056320428848,0.03939668461680412,6,-5,-1001,-58,-123,38,-16,20,-149,276042.0
18:48:25.853,AUTO,-35.363262,149.1652457,6126,-0.0631319060921669,-0.02917054109275341,-0.0716232880949974,0.03884585201740265,0.010345901362597942,0.009750934317708015,0,3,-1001,39,11,9,-2,-29,-149,276042.0
18:48:26.056,AUTO,-35.363262,149.1652457,6126,-0.0631319060921669,-0.02917054109275341,-0.0716232880949974,0.03884585201740265,0.010345901362597942,0.009750934317708015,0,3,-1001,39,11,9,-2,-29,-149,276042.0
18:48:26.260,AUTO,-35.363262,149.1652447,6511,-0.05143749341368675,-0.02642866224050522,-0.07147009670734406,0.051064301282167435,0.00994432345032692,0.007157349493354559,-4,7,-1000,51,10,6,2,-42,-149,276042.0
18:48:26.462,AUTO,-35.3632619,149.1652434,6895,-0.03752317279577255,-0.023437537252902985,-0.0718126893043518,0.057302746921777725,0.012823699042201042,0.004744913429021835,-7,10,-1001,57,13,4,6,-52,-149,43788.0
18:48:26.664,AUTO,-35.3632619,149.1652419,7280,-0.022280510514974594,-0.01965232565999031,-0.07173468917608261,0.061395253986120224,0.01653011329472065,0.005880451295524836,-8,9,-1002,62,16,5,9,-58,-149,43788.0
18:48:26.866,AUTO,-35.3632616,149.1652402,7666,-0.006623080000281334,-0.01504229661077261,-0.07131079584360123,0.06433664262294769,0.019768888130784035,0.005772178061306477,-10,7,-1003,64,20,5,11,-60,-150,43788.0
18:48:27.069,AUTO,-35.3632614,149.1652386,8054,0.008915363810956478,-0.009593566879630089,-0.0708177387714386,0.06121806055307388,0.023368103429675102,0.0032838275656104088,-11,4,-1003,61,23,2,12,-58,-151,43788.0
18:48:27.271,AUTO,-35.3632614,149.1652386,8054,0.008915363810956478,-0.009593566879630089,-0.0708177387714386,0.06121806055307388,0.023368103429675102,0.0032838275656104088,-11,4,-1003,61,23,2,12,-58,-151,43788.0
18:48:27.475,AUTO,-35.3632614,149.1652386,8054,0.008915363810956478,-0.009593566879630089,-0.0708177387714386,0.06121806055307388,0.023368103429675102,0.0032838275656104088,-11,4,-1003,61,23,2,12,-58,-151,43788.0
18:48:27.677,AUTO,-35.3632614,149.1652386,8054,0.008915363810956478,-0.009593566879630089,-0.0708177387714386,0.06121806055307388,0.023368103429675102,0.0032838275656104088,-11,4,-1003,61,23,2,12,-58,-151,43788.0
18:48:27.878,AUTO,-35.3632606,149.1652344,9238,0.04457499831914902,0.016456937417387962,-0.0800383985042572,0.030178328976035118,0.04546741023659706,-0.030668005347251892,-7,5,-1001,31,45,-31,7,-32,-153,43788.0
18:48:28.080,AUTO,-35.3632605,149.1652336,9630,0.05209888890385628,0.027381375432014465,-0.0890638455748558,0.028428370133042336,0.04025077447295189,-0.04327701777219772,-6,5,-1000,29,40,-43,2,-20,-153,43788.0
18:48:28.282,AUTO,-35.3632605,149.1652336,9630,0.05209888890385628,0.027381375432014465,-0.0890638455748558,0.028428370133042336,0.04025077447295189,-0.04327701777219772,-6,5,-1000,29,40,-43,2,-20,-153,43788.0
18:48:28.484,AUTO,-35.3632605,149.1652332,10023,0.057328689843416214,0.038100458681583405,-0.10119282454252243,0.021122217178344727,0.0390692837536335,-0.05101523548364639,-3,3,-1000,21,39,-51,-4,-5,-152,43788.0
18:48:28.686,AUTO,-35.3632607,149.1652332,10413,0.05988883972167969,0.04603360965847969,-0.11365164816379547,-0.011656252667307854,0.005329882726073265,-0.02953788824379444,1,0,-995,-10,5,-30,-13,9,-151,43788.0
18:48:28.888,AUTO,-35.3632609,149.1652335,10798,0.04649295657873154,0.03611689805984497,-0.11444150656461716,-0.07653190940618515,-0.06546612828969955,0.019226079806685448,5,0,-994,-76,-64,18,-20,22,-149,43788.0
18:48:29.090,AUTO,-35.3632614,149.1652342,11180,0.024602370336651802,0.017897188663482666,-0.10824014246463776,-0.08889073133468628,-0.07217970490455627,0.03430871665477753,7,-2,-999,-88,-71,33,-23,30,-148,43788.0
18:48:29.292,AUTO,-35.3632614,149.1652342,11180,0.024602370336651802,0.017897188663482666,-0.10824014246463776,-0.08889073133468628,-0.07217970490455627,0.03430871665477753,7,-2,-999,-88,-71,33,-23,30,-148,43788.0
18:48:29.494,AUTO,-35.3632614,149.1652342,11180,0.024602370336651802,0.017897188663482666,-0.10824014246463776,-0.08889073133468628,-0.07217970490455627,0.03430871665477753,7,-2,-999,-88,-71,33,-23,30,-148,43788.0
18:48:29.697,AUTO,-35.3632614,149.1652342,11180,0.024602370336651802,0.017897188663482666,-0.10824014246463776,-0.08889073133468628,-0.07217970490455627,0.03430871665477753,7,-2,-999,-88,-71,33,-23,30,-148,43788.0
18:48:29.899,AUTO,-35.3632628,149.1652366,12331,-0.018085729330778122,-0.013632011599838734,-0.09458768367767334,-0.030215315520763397,-0.01816895417869091,-0.0014941701665520668,7,-2,-1003,-29,-17,-1,-15,24,-151,43788.0
18:48:30.100,AUTO,-35.3632631,149.1652372,12719,-0.02254350297152996,-0.016434403136372566,-0.09647660702466965,-0.010533219203352928,-0.006673104595392942,-0.012241764925420284,5,-2,-1003,-9,-6,-12,-10,17,-152,43788.0
18:48:30.302,AUTO,-35.3632631,149.1652372,12719,-0.02254350297152996,-0.016434403136372566,-0.09647660702466965,-0.010533219203352928,-0.006673104595392942,-0.012241764925420284,5,-2,-1003,-9,-6,-12,-10,17,-152,43788.0
18:48:30.519,AUTO,-35.3632632,149.1652375,13108,-0.022952137514948845,-0.017196105793118477,-0.1008160412311554,0.004013339057564735,9.140628390014172e-05,-0.020470844581723213,3,0,-1002,4,0,-21,-5,10,-152,43788.0
18:48:30.875,AUTO,-35.3632633,149.1652378,13892,-0.016729924827814102,-0.014613453298807144,-0.11434950679540634,0.02073468640446663,0.010166422463953495,-0.031103579327464104,0,0,-1001,21,10,-31,2,-1,-152,43788.0
18:48:31.156,AUTO,-35.3632633,149.1652377,14281,-0.011503392830491066,-0.011401286348700523,-0.1226218193769455,0.017871355637907982,0.014219081960618496,-0.030885839834809303,-2,0,-999,18,14,-31,5,-6,-152,43788.0
18:48:31.410,AUTO,-35.3632633,149.1652377,14281,-0.011503392830491066,-0.011401286348700523,-0.1226218193769455,0.017871355637907982,0.014219081960618496,-0.030885839834809303,-2,0,-999,18,14,-31,5,-6,-152,43788.0
18:48:31.657,AUTO,-35.3632633,149.1652377,14281,-0.011503392830491066,-0.011401286348700523,-0.1226218193769455,0.017871355637907982,0.014219081960618496,-0.030885839834809303,-2,0,-999,18,14,-31,5,-6,-152,43788.0
18:48:31.859,AUTO,-35.3632627,149.1652368,15448,0.003357062116265297,-0.0007057258626446128,-0.14591622352600098,0.016123207286000252,0.015595762990415096,-0.027089131996035576,-4,0,-1000,16,16,-27,9,-11,-153,43788.0
18:48:32.062,AUTO,-35.3632627,149.1652368,15448,0.003357062116265297,-0.0007057258626446128,-0.14591622352600098,0.016123207286000252,0.015595762990415096,-0.027089131996035576,-4,0,-1000,16,16,-27,9,-11,-153,43788.0
18:48:32.266,AUTO,-35.3632624,149.1652365,15839,0.006918016355484724,0.002592279575765133,-0.15253569185733795,0.013497275300323963,0.011219004169106483,-0.023435410112142563,-4,1,-1000,14,11,-23,8,-10,-153,43788.0
18:48:32.468,AUTO,-35.3632622,149.1652361,16230,0.009288758039474487,0.005138496868312359,-0.15819953382015228,0.007767751347273588,0.008865730836987495,-0.021702975034713745,-4,0,-1000,8,9,-22,7,-8,-153,195679.0
18:48:32.670,AUTO,-35.363262,149.1652359,16620,0.011209891177713871,0.007173590362071991,-0.16312329471111298,0.005977712105959654,0.007073095999658108,-0.017399214208126068,-4,0,-1000,6,7,-17,6,-6,-153,195679.0
18:48:32.872,AUTO,-35.3632618,149.1652357,17010,0.011917417868971825,0.00849207118153572,-0.16722926497459412,-0.0003041264717467129,0.005709587596356869,-0.01647818647325039,-2,0,-999,0,6,-16,4,-3,-153,195679.0
18:48:33.073,AUTO,-35.3632617,149.1652356,17400,0.011488816700875759,0.009487790055572987,-0.1708943247795105,-0.0014438971411436796,0.0034520348999649286,-0.013430174440145493,-2,0,-1000,0,4,-13,3,-1,-153,195679.0
18:48:33.275,AUTO,-35.3632617,149.1652356,17400,0.011488816700875759,0.009487790055572987,-0.1708943247795105,-0.0014438971411436796,0.0034520348999649286,-0.013430174440145493,-2,0,-1000,0,4,-13,3,-1,-153,195679.0
18:48:33.477,AUTO,-35.3632617,149.1652356,17400,0.011488816700875759,0.009487790055572987,-0.1708943247795105,-0.0014438971411436796,0.0034520348999649286,-0.013430174440145493,-2,0,-1000,0,4,-13,3,-1,-153,195679.0
18:48:33.679,AUTO,-35.3632617,149.1652356,17400,0.011488816700875759,0.009487790055572987,-0.1708943247795105,-0.0014438971411436796,0.0034520348999649286,-0.013430174440145493,-2,0,-1000,0,4,-13,3,-1,-153,195679.0
18:48:33.881,AUTO,-35.3632615,149.1652355,18568,0.008777858689427376,0.008668585680425167,-0.17920838296413422,-0.006477457005530596,-0.0016775564290583134,-0.00889023020863533,0,0,-999,-5,-1,-9,0,4,-153,195679.0
18:48:34.083,AUTO,-35.3632615,149.1652355,18957,0.007187195587903261,0.007840709760785103,-0.1816488653421402,-0.006769659463316202,-0.0028460745234042406,-0.008371608331799507,0,0,-1000,-6,-2,-8,-1,5,-153,195679.0
18:48:34.285,AUTO,-35.3632615,149.1652355,18957,0.007187195587903261,0.007840709760785103,-0.1816488653421402,-0.006769659463316202,-0.0028460745234042406,-0.008371608331799507,0,0,-1000,-6,-2,-8,-1,5,-153,195679.0
18:48:34.486,AUTO,-35.3632615,149.1652356,19346,0.005854778457432985,0.006882793270051479,-0.18418587744235992,-0.004073218442499638,-0.004662214312702417,-0.010341713204979897,0,0,-1000,-3,-4,-10,-2,6,-153,195679.0
18:48:34.688,AUTO,-35.3632615,149.1652357,19736,0.004861003719270229,0.005848382133990526,-0.1869758516550064,-0.0021276383195072412,-0.0020848577842116356,-0.012819764204323292,0,0,-1000,-1,-1,-13,-3,6,-153,195679.0
18:48:34.890,AUTO,-35.3632615,149.1652358,20125,0.004060640931129456,0.005350839346647263,-0.19031919538974762,-0.0023160562850534916,-0.0016525255050510168,-0.01297757588326931,0,-1,-1000,-1,0,-13,-3,7,-153,195679.0
18:48:35.092,AUTO,-35.3632615,149.1652359,20515,0.003122700145468116,0.0046082292683422565,-0.1938026398420334,-0.005306740757077932,-0.002958734752610326,-0.014005782082676888,1,0,-1000,-4,-2,-14,-3,7,-153,195679.0
18:48:35.294,AUTO,-35.3632615,149.1652359,20515,0.003122700145468116,0.0046082292683422565,-0.1938026398420334,-0.005306740757077932,-0.002958734752610326,-0.014005782082676888,1,0,-1000,-4,-2,-14,-3,7,-153,195679.0
18:48:35.496,AUTO,-35.3632615,149.1652359,20515,0.003122700145468116,0.0046082292683422565,-0.1938026398420334,-0.005306740757077932,-0.002958734752610326,-0.014005782082676888,1,0,-1000,-4,-2,-14,-3,7,-153,195679.0
18:48:35.698,AUTO,-35.3632615,149.1652359,20515,0.003122700145468116,0.0046082292683422565,-0.1938026398420334,-0.005306740757077932,-0.002958734752610326,-0.014005782082676888,1,0,-1000,-4,-2,-14,-3,7,-153,195679.0
18:48:35.899,AUTO,-35.3632615,149.1652363,21684,0.0006545668002218008,0.0033027140889316797,-0.20660682022571564,-0.0043969545513391495,-0.0001084975665435195,-0.01936117373406887,1,0,-1000,-3,0,-19,-3,6,-153,195679.0
18:48:36.101,AUTO,-35.3632616,149.1652364,22073,0.0006271376623772085,0.0030399542301893234,-0.2112703174352646,0.0025878094602376223,-0.0011023660190403461,-0.018785260617733,0,0,-1001,3,0,-19,-3,5,-153,195679.0
18:48:36.303,AUTO,-35.3632616,149.1652364,22073,0.0006271376623772085,0.0030399542301893234,-0.2112703174352646,0.0025878094602376223,-0.0011023660190403461,-0.018785260617733,0,0,-1001,3,0,-19,-3,5,-153,195679.0
18:48:36.601,AUTO,-35.3632616,149.1652365,22852,0.0008012583712115884,0.0023956713266670704,-0.2207885980606079,-0.0009565197397023439,-0.00010694802040234208,-0.0204069372266531,0,0,-999,0,0,-20,-3,4,-153,195679.0
18:48:36.929,AUTO,-35.3632617,149.1652366,23246,0.0011092143831774592,0.002348522422835231,-0.22578579187393188,0.00434611551463604,0.0012504719197750092,-0.020642222836613655,0,0,-1000,5,2,-20,-3,3,-153,195679.0
18:48:37.310,AUTO,-35.3632617,149.1652366,23634,0.0014797343173995614,0.0024333298206329346,-0.2307966649532318,0.0023685127962380648,-3.0770315788686275e-06,-0.020006384700536728,0,0,-1000,3,0,-20,-3,3,-153,195679.0
18:48:37.535,AUTO,-35.3632617,149.1652366,23634,0.0014797343173995614,0.0024333298206329346,-0.2307966649532318,0.0023685127962380648,-3.0770315788686275e-06,-0.020006384700536728,0,0,-1000,3,0,-20,-3,3,-153,195679.0
18:48:37.776,AUTO,-35.3632617,149.1652366,23634,0.0014797343173995614,0.0024333298206329346,-0.2307966649532318,0.0023685127962380648,-3.0770315788686275e-06,-0.020006384700536728,0,0,-1000,3,0,-20,-3,3,-153,195679.0
18:48:37.978,AUTO,-35.3632618,149.1652367,24799,0.0020633714739233255,0.002370416186749935,-0.2456514537334442,0.00372019549831748,0.0017378765624016523,-0.020555324852466583,0,0,-1000,4,2,-21,-2,2,-153,195679.0
18:48:38.182,AUTO,-35.3632618,149.1652367,25188,0.002194021362811327,0.00256116664968431,-0.2507266104221344,0.0024411221966147423,0.0008141957223415375,-0.02033480629324913,0,0,-1000,3,1,-20,-2,2,-153,195679.0
18:48:38.384,AUTO,-35.3632618,149.1652367,25575,-0.012114807963371277,0.004241808783262968,-0.2526046633720398,-0.009282121434807777,0.007443536538630724,-0.0014095513615757227,0,0,-1002,-8,8,-1,-3,0,-152,195679.0
18:48:38.587,AUTO,-35.3632618,149.1652367,25963,-0.006982432212680578,0.005656874738633633,-0.2517182528972626,0.03760097920894623,0.0028882608748972416,0.008681045845150948,0,0,-1003,38,3,8,-4,-2,-153,45182.0
18:48:38.789,AUTO,-35.3632618,149.1652367,25963,-0.006982432212680578,0.005656874738633633,-0.2517182528972626,0.03760097920894623,0.0028882608748972416,0.008681045845150948,0,0,-1003,38,3,8,-4,-2,-153,45182.0
18:48:38.991,AUTO,-35.3632619,149.1652366,26352,0.002194128930568695,0.005275096278637648,-0.24824601411819458,0.03236823529005051,-0.0013840841129422188,0.017031677067279816,0,1,-1001,33,0,16,-5,-2,-153,45182.0
18:48:39.193,AUTO,-35.363262,149.1652365,26742,0.008324799127876759,0.00450573256239295,-0.24278144538402557,0.02007521316409111,-0.0030669672414660454,0.023715054616332054,0,1,-1000,21,-2,23,-5,-1,-153,45182.0
18:48:39.395,AUTO,-35.363262,149.1652365,26742,0.008324799127876759,0.00450573256239295,-0.24278144538402557,0.02007521316409111,-0.0030669672414660454,0.023715054616332054,0,1,-1000,21,-2,23,-5,-1,-153,45182.0
18:48:39.597,AUTO,-35.363262,149.1652365,26742,0.008324799127876759,0.00450573256239295,-0.24278144538402557,0.02007521316409111,-0.0030669672414660454,0.023715054616332054,0,1,-1000,21,-2,23,-5,-1,-153,45182.0
18:48:39.799,AUTO,-35.363262,149.1652365,26742,0.008324799127876759,0.00450573256239295,-0.24278144538402557,0.02007521316409111,-0.0030669672414660454,0.023715054616332054,0,1,-1000,21,-2,23,-5,-1,-153,45182.0
18:48:40.001,AUTO,-35.3632622,149.1652366,27908,0.011038130149245262,0.0012028301134705544,-0.22417429089546204,-0.004187446087598801,-0.0012338599190115929,0.024828752502799034,0,0,-999,-3,0,24,-4,5,-153,45182.0
18:48:40.203,AUTO,-35.3632623,149.1652366,28296,0.009413758292794228,0.0007739984430372715,-0.218271404504776,-0.010747915133833885,0.00015839526895433664,0.024536345154047012,0,0,-999,-9,1,24,-3,7,-153,45182.0
18:48:40.404,AUTO,-35.3632623,149.1652368,28683,0.007394968532025814,0.0010064789094030857,-0.21261656284332275,-0.005644240416586399,0.0012740704696625471,0.023260286077857018,0,0,-1000,-4,2,23,-2,8,-152,45182.0
18:48:40.606,AUTO,-35.3632623,149.1652369,29071,0.005302410572767258,0.0009875503601506352,-0.2073339819908142,-0.007397378329187632,0.0006864641909487545,0.022141270339488983,0,0,-1000,-6,1,21,-1,9,-152,45182.0
18:48:40.808,AUTO,-35.3632623,149.1652369,29071,0.005302410572767258,0.0009875503601506352,-0.2073339819908142,-0.007397378329187632,0.0006864641909487545,0.022141270339488983,0,0,-1000,-6,1,21,-1,9,-152,45182.0
18:48:41.010,AUTO,-35.3632623,149.1652371,29459,0.0035675440449267626,0.0011837935307994485,-0.20210714638233185,-0.006399816833436489,0.0017907568253576756,0.02150820940732956,0,-1,-1000,-5,2,21,-1,9,-152,45182.0
18:48:41.213,AUTO,-35.3632624,149.1652373,29847,0.0020493643824011087,0.0012554916320368648,-0.1970614492893219,-0.002837308682501316,0.0014082889538258314,0.02184007503092289,1,-1,-1000,-1,2,21,0,8,-152,45182.0
18:48:41.414,AUTO,-35.3632624,149.1652373,29847,0.0020493643824011087,0.0012554916320368648,-0.1970614492893219,-0.002837308682501316,0.0014082889538258314,0.02184007503092289,1,-1,-1000,-1,2,21,0,8,-152,45182.0
18:48:41.623,AUTO,-35.3632624,149.1652373,29847,0.0020493643824011087,0.0012554916320368648,-0.1970614492893219,-0.002837308682501316,0.0014082889538258314,0.02184007503092289,1,-1,-1000,-1,2,21,0,8,-152,45182.0
18:48:41.836,AUTO,-35.3632624,149.1652377,31011,-0.0004910556017421186,0.0018051678780466318,-0.18324562907218933,-0.0006767097511328757,-0.0010153247276321054,0.018988916650414467,0,-1,-1000,0,0,18,0,6,-153,45182.0
18:48:42.037,AUTO,-35.3632624,149.1652377,31011,-0.0004910556017421186,0.0018051678780466318,-0.18324562907218933,-0.0006767097511328757,-0.0010153247276321054,0.018988916650414467,0,-1,-1000,0,0,18,0,6,-153,45182.0
18:48:42.239,AUTO,-35.3632624,149.1652378,31399,-0.0007291577057912946,0.001427153474651277,-0.17870669066905975,2.69163865596056e-06,-0.0013930951245129108,0.019665639847517014,0,0,-1000,0,0,19,0,5,-153,45182.0
18:48:42.440,AUTO,-35.3632623,149.1652379,31787,-0.0007837057928554714,0.0013923936057835817,-0.17434614896774292,-0.0019665872678160667,0.00011875596828758717,0.01526107918471098,0,-1,-1000,-1,1,15,0,4,-153,45182.0
18:48:42.681,AUTO,-35.3632623,149.165238,32179,-0.00047369234380312264,0.0013903564540669322,-0.17039737105369568,0.004249872174113989,0.002116073854267597,0.016254238784313202,0,0,-1000,5,3,16,0,3,-153,45182.0
18:48:42.976,AUTO,-35.3632623,149.165238,32567,-0.0001786340435501188,0.0014192304806783795,-0.16662925481796265,0.0037567762192338705,0.0018963362090289593,0.015772933140397072,0,0,-1000,4,2,15,0,2,-153,45182.0
18:48:43.223,AUTO,-35.3632623,149.165238,32956,1.2852250620198902e-05,0.0016873396234586835,-0.16301728785037994,-6.170320557430387e-05,-8.905766298994422e-05,0.014569282531738281,0,0,-1000,0,0,14,0,1,-153,45182.0
18:48:43.445,AUTO,-35.3632623,149.165238,32956,1.2852250620198902e-05,0.0016873396234586835,-0.16301728785037994,-6.170320557430387e-05,-8.905766298994422e-05,0.014569282531738281,0,0,-1000,0,0,14,0,1,-153,45182.0
18:48:43.745,AUTO,-35.3632623,149.165238,32956,1.2852250620198902e-05,0.0016873396234586835,-0.16301728785037994,-6.170320557430387e-05,-8.905766298994422e-05,0.014569282531738281,0,0,-1000,0,0,14,0,1,-153,45182.0
18:48:43.964,AUTO,-35.3632623,149.165238,34120,0.0009903402533382177,0.0013022316852584481,-0.15275153517723083,-9.127560770139098e-05,-0.0006576777086593211,0.01261802390217781,0,0,-1000,0,0,12,0,0,-153,45182.0
18:48:44.166,AUTO,-35.3632623,149.165238,34512,0.0012998166494071484,0.0011652923421934247,-0.14923034608364105,0.0017982416320592165,-0.0009997151792049408,0.014563966542482376,0,0,-1000,2,0,14,0,0,-153,45182.0
18:48:44.369,AUTO,-35.3632622,149.165238,34900,0.0015381911071017385,0.0010438320459797978,-0.14611507952213287,0.0020623463205993176,0.00042347388807684183,0.012463288381695747,0,0,-1000,3,1,12,0,0,-153,45182.0
18:48:44.573,AUTO,-35.3632622,149.165238,35287,0.0016326045151799917,0.0010487053077667952,-0.14316114783287048,0.0009014150127768517,0.0003868658095598221,0.013278160244226456,0,0,-1000,1,1,13,0,0,-153,37290.0
18:48:44.774,AUTO,-35.3632622,149.165238,35287,0.0016326045151799917,0.0010487053077667952,-0.14316114783287048,0.0009014150127768517,0.0003868658095598221,0.013278160244226456,0,0,-1000,1,1,13,0,0,-153,37290.0
18:48:44.976,AUTO,-35.3632622,149.1652379,35676,0.0014778595650568604,0.0009384541190229356,-0.14036011695861816,-0.0001504117390140891,9.679386857897043e-05,0.013294420205056667,0,0,-1000,0,1,13,0,0,-153,37290.0
18:48:45.178,AUTO,-35.3632622,149.1652379,36065,0.0015101665630936623,0.0008817559573799372,-0.1376139223575592,0.0031233057379722595,-1.981225796043873e-05,0.009583128616213799,0,0,-1001,4,1,9,0,0,-153,37290.0
18:48:45.380,AUTO,-35.3632622,149.1652379,36065,0.0015101665630936623,0.0008817559573799372,-0.1376139223575592,0.0031233057379722595,-1.981225796043873e-05,0.009583128616213799,0,0,-1001,4,1,9,0,0,-153,37290.0
18:48:45.582,AUTO,-35.3632622,149.1652379,36065,0.0015101665630936623,0.0008817559573799372,-0.1376139223575592,0.0031233057379722595,-1.981225796043873e-05,0.009583128616213799,0,0,-1001,4,1,9,0,0,-153,37290.0
18:48:45.784,AUTO,-35.3632622,149.1652379,36065,0.0015101665630936623,0.0008817559573799372,-0.1376139223575592,0.0031233057379722595,-1.981225796043873e-05,0.009583128616213799,0,0,-1001,4,1,9,0,0,-153,37290.0
18:48:45.985,AUTO,-35.3632622,149.1652378,37225,0.002184520708397031,0.0014980366686359048,-0.12969787418842316,0.0006825943710282445,-1.317367423325777e-05,0.010922056622803211,0,0,-1000,1,0,10,0,0,-153,37290.0
18:48:46.187,AUTO,-35.3632622,149.1652377,37614,0.0023370329290628433,0.0014040544629096985,-0.12720882892608643,-0.0003980561741627753,-0.0008656787686049938,0.009821895509958267,0,0,-1000,0,0,9,0,0,-153,37290.0
18:48:46.389,AUTO,-35.3632621,149.1652377,38001,0.0024100462906062603,0.0014486463041976094,-0.12508930265903473,0.00031736481469124556,0.0005271073896437883,0.011281032115221024,0,0,-999,1,1,10,0,0,-153,37290.0
18:48:46.591,AUTO,-35.3632621,149.1652376,38389,0.0026801310013979673,0.0018908337224274874,-0.12272106111049652,-0.0014833117602393031,0.002290043979883194,0.009998472407460213,0,0,-999,0,3,10,0,0,-153,37290.0
18:48:46.793,AUTO,-35.3632621,149.1652376,38389,0.0026801310013979673,0.0018908337224274874,-0.12272106111049652,-0.0014833117602393031,0.002290043979883194,0.009998472407460213,0,0,-999,0,3,10,0,0,-153,37290.0
18:48:46.995,AUTO,-35.3632621,149.1652376,38777,0.002221196424216032,0.0020529101602733135,-0.1196180135011673,-0.010967840440571308,0.01000099815428257,0.03440076857805252,0,0,-993,-10,10,34,0,0,-152,37290.0
18:48:47.197,AUTO,-35.3632621,149.1652376,39160,-0.015074022114276886,0.019174713641405106,-0.0804937407374382,-0.1058158427476883,0.10410983115434647,0.26041579246520996,0,0,-972,-104,105,260,-2,-1,-146,37290.0
18:48:47.399,AUTO,-35.3632621,149.1652376,39160,-0.015074022114276886,0.019174713641405106,-0.0804937407374382,-0.1058158427476883,0.10410983115434647,0.26041579246520996,0,0,-972,-104,105,260,-2,-1,-146,37290.0
18:48:47.600,AUTO,-35.3632621,149.1652376,39160,-0.015074022114276886,0.019174713641405106,-0.0804937407374382,-0.1058158427476883,0.10410983115434647,0.26041579246520996,0,0,-972,-104,105,260,-2,-1,-146,37290.0
18:48:47.803,AUTO,-35.3632621,149.1652376,39160,-0.015074022114276886,0.019174713641405106,-0.0804937407374382,-0.1058158427476883,0.10410983115434647,0.26041579246520996,0,0,-972,-104,105,260,-2,-1,-146,37290.0
18:48:48.005,AUTO,-35.3632631,149.1652361,40175,-0.038839343935251236,0.026200640946626663,0.21692456305027008,0.11391803622245789,-0.20915456116199493,0.18979781866073608,2,9,-944,115,-208,189,-32,-34,-115,37290.0
18:48:48.304,AUTO,-35.3632638,149.1652351,40451,-0.009847801178693771,-0.017820527777075768,0.24762596189975739,0.11804842948913574,-0.14257068932056427,0.07009994238615036,3,10,-950,118,-141,70,-30,-37,-102,37290.0
18:48:48.508,AUTO,-35.3632643,149.1652341,40697,0.014089196920394897,-0.04289794713258743,0.2553901970386505,0.07348109781742096,-0.06640557944774628,0.009138181805610657,2,10,-956,74,-65,9,-23,-32,-90,37290.0
18:48:48.751,AUTO,-35.3632647,149.1652333,40915,0.03030254691839218,-0.0525711253285408,0.25210821628570557,0.05918051674962044,-0.01725163497030735,-0.020609749481081963,1,8,-962,60,-16,-20,-13,-22,-80,37290.0
18:48:49.082,AUTO,-35.3632649,149.1652326,41278,0.04151439294219017,-0.045329201966524124,0.2356734573841095,-0.05532381683588028,0.03111889958381653,-0.03475654870271683,-1,-2,-971,-54,32,-34,5,1,-63,37290.0
18:48:49.342,AUTO,-35.3632649,149.1652326,41278,0.04151439294219017,-0.045329201966524124,0.2356734573841095,-0.05532381683588028,0.03111889958381653,-0.03475654870271683,-1,-2,-971,-54,32,-34,5,1,-63,37290.0
18:48:49.545,AUTO,-35.3632649,149.1652326,41278,0.04151439294219017,-0.045329201966524124,0.2356734573841095,-0.05532381683588028,0.03111889958381653,-0.03475654870271683,-1,-2,-971,-54,32,-34,5,1,-63,37290.0
18:48:49.748,AUTO,-35.3632649,149.1652326,41278,0.04151439294219017,-0.045329201966524124,0.2356734573841095,-0.05532381683588028,0.03111889958381653,-0.03475654870271683,-1,-2,-971,-54,32,-34,5,1,-63,37290.0
18:48:49.952,AUTO,-35.3632639,149.1652335,41683,0.023115964606404305,-0.014174334704875946,0.21165308356285095,-0.424958735704422,0.040247805416584015,-0.02698053978383541,-2,-25,-974,-423,41,-26,20,25,-44,37290.0
18:48:50.154,AUTO,-35.3632634,149.1652342,41787,0.014905815944075584,-0.005186920985579491,0.2050422579050064,-0.1677003800868988,0.029360344633460045,-0.017375392839312553,-2,0,-960,-165,30,-17,21,29,-37,46175.0
18:48:50.356,AUTO,-35.3632629,149.165235,41873,0.016122031956911087,0.0027988546062260866,0.19955210387706757,0.43025094270706177,0.028395865112543106,-0.017383426427841187,-1,17,-987,432,29,-17,21,31,-33,46175.0
18:48:50.558,AUTO,-35.3632629,149.165235,41873,0.016122031956911087,0.0027988546062260866,0.19955210387706757,0.43025094270706177,0.028395865112543106,-0.017383426427841187,-1,17,-987,432,29,-17,21,31,-33,46175.0
18:48:50.760,AUTO,-35.3632625,149.1652358,41949,0.013929503969848156,0.008682891726493835,0.1942863166332245,0.37188881635665894,0.0158464927226305,-0.025629116222262383,-1,-5,-979,372,17,-25,19,30,-28,46175.0
18:48:50.962,AUTO,-35.363262,149.1652366,42012,-0.000648751447442919,0.012767407111823559,0.18927936255931854,-0.3905668556690216,0.01861509308218956,-0.022791029885411263,0,-38,-965,-390,19,-22,17,27,-22,46175.0
18:48:51.164,AUTO,-35.3632617,149.1652374,42059,-0.013038965873420238,0.015485305339097977,0.18387086689472198,-0.6082526445388794,0.00995064526796341,-0.018750524148344994,0,-28,-980,-607,11,-18,14,24,-16,46175.0
18:48:51.366,AUTO,-35.3632617,149.1652374,42059,-0.013038965873420238,0.015485305339097977,0.18387086689472198,-0.6082526445388794,0.00995064526796341,-0.018750524148344994,0,-28,-980,-607,11,-18,14,24,-16,46175.0
18:48:51.568,AUTO,-35.3632617,149.1652374,42059,-0.013038965873420238,0.015485305339097977,0.18387086689472198,-0.6082526445388794,0.00995064526796341,-0.018750524148344994,0,-28,-980,-607,11,-18,14,24,-16,46175.0
18:48:51.770,AUTO,-35.3632617,149.1652374,42059,-0.013038965873420238,0.015485305339097977,0.18387086689472198,-0.6082526445388794,0.00995064526796341,-0.018750524148344994,0,-28,-980,-607,11,-18,14,24,-16,46175.0
18:48:51.972,AUTO,-35.363261,149.1652391,42077,-0.029273224994540215,0.04215085506439209,0.16520258784294128,0.8526706099510193,0.004521702416241169,-0.014099161140620708,2,35,-971,854,5,-13,2,8,13,46175.0
18:48:52.174,AUTO,-35.3632611,149.1652393,42035,-0.03335144370794296,0.026233233511447906,0.16265255212783813,0.38310036063194275,-0.10460738092660904,-0.00109546456951648,2,-1,-1003,383,-103,0,-4,-3,15,46175.0
18:48:52.376,AUTO,-35.3632611,149.1652393,41994,-0.037276215851306915,0.004379057325422764,0.16011936962604523,-0.15876032412052155,-0.07394754886627197,-0.004294645972549915,0,-25,-986,-158,-72,-4,-6,-13,15,46175.0
18:48:52.578,AUTO,-35.3632613,149.1652389,41956,-0.037191711366176605,-0.007966640405356884,0.1569044291973114,-0.6629655361175537,-0.037086643278598785,-0.006763340439647436,-1,-33,-1008,-662,-36,-6,-4,-21,11,46175.0
18:48:52.779,AUTO,-35.3632613,149.1652389,41956,-0.037191711366176605,-0.007966640405356884,0.1569044291973114,-0.6629655361175537,-0.037086643278598785,-0.006763340439647436,-1,-33,-1008,-662,-36,-6,-4,-21,11,46175.0
18:48:52.981,AUTO,-35.3632614,149.1652384,41927,-0.04015190154314041,-0.01606270857155323,0.15372143685817719,-0.7821807265281677,-0.03050500713288784,-0.008130304515361786,-3,-21,-997,-781,-29,-7,0,-26,9,46175.0
18:48:53.183,AUTO,-35.3632614,149.1652377,41903,-0.03838431090116501,-0.02288377843797207,0.14996349811553955,-0.21612943708896637,-0.022782713174819946,-0.01073616836220026,-2,15,-1022,-214,-21,-10,3,-30,5,46175.0
18:48:53.385,AUTO,-35.3632614,149.1652377,41903,-0.03838431090116501,-0.02288377843797207,0.14996349811553955,-0.21612943708896637,-0.022782713174819946,-0.01073616836220026,-2,15,-1022,-214,-21,-10,3,-30,5,46175.0
18:48:53.587,AUTO,-35.3632614,149.1652377,41903,-0.03838431090116501,-0.02288377843797207,0.14996349811553955,-0.21612943708896637,-0.022782713174819946,-0.01073616836220026,-2,15,-1022,-214,-21,-10,3,-30,5,46175.0
18:48:53.789,AUTO,-35.3632614,149.1652377,41903,-0.03838431090116501,-0.02288377843797207,0.14996349811553955,-0.21612943708896637,-0.022782713174819946,-0.01073616836220026,-2,15,-1022,-214,-21,-10,3,-30,5,46175.0
18:48:53.991,AUTO,-35.3632607,149.1652347,41853,-0.03873775154352188,-0.04633377492427826,0.14054350554943085,0.03292885795235634,-0.044689279049634933,-0.0035197383258491755,-9,-4,-1004,32,-43,-3,25,-48,5,46175.0
18:48:54.309,AUTO,-35.3632601,149.1652333,41835,-0.0529167540371418,-0.05681254342198372,0.0954202190041542,-0.5140429139137268,-0.006404116749763489,-0.3872373700141907,-13,-30,-987,-514,-5,-387,35,-57,6,46175.0
18:48:54.716,AUTO,-35.3632582,149.1652296,41785,-0.036125607788562775,-0.0835237130522728,-0.2849891185760498,-0.021749140694737434,-0.0028653531335294247,-0.8707314729690552,-22,22,-999,-19,-1,-870,59,-77,9,46175.0
18:48:55.052,AUTO,-35.3632568,149.1652274,41757,-0.008337982930243015,-0.08763523399829865,-0.49993693828582764,0.6872555017471313,0.0003284420818090439,-0.8521559238433838,-23,35,-996,688,0,-851,70,-88,11,46175.0
18:48:55.283,AUTO,-35.3632552,149.1652248,41723,0.01241850946098566,-0.07868285477161407,-0.703359842300415,0.6036741733551025,0.04960036650300026,-0.7559024691581726,-27,-1,-1000,604,50,-755,78,-99,13,46175.0
18:48:55.502,AUTO,-35.3632552,149.1652248,41723,0.01241850946098566,-0.07868285477161407,-0.703359842300415,0.6036741733551025,0.04960036650300026,-0.7559024691581726,-27,-1,-1000,604,50,-755,78,-99,13,46175.0
18:48:55.706,AUTO,-35.3632552,149.1652248,41723,0.01241850946098566,-0.07868285477161407,-0.703359842300415,0.6036741733551025,0.04960036650300026,-0.7559024691581726,-27,-1,-1000,604,50,-755,78,-99,13,46175.0
18:48:55.909,AUTO,-35.3632552,149.1652248,41723,0.01241850946098566,-0.07868285477161407,-0.703359842300415,0.6036741733551025,0.04960036650300026,-0.7559024691581726,-27,-1,-1000,604,50,-755,78,-99,13,46175.0
18:48:56.111,AUTO,-35.363249,149.1652147,41587,0.020756389945745468,-0.03905102610588074,-0.8180447816848755,-0.18059709668159485,0.01708168536424637,0.09552546590566635,-30,-2,-980,-178,18,95,91,-112,16,102646.0
18:48:56.313,AUTO,-35.363247,149.1652116,41541,0.02785067819058895,-0.033255040645599365,-0.7982680201530457,0.5983244776725769,0.025527428835630417,0.0464794747531414,-31,24,-995,600,26,46,93,-111,16,102646.0
18:48:56.515,AUTO,-35.3632449,149.1652085,41491,0.03139830380678177,-0.027713606134057045,-0.7890892624855042,0.8349924087524414,0.021917495876550674,0.008913801051676273,-31,16,-985,836,22,9,94,-110,18,102646.0
18:48:56.717,AUTO,-35.3632428,149.1652055,41440,0.033454641699790955,-0.021114641800522804,-0.7887374758720398,0.38396215438842773,0.025486931204795837,-0.0015223178779706359,-31,-20,-998,384,26,0,92,-109,17,102646.0
18:48:56.921,AUTO,-35.3632408,149.1652025,41391,0.02462957799434662,-0.012937521561980247,-0.7916593551635742,-0.40945857763290405,0.04001934826374054,-0.009902141988277435,-32,-54,-1002,-409,40,-9,90,-106,17,102646.0
18:48:57.123,AUTO,-35.3632408,149.1652025,41391,0.02462957799434662,-0.012937521561980247,-0.7916593551635742,-0.40945857763290405,0.04001934826374054,-0.009902141988277435,-32,-54,-1002,-409,40,-9,90,-106,17,102646.0
18:48:57.335,AUTO,-35.3632389,149.1651996,41341,0.017647819593548775,-0.00343170459382236,-0.7943469882011414,-0.7618513703346252,0.03585892543196678,-0.006719705183058977,-29,-54,-1016,-761,36,-6,87,-102,16,102646.0
18:48:57.539,AUTO,-35.3632389,149.1651996,41341,0.017647819593548775,-0.00343170459382236,-0.7943469882011414,-0.7618513703346252,0.03585892543196678,-0.006719705183058977,-29,-54,-1016,-761,36,-6,87,-102,16,102646.0
18:48:57.741,AUTO,-35.3632389,149.1651996,41341,0.017647819593548775,-0.00343170459382236,-0.7943469882011414,-0.7618513703346252,0.03585892543196678,-0.006719705183058977,-29,-54,-1016,-761,36,-6,87,-102,16,102646.0
18:48:57.943,AUTO,-35.3632336,149.1651917,41212,0.03071158565580845,0.014551539905369282,-0.7994856834411621,0.7576281428337097,0.021332619711756706,-0.022897766903042793,-24,27,-1012,759,22,-22,74,-81,13,102646.0
18:48:58.146,AUTO,-35.3632336,149.1651917,41212,0.03071158565580845,0.014551539905369282,-0.7994856834411621,0.7576281428337097,0.021332619711756706,-0.022897766903042793,-24,27,-1012,759,22,-22,74,-81,13,102646.0
18:48:58.349,AUTO,-35.3632321,149.1651894,41175,0.03913111239671707,0.019611027091741562,-0.8005248308181763,0.7367209196090698,0.01093919388949871,-0.015409223735332489,-22,14,-1003,737,11,-14,67,-73,12,102646.0
18:48:58.551,AUTO,-35.3632308,149.1651874,41141,0.0321616493165493,0.02563205175101757,-0.801406979560852,0.06731387227773666,0.017118442803621292,-0.010740356519818306,-18,-29,-996,67,17,-10,61,-65,11,102646.0
18:48:58.755,AUTO,-35.3632297,149.1651855,41112,0.027072545140981674,0.030856231227517128,-0.8025268912315369,-0.5228457450866699,0.024080384522676468,-0.012487811967730522,-16,-49,-979,-522,24,-11,54,-55,11,102646.0
18:48:58.957,AUTO,-35.3632288,149.1651839,41086,0.017569052055478096,0.03670563921332359,-0.803645670413971,-0.8123608827590942,0.01912364549934864,-0.007771882228553295,-15,-41,-1008,-811,19,-7,47,-45,7,102646.0
18:48:59.160,AUTO,-35.3632288,149.1651839,41086,0.017569052055478096,0.03670563921332359,-0.803645670413971,-0.8123608827590942,0.01912364549934864,-0.007771882228553295,-15,-41,-1008,-811,19,-7,47,-45,7,102646.0
18:48:59.362,AUTO,-35.3632281,149.1651826,41067,0.015051571652293205,0.04032779857516289,-0.8033998608589172,-0.698907196521759,-0.011125769466161728,-0.027109233662486076,-10,-23,-1013,-697,-10,-26,40,-34,6,102646.0
18:48:59.564,AUTO,-35.3632281,149.1651826,41067,0.015051571652293205,0.04032779857516289,-0.8033998608589172,-0.698907196521759,-0.011125769466161728,-0.027109233662486076,-10,-23,-1013,-697,-10,-26,40,-34,6,102646.0
18:48:59.767,AUTO,-35.3632281,149.1651826,41067,0.015051571652293205,0.04032779857516289,-0.8033998608589172,-0.698907196521759,-0.011125769466161728,-0.027109233662486076,-10,-23,-1013,-697,-10,-26,40,-34,6,102646.0
18:48:59.969,AUTO,-35.3632269,149.1651799,41028,0.018963612616062164,-0.05091911554336548,-0.8088579773902893,-0.08512774109840393,-0.15568599104881287,-0.046846937388181686,-13,6,-1000,-82,-155,-46,39,-26,4,102646.0
18:49:00.238,AUTO,-35.3632263,149.1651787,41015,0.02413204312324524,-0.08581652492284775,-0.8115329742431641,0.6037402749061584,-0.13134415447711945,-0.03609810024499893,-12,31,-1000,605,-130,-35,50,-36,5,102646.0
18:49:00.502,AUTO,-35.3632255,149.1651772,40996,0.02768838405609131,-0.11667090654373169,-0.8135616183280945,0.718366801738739,-0.12119687348604202,-0.013952130451798439,-16,17,-997,719,-120,-13,63,-52,8,102646.0
18:49:00.798,AUTO,-35.3632243,149.1651751,40969,0.02440064586699009,-0.146183580160141,-0.8165937066078186,0.17217914760112762,-0.12540264427661896,0.019938277080655098,-21,-15,-993,172,-124,20,80,-75,11,102646.0
18:49:01.103,AUTO,-35.3632206,149.1651691,40892,0.020612196996808052,-0.13603444397449493,-0.8257989883422852,-0.5135448575019836,0.17829401791095734,0.008878400549292564,-34,-32,-1002,-511,178,9,117,-123,17,102646.0
18:49:01.456,AUTO,-35.3632206,149.1651691,40892,0.020612196996808052,-0.13603444397449493,-0.8257989883422852,-0.5135448575019836,0.17829401791095734,0.008878400549292564,-34,-32,-1002,-511,178,9,117,-123,17,102646.0
18:49:01.659,AUTO,-35.3632206,149.1651691,40892,0.020612196996808052,-0.13603444397449493,-0.8257989883422852,-0.5135448575019836,0.17829401791095734,0.008878400549292564,-34,-32,-1002,-511,178,9,117,-123,17,102646.0
18:49:01.863,AUTO,-35.3632206,149.1651691,40892,0.020612196996808052,-0.13603444397449493,-0.8257989883422852,-0.5135448575019836,0.17829401791095734,0.008878400549292564,-34,-32,-1002,-511,178,9,117,-123,17,102646.0
18:49:02.065,AUTO,-35.3632124,149.1651558,40746,0.04990944638848305,0.048035506159067154,-0.8291786909103394,-0.5779264569282532,0.17145587503910065,0.0023081351537257433,-36,-66,-985,-577,172,2,118,-123,16,205893.0
18:49:02.267,AUTO,-35.3632101,149.1651525,40705,0.03671282157301903,0.07110793888568878,-0.8269574642181396,-0.9006810784339905,-0.0750940591096878,0.006997466087341309,-21,-54,-989,-899,-74,7,106,-104,15,205893.0
