time_stamp,MODE,lat,lon,relative_alt,roll,pitch,yaw,rollspeed,pitchspeed,yawspeed,xacc,yacc,zacc,xgyro,ygyro,zgyro,vx,vy,vz,chan4_raw,RTL_ALT
14:15:28.649,STABILIZE,-35.3632621,149.1652374,0,-1.6957636034931056e-05,0.0015739924274384975,0.026235530152916908,0.00024274925817735493,0.0003222710802219808,0.002273416146636009,0,1,-1000,0,0,0,-1,1,0,1500,1500.0
14:15:28.850,STABILIZE,-35.3632621,149.1652374,0,-1.6957636034931056e-05,0.0015739924274384975,0.026235530152916908,0.00024274925817735493,0.0003222710802219808,0.002273416146636009,0,1,-1000,0,0,0,-1,1,0,1500,1500.0
14:15:29.051,STABILIZE,-35.3632621,149.1652374,0,-1.6957636034931056e-05,0.0015739924274384975,0.026235530152916908,0.00024274925817735493,0.0003222710802219808,0.002273416146636009,0,1,-1000,0,0,0,-1,1,0,1500,1500.0
14:15:29.266,STABILIZE,-35.3632621,149.1652374,0,-1.6957636034931056e-05,0.0015739924274384975,0.026235530152916908,0.00024274925817735493,0.0003222710802219808,0.002273416146636009,0,1,-1000,0,0,0,-1,1,0,1500,1500.0
14:15:29.467,STABILIZE,-35.3632621,149.1652374,0,-1.6957636034931056e-05,0.0015739924274384975,0.026235530152916908,0.00024274925817735493,0.0003222710802219808,0.002273416146636009,0,1,-1000,0,0,0,-1,1,0,1500,1500.0
14:15:29.669,STABILIZE,-35.3632621,149.1652374,0,-1.6957636034931056e-05,0.0015739924274384975,0.026235530152916908,0.00024274925817735493,0.0003222710802219808,0.002273416146636009,0,1,-1000,0,0,0,-1,1,0,1500,1500.0
14:15:29.870,STABILIZE,-35.3632621,149.1652374,0,-1.6957636034931056e-05,0.0015739924274384975,0.026235530152916908,0.00024274925817735493,0.0003222710802219808,0.002273416146636009,0,1,-1000,0,0,0,-1,1,0,1500,1500.0
14:15:30.072,STABILIZE,-35.3632621,149.1652374,0,-1.6957636034931056e-05,0.0015739924274384975,0.026235530152916908,0.00024274925817735493,0.0003222710802219808,0.002273416146636009,0,1,-1000,0,0,0,-1,1,0,1500,1500.0
14:15:30.273,STABILIZE,-35.3632621,149.1652374,0,-1.6957636034931056e-05,0.0015739924274384975,0.026235530152916908,0.00024274925817735493,0.0003222710802219808,0.002273416146636009,0,1,-1000,0,0,0,-1,1,0,1500,1500.0
14:15:30.474,STABILIZE,-35.3632622,149.1652375,0,-0.0007668123580515385,0.0011698605958372355,0.024472441524267197,0.00032279803417623043,0.00026314647402614355,0.0019378112629055977,0,1,-1000,0,0,0,-1,1,0,1500,1500.0
14:15:30.675,STABILIZE,-35.3632622,149.1652375,0,-0.0007668123580515385,0.0011698605958372355,0.024472441524267197,0.00032279803417623043,0.00026314647402614355,0.0019378112629055977,0,1,-1000,0,1,1,-1,0,-2,1500,1500.0
14:15:30.877,STABILIZE,-35.3632622,149.1652375,0,-0.0007979184738360345,0.0010342155583202839,0.02408464066684246,0.0003334963694214821,0.0002466205332893878,0.0019578388892114162,0,1,-1000,0,1,1,-1,0,-2,1500,1500.0
14:15:31.079,STABILIZE,-35.3632622,149.1652375,0,-0.0007979184738360345,0.0010342155583202839,0.02408464066684246,0.0003334963694214821,0.0002466205332893878,0.0019578388892114162,0,1,-1000,0,1,1,-1,0,-2,1500,1500.0
14:15:31.280,STABILIZE,-35.3632622,149.1652375,0,-0.0007979184738360345,0.0010342155583202839,0.02408464066684246,0.0003334963694214821,0.0002466205332893878,0.0019578388892114162,0,1,-1000,0,1,1,-1,0,-2,1500,1500.0
14:15:31.489,STABILIZE,-35.3632622,149.1652375,0,-0.0007979184738360345,0.0010342155583202839,0.02408464066684246,0.0003334963694214821,0.0002466205332893878,0.0019578388892114162,0,1,-1000,0,1,1,-1,0,-2,1500,1500.0
14:15:31.692,STABILIZE,-35.3632622,149.1652375,0,-0.0007979184738360345,0.0010342155583202839,0.02408464066684246,0.0003334963694214821,0.0002466205332893878,0.0019578388892114162,0,1,-1000,0,1,1,-1,0,-2,1500,1500.0
14:15:31.902,STABILIZE,-35.3632622,149.1652375,0,-0.0007979184738360345,0.0010342155583202839,0.02408464066684246,0.0003334963694214821,0.0002466205332893878,0.0019578388892114162,0,1,-1000,0,1,1,-1,0,-2,1500,1500.0
14:15:32.105,STABILIZE,-35.3632622,149.1652375,0,-0.0007979184738360345,0.0010342155583202839,0.02408464066684246,0.0003334963694214821,0.0002466205332893878,0.0019578388892114162,0,1,-1000,0,1,1,-1,0,-2,1500,1500.0
14:15:32.311,STABILIZE,-35.3632622,149.1652375,0,-0.0007979184738360345,0.0010342155583202839,0.02408464066684246,0.0003334963694214821,0.0002466205332893878,0.0019578388892114162,0,1,-1000,0,1,1,-1,0,-2,1500,1500.0
14:15:32.517,STABILIZE,-35.3632622,149.1652375,0,-0.0007979184738360345,0.0010342155583202839,0.02408464066684246,0.0003334963694214821,0.0002466205332893878,0.0019578388892114162,0,1,-1000,0,1,1,-1,0,-2,1500,1500.0
14:15:32.722,STABILIZE,-35.3632621,149.1652375,0,-0.0006470885127782822,0.0009533347329124808,0.023670708760619164,0.00023598934058099985,0.0002259673783555627,0.00192933133803308,0,1,-1000,0,1,0,-1,1,-1,1500,1500.0
14:15:32.928,STABILIZE,-35.3632621,149.1652375,0,-0.0006080507882870734,0.0009366231970489025,0.023367421701550484,0.00023651460651308298,0.0002641433966346085,0.0018785737920552492,0,2,-1000,0,0,0,-1,1,-1,1500,1500.0
14:15:33.129,STABILIZE,-35.3632621,149.1652375,0,-0.0006080507882870734,0.0009366231970489025,0.023367421701550484,0.00023651460651308298,0.0002641433966346085,0.0018785737920552492,0,2,-1000,0,0,0,-1,1,-1,1500,1500.0
14:15:33.331,STABILIZE,-35.3632621,149.1652375,0,-0.0006080507882870734,0.0009366231970489025,0.023367421701550484,0.00023651460651308298,0.0002641433966346085,0.0018785737920552492,0,2,-1000,0,0,0,-1,1,-1,1500,1500.0
14:15:33.545,STABILIZE,-35.3632621,149.1652375,0,-0.0006080507882870734,0.0009366231970489025,0.023367421701550484,0.00023651460651308298,0.0002641433966346085,0.0018785737920552492,0,2,-1000,0,0,0,-1,1,-1,1500,1500.0
14:15:33.752,STABILIZE,-35.3632621,149.1652375,0,-0.0006080507882870734,0.0009366231970489025,0.023367421701550484,0.00023651460651308298,0.0002641433966346085,0.0018785737920552492,0,2,-1000,0,0,0,-1,1,-1,1500,1500.0
14:15:33.959,STABILIZE,-35.3632621,149.1652375,0,-0.0006080507882870734,0.0009366231970489025,0.023367421701550484,0.00023651460651308298,0.0002641433966346085,0.0018785737920552492,0,2,-1000,0,0,0,-1,1,-1,1500,1500.0
14:15:34.162,STABILIZE,-35.3632621,149.1652375,0,-0.0006080507882870734,0.0009366231970489025,0.023367421701550484,0.00023651460651308298,0.0002641433966346085,0.0018785737920552492,0,2,-1000,0,0,0,-1,1,-1,1500,1500.0
14:15:34.365,STABILIZE,-35.3632621,149.1652375,0,-0.0006080507882870734,0.0009366231970489025,0.023367421701550484,0.00023651460651308298,0.0002641433966346085,0.0018785737920552492,0,2,-1000,0,0,0,-1,1,-1,1500,1500.0
14:15:34.583,STABILIZE,-35.3632621,149.1652375,0,-0.0006080507882870734,0.0009366231970489025,0.023367421701550484,0.00023651460651308298,0.0002641433966346085,0.0018785737920552492,0,2,-1000,0,0,0,-1,1,-1,1500,1500.0
14:15:34.787,STABILIZE,-35.3632621,149.1652375,0,-0.00046594205196015537,0.0009326069848611951,0.022871311753988266,0.0003584388759918511,0.00021816056687384844,0.0016950112767517567,0,2,-1000,0,0,0,-1,0,-2,1500,1500.0
14:15:34.991,STABILIZE,-35.3632621,149.1652375,0,-0.0004259136912878603,0.0009321760735474527,0.022654226049780846,0.00036683137295767665,0.00034226966090500355,0.0017364408122375607,0,2,-1000,0,0,0,-1,1,-1,1500,1500.0
14:15:35.196,STABILIZE,-35.3632621,149.1652375,0,-0.0004259136912878603,0.0009321760735474527,0.022654226049780846,0.00036683137295767665,0.00034226966090500355,0.0017364408122375607,0,2,-1000,0,0,0,-1,1,-1,1500,1500.0
14:15:35.411,STABILIZE,-35.3632621,149.1652375,0,-0.0004259136912878603,0.0009321760735474527,0.022654226049780846,0.00036683137295767665,0.00034226966090500355,0.0017364408122375607,0,2,-1000,0,0,0,-1,1,-1,1500,1500.0
14:15:35.615,STABILIZE,-35.3632621,149.1652375,0,-0.0004259136912878603,0.0009321760735474527,0.022654226049780846,0.00036683137295767665,0.00034226966090500355,0.0017364408122375607,0,2,-1000,0,0,0,-1,1,-1,1500,1500.0
14:15:35.817,STABILIZE,-35.3632621,149.1652375,0,-0.0004259136912878603,0.0009321760735474527,0.022654226049780846,0.00036683137295767665,0.00034226966090500355,0.0017364408122375607,0,2,-1000,0,0,0,-1,1,-1,1500,1500.0
14:15:36.024,STABILIZE,-35.3632621,149.1652375,0,-0.0004259136912878603,0.0009321760735474527,0.022654226049780846,0.00036683137295767665,0.00034226966090500355,0.0017364408122375607,0,2,-1000,0,0,0,-1,1,-1,1500,1500.0
14:15:36.229,STABILIZE,-35.3632621,149.1652375,0,-0.0004259136912878603,0.0009321760735474527,0.022654226049780846,0.00036683137295767665,0.00034226966090500355,0.0017364408122375607,0,2,-1000,0,0,0,-1,1,-1,1500,1500.0
14:15:36.439,STABILIZE,-35.3632621,149.1652375,0,-0.0004259136912878603,0.0009321760735474527,0.022654226049780846,0.00036683137295767665,0.00034226966090500355,0.0017364408122375607,0,2,-1000,0,0,0,-1,1,-1,1500,1500.0
14:15:36.641,STABILIZE,-35.3632621,149.1652375,0,-0.00043634959729388356,0.0009761429973877966,0.021937962621450424,0.0004166755825281143,0.00027867715107277036,0.0016426988877356052,0,1,-1000,0,0,1,-1,2,0,1500,1500.0
14:15:36.846,STABILIZE,-35.3632622,149.1652375,0,-0.0004876515013165772,0.0009762531844899058,0.02175084687769413,0.0002559046261012554,0.00027640548069030046,0.001627097139135003,0,2,-1000,1,0,0,-1,2,0,1500,1500.0
14:15:37.051,STABILIZE,-35.3632622,149.1652375,0,-0.0004876515013165772,0.0009762531844899058,0.02175084687769413,0.0002559046261012554,0.00027640548069030046,0.001627097139135003,0,2,-1000,1,0,0,-1,2,0,1500,1500.0
14:15:37.255,STABILIZE,-35.3632622,149.1652375,0,-0.0004876515013165772,0.0009762531844899058,0.02175084687769413,0.0002559046261012554,0.00027640548069030046,0.001627097139135003,0,2,-1000,1,0,0,-1,2,0,1500,1500.0
14:15:37.460,STABILIZE,-35.3632622,149.1652375,0,-0.0004876515013165772,0.0009762531844899058,0.02175084687769413,0.0002559046261012554,0.00027640548069030046,0.001627097139135003,0,2,-1000,1,0,0,-1,2,0,1500,1500.0
14:15:37.667,STABILIZE,-35.3632622,149.1652375,0,-0.0004876515013165772,0.0009762531844899058,0.02175084687769413,0.0002559046261012554,0.00027640548069030046,0.001627097139135003,0,2,-1000,1,0,0,-1,2,0,1500,1500.0
14:15:37.873,STABILIZE,-35.3632622,149.1652375,0,-0.0004876515013165772,0.0009762531844899058,0.02175084687769413,0.0002559046261012554,0.00027640548069030046,0.001627097139135003,0,2,-1000,1,0,0,-1,2,0,1500,1500.0
14:15:38.079,STABILIZE,-35.3632622,149.1652375,0,-0.0004876515013165772,0.0009762531844899058,0.02175084687769413,0.0002559046261012554,0.00027640548069030046,0.001627097139135003,0,2,-1000,1,0,0,-1,2,0,1500,1500.0
14:15:38.283,STABILIZE,-35.3632622,149.1652375,0,-0.0004876515013165772,0.0009762531844899058,0.02175084687769413,0.0002559046261012554,0.00027640548069030046,0.001627097139135003,0,2,-1000,1,0,0,-1,2,0,1500,1500.0
14:15:42.065,STABILIZE,-35.3632622,149.1652375,0,-0.0004876515013165772,0.0009762531844899058,0.02175084687769413,0.0002559046261012554,0.00027640548069030046,0.001627097139135003,0,2,-1000,1,0,0,-1,2,0,1500,1500.0
14:15:42.267,STABILIZE,-35.3632622,149.1652375,0,-0.0005375150358304381,0.0009794944198802114,0.02142837457358837,0.00031066342489793897,0.0003104776260443032,0.001670485595241189,0,2,-1000,1,0,0,-1,1,-1,1500,1500.0
14:15:42.481,STABILIZE,-35.3632622,149.1652375,0,-0.0005235149874351919,0.0009746469440869987,0.021204592660069466,0.00038269360084086657,0.0003766627050936222,0.0016529796412214637,0,2,-1000,0,0,0,-1,1,0,1500,1500.0
14:15:42.684,STABILIZE,-35.3632622,149.1652375,0,-0.0005235149874351919,0.0009746469440869987,0.021204592660069466,0.00038269360084086657,0.0003766627050936222,0.0016529796412214637,0,2,-1000,0,0,0,-1,1,0,1500,1500.0
14:15:42.890,STABILIZE,-35.3632622,149.1652375,0,-0.0005235149874351919,0.0009746469440869987,0.021204592660069466,0.00038269360084086657,0.0003766627050936222,0.0016529796412214637,0,2,-1000,0,0,0,-1,1,0,1500,1500.0
14:15:43.093,STABILIZE,-35.3632622,149.1652375,0,-0.0005235149874351919,0.0009746469440869987,0.021204592660069466,0.00038269360084086657,0.0003766627050936222,0.0016529796412214637,0,2,-1000,0,0,0,-1,1,0,1500,1500.0
14:15:43.295,STABILIZE,-35.3632622,149.1652375,0,-0.0005235149874351919,0.0009746469440869987,0.021204592660069466,0.00038269360084086657,0.0003766627050936222,0.0016529796412214637,0,2,-1000,0,0,0,-1,1,0,1500,1500.0
14:15:43.500,STABILIZE,-35.3632622,149.1652375,0,-0.0005235149874351919,0.0009746469440869987,0.021204592660069466,0.00038269360084086657,0.0003766627050936222,0.0016529796412214637,0,2,-1000,0,0,0,-1,1,0,1500,1500.0
14:15:43.701,STABILIZE,-35.3632622,149.1652375,0,-0.0005235149874351919,0.0009746469440869987,0.021204592660069466,0.00038269360084086657,0.0003766627050936222,0.0016529796412214637,0,2,-1000,0,0,0,-1,1,0,1500,1500.0
14:15:43.907,STABILIZE,-35.3632622,149.1652375,0,-0.0005235149874351919,0.0009746469440869987,0.021204592660069466,0.00038269360084086657,0.0003766627050936222,0.0016529796412214637,0,2,-1000,0,0,0,-1,1,0,1500,1500.0
14:15:44.116,STABILIZE,-35.3632622,149.1652375,0,-0.0005589203210547566,0.0009641555952839553,0.02091379277408123,0.00017187587218359113,0.0002453451743349433,0.0015493478858843446,0,1,-1000,0,0,0,-1,1,0,1500,1500.0
14:15:44.319,STABILIZE,-35.3632622,149.1652375,0,-0.000588222173973918,0.0009627474937587976,0.020763497799634933,0.0003291030880063772,0.00026722700567916036,0.0015663601225242019,0,2,-1000,0,0,0,-1,1,0,1500,1500.0
14:15:44.522,STABILIZE,-35.3632622,149.1652375,0,-0.000588222173973918,0.0009627474937587976,0.020763497799634933,0.0003291030880063772,0.00026722700567916036,0.0015663601225242019,0,2,-1000,0,0,0,-1,1,0,1500,1500.0
14:15:44.727,STABILIZE,-35.3632622,149.1652375,0,-0.000588222173973918,0.0009627474937587976,0.020763497799634933,0.0003291030880063772,0.00026722700567916036,0.0015663601225242019,0,2,-1000,0,0,0,-1,1,0,1500,1500.0
14:15:44.933,STABILIZE,-35.3632622,149.1652375,0,-0.000588222173973918,0.0009627474937587976,0.020763497799634933,0.0003291030880063772,0.00026722700567916036,0.0015663601225242019,0,2,-1000,0,0,0,-1,1,0,1500,1500.0
14:15:45.138,STABILIZE,-35.3632622,149.1652375,0,-0.000588222173973918,0.0009627474937587976,0.020763497799634933,0.0003291030880063772,0.00026722700567916036,0.0015663601225242019,0,2,-1000,0,0,0,-1,1,0,1500,1500.0
14:15:45.341,STABILIZE,-35.3632622,149.1652375,0,-0.000588222173973918,0.0009627474937587976,0.020763497799634933,0.0003291030880063772,0.00026722700567916036,0.0015663601225242019,0,2,-1000,0,0,0,-1,1,0,1500,1500.0
14:15:45.546,STABILIZE,-35.3632622,149.1652375,0,-0.000588222173973918,0.0009627474937587976,0.020763497799634933,0.0003291030880063772,0.00026722700567916036,0.0015663601225242019,0,2,-1000,0,0,0,-1,1,0,1500,1500.0
14:15:45.748,STABILIZE,-35.3632622,149.1652375,0,-0.000588222173973918,0.0009627474937587976,0.020763497799634933,0.0003291030880063772,0.00026722700567916036,0.0015663601225242019,0,2,-1000,0,0,0,-1,1,0,1500,1500.0
14:15:45.950,STABILIZE,-35.3632622,149.1652375,0,-0.000588222173973918,0.0009627474937587976,0.020763497799634933,0.0003291030880063772,0.00026722700567916036,0.0015663601225242019,0,2,-1000,0,0,0,-1,1,0,1500,1500.0
14:15:46.155,STABILIZE,-35.3632622,149.1652375,0,-0.000588222173973918,0.0009627474937587976,0.020763497799634933,0.0003291030880063772,0.00026722700567916036,0.0015663601225242019,0,2,-1000,0,0,0,-1,1,0,1500,1500.0
14:15:46.362,STABILIZE,-35.3632622,149.1652375,0,-0.0004619109386112541,0.0009684406104497612,0.020339936017990112,0.0004690084606409073,0.00034620967926457524,0.001353694824501872,0,1,-1000,0,0,0,-1,1,0,1500,1500.0
14:15:46.565,AUTO,-35.3632622,149.1652375,0,-0.0004891569842584431,0.0009632792207412422,0.02010306902229786,0.0003469433286227286,0.00028864789055660367,0.0013967216946184635,0,1,-1000,1,1,0,-1,1,0,1500,1500.0
14:15:46.770,AUTO,-35.3632622,149.1652375,0,-0.0004891569842584431,0.0009632792207412422,0.02010306902229786,0.0003469433286227286,0.00028864789055660367,0.0013967216946184635,0,1,-1000,1,1,0,-1,1,0,1500,1500.0
14:15:46.975,AUTO,-35.3632622,149.1652375,0,-0.0004891569842584431,0.0009632792207412422,0.02010306902229786,0.0003469433286227286,0.00028864789055660367,0.0013967216946184635,0,1,-1000,1,1,0,-1,1,0,1500,1500.0
14:15:47.177,AUTO,-35.3632622,149.1652375,0,-0.0004891569842584431,0.0009632792207412422,0.02010306902229786,0.0003469433286227286,0.00028864789055660367,0.0013967216946184635,0,1,-1000,1,1,0,-1,1,0,1500,1500.0
14:15:47.382,AUTO,-35.3632622,149.1652375,0,-0.0004891569842584431,0.0009632792207412422,0.02010306902229786,0.0003469433286227286,0.00028864789055660367,0.0013967216946184635,0,1,-1000,1,1,0,-1,1,0,1500,1500.0
14:15:47.587,AUTO,-35.3632622,149.1652375,0,-0.0004891569842584431,0.0009632792207412422,0.02010306902229786,0.0003469433286227286,0.00028864789055660367,0.0013967216946184635,0,1,-1000,1,1,0,-1,1,0,1500,1500.0
14:15:47.796,AUTO,-35.3632622,149.1652375,0,-0.0004891569842584431,0.0009632792207412422,0.02010306902229786,0.0003469433286227286,0.00028864789055660367,0.0013967216946184635,0,1,-1000,1,1,0,-1,1,0,1500,1500.0
14:15:47.998,AUTO,-35.3632622,149.1652375,0,-0.0004891569842584431,0.0009632792207412422,0.02010306902229786,0.0003469433286227286,0.00028864789055660367,0.0013967216946184635,0,1,-1000,1,1,0,-1,1,0,1500,1500.0
14:15:48.203,AUTO,-35.3632622,149.1652375,0,-0.0004891569842584431,0.0009632792207412422,0.02010306902229786,0.0003469433286227286,0.00028864789055660367,0.0013967216946184635,0,1,-1000,1,1,0,-1,1,0,1500,1500.0
14:15:48.404,AUTO,-35.3632621,149.1652375,0,-0.0005196760757826269,0.0009875382529571652,0.01994563266634941,0.00028263707645237446,0.0004062757361680269,0.0013485976960510015,0,1,-1000,0,0,0,-1,1,0,1500,1500.0
14:15:48.608,AUTO,-35.3632621,149.1652374,10,-0.00013010909606236964,0.0012552151456475258,0.01964697800576687,0.00042978808050975204,0.0002782805822789669,0.0013072071596980095,0,1,-1000,0,0,1,0,0,-2,1500,1500.0
14:15:48.811,AUTO,-35.3632621,149.1652374,10,-0.00013010909606236964,0.0012552151456475258,0.01964697800576687,0.00042978808050975204,0.0002782805822789669,0.0013072071596980095,0,1,-1000,0,0,1,0,0,-2,1500,1500.0
14:15:49.014,AUTO,-35.3632621,149.1652374,10,-0.00013010909606236964,0.0012552151456475258,0.01964697800576687,0.00042978808050975204,0.0002782805822789669,0.0013072071596980095,0,1,-1000,0,0,1,0,0,-2,1500,1500.0
14:15:49.217,AUTO,-35.3632621,149.1652374,10,-0.00013010909606236964,0.0012552151456475258,0.01964697800576687,0.00042978808050975204,0.0002782805822789669,0.0013072071596980095,0,1,-1000,0,0,1,0,0,-2,1500,1500.0
14:15:49.422,AUTO,-35.3632621,149.1652374,10,-0.00013010909606236964,0.0012552151456475258,0.01964697800576687,0.00042978808050975204,0.0002782805822789669,0.0013072071596980095,0,1,-1000,0,0,1,0,0,-2,1500,1500.0
14:15:49.627,AUTO,-35.3632621,149.1652374,10,-0.00013010909606236964,0.0012552151456475258,0.01964697800576687,0.00042978808050975204,0.0002782805822789669,0.0013072071596980095,0,1,-1000,0,0,1,0,0,-2,1500,1500.0
14:15:49.834,AUTO,-35.3632621,149.1652374,10,-0.00013010909606236964,0.0012552151456475258,0.01964697800576687,0.00042978808050975204,0.0002782805822789669,0.0013072071596980095,0,1,-1000,0,0,1,0,0,-2,1500,1500.0
14:15:50.036,AUTO,-35.3632621,149.1652374,10,-0.00013010909606236964,0.0012552151456475258,0.01964697800576687,0.00042978808050975204,0.0002782805822789669,0.0013072071596980095,0,1,-1000,0,0,1,0,0,-2,1500,1500.0
14:15:50.237,AUTO,-35.3632621,149.1652375,9,0.00027167468215338886,0.0016679122345522046,0.01919914409518242,0.0003218591446056962,0.00028330605709925294,0.0012830683263018727,0,2,-1000,1,0,0,0,1,-1,1500,1500.0
14:15:50.440,AUTO,-35.3632621,149.1652375,8,0.00032310275128111243,0.001675001927651465,0.01913471147418022,-0.0008449087617918849,-0.0024206782691180706,0.0019277276005595922,0,0,-1005,0,-1,1,0,1,-1,1500,1500.0
14:15:50.641,AUTO,-35.3632621,149.1652375,42,0.0009200139320455492,-0.0004272148653399199,0.019013965502381325,-0.0025276723317801952,-0.003264879109337926,0.0011127686593681574,0,0,-1141,-1,-2,0,0,0,-30,1500,1500.0
14:15:50.844,AUTO,-35.3632621,149.1652375,42,0.0009200139320455492,-0.0004272148653399199,0.019013965502381325,-0.0025276723317801952,-0.003264879109337926,0.0011127686593681574,0,0,-1141,-1,-2,0,0,0,-30,1500,1500.0
14:15:51.051,AUTO,-35.3632621,149.1652375,42,0.0009200139320455492,-0.0004272148653399199,0.019013965502381325,-0.0025276723317801952,-0.003264879109337926,0.0011127686593681574,0,0,-1141,-1,-2,0,0,0,-30,1500,1500.0
14:15:51.254,AUTO,-35.3632621,149.1652375,42,0.0009200139320455492,-0.0004272148653399199,0.019013965502381325,-0.0025276723317801952,-0.003264879109337926,0.0011127686593681574,0,0,-1141,-1,-2,0,0,0,-30,1500,1500.0
14:15:51.456,AUTO,-35.3632621,149.1652375,42,0.0009200139320455492,-0.0004272148653399199,0.019013965502381325,-0.0025276723317801952,-0.003264879109337926,0.0011127686593681574,0,0,-1141,-1,-2,0,0,0,-30,1500,1500.0
14:15:51.658,AUTO,-35.3632621,149.1652375,42,0.0009200139320455492,-0.0004272148653399199,0.019013965502381325,-0.0025276723317801952,-0.003264879109337926,0.0011127686593681574,0,0,-1141,-1,-2,0,0,0,-30,1500,1500.0
14:15:51.860,AUTO,-35.3632621,149.1652375,42,0.0009200139320455492,-0.0004272148653399199,0.019013965502381325,-0.0025276723317801952,-0.003264879109337926,0.0011127686593681574,0,0,-1141,-1,-2,0,0,0,-30,1500,1500.0
14:15:52.063,AUTO,-35.3632621,149.1652375,42,0.0009200139320455492,-0.0004272148653399199,0.019013965502381325,-0.0025276723317801952,-0.003264879109337926,0.0011127686593681574,0,0,-1141,-1,-2,0,0,0,-30,1500,1500.0
14:15:52.267,AUTO,-35.3632621,149.1652374,1309,0.021158969029784203,-0.0005544191808439791,0.018608178943395615,0.04799969121813774,-0.006494352128356695,0.002139810472726822,0,0,-1050,48,-4,0,0,4,-143,1500,1500.0
14:15:52.469,AUTO,-35.363262,149.1652378,2065,0.04386375844478607,-0.004391142632812262,0.01899098791182041,0.0434563085436821,-0.00875040888786316,0.0034015337005257607,0,-2,-1003,44,-7,3,2,18,-148,1500,1500.0
14:15:52.671,AUTO,-35.3632619,149.1652384,2449,0.0542423389852047,-0.006869992706924677,0.019293641671538353,0.039949700236320496,-0.010592997074127197,0.0036153816618025303,1,-5,-1000,40,-9,3,4,29,-148,1500,1500.0
14:15:52.875,AUTO,-35.3632619,149.1652384,2449,0.0542423389852047,-0.006869992706924677,0.019293641671538353,0.039949700236320496,-0.010592997074127197,0.0036153816618025303,1,-5,-1000,40,-9,3,4,29,-148,1500,1500.0
14:15:53.079,AUTO,-35.3632619,149.1652384,2449,0.0542423389852047,-0.006869992706924677,0.019293641671538353,0.039949700236320496,-0.010592997074127197,0.0036153816618025303,1,-5,-1000,40,-9,3,4,29,-148,1500,1500.0
14:15:53.283,AUTO,-35.3632619,149.1652384,2449,0.0542423389852047,-0.006869992706924677,0.019293641671538353,0.039949700236320496,-0.010592997074127197,0.0036153816618025303,1,-5,-1000,40,-9,3,4,29,-148,1500,1500.0
14:15:53.487,AUTO,-35.3632619,149.1652384,2449,0.0542423389852047,-0.006869992706924677,0.019293641671538353,0.039949700236320496,-0.010592997074127197,0.0036153816618025303,1,-5,-1000,40,-9,3,4,29,-148,1500,1500.0
14:15:53.693,AUTO,-35.3632619,149.1652384,2449,0.0542423389852047,-0.006869992706924677,0.019293641671538353,0.039949700236320496,-0.010592997074127197,0.0036153816618025303,1,-5,-1000,40,-9,3,4,29,-148,1500,1500.0
14:15:53.900,AUTO,-35.3632619,149.1652384,2449,0.0542423389852047,-0.006869992706924677,0.019293641671538353,0.039949700236320496,-0.010592997074127197,0.0036153816618025303,1,-5,-1000,40,-9,3,4,29,-148,1500,1500.0
14:15:54.105,AUTO,-35.3632619,149.1652384,2449,0.0542423389852047,-0.006869992706924677,0.019293641671538353,0.039949700236320496,-0.010592997074127197,0.0036153816618025303,1,-5,-1000,40,-9,3,4,29,-148,1500,1500.0
14:15:54.310,AUTO,-35.3632608,149.1652444,4342,-0.040325142443180084,0.004488276317715645,-0.057243555784225464,-0.03231029957532883,-0.014544511213898659,-0.03837569057941437,4,-10,-1011,-76,-22,-40,7,34,-147,1500,1500.0
14:15:54.512,AUTO,-35.3632603,149.1652453,5496,-0.07646936178207397,0.003989324439316988,-0.08653140813112259,0.0343870110809803,-0.00029403885127976537,-0.029523804783821106,-1,0,-1005,35,0,-29,3,-17,-147,1500,1500.0
14:15:54.718,AUTO,-35.3632603,149.1652453,5496,-0.07646936178207397,0.003989324439316988,-0.08653140813112259,0.0343870110809803,-0.00029403885127976537,-0.029523804783821106,-1,0,-1005,35,0,-29,3,-17,-147,1500,1500.0
14:15:54.919,AUTO,-35.3632603,149.1652453,5496,-0.07646936178207397,0.003989324439316988,-0.08653140813112259,0.0343870110809803,-0.00029403885127976537,-0.029523804783821106,-1,0,-1005,35,0,-29,3,-17,-147,1500,1500.0
14:15:55.122,AUTO,-35.3632603,149.1652453,5496,-0.07646936178207397,0.003989324439316988,-0.08653140813112259,0.0343870110809803,-0.00029403885127976537,-0.029523804783821106,-1,0,-1005,35,0,-29,3,-17,-147,1500,1500.0
14:15:55.326,AUTO,-35.3632603,149.1652453,5496,-0.07646936178207397,0.003989324439316988,-0.08653140813112259,0.0343870110809803,-0.00029403885127976537,-0.029523804783821106,-1,0,-1005,35,0,-29,3,-17,-147,1500,1500.0
14:15:55.530,AUTO,-35.3632603,149.1652453,5496,-0.07646936178207397,0.003989324439316988,-0.08653140813112259,0.0343870110809803,-0.00029403885127976537,-0.029523804783821106,-1,0,-1005,35,0,-29,3,-17,-147,1500,1500.0
14:15:55.743,AUTO,-35.3632603,149.1652453,5496,-0.07646936178207397,0.003989324439316988,-0.08653140813112259,0.0343870110809803,-0.00029403885127976537,-0.029523804783821106,-1,0,-1005,35,0,-29,3,-17,-147,1500,1500.0
14:15:55.950,AUTO,-35.3632603,149.1652453,5496,-0.07646936178207397,0.003989324439316988,-0.08653140813112259,0.0343870110809803,-0.00029403885127976537,-0.029523804783821106,-1,0,-1005,35,0,-29,3,-17,-147,1500,1500.0
14:15:56.152,AUTO,-35.3632603,149.1652453,5496,-0.07646936178207397,0.003989324439316988,-0.08653140813112259,0.0343870110809803,-0.00029403885127976537,-0.029523804783821106,-1,0,-1005,35,0,-29,3,-17,-147,1500,1500.0
14:15:56.355,AUTO,-35.3632604,149.165242,6643,-0.03585965186357498,0.00622565345838666,-0.10025368630886078,0.0627436563372612,0.009841978549957275,-0.009312122128903866,-6,10,-1001,63,10,-9,-5,-55,-147,1500,1500.0
14:15:56.557,AUTO,-35.3632619,149.1652343,8583,0.04360976815223694,0.014508235268294811,-0.09648355096578598,-0.019212756305933,-0.05413395166397095,0.08320272713899612,0,9,-991,-18,-53,82,-23,-36,-150,1563,1500.0
14:15:56.762,AUTO,-35.3632619,149.1652343,8583,0.04360976815223694,0.014508235268294811,-0.09648355096578598,-0.019212756305933,-0.05413395166397095,0.08320272713899612,0,9,-991,-18,-53,82,-23,-36,-150,1563,1500.0
14:15:56.964,AUTO,-35.3632619,149.1652343,8583,0.04360976815223694,0.014508235268294811,-0.09648355096578598,-0.019212756305933,-0.05413395166397095,0.08320272713899612,0,9,-991,-18,-53,82,-23,-36,-150,1563,1500.0
14:15:57.168,AUTO,-35.3632619,149.1652343,8583,0.04360976815223694,0.014508235268294811,-0.09648355096578598,-0.019212756305933,-0.05413395166397095,0.08320272713899612,0,9,-991,-18,-53,82,-23,-36,-150,1563,1500.0
14:15:57.369,AUTO,-35.3632619,149.1652343,8583,0.04360976815223694,0.014508235268294811,-0.09648355096578598,-0.019212756305933,-0.05413395166397095,0.08320272713899612,0,9,-991,-18,-53,82,-23,-36,-150,1563,1500.0
14:15:57.573,AUTO,-35.3632619,149.1652343,8583,0.04360976815223694,0.014508235268294811,-0.09648355096578598,-0.019212756305933,-0.05413395166397095,0.08320272713899612,0,9,-991,-18,-53,82,-23,-36,-150,1563,1500.0
14:15:57.775,AUTO,-35.3632619,149.1652343,8583,0.04360976815223694,0.014508235268294811,-0.09648355096578598,-0.019212756305933,-0.05413395166397095,0.08320272713899612,0,9,-991,-18,-53,82,-23,-36,-150,1563,1500.0
14:15:57.976,AUTO,-35.3632619,149.1652343,8583,0.04360976815223694,0.014508235268294811,-0.09648355096578598,-0.019212756305933,-0.05413395166397095,0.08320272713899612,0,9,-991,-18,-53,82,-23,-36,-150,1563,1500.0
14:15:58.180,AUTO,-35.3632619,149.1652343,8583,0.04360976815223694,0.014508235268294811,-0.09648355096578598,-0.019212756305933,-0.05413395166397095,0.08320272713899612,0,9,-991,-18,-53,82,-23,-36,-150,1563,1500.0
14:15:58.384,AUTO,-35.3632618,149.1652332,11238,0.05882051959633827,-0.02550329826772213,0.554781436920166,-0.051954157650470734,0.13078324496746063,0.33760592341423035,-5,-7,-990,-51,131,337,20,42,-142,1563,1500.0
14:15:58.585,AUTO,-35.3632614,149.1652345,11606,0.04097258299589157,0.0038522756658494473,0.6379465460777283,-0.07339435815811157,0.12498688697814941,0.32646510004997253,-6,-10,-1001,-72,125,326,16,51,-141,1563,1500.0
14:15:58.788,AUTO,-35.3632614,149.1652345,11606,0.04097258299589157,0.0038522756658494473,0.6379465460777283,-0.07339435815811157,0.12498688697814941,0.32646510004997253,-6,-10,-1001,-72,125,326,16,51,-141,1563,1500.0
14:15:58.998,AUTO,-35.3632614,149.1652345,11606,0.04097258299589157,0.0038522756658494473,0.6379465460777283,-0.07339435815811157,0.12498688697814941,0.32646510004997253,-6,-10,-1001,-72,125,326,16,51,-141,1563,1500.0
14:15:59.203,AUTO,-35.3632614,149.1652345,11606,0.04097258299589157,0.0038522756658494473,0.6379465460777283,-0.07339435815811157,0.12498688697814941,0.32646510004997253,-6,-10,-1001,-72,125,326,16,51,-141,1563,1500.0
14:15:59.435,AUTO,-35.3632614,149.1652345,11606,0.04097258299589157,0.0038522756658494473,0.6379465460777283,-0.07339435815811157,0.12498688697814941,0.32646510004997253,-6,-10,-1001,-72,125,326,16,51,-141,1563,1500.0
14:15:59.643,AUTO,-35.3632614,149.1652345,11606,0.04097258299589157,0.0038522756658494473,0.6379465460777283,-0.07339435815811157,0.12498688697814941,0.32646510004997253,-6,-10,-1001,-72,125,326,16,51,-141,1563,1500.0
14:15:59.892,AUTO,-35.3632614,149.1652345,11606,0.04097258299589157,0.0038522756658494473,0.6379465460777283,-0.07339435815811157,0.12498688697814941,0.32646510004997253,-6,-10,-1001,-72,125,326,16,51,-141,1563,1500.0
14:16:00.124,AUTO,-35.363261,149.1652387,12952,0.000668925407808274,0.04417534917593002,0.9230586886405945,-0.032201021909713745,-0.0021192498970776796,0.30452296137809753,-2,-7,-1005,-31,-1,304,-7,30,-146,1500,1500.0
14:16:00.327,AUTO,-35.3632619,149.1652397,14119,0.007858903147280216,0.060751453042030334,1.0243202447891235,-0.013433806598186493,0.04009184241294861,0.03128940612077713,3,-3,-997,-12,40,31,-25,-3,-150,1500,1500.0
14:16:00.528,AUTO,-35.3632626,149.1652395,14506,0.00454969797283411,0.0717587098479271,1.0260244607925415,-0.008162910118699074,0.039516597986221313,-0.01284079160541296,6,-1,-998,-7,40,-13,-33,-15,-149,1500,1500.0
14:16:00.731,AUTO,-35.3632626,149.1652395,14506,0.00454969797283411,0.0717587098479271,1.0260244607925415,-0.008162910118699074,0.039516597986221313,-0.01284079160541296,6,-1,-998,-7,40,-13,-33,-15,-149,1500,1500.0
14:16:00.933,AUTO,-35.3632626,149.1652395,14506,0.00454969797283411,0.0717587098479271,1.0260244607925415,-0.008162910118699074,0.039516597986221313,-0.01284079160541296,6,-1,-998,-7,40,-13,-33,-15,-149,1500,1500.0
14:16:01.137,AUTO,-35.3632626,149.1652395,14506,0.00454969797283411,0.0717587098479271,1.0260244607925415,-0.008162910118699074,0.039516597986221313,-0.01284079160541296,6,-1,-998,-7,40,-13,-33,-15,-149,1500,1500.0
14:16:01.343,AUTO,-35.3632626,149.1652395,14506,0.00454969797283411,0.0717587098479271,1.0260244607925415,-0.008162910118699074,0.039516597986221313,-0.01284079160541296,6,-1,-998,-7,40,-13,-33,-15,-149,1500,1500.0
14:16:01.548,AUTO,-35.3632626,149.1652395,14506,0.00454969797283411,0.0717587098479271,1.0260244607925415,-0.008162910118699074,0.039516597986221313,-0.01284079160541296,6,-1,-998,-7,40,-13,-33,-15,-149,1500,1500.0
14:16:01.752,AUTO,-35.3632626,149.1652395,14506,0.00454969797283411,0.0717587098479271,1.0260244607925415,-0.008162910118699074,0.039516597986221313,-0.01284079160541296,6,-1,-998,-7,40,-13,-33,-15,-149,1500,1500.0
14:16:01.956,AUTO,-35.3632626,149.1652395,14506,0.00454969797283411,0.0717587098479271,1.0260244607925415,-0.008162910118699074,0.039516597986221313,-0.01284079160541296,6,-1,-998,-7,40,-13,-33,-15,-149,1500,1500.0
14:16:02.160,AUTO,-35.3632626,149.1652395,14506,0.00454969797283411,0.0717587098479271,1.0260244607925415,-0.008162910118699074,0.039516597986221313,-0.01284079160541296,6,-1,-998,-7,40,-13,-33,-15,-149,1500,1500.0
14:16:02.365,AUTO,-35.3632691,149.165231,16793,-0.03470661863684654,0.002267406787723303,1.0389480590820312,-0.02275325544178486,-0.06566491723060608,0.01348105724900961,17,8,-1006,-21,-65,13,-46,-67,-148,1500,1500.0
14:16:02.571,AUTO,-35.3632707,149.1652273,17568,-0.04078034311532974,-0.02761712297797203,1.0469791889190674,0.0018116470891982317,-0.0554761104285717,0.013841396197676659,12,9,-1005,2,-54,13,-25,-63,-151,1500,1500.0
14:16:02.774,AUTO,-35.3632707,149.1652273,17568,-0.04078034311532974,-0.02761712297797203,1.0469791889190674,0.0018116470891982317,-0.0554761104285717,0.013841396197676659,12,9,-1005,2,-54,13,-25,-63,-151,1500,1500.0
14:16:02.978,AUTO,-35.3632707,149.1652273,17568,-0.04078034311532974,-0.02761712297797203,1.0469791889190674,0.0018116470891982317,-0.0554761104285717,0.013841396197676659,12,9,-1005,2,-54,13,-25,-63,-151,1500,1500.0
14:16:03.183,AUTO,-35.3632707,149.1652273,17568,-0.04078034311532974,-0.02761712297797203,1.0469791889190674,0.0018116470891982317,-0.0554761104285717,0.013841396197676659,12,9,-1005,2,-54,13,-25,-63,-151,1500,1500.0
14:16:03.387,AUTO,-35.3632707,149.1652273,17568,-0.04078034311532974,-0.02761712297797203,1.0469791889190674,0.0018116470891982317,-0.0554761104285717,0.013841396197676659,12,9,-1005,2,-54,13,-25,-63,-151,1500,1500.0
14:16:03.590,AUTO,-35.3632707,149.1652273,17568,-0.04078034311532974,-0.02761712297797203,1.0469791889190674,0.0018116470891982317,-0.0554761104285717,0.013841396197676659,12,9,-1005,2,-54,13,-25,-63,-151,1500,1500.0
14:16:03.793,AUTO,-35.3632707,149.1652273,17568,-0.04078034311532974,-0.02761712297797203,1.0469791889190674,0.0018116470891982317,-0.0554761104285717,0.013841396197676659,12,9,-1005,2,-54,13,-25,-63,-151,1500,1500.0
14:16:03.997,AUTO,-35.3632707,149.1652273,17568,-0.04078034311532974,-0.02761712297797203,1.0469791889190674,0.0018116470891982317,-0.0554761104285717,0.013841396197676659,12,9,-1005,2,-54,13,-25,-63,-151,1500,1500.0
14:16:04.199,AUTO,-35.3632693,149.1652217,19926,0.006348474882543087,-0.09228385984897614,1.109851598739624,0.0477495938539505,0.0017217297572642565,0.03894764184951782,-8,4,-999,48,2,38,42,17,-150,1500,1500.0
14:16:04.401,AUTO,-35.3632682,149.1652222,20313,0.01815936341881752,-0.08868035674095154,1.1171472072601318,0.05069391801953316,0.02310315892100334,0.028171356767416,-12,2,-999,51,23,27,48,36,-149,1500,1500.0
14:16:04.607,AUTO,-35.363267,149.1652234,20698,0.02951461635529995,-0.08141985535621643,1.1224545240402222,0.046098291873931885,0.03474973514676094,0.020602477714419365,-15,0,-999,47,35,20,51,53,-148,1500,1500.0
14:16:04.816,AUTO,-35.363267,149.1652234,20698,0.02951461635529995,-0.08141985535621643,1.1224545240402222,0.046098291873931885,0.03474973514676094,0.020602477714419365,-15,0,-999,47,35,20,51,53,-148,1500,1500.0
14:16:05.028,AUTO,-35.363267,149.1652234,20698,0.02951461635529995,-0.08141985535621643,1.1224545240402222,0.046098291873931885,0.03474973514676094,0.020602477714419365,-15,0,-999,47,35,20,51,53,-148,1500,1500.0
14:16:05.247,AUTO,-35.363267,149.1652234,20698,0.02951461635529995,-0.08141985535621643,1.1224545240402222,0.046098291873931885,0.03474973514676094,0.020602477714419365,-15,0,-999,47,35,20,51,53,-148,1500,1500.0
14:16:05.457,AUTO,-35.363267,149.1652234,20698,0.02951461635529995,-0.08141985535621643,1.1224545240402222,0.046098291873931885,0.03474973514676094,0.020602477714419365,-15,0,-999,47,35,20,51,53,-148,1500,1500.0
14:16:05.660,AUTO,-35.363267,149.1652234,20698,0.02951461635529995,-0.08141985535621643,1.1224545240402222,0.046098291873931885,0.03474973514676094,0.020602477714419365,-15,0,-999,47,35,20,51,53,-148,1500,1500.0
14:16:05.862,AUTO,-35.363267,149.1652234,20698,0.02951461635529995,-0.08141985535621643,1.1224545240402222,0.046098291873931885,0.03474973514676094,0.020602477714419365,-15,0,-999,47,35,20,51,53,-148,1500,1500.0
14:16:06.064,AUTO,-35.363267,149.1652234,20698,0.02951461635529995,-0.08141985535621643,1.1224545240402222,0.046098291873931885,0.03474973514676094,0.020602477714419365,-15,0,-999,47,35,20,51,53,-148,1500,1500.0
14:16:06.267,AUTO,-35.3632635,149.1652295,21843,0.05745390057563782,-0.04706418141722679,1.1301534175872803,0.03213697671890259,0.054035745561122894,0.005326998420059681,-15,0,-999,47,35,20,43,95,-148,1500,1500.0
14:16:06.470,AUTO,-35.363261,149.1652415,23381,0.05466768890619278,0.03348167613148689,1.1042492389678955,-0.04787004739046097,0.11593031883239746,-0.0895259752869606,-14,-22,-1008,-47,116,-89,1,109,-150,1500,1500.0
14:16:06.673,AUTO,-35.3632609,149.1652444,23771,0.040739960968494415,0.06352739036083221,1.079429030418396,-0.05111273378133774,0.11372039467096329,-0.11381414532661438,-13,-20,-1010,-50,114,-113,-10,98,-152,1500,1500.0
14:16:06.874,AUTO,-35.3632609,149.1652444,23771,0.040739960968494415,0.06352739036083221,1.079429030418396,-0.05111273378133774,0.11372039467096329,-0.11381414532661438,-13,-20,-1010,-50,114,-113,-10,98,-152,1500,1500.0
14:16:07.078,AUTO,-35.3632609,149.1652444,23771,0.040739960968494415,0.06352739036083221,1.079429030418396,-0.05111273378133774,0.11372039467096329,-0.11381414532661438,-13,-20,-1010,-50,114,-113,-10,98,-152,1500,1500.0
14:16:07.281,AUTO,-35.3632609,149.1652444,23771,0.040739960968494415,0.06352739036083221,1.079429030418396,-0.05111273378133774,0.11372039467096329,-0.11381414532661438,-13,-20,-1010,-50,114,-113,-10,98,-152,1500,1500.0
14:16:07.488,AUTO,-35.3632609,149.1652444,23771,0.040739960968494415,0.06352739036083221,1.079429030418396,-0.05111273378133774,0.11372039467096329,-0.11381414532661438,-13,-20,-1010,-50,114,-113,-10,98,-152,1500,1500.0
14:16:07.695,AUTO,-35.3632609,149.1652444,23771,0.040739960968494415,0.06352739036083221,1.079429030418396,-0.05111273378133774,0.11372039467096329,-0.11381414532661438,-13,-20,-1010,-50,114,-113,-10,98,-152,1500,1500.0
14:16:07.899,AUTO,-35.3632609,149.1652444,23771,0.040739960968494415,0.06352739036083221,1.079429030418396,-0.05111273378133774,0.11372039467096329,-0.11381414532661438,-13,-20,-1010,-50,114,-113,-10,98,-152,1500,1500.0
14:16:08.106,AUTO,-35.3632641,149.1652492,26105,-0.1079786941409111,0.06749019771814346,1.0102580785751343,0.04065707325935364,-0.04857669398188591,0.016697613522410393,6,0,-1008,-34,-52,10,-7,-58,-148,1500,1500.0
14:16:08.307,AUTO,-35.3632641,149.1652474,26483,-0.09543481469154358,0.05676209181547165,1.0166678428649902,0.05369030684232712,-0.044488098472356796,0.023968994617462158,7,13,-998,54,-43,23,4,-81,-146,1500,1500.0
14:16:08.509,AUTO,-35.3632641,149.1652474,26483,-0.0808858573436737,0.04588587209582329,1.0249758958816528,0.06027827039361,-0.04681502655148506,0.023968994617462158,7,13,-998,54,-43,23,4,-81,-146,1500,1500.0
14:16:08.713,AUTO,-35.3632638,149.165245,26858,-0.0808858573436737,0.04588587209582329,1.0249758958816528,0.06027827039361,-0.04681502655148506,0.033252689987421036,8,18,-999,61,-45,32,14,-99,-145,1500,1500.0
14:16:08.922,AUTO,-35.3632638,149.165245,26858,-0.0808858573436737,0.04588587209582329,1.0249758958816528,0.06027827039361,-0.04681502655148506,0.033252689987421036,8,18,-999,61,-45,32,14,-99,-145,1500,1500.0
14:16:09.139,AUTO,-35.3632638,149.165245,26858,-0.0808858573436737,0.04588587209582329,1.0249758958816528,0.06027827039361,-0.04681502655148506,0.033252689987421036,8,18,-999,61,-45,32,14,-99,-145,1500,1500.0
14:16:09.388,AUTO,-35.3632638,149.165245,26858,-0.0808858573436737,0.04588587209582329,1.0249758958816528,0.06027827039361,-0.04681502655148506,0.033252689987421036,8,18,-999,61,-45,32,14,-99,-145,1500,1500.0
14:16:09.619,AUTO,-35.3632638,149.165245,26858,-0.0808858573436737,0.04588587209582329,1.0249758958816528,0.06027827039361,-0.04681502655148506,0.033252689987421036,8,18,-999,61,-45,32,14,-99,-145,1500,1500.0
14:16:09.845,AUTO,-35.3632638,149.165245,26858,-0.0808858573436737,0.04588587209582329,1.0249758958816528,0.06027827039361,-0.04681502655148506,0.033252689987421036,8,18,-999,61,-45,32,14,-99,-145,1500,1500.0
14:16:10.104,AUTO,-35.3632597,149.1652327,28279,-0.2044571042060852,-0.08154521882534027,1.4701728820800781,0.021365733817219734,-0.10952676832675934,0.7653931975364685,6,35,-1001,22,-108,765,111,-101,-127,1675,1500.0
14:16:10.307,AUTO,-35.3632483,149.1652267,29212,-0.16901272535324097,-0.06099405139684677,2.03752064704895,0.15718023478984833,-0.17130184173583984,0.6646885275840759,10,52,-1013,158,-170,664,215,-34,-116,1675,1500.0
14:16:10.509,AUTO,-35.3632432,149.1652261,29517,-0.1383354663848877,-0.07806738466024399,2.2009546756744385,0.18118183314800262,-0.16100825369358063,0.6692032217979431,10,53,-1021,182,-160,668,227,-4,-120,1675,1500.0
14:16:10.714,AUTO,-35.3632432,149.1652261,29517,-0.1383354663848877,-0.07806738466024399,2.2009546756744385,0.18118183314800262,-0.16100825369358063,0.6692032217979431,10,53,-1021,182,-160,668,227,-4,-120,1675,1500.0
14:16:10.918,AUTO,-35.3632432,149.1652261,29517,-0.1383354663848877,-0.07806738466024399,2.2009546756744385,0.18118183314800262,-0.16100825369358063,0.6692032217979431,10,53,-1021,182,-160,668,227,-4,-120,1675,1500.0
14:16:11.119,AUTO,-35.3632432,149.1652261,29517,-0.1383354663848877,-0.07806738466024399,2.2009546756744385,0.18118183314800262,-0.16100825369358063,0.6692032217979431,10,53,-1021,182,-160,668,227,-4,-120,1675,1500.0
14:16:11.321,AUTO,-35.3632432,149.1652261,29517,-0.1383354663848877,-0.07806738466024399,2.2009546756744385,0.18118183314800262,-0.16100825369358063,0.6692032217979431,10,53,-1021,182,-160,668,227,-4,-120,1675,1500.0
14:16:11.524,AUTO,-35.3632432,149.1652261,29517,-0.1383354663848877,-0.07806738466024399,2.2009546756744385,0.18118183314800262,-0.16100825369358063,0.6692032217979431,10,53,-1021,182,-160,668,227,-4,-120,1675,1500.0
14:16:11.727,AUTO,-35.3632432,149.1652261,29517,-0.1383354663848877,-0.07806738466024399,2.2009546756744385,0.18118183314800262,-0.16100825369358063,0.6692032217979431,10,53,-1021,182,-160,668,227,-4,-120,1675,1500.0
14:16:11.933,AUTO,-35.3632432,149.1652261,29517,-0.1383354663848877,-0.07806738466024399,2.2009546756744385,0.18118183314800262,-0.16100825369358063,0.6692032217979431,10,53,-1021,182,-160,668,227,-4,-120,1675,1500.0
14:16:12.138,AUTO,-35.3632432,149.1652261,29517,-0.1383354663848877,-0.07806738466024399,2.2009546756744385,0.18118183314800262,-0.16100825369358063,0.6692032217979431,10,53,-1021,182,-160,668,227,-4,-120,1675,1500.0
14:16:12.346,AUTO,-35.3632192,149.1652371,31655,-0.05325808376073837,-0.1648828685283661,-3.056544303894043,0.10200470685958862,-0.04401841014623642,0.43285244703292847,11,33,-1025,102,-43,432,70,111,-157,1500,1500.0
14:16:12.547,AUTO,-35.3632176,149.1652433,32455,0.00286984839476645,-0.2018730491399765,-2.9311509132385254,0.17156338691711426,-0.10181242972612381,0.10579489171504974,-5,27,-1007,172,-100,105,-15,99,-153,1500,1500.0
14:16:12.748,AUTO,-35.3632176,149.1652433,32455,0.00286984839476645,-0.2018730491399765,-2.9311509132385254,0.17156338691711426,-0.10181242972612381,0.10579489171504974,-5,27,-1007,172,-100,105,-15,99,-153,1500,1500.0
14:16:12.953,AUTO,-35.3632176,149.1652433,32455,0.00286984839476645,-0.2018730491399765,-2.9311509132385254,0.17156338691711426,-0.10181242972612381,0.10579489171504974,-5,27,-1007,172,-100,105,-15,99,-153,1500,1500.0
14:16:13.157,AUTO,-35.3632176,149.1652433,32455,0.00286984839476645,-0.2018730491399765,-2.9311509132385254,0.17156338691711426,-0.10181242972612381,0.10579489171504974,-5,27,-1007,172,-100,105,-15,99,-153,1500,1500.0
14:16:13.387,AUTO,-35.3632176,149.1652433,32455,0.00286984839476645,-0.2018730491399765,-2.9311509132385254,0.17156338691711426,-0.10181242972612381,0.10579489171504974,-5,27,-1007,172,-100,105,-15,99,-153,1500,1500.0
14:16:13.605,AUTO,-35.3632176,149.1652433,32455,0.00286984839476645,-0.2018730491399765,-2.9311509132385254,0.17156338691711426,-0.10181242972612381,0.10579489171504974,-5,27,-1007,172,-100,105,-15,99,-153,1500,1500.0
14:16:13.828,AUTO,-35.3632176,149.1652433,32455,0.00286984839476645,-0.2018730491399765,-2.9311509132385254,0.17156338691711426,-0.10181242972612381,0.10579489171504974,-5,27,-1007,172,-100,105,-15,99,-153,1500,1500.0
14:16:14.039,AUTO,-35.3632176,149.1652433,32455,0.00286984839476645,-0.2018730491399765,-2.9311509132385254,0.17156338691711426,-0.10181242972612381,0.10579489171504974,-5,27,-1007,172,-100,105,-15,99,-153,1500,1500.0
14:16:17.826,AUTO,-35.3632176,149.1652433,32455,0.00286984839476645,-0.2018730491399765,-2.9311509132385254,0.17156338691711426,-0.10181242972612381,0.10579489171504974,-5,27,-1007,172,-100,105,-15,99,-153,1500,1500.0
14:16:18.030,AUTO,-35.3632418,149.1652449,34795,0.11171233654022217,-0.1050817146897316,-2.971803665161133,-0.08181220293045044,0.1944844126701355,-0.13462363183498383,-50,-36,-1029,-81,195,-134,-259,-102,-112,1500,1500.0
14:16:18.231,AUTO,-35.3632478,149.165242,35093,0.10347992926836014,-0.06217481568455696,-2.9928863048553467,-0.027008138597011566,0.14569997787475586,-0.08815823495388031,-52,-44,-1037,-26,146,-88,-266,-118,-121,1500,1500.0
14:16:18.432,AUTO,-35.3632478,149.165242,35093,0.10347992926836014,-0.06217481568455696,-2.9928863048553467,-0.027008138597011566,0.14569997787475586,-0.08815823495388031,-52,-44,-1037,-26,146,-88,-266,-118,-121,1500,1500.0
14:16:18.635,AUTO,-35.3632478,149.165242,35093,0.10347992926836014,-0.06217481568455696,-2.9928863048553467,-0.027008138597011566,0.14569997787475586,-0.08815823495388031,-52,-44,-1037,-26,146,-88,-266,-118,-121,1500,1500.0
14:16:18.839,AUTO,-35.3632478,149.165242,35093,0.10347992926836014,-0.06217481568455696,-2.9928863048553467,-0.027008138597011566,0.14569997787475586,-0.08815823495388031,-52,-44,-1037,-26,146,-88,-266,-118,-121,1500,1500.0
14:16:19.044,AUTO,-35.3632478,149.165242,35093,0.10347992926836014,-0.06217481568455696,-2.9928863048553467,-0.027008138597011566,0.14569997787475586,-0.08815823495388031,-52,-44,-1037,-26,146,-88,-266,-118,-121,1500,1500.0
14:16:19.249,AUTO,-35.3632478,149.165242,35093,0.10347992926836014,-0.06217481568455696,-2.9928863048553467,-0.027008138597011566,0.14569997787475586,-0.08815823495388031,-52,-44,-1037,-26,146,-88,-266,-118,-121,1500,1500.0
14:16:19.450,AUTO,-35.3632478,149.165242,35093,0.10347992926836014,-0.06217481568455696,-2.9928863048553467,-0.027008138597011566,0.14569997787475586,-0.08815823495388031,-52,-44,-1037,-26,146,-88,-266,-118,-121,1500,1500.0
14:16:19.652,AUTO,-35.3632478,149.165242,35093,0.10347992926836014,-0.06217481568455696,-2.9928863048553467,-0.027008138597011566,0.14569997787475586,-0.08815823495388031,-52,-44,-1037,-26,146,-88,-266,-118,-121,1500,1500.0
14:16:19.857,AUTO,-35.3632478,149.165242,35093,0.10347992926836014,-0.06217481568455696,-2.9928863048553467,-0.027008138597011566,0.14569997787475586,-0.08815823495388031,-52,-44,-1037,-26,146,-88,-266,-118,-121,1500,1500.0
14:16:20.059,AUTO,-35.3632819,149.1652153,37754,0.01722051575779915,0.14995168149471283,-3.089334487915039,-0.046815209090709686,0.072725810110569,-0.06449227035045624,-16,-43,-1015,-46,73,-64,-109,-131,-167,1500,1500.0
14:16:20.260,AUTO,-35.363284,149.1652118,38180,0.003726805793121457,0.16540886461734772,-3.1066219806671143,-0.041873008012771606,0.050049975514411926,-0.06710541248321533,-6,-39,-1006,-40,50,-67,-68,-122,-166,1500,1500.0
14:16:20.462,AUTO,-35.363284,149.1652118,38180,0.003726805793121457,0.16540886461734772,-3.1066219806671143,-0.041873008012771606,0.050049975514411926,-0.06710541248321533,-6,-39,-1006,-40,50,-67,-68,-122,-166,1500,1500.0
14:16:20.664,AUTO,-35.363284,149.1652118,38180,0.003726805793121457,0.16540886461734772,-3.1066219806671143,-0.041873008012771606,0.050049975514411926,-0.06710541248321533,-6,-39,-1006,-40,50,-67,-68,-122,-166,1500,1500.0
14:16:20.865,AUTO,-35.363284,149.1652118,38180,0.003726805793121457,0.16540886461734772,-3.1066219806671143,-0.041873008012771606,0.050049975514411926,-0.06710541248321533,-6,-39,-1006,-40,50,-67,-68,-122,-166,1500,1500.0
14:16:21.067,AUTO,-35.363284,149.1652118,38180,0.003726805793121457,0.16540886461734772,-3.1066219806671143,-0.041873008012771606,0.050049975514411926,-0.06710541248321533,-6,-39,-1006,-40,50,-67,-68,-122,-166,1500,1500.0
14:16:21.271,AUTO,-35.363284,149.1652118,38180,0.003726805793121457,0.16540886461734772,-3.1066219806671143,-0.041873008012771606,0.050049975514411926,-0.06710541248321533,-6,-39,-1006,-40,50,-67,-68,-122,-166,1500,1500.0
14:16:21.479,AUTO,-35.363284,149.1652118,38180,0.003726805793121457,0.16540886461734772,-3.1066219806671143,-0.041873008012771606,0.050049975514411926,-0.06710541248321533,-6,-39,-1006,-40,50,-67,-68,-122,-166,1500,1500.0
14:16:21.682,AUTO,-35.363284,149.1652118,38180,0.003726805793121457,0.16540886461734772,-3.1066219806671143,-0.041873008012771606,0.050049975514411926,-0.06710541248321533,-6,-39,-1006,-40,50,-67,-68,-122,-166,1500,1500.0
14:16:21.886,AUTO,-35.3632848,149.165203,39407,-0.04280771687626839,0.1594194769859314,-3.1402688026428223,-0.09749735891819,-0.08335726708173752,0.003078833920881152,-6,-39,-1006,-40,50,-67,50,-87,-151,1500,1500.0
14:16:22.089,AUTO,-35.3632761,149.1651979,40899,-0.1312416046857834,0.06625916808843613,-3.1130244731903076,-0.06633900105953217,-0.0981636643409729,0.01866724155843258,28,10,-1003,-65,-96,19,134,6,-142,1500,1500.0
14:16:22.290,AUTO,-35.363273,149.1651985,41261,-0.14495284855365753,0.04230742156505585,-3.1043331623077393,-0.04926358535885811,-0.10186222940683365,0.01972583681344986,26,14,-1002,-48,-100,19,140,37,-140,1500,1500.0
14:16:22.521,AUTO,-35.363273,149.1651985,41261,-0.14495284855365753,0.04230742156505585,-3.1043331623077393,-0.04926358535885811,-0.10186222940683365,0.01972583681344986,26,14,-1002,-48,-100,19,140,37,-140,1500,1500.0
14:16:22.839,AUTO,-35.363273,149.1651985,41261,-0.14495284855365753,0.04230742156505585,-3.1043331623077393,-0.04926358535885811,-0.10186222940683365,0.01972583681344986,26,14,-1002,-48,-100,19,140,37,-140,1500,1500.0
14:16:23.061,AUTO,-35.363273,149.1651985,41261,-0.14495284855365753,0.04230742156505585,-3.1043331623077393,-0.04926358535885811,-0.10186222940683365,0.01972583681344986,26,14,-1002,-48,-100,19,140,37,-140,1500,1500.0
14:16:23.273,AUTO,-35.363273,149.1651985,41261,-0.14495284855365753,0.04230742156505585,-3.1043331623077393,-0.04926358535885811,-0.10186222940683365,0.01972583681344986,26,14,-1002,-48,-100,19,140,37,-140,1500,1500.0
14:16:23.475,AUTO,-35.363273,149.1651985,41261,-0.14495284855365753,0.04230742156505585,-3.1043331623077393,-0.04926358535885811,-0.10186222940683365,0.01972583681344986,26,14,-1002,-48,-100,19,140,37,-140,1500,1500.0
14:16:23.690,AUTO,-35.363273,149.1651985,41261,-0.14495284855365753,0.04230742156505585,-3.1043331623077393,-0.04926358535885811,-0.10186222940683365,0.01972583681344986,26,14,-1002,-48,-100,19,140,37,-140,1500,1500.0
14:16:23.897,AUTO,-35.363273,149.1651985,41261,-0.14495284855365753,0.04230742156505585,-3.1043331623077393,-0.04926358535885811,-0.10186222940683365,0.01972583681344986,26,14,-1002,-48,-100,19,140,37,-140,1500,1500.0
14:16:24.103,AUTO,-35.3632589,149.1652144,43031,-0.09623545408248901,-0.0774308368563652,-3.042717218399048,0.13871794939041138,-0.057524628937244415,0.012729200534522533,12,43,-1013,156,-115,9,88,176,-140,1500,1500.0
14:16:24.305,AUTO,-35.3632549,149.1652299,44150,-0.0055884430184960365,-0.08279839903116226,-3.0268867015838623,0.11815207451581955,0.017347564920783043,0.024959927424788475,-8,47,-1018,119,18,25,28,177,-152,1500,1500.0
14:16:24.506,AUTO,-35.3632549,149.1652299,44150,-0.0055884430184960365,-0.08279839903116226,-3.0268867015838623,0.11815207451581955,0.017347564920783043,0.024959927424788475,-8,47,-1018,119,18,25,28,177,-152,1500,1500.0
14:16:24.709,AUTO,-35.3632549,149.1652299,44150,-0.0055884430184960365,-0.08279839903116226,-3.0268867015838623,0.11815207451581955,0.017347564920783043,0.024959927424788475,-8,47,-1018,119,18,25,28,177,-152,1500,1500.0
14:16:24.913,AUTO,-35.3632549,149.1652299,44150,-0.0055884430184960365,-0.08279839903116226,-3.0268867015838623,0.11815207451581955,0.017347564920783043,0.024959927424788475,-8,47,-1018,119,18,25,28,177,-152,1500,1500.0
14:16:25.115,AUTO,-35.3632549,149.1652299,44150,-0.0055884430184960365,-0.08279839903116226,-3.0268867015838623,0.11815207451581955,0.017347564920783043,0.024959927424788475,-8,47,-1018,119,18,25,28,177,-152,1500,1500.0
14:16:25.317,AUTO,-35.3632549,149.1652299,44150,-0.0055884430184960365,-0.08279839903116226,-3.0268867015838623,0.11815207451581955,0.017347564920783043,0.024959927424788475,-8,47,-1018,119,18,25,28,177,-152,1500,1500.0
14:16:25.522,AUTO,-35.3632549,149.1652299,44150,-0.0055884430184960365,-0.08279839903116226,-3.0268867015838623,0.11815207451581955,0.017347564920783043,0.024959927424788475,-8,47,-1018,119,18,25,28,177,-152,1500,1500.0
14:16:25.724,AUTO,-35.3632549,149.1652299,44150,-0.0055884430184960365,-0.08279839903116226,-3.0268867015838623,0.11815207451581955,0.017347564920783043,0.024959927424788475,-8,47,-1018,119,18,25,28,177,-152,1500,1500.0
14:16:25.926,AUTO,-35.3632549,149.1652299,44150,-0.0055884430184960365,-0.08279839903116226,-3.0268867015838623,0.11815207451581955,0.017347564920783043,0.024959927424788475,-8,47,-1018,119,18,25,28,177,-152,1500,1500.0
14:16:26.129,AUTO,-35.3632549,149.1652299,44150,-0.0055884430184960365,-0.08279839903116226,-3.0268867015838623,0.11815207451581955,0.017347564920783043,0.024959927424788475,-8,47,-1018,119,18,25,28,177,-152,1500,1500.0
14:16:26.332,AUTO,-35.363255,149.165246,45754,0.11088935285806656,-0.06962195783853531,-3.032888889312744,0.08352036774158478,0.0369124561548233,0.0005829925066791475,-15,29,-1015,98,31,-3,-27,86,-162,1500,1500.0
14:16:26.535,AUTO,-35.36326,149.1652473,47721,0.0898088738322258,0.06489351391792297,3.0552077293395996,-0.17012302577495575,0.13765758275985718,-0.9203588366508484,0,-20,-957,-169,138,-920,-41,-73,-132,1092,1500.0
14:16:26.738,AUTO,-35.36326,149.1652473,47721,0.0898088738322258,0.06489351391792297,3.0552077293395996,-0.17012302577495575,0.13765758275985718,-0.9203588366508484,0,-20,-957,-169,138,-920,-41,-73,-132,1092,1500.0
14:16:26.942,AUTO,-35.36326,149.1652473,47721,0.0898088738322258,0.06489351391792297,3.0552077293395996,-0.17012302577495575,0.13765758275985718,-0.9203588366508484,0,-20,-957,-169,138,-920,-41,-73,-132,1092,1500.0
14:16:27.162,AUTO,-35.36326,149.1652473,47721,0.0898088738322258,0.06489351391792297,3.0552077293395996,-0.17012302577495575,0.13765758275985718,-0.9203588366508484,0,-20,-957,-169,138,-920,-41,-73,-132,1092,1500.0
14:16:27.368,AUTO,-35.36326,149.1652473,47721,0.0898088738322258,0.06489351391792297,3.0552077293395996,-0.17012302577495575,0.13765758275985718,-0.9203588366508484,0,-20,-957,-169,138,-920,-41,-73,-132,1092,1500.0
14:16:27.571,AUTO,-35.36326,149.1652473,47721,0.0898088738322258,0.06489351391792297,3.0552077293395996,-0.17012302577495575,0.13765758275985718,-0.9203588366508484,0,-20,-957,-169,138,-920,-41,-73,-132,1092,1500.0
14:16:27.781,AUTO,-35.36326,149.1652473,47721,0.0898088738322258,0.06489351391792297,3.0552077293395996,-0.17012302577495575,0.13765758275985718,-0.9203588366508484,0,-20,-957,-169,138,-920,-41,-73,-132,1092,1500.0
14:16:27.991,AUTO,-35.36326,149.1652473,47721,0.0898088738322258,0.06489351391792297,3.0552077293395996,-0.17012302577495575,0.13765758275985718,-0.9203588366508484,0,-20,-957,-169,138,-920,-41,-73,-132,1092,1500.0
14:16:28.202,AUTO,-35.3632624,149.1652381,49330,-0.12108413875102997,-0.1144491508603096,2.0519216060638428,-0.07139448821544647,0.13063612580299377,-0.7823412418365479,10,0,-921,-70,131,-782,0,-22,-112,1092,1500.0
14:16:28.419,AUTO,-35.363262,149.1652382,49793,-0.05750275030732155,-0.02720363810658455,1.667509913444519,0.09500761330127716,0.22663083672523499,-0.7277078628540039,-6,0,-925,96,227,-727,26,20,-68,1092,1500.0
14:16:28.621,AUTO,-35.363262,149.1652382,49793,-0.05750275030732155,-0.02720363810658455,1.667509913444519,0.09500761330127716,0.22663083672523499,-0.7277078628540039,-6,0,-925,96,227,-727,26,20,-68,1092,1500.0
14:16:28.823,AUTO,-35.363262,149.1652382,49793,-0.05750275030732155,-0.02720363810658455,1.667509913444519,0.09500761330127716,0.22663083672523499,-0.7277078628540039,-6,0,-925,96,227,-727,26,20,-68,1092,1500.0
14:16:29.026,AUTO,-35.363262,149.1652382,49793,-0.05750275030732155,-0.02720363810658455,1.667509913444519,0.09500761330127716,0.22663083672523499,-0.7277078628540039,-6,0,-925,96,227,-727,26,20,-68,1092,1500.0
14:16:29.230,AUTO,-35.363262,149.1652382,49793,-0.05750275030732155,-0.02720363810658455,1.667509913444519,0.09500761330127716,0.22663083672523499,-0.7277078628540039,-6,0,-925,96,227,-727,26,20,-68,1092,1500.0
14:16:29.433,AUTO,-35.363262,149.1652382,49793,-0.05750275030732155,-0.02720363810658455,1.667509913444519,0.09500761330127716,0.22663083672523499,-0.7277078628540039,-6,0,-925,96,227,-727,26,20,-68,1092,1500.0
14:16:29.637,AUTO,-35.363262,149.1652382,49793,-0.05750275030732155,-0.02720363810658455,1.667509913444519,0.09500761330127716,0.22663083672523499,-0.7277078628540039,-6,0,-925,96,227,-727,26,20,-68,1092,1500.0
14:16:29.840,AUTO,-35.363262,149.1652382,49793,-0.05750275030732155,-0.02720363810658455,1.667509913444519,0.09500761330127716,0.22663083672523499,-0.7277078628540039,-6,0,-925,96,227,-727,26,20,-68,1092,1500.0
14:16:30.046,AUTO,-35.3632596,149.1652384,50268,0.019147317856550217,0.016327135264873505,0.9842109084129333,-0.7516843676567078,-0.03363720700144768,0.05763554945588112,3,-36,-1005,-754,-32,57,-6,-19,1,1500,1500.0
14:16:30.248,AUTO,-35.3632598,149.165238,50255,0.0047269947826862335,0.009264811873435974,0.9979310035705566,-0.7373449206352234,-0.018479231745004654,0.03967219218611717,5,-20,-985,-734,-17,39,-13,-17,6,1500,1500.0
14:16:30.453,AUTO,-35.3632598,149.165238,50255,0.0047269947826862335,0.009264811873435974,0.9979310035705566,-0.7373449206352234,-0.018479231745004654,0.03967219218611717,5,-20,-985,-734,-17,39,-13,-17,6,1500,1500.0
14:16:30.657,AUTO,-35.3632598,149.165238,50255,0.0047269947826862335,0.009264811873435974,0.9979310035705566,-0.7373449206352234,-0.018479231745004654,0.03967219218611717,5,-20,-985,-734,-17,39,-13,-17,6,1500,1500.0
14:16:30.860,AUTO,-35.3632598,149.165238,50255,0.0047269947826862335,0.009264811873435974,0.9979310035705566,-0.7373449206352234,-0.018479231745004654,0.03967219218611717,5,-20,-985,-734,-17,39,-13,-17,6,1500,1500.0
14:16:31.062,AUTO,-35.3632598,149.165238,50255,0.0047269947826862335,0.009264811873435974,0.9979310035705566,-0.7373449206352234,-0.018479231745004654,0.03967219218611717,5,-20,-985,-734,-17,39,-13,-17,6,1500,1500.0
14:16:31.264,AUTO,-35.3632598,149.165238,50255,0.0047269947826862335,0.009264811873435974,0.9979310035705566,-0.7373449206352234,-0.018479231745004654,0.03967219218611717,5,-20,-985,-734,-17,39,-13,-17,6,1500,1500.0
14:16:31.467,AUTO,-35.3632598,149.165238,50255,0.0047269947826862335,0.009264811873435974,0.9979310035705566,-0.7373449206352234,-0.018479231745004654,0.03967219218611717,5,-20,-985,-734,-17,39,-13,-17,6,1500,1500.0
14:16:31.674,AUTO,-35.3632598,149.165238,50255,0.0047269947826862335,0.009264811873435974,0.9979310035705566,-0.7373449206352234,-0.018479231745004654,0.03967219218611717,5,-20,-985,-734,-17,39,-13,-17,6,1500,1500.0
14:16:31.877,AUTO,-35.3632612,149.1652377,50121,0.008789051324129105,-0.003832687856629491,1.0136868953704834,-0.9476413726806641,0.022330312058329582,0.005489791743457317,5,-20,-985,-734,-17,39,-23,-3,21,1500,1500.0
14:16:32.078,AUTO,-35.3632646,149.1652391,49985,0.04162514954805374,0.008338629268109798,1.0243030786514282,0.058954786509275436,0.016695616766810417,0.015807412564754486,6,11,-992,67,17,16,-46,18,3,1500,1500.0
14:16:32.280,AUTO,-35.3632658,149.1652398,49970,0.05816761404275894,0.010567748919129372,1.034637212753296,0.2439029961824417,0.03384103253483772,0.2114529013633728,8,17,-1022,252,35,212,-55,24,2,1500,1500.0
14:16:32.484,AUTO,-35.3632658,149.1652398,49970,0.05816761404275894,0.010567748919129372,1.034637212753296,0.2439029961824417,0.03384103253483772,0.2114529013633728,8,17,-1022,252,35,212,-55,24,2,1500,1500.0
