time_stamp,RTL_ALT,roll,pitch,yaw,rollspeed,pitchspeed,yawspeed,lat,lon,relative_alt,vx,vy,vz,xacc,yacc,zacc,xgyro,ygyro,zgyro,MODE
19:21:51,1457.0,-0.0009982110641431063,0.0009681741066742688,0.02272667456418276,0.0001199397083837539,0.00025355155230499804,0.0017212019301950932,-35.36326215,149.1652375,0.0,-1.0,1.0,2.0,0.0,1.0,-1000.0,0.0,0.0,0.0,STABILIZE
19:21:55,1457.0,-0.0011731692356988788,0.0009731843892950565,0.02175166644155979,0.0001803771301638335,0.00025411410024389625,0.0015891935909166932,-35.3632622,149.1652375,7.0,-1.0,0.5,1.0,0.0,1.5,-1000.0,0.5,0.5,0.5,AUTO
19:21:57,1457.0,-0.0006288317090366036,0.0013768469216302037,0.021315057761967182,0.00018523490871302783,0.0002240884059574455,0.0014638258726336062,-35.3632621,149.1652375,0.0,0.0,0.0,2.0,0.0,1.5,-1000.0,0.5,0.0,0.5,AUTO
19:21:58,23421.0,0.000897784959912921,0.0012399259527834754,0.02102965551118056,0.0037495470605790615,-0.0033334781182929873,0.0015150133986026049,-35.3632621,149.1652374,2.6666666666666665,0.0,0.0,-4.0,0.0,0.6666666666666666,-1045.3333333333333,4.0,-2.3333333333333335,1.0,AUTO
19:21:59,23421.0,0.0036731226136907935,0.0005056753871031106,0.020932065322995186,-0.003729189901302258,0.002935964846983552,0.0013802396327567597,-35.3632621,149.16523746666667,282.3333333333333,0.0,0.6666666666666666,-78.33333333333333,0.0,-0.3333333333333333,-1120.0,-3.0,2.6666666666666665,0.6666666666666666,AUTO
19:22:01,23421.0,0.05390092916786671,-0.0006237332709133625,-0.016602032585069537,-0.048727983608841896,0.05340523668564856,-0.06883783545345068,-35.3632615,149.16524035,3100.5,9.0,45.5,-147.0,2.5,-9.0,-993.0,-48.5,53.5,-68.5,AUTO
19:22:03,23421.0,-0.05406189958254496,-0.023040623714526493,-0.10431468983491261,0.041968221155305706,-0.04110677788654963,0.040456739564736686,-35.36326316666666,149.16524576666666,6131.0,-22.666666666666668,-22.666666666666668,-150.33333333333334,2.3333333333333335,6.333333333333333,-1002.6666666666666,42.333333333333336,-40.333333333333336,39.666666666666664,AUTO
19:22:04,11584.0,0.016094725268582504,-0.03020324371755123,-0.07817625502745311,0.04393900496264299,-0.004446777515113354,0.02938097280760606,-35.363264199999996,149.16524026666667,8074.0,8.333333333333334,-41.0,-152.0,-6.333333333333333,7.333333333333333,-1001.0,44.333333333333336,-3.6666666666666665,28.666666666666668,AUTO
19:22:05,11584.0,0.024712591742475826,-0.029008400005598862,-0.060934570928414665,-0.016505305965741474,0.03816487888495127,-0.00265585258603096,-35.36326296666667,149.16523736666667,9245.0,29.0,-23.333333333333332,-151.33333333333334,-7.666666666666667,1.3333333333333333,-998.0,-15.666666666666666,38.666666666666664,-3.0,AUTO
19:22:07,11584.0,0.013036131237943968,0.025655689959724743,-0.12173568954070409,0.002542517613619566,-0.01308930292725563,0.003198919352144003,-35.36325923333334,149.16523443333335,12352.0,-4.0,-1.0,-152.66666666666666,-0.6666666666666666,0.0,-999.6666666666666,3.3333333333333335,-11.666666666666666,3.0,AUTO
19:22:09,11584.0,-5.9642353638385735e-05,-0.002041513148772841,-0.1236730416615804,-0.005554480167726676,-0.005324772015834848,-0.016465986457963783,-35.363261333333334,149.16523556666667,15460.666666666666,-12.0,9.666666666666666,-153.0,2.6666666666666665,0.0,-1000.0,-4.333333333333333,-4.333333333333333,-16.333333333333332,AUTO
19:22:10,16436.0,0.0001340598658619759,-0.0023512046706552305,-0.1537672777970632,0.002625845760727922,0.0035562134192635617,-0.02800701806942622,-35.363262033333335,149.16523616666666,17411.666666666668,-3.0,3.0,-153.0,0.3333333333333333,0.0,-1000.0,3.0,3.6666666666666665,-28.0,AUTO
19:22:11,16436.0,0.003288721510519584,0.0010644662737225492,-0.1753261685371399,0.003302671480923891,0.005204780725762248,-0.02801497218509515,-35.363262033333335,149.1652362,18582.666666666668,-0.3333333333333333,1.0,-153.66666666666666,0.0,0.0,-999.6666666666666,4.0,5.333333333333333,-28.0,AUTO
19:22:13,16436.0,0.0041383787368734675,0.004305914199600617,-0.22047841548919678,-0.0013727460561009746,-0.0003979080550683041,-0.018253520131111145,-35.363262,149.16523633333335,21698.666666666668,-1.3333333333333333,4.0,-154.0,0.0,0.0,-1000.0,-0.3333333333333333,0.3333333333333333,-18.0,AUTO
19:22:15,16436.0,0.0004349747905507684,0.003291599995767077,-0.2557447850704193,-0.02123355135942499,0.012259928393177688,-0.005402679244677226,-35.363262,149.16523686666665,24825.0,-2.0,3.0,-153.33333333333334,0.0,0.0,-994.0,-20.0,12.333333333333334,-5.333333333333333,AUTO
19:22:16,28851.0,0.006763133530815442,0.003135242460605999,-0.21747521062692007,0.009917257198443016,-0.007365758220354716,0.03440896421670914,-35.36326223333334,149.1652369,26755.333333333332,-5.666666666666667,1.0,-153.33333333333334,0.0,0.0,-1000.3333333333334,10.666666666666666,-6.333333333333333,33.666666666666664,AUTO
19:22:17,28851.0,0.007779375339547793,0.0004910355880080411,-0.1965484321117401,-0.004081921341518561,-0.0005394916903848449,0.021300486599405605,-35.3632624,149.16523700000002,27921.0,-3.0,5.0,-153.0,0.0,0.0,-999.3333333333334,-3.0,0.0,20.666666666666668,AUTO
19:22:19,28851.0,0.00011813227016925036,0.0012917342052484553,-0.1606092800696691,0.00021388412763675055,9.576848242431879e-05,0.01637338163952033,-35.3632624,149.1652379,31023.0,0.0,4.0,-153.0,0.0,0.0,-1000.0,1.0,0.3333333333333333,15.666666666666666,AUTO
19:22:21,28851.0,0.0015349904618536432,0.0009242692613042891,-0.13335391879081726,0.0009755216694126526,0.00021823361748829484,0.01242393876115481,-35.3632623,149.165238,34136.666666666664,0.0,0.0,-153.0,0.0,0.0,-1000.0,2.0,0.6666666666666666,12.0,AUTO
19:22:22,224277.0,0.0017600332309181492,0.0011993676113585632,-0.11974745740493138,0.0008854355352620283,0.0004845833561072747,0.01016957468042771,-35.3632622,149.16523786666667,36077.0,0.0,0.0,-153.0,0.0,0.0,-1000.0,1.6666666666666667,1.0,9.666666666666666,AUTO
19:22:23,224277.0,0.002443813718855381,0.0013688671945904691,-0.11263609180847804,0.0022568864903102317,0.0009756444293695191,0.010017334794004759,-35.3632622,149.16523773333336,37242.0,0.0,0.0,-153.0,0.0,0.0,-1000.0,2.6666666666666665,1.3333333333333333,9.333333333333334,AUTO
19:22:25,224277.0,0.0023798519590248666,0.0015282923122867942,-0.09732109556595485,-0.00033759139478206635,-2.923931848878662e-05,0.007124657432238261,-35.3632621,149.1652375,40345.666666666664,-1.0,0.0,-153.0,0.0,0.0,-1000.0,0.6666666666666666,0.6666666666666666,6.666666666666667,AUTO
19:22:27,224277.0,0.002137291788433989,0.001229106370980541,-0.08445587009191513,-0.0004707930687194069,-0.0005600564763881266,0.006325430857638518,-35.363262,149.1652374,43454.0,-1.0,1.0,-153.0,0.0,0.0,-1000.0,0.3333333333333333,0.3333333333333333,6.0,AUTO
19:22:28,104622.0,-0.0035853164736181498,0.007139524755378564,-0.06477431704600652,-0.039488010263691344,0.037735187293340765,0.09701654858266313,-35.363262,149.1652374,45388.333333333336,-1.6666666666666667,0.6666666666666666,-150.66666666666666,0.0,0.0,-988.3333333333334,-38.333333333333336,38.666666666666664,96.66666666666667,AUTO
19:22:29,104622.0,-0.04801435396075249,0.04847363755106926,0.17163114746411642,-0.01398527001341184,-0.06345100452502568,0.3827073524395625,-35.363262500000005,149.1652366333333,46465.0,-21.666666666666668,-21.666666666666668,-127.0,2.0,4.666666666666667,-953.0,-13.0,-62.333333333333336,382.6666666666667,AUTO
19:22:31,104622.0,0.03338496573269367,-0.02529131807386875,0.28758350014686584,0.013213089977701506,0.04130712151527405,-0.03543643280863762,-35.36326413333333,149.16523283333336,48136.666666666664,16.0,20.0,-49.0,-2.0,-1.0,-977.0,14.666666666666666,41.666666666666664,-34.333333333333336,AUTO
19:22:33,104622.0,-0.011532611058404049,0.02851272684832414,0.23018622398376465,0.11992683447897434,0.08217214063430826,0.005349559398988883,-35.36326116666667,149.16523836666667,48623.666666666664,4.666666666666667,15.0,3.0,-2.6666666666666665,-11.333333333333334,-969.6666666666666,120.33333333333333,83.0,6.0,AUTO
19:22:34,53963.0,-0.017985555498550337,0.02199004963040352,0.2006485859553019,0.2052279313405355,-0.003936411036799352,-0.019158557057380676,-35.363262166666665,149.16523766666666,48436.0,-23.0,-17.666666666666668,10.666666666666666,2.6666666666666665,29.333333333333332,-1007.0,207.33333333333334,-2.6666666666666665,-18.333333333333332,AUTO
19:22:35,53963.0,-0.009457507364762327,0.02962471917271614,0.18714989721775055,0.06135378529628118,0.01619993553807338,-0.033802805468440056,-35.36326416666667,149.16523526666668,48330.0,-37.333333333333336,-28.666666666666668,12.666666666666666,4.666666666666667,-1.3333333333333333,-988.6666666666666,61.666666666666664,16.666666666666668,-33.0,AUTO
19:22:37,53963.0,0.00468588558336099,-0.012643860342601934,-1.085634748140971,0.5144512802362442,-0.014291919457415739,-0.7365597685178121,-35.3632743,149.16522563333334,47813.666666666664,-59.666666666666664,-42.333333333333336,27.0,-11.666666666666666,23.333333333333332,-1004.3333333333334,514.6666666666666,-12.666666666666666,-735.3333333333334,AUTO
19:22:39,53963.0,0.024220178524653118,0.02003157635529836,-2.38093892733256,0.7414061228434244,0.03297440707683563,-0.19765408585468927,-35.363282866666665,149.16521796666666,47274.666666666664,-25.333333333333332,-24.666666666666668,15.0,-9.666666666666666,30.666666666666668,-1004.0,742.6666666666666,33.666666666666664,-197.0,AUTO
19:22:40,39963.0,0.009570589754730463,0.02062613346303503,-2.3574233055114746,-0.30649324754873913,-0.035341441010435425,-0.004166724781195323,-35.363285,149.16521616666668,47165.666666666664,4.333333333333333,-6.666666666666667,-1.3333333333333333,-2.3333333333333335,-5.666666666666667,-1003.6666666666666,-304.3333333333333,-34.333333333333336,-3.6666666666666665,AUTO
19:22:41,39963.0,0.020824276531736057,-0.013505846106757721,-2.3649629751841226,0.39917468031247455,-0.051702613631884255,-0.003283995514114698,-35.363285366666666,149.16521606666666,47171.666666666664,5.333333333333333,-7.666666666666667,-3.6666666666666665,-1.0,13.333333333333334,-994.0,400.3333333333333,-50.333333333333336,-3.0,AUTO
19:22:43,39963.0,0.03842887903253237,0.009743005658189455,-2.379556894302368,-0.1915101408958435,0.10428379227717717,-0.00957697443664074,-35.36329236666666,149.16521053333335,46930.0,-44.666666666666664,-52.0,21.666666666666668,-15.666666666666666,-33.0,-994.0,-191.0,104.66666666666667,-8.333333333333334,AUTO
19:22:45,39963.0,0.024954626336693764,0.0007732619997113943,-2.387387990951538,0.0793047547340393,-0.06676140924294789,-0.0028674811862098673,-35.36329606666667,149.16520750000004,46685.333333333336,33.666666666666664,-8.333333333333334,-3.3333333333333335,3.3333333333333335,-1.6666666666666667,-1004.3333333333334,80.33333333333333,-65.33333333333333,-2.3333333333333335,AUTO
19:22:46,286696.0,0.025840589155753452,-0.07611905783414841,-2.3952978452046714,0.44110151877005893,0.0040952085206906,-0.009556148977329334,-35.3632965,149.16520633333332,46652.0,-17.0,-41.0,10.666666666666666,-9.666666666666666,5.666666666666667,-976.0,442.6666666666667,5.0,-9.0,AUTO
19:22:47,286696.0,0.022420780112346012,-0.019904265490670998,-2.4005180994669595,-0.6518531441688538,0.1260629172126452,0.00028805915887157124,-35.363299966666666,149.165203,46504.0,-45.666666666666664,-60.333333333333336,23.0,-17.333333333333332,-36.666666666666664,-995.0,-649.0,126.66666666666667,0.3333333333333333,AUTO
19:22:49,286696.0,0.018141594404975574,0.018154001561924815,-2.4044381777445474,-0.09948251148064931,-0.09414295976360638,-0.007378817196392144,-35.36330496666667,149.16519813333335,46197.333333333336,33.333333333333336,-5.0,-0.6666666666666666,4.0,6.666666666666667,-1011.3333333333334,-96.0,-92.33333333333333,-6.333333333333333,AUTO
19:22:51,286696.0,0.019832488770286243,-0.04776301017651955,-2.4152239163716636,0.5187001600861549,0.1198465923468272,0.0008545379775265852,-35.36330713333333,149.16519463333333,46067.666666666664,-50.0,-57.0,23.333333333333332,-15.333333333333334,27.333333333333332,-974.6666666666666,522.3333333333334,120.66666666666667,1.6666666666666667,AUTO
19:22:52,75460.0,0.01855379498253266,0.08437230934699376,-2.41768209139506,-0.47810593744119007,0.034634885688622795,-0.0059662073229749995,-35.36331296666666,149.16518853333332,45787.0,-15.666666666666666,-26.666666666666668,14.666666666666666,-6.333333333333333,-29.666666666666668,-1017.3333333333334,-474.6666666666667,36.0,-5.0,AUTO
19:22:53,75460.0,0.011395753361284733,0.03933030118544897,-2.419315814971924,0.31066587567329407,-0.11278551320234935,0.0010006599671517809,-35.363312900000004,149.16518756666667,45728.333333333336,21.666666666666668,3.0,1.6666666666666667,5.333333333333333,6.0,-1014.0,313.6666666666667,-111.33333333333333,1.3333333333333333,AUTO
19:22:55,75460.0,0.002228652078580732,-0.061450632909933724,-2.4260075887044272,-0.5146430693566799,0.11326885968446732,-0.005620123663296302,-35.363314366666664,149.16518433333334,45603.666666666664,-65.33333333333333,-41.0,22.666666666666668,-17.0,-38.666666666666664,-983.3333333333334,-511.6666666666667,114.0,-4.666666666666667,AUTO
19:22:57,75460.0,0.014386707684025168,0.03525240998715162,-2.428581476211548,-0.21245847642421722,-0.11431697569787502,0.004496252862736583,-35.363322075,149.1651779,45225.25,11.5,11.0,3.0,1.25,-12.25,-1019.75,-209.75,-112.0,5.0,AUTO
19:22:58,1739.0,0.006839718863678475,-0.08931655436754227,-2.432543675104777,-0.4922661582628886,-0.04737915098667145,0.0005835590418428183,-35.363322133333334,149.16517883333333,45220.333333333336,-18.666666666666668,-18.666666666666668,9.333333333333334,-5.666666666666667,-19.333333333333332,-990.3333333333334,-488.3333333333333,-45.666666666666664,1.0,AUTO
19:22:59,1739.0,0.03342440351843834,-0.06736158952116966,-2.4367976983388266,0.6374896069367727,0.09305270140369733,-0.009117875966088226,-35.36332546666666,149.16517629999998,45087.666666666664,-60.666666666666664,-54.333333333333336,26.666666666666668,-19.333333333333332,20.666666666666668,-987.3333333333334,640.6666666666666,94.33333333333333,-8.0,AUTO
19:23:01,1739.0,0.027649829164147377,0.07201305528481801,-2.4370790322621665,0.41732122500737506,-0.07634807626406352,-0.0007474697389019033,-35.36333486666666,149.16516766666666,44608.333333333336,13.333333333333334,-11.0,8.333333333333334,1.6666666666666667,11.666666666666666,-1028.0,420.3333333333333,-74.33333333333333,-0.3333333333333333,AUTO
19:23:03,1739.0,-0.008794028467188278,-0.08926512797673543,-2.4406562646230063,-0.5862869620323181,0.007171240324775378,0.00394689419772476,-35.36333366666667,149.1651659,44559.666666666664,-35.0,-28.666666666666668,13.666666666666666,-9.666666666666666,-28.333333333333332,-972.6666666666666,-582.3333333333334,8.666666666666666,4.333333333333333,AUTO
19:23:04,145177.0,0.03203248791396618,0.03913279436528683,-2.444361845652262,0.4990248493850231,0.11106215417385101,-0.008012079323331514,-35.3633406,149.16515966666668,44264.333333333336,-60.333333333333336,-43.333333333333336,25.666666666666668,-15.666666666666666,-2.3333333333333335,-1003.3333333333334,501.6666666666667,112.33333333333333,-6.666666666666667,AUTO
19:23:05,145177.0,0.011738688219338655,0.0864699160059293,-2.4436068534851074,-0.5674287676811218,-0.0030662271504600844,-0.006313868526679774,-35.36334346666666,149.16515703333334,44106.0,-14.0,-11.666666666666666,13.0,-5.0,-26.0,-1024.0,-563.6666666666666,-1.3333333333333333,-4.666666666666667,AUTO
19:23:07,145177.0,0.02103805138419072,-0.08697311331828435,-2.4466029008229575,0.3989479144414266,-0.05044449555377165,-0.011903350396702686,-35.363343066666665,149.16515786666665,44062.666666666664,-17.666666666666668,-17.666666666666668,6.333333333333333,-5.333333333333333,13.666666666666666,-983.3333333333334,402.6666666666667,-48.333333333333336,-10.333333333333334,AUTO
19:23:09,145177.0,0.032213665544986725,0.0796370009581248,-2.4485385417938232,0.46038028597831726,0.055209213867783546,0.002265447750687599,-35.36335296666667,149.165149,43630.333333333336,-28.333333333333332,-33.0,18.666666666666668,-8.0,7.666666666666667,-1028.3333333333333,463.6666666666667,56.333333333333336,3.0,AUTO
19:23:10,79205.0,0.0027800699851165214,0.0019681781802016,-2.4490484396616616,0.15034882227579752,-0.09765814493099849,-0.004355601035058498,-35.3633528,149.1651479,43542.333333333336,23.0,5.666666666666667,-1.0,5.333333333333333,15.666666666666666,-1010.3333333333334,154.33333333333334,-95.33333333333333,-3.3333333333333335,AUTO
19:23:11,79205.0,-0.0060081373279293375,-0.06724707285563152,-2.4494968255360923,-0.34789299219846725,-0.09209699680407842,0.0046476249893506365,-35.36335196666666,149.16514786666667,43552.0,-3.6666666666666665,-6.333333333333333,2.3333333333333335,0.0,-21.333333333333332,-987.3333333333334,-344.3333333333333,-89.66666666666667,5.666666666666667,AUTO
19:23:13,79205.0,0.016960241210957367,0.05948245773712794,-2.4522857666015625,-0.0989647110303243,0.09016775339841843,-0.0009715795943823954,-35.3633611,149.16513953333333,43153.666666666664,-51.333333333333336,-36.666666666666664,23.666666666666668,-15.0,5.0,-1009.6666666666666,-94.33333333333333,92.0,0.0,AUTO
19:23:15,79205.0,0.0009189583652187139,-0.029858790958921116,-2.4534568786621094,0.30617230385541916,-0.07313425031801064,0.010450595097305873,-35.36336156666667,149.16513786666667,43011.0,8.333333333333334,6.0,-2.3333333333333335,3.0,6.333333333333333,-991.6666666666666,309.3333333333333,-70.66666666666667,11.333333333333334,AUTO
19:23:16,22592.0,0.00268114583256344,-0.0729382261633873,-2.45418389638265,0.3183116018772125,0.08454746256271999,0.001790383132174611,-35.36336363333333,149.16513516666666,42922.0,-61.333333333333336,-36.0,20.333333333333332,-15.0,19.333333333333332,-992.3333333333334,322.6666666666667,86.0,3.0,AUTO
19:23:17,22592.0,0.02213135827332735,0.02146500814706087,-2.455455938975016,-0.11713506778081258,0.12375491112470627,-0.008673396970455846,-35.36336816666667,149.16513133333333,42738.0,-70.33333333333333,-39.333333333333336,26.0,-16.666666666666668,-31.333333333333332,-1000.0,-114.33333333333333,125.0,-7.333333333333333,AUTO
19:23:19,22592.0,0.0042129225718478365,-0.009578685276210308,-2.4546566009521484,-0.3542095795273781,-0.06924108788371086,0.00206971929098169,-35.36337146666667,149.16512903333333,42505.333333333336,15.666666666666666,11.333333333333334,-2.3333333333333335,3.6666666666666665,-18.666666666666668,-1004.6666666666666,-351.0,-66.66666666666667,3.3333333333333335,AUTO
19:23:21,22592.0,0.02109769204010566,-0.01157390388349692,-2.458179791768392,0.14424873888492584,0.15087360640366873,0.009440531022846699,-35.36337626666667,149.1651252,42319.0,-63.666666666666664,-52.0,24.0,-18.0,9.0,-1003.3333333333334,148.66666666666666,152.33333333333334,10.0,AUTO
19:23:22,235674.0,0.017638169694691896,0.08327545473972957,-2.456398884455363,0.009140432501832644,-0.04973167429367701,0.006763318553566933,-35.3633811,149.16512043333333,42063.333333333336,-0.6666666666666666,-7.666666666666667,6.666666666666667,-1.3333333333333333,-11.0,-1025.3333333333333,12.333333333333334,-47.666666666666664,8.333333333333334,AUTO
19:23:23,235674.0,0.00929041913089653,0.0040669314718494816,-2.4553502400716147,0.18575449784596762,-0.08499522010485332,-0.003413519589230418,-35.363380533333334,149.16512083333333,42046.0,22.333333333333332,8.333333333333334,-2.0,3.3333333333333335,19.666666666666668,-1008.3333333333334,190.0,-82.66666666666667,-1.6666666666666667,AUTO
19:23:25,235674.0,0.04005696748693784,-0.03074276726692915,-2.460444132486979,0.3753294249375661,0.14877826968828836,-0.009411093662492931,-35.363384233333335,149.16511843333333,41893.666666666664,-58.333333333333336,-55.0,22.666666666666668,-16.666666666666668,-7.666666666666667,-998.3333333333334,378.6666666666667,150.33333333333334,-8.0,AUTO
19:23:27,235674.0,0.004748023270318906,0.012036906710515419,-2.4572290579477944,-0.43612807244062424,-0.09736754993597667,0.00868452712893486,-35.3633889,149.16511319999998,41601.333333333336,25.0,2.6666666666666665,-1.6666666666666667,5.333333333333333,-22.666666666666668,-1007.6666666666666,-432.3333333333333,-94.66666666666667,9.666666666666666,AUTO
19:23:28,3190.0,0.005375399273665001,-0.08081978807846706,-2.4585190614064536,-0.22591055432955423,-0.06128845107741654,0.006428691868980725,-35.3633879,149.16511306666666,41609.333333333336,-14.666666666666666,-18.0,4.0,-3.6666666666666665,-22.666666666666668,-985.6666666666666,-222.33333333333334,-59.0,8.0,AUTO
19:23:29,3190.0,0.014371620568757256,-0.04624320318301519,-2.460541248321533,0.17628467082977295,0.13932108134031296,0.010137210289637247,-35.36339053333334,149.16511046666665,41497.333333333336,-56.333333333333336,-46.0,19.333333333333332,-14.666666666666666,9.333333333333334,-989.0,181.0,141.0,11.333333333333334,AUTO
19:23:31,3190.0,-0.011742093289891878,0.018907760580380756,-2.460214058558146,-0.07118165244658788,-0.10755051175753276,0.002417227796589335,-35.36339496666667,149.16510453333333,41218.0,16.0,11.333333333333334,-3.0,5.333333333333333,4.666666666666667,-1005.0,-66.33333333333333,-105.0,4.0,AUTO
19:23:33,3190.0,0.007460554052765171,-0.0573323213805755,-2.459559202194214,0.40925680349270505,0.11285445590813954,-0.016877683345228434,-35.363396466666664,149.16510083333333,41115.0,-75.33333333333333,-28.666666666666668,23.333333333333332,-16.333333333333332,-7.333333333333333,-974.6666666666666,412.0,114.66666666666667,-14.666666666666666,AUTO
19:23:34,33594.0,0.013359977553288141,0.07676926131049792,-2.45915150642395,-0.19845929741859436,0.045471877635767065,-0.0026056752540171146,-35.36340356666667,149.16509589999998,40809.333333333336,-40.333333333333336,-8.666666666666666,17.333333333333332,-10.666666666666666,8.333333333333334,-1018.3333333333334,-194.0,47.666666666666664,-0.6666666666666666,AUTO
19:23:35,33594.0,0.02276037260890007,0.04203389833370844,-2.459004004796346,-0.042503235240777336,-0.11657947550217311,0.010845318048571547,-35.36340463333333,149.16509613333332,40736.666666666664,8.0,16.0,1.6666666666666667,-0.3333333333333333,-5.333333333333333,-1021.0,-39.666666666666664,-113.66666666666667,12.0,AUTO
19:23:37,33594.0,0.026625480502843857,-0.07930555939674377,-2.4629811445871987,-0.43706708773970604,0.09159121289849281,0.008152481944610676,-35.36340713333333,149.16509669999996,40661.666666666664,-49.333333333333336,-52.0,20.0,-17.333333333333332,-19.333333333333332,-982.6666666666666,-433.0,93.66666666666667,9.666666666666666,AUTO
19:23:39,33594.0,0.013540151218573252,0.07311499491333961,-2.460289637247721,-0.2283531924088796,-0.08574606354037921,-0.002487636792163054,-35.3634156,149.1650885,40248.333333333336,18.666666666666668,-16.0,6.0,4.0,-0.3333333333333333,-1028.3333333333333,-223.66666666666666,-82.66666666666667,-0.3333333333333333,AUTO
19:23:40,16365.0,-0.012855191404620806,-0.054301267489790916,-2.460174798965454,-0.28337129950523376,-0.09551360954840978,-0.00411355805893739,-35.3634133,149.16508793333333,40245.666666666664,8.666666666666666,-9.0,0.6666666666666666,2.3333333333333335,-10.333333333333334,-986.3333333333334,-279.0,-92.33333333333333,-2.0,AUTO
19:23:41,16365.0,0.005750203349937995,-0.08963841199874878,-2.4605112075805664,0.7020774682362875,0.02408510943253835,-0.0056822669769947725,-35.3634142,149.165086,40184.333333333336,-42.333333333333336,-36.0,16.0,-9.666666666666666,24.333333333333332,-988.0,706.0,26.0,-4.333333333333333,AUTO
19:23:43,16365.0,0.004537580922866861,0.07788629333178203,-2.4611546198527017,0.3832430988550186,-0.06517480437954266,-0.0010496371736129124,-35.3634222,149.1650773,39781.0,-4.0,4.0,6.0,1.0,20.0,-1035.3333333333333,387.3333333333333,-62.333333333333336,0.6666666666666666,AUTO
19:23:45,16365.0,3.6438636016100645e-05,-0.09103554983933766,-2.4615586598714194,-0.3966656376918157,0.012697413563728333,0.005469097134967645,-35.3634219,149.16507679999998,39732.666666666664,-48.666666666666664,-17.333333333333332,14.0,-10.333333333333334,-32.333333333333336,-978.3333333333334,-393.3333333333333,15.0,7.333333333333333,AUTO
19:23:46,116554.0,0.021721210330724716,0.04927977981666724,-2.4619195461273193,0.21662562092145285,0.09902583062648773,-0.012357327776650587,-35.363428733333336,149.16507073333332,39445.0,-63.333333333333336,-30.0,23.666666666666668,-14.333333333333334,-17.333333333333332,-999.3333333333334,219.0,101.0,-9.666666666666666,AUTO
19:23:47,116554.0,-0.004408633491645257,0.08455931395292282,-2.461435079574585,-0.47281811634699505,-0.03559738025069237,-0.013019916601479053,-35.36343096666666,149.16506840000002,39306.0,-14.0,3.3333333333333335,9.333333333333334,-1.6666666666666667,-11.666666666666666,-1028.6666666666667,-469.0,-32.666666666666664,-10.333333333333334,AUTO
19:23:49,116554.0,0.014611064999674758,-0.08803070833285649,-2.461627801259359,0.4978066682815552,-0.04098997016747793,-0.009136600885540247,-35.363430566666665,149.16506953333334,39271.666666666664,-29.0,-10.333333333333334,6.333333333333333,-7.0,24.666666666666668,-988.6666666666666,501.3333333333333,-38.333333333333336,-6.333333333333333,AUTO
19:23:51,116554.0,0.02816079370677471,0.0859823077917099,-2.4618359406789145,0.41785257558027905,-0.001226885865132014,0.0030183306274314723,-35.363439766666666,149.16506273333334,38907.333333333336,-12.333333333333334,-11.666666666666666,10.0,-4.666666666666667,24.333333333333332,-1026.0,420.6666666666667,1.3333333333333333,5.0,AUTO
19:23:52,35804.0,0.000307564769173041,-0.030400169858088095,-2.461196263631185,0.04409988969564438,-0.090960876395305,-0.0037063200337191424,-35.36343876666667,149.16506293333333,38881.0,14.0,1.3333333333333333,-1.3333333333333333,4.0,11.666666666666666,-999.0,47.666666666666664,-87.66666666666667,-1.3333333333333333,AUTO
19:23:53,35804.0,0.0026985794538632035,-0.0903846522172292,-2.4611154397328696,-0.19110976656277975,-0.01969262460867564,0.00010978539163867633,-35.36343896666667,149.165062,38854.666666666664,-27.0,-23.333333333333332,10.0,-6.666666666666667,-23.0,-978.0,-188.33333333333334,-17.0,2.3333333333333335,AUTO
19:23:55,35804.0,0.027691006970902283,0.08607119818528493,-2.461721897125244,0.1085232396920522,0.01340474933385849,0.004288098464409511,-35.36344843333333,149.1650536,38423.333333333336,-17.666666666666668,-15.666666666666666,12.666666666666666,-4.0,-16.0,-1023.3333333333334,110.66666666666667,15.666666666666666,6.333333333333333,AUTO
19:23:57,35804.0,-0.0030745319090783596,-0.0745777040719986,-2.461238463719686,-0.4007992247740428,-0.08608223249514897,0.0073060463182628155,-35.36344723333334,149.16505326666666,38379.0,-14.333333333333334,-8.333333333333334,2.6666666666666665,-3.0,-23.0,-978.6666666666666,-397.3333333333333,-83.0,8.666666666666666,AUTO
19:23:58,43672.0,0.024589885647098225,-0.004949902417138219,-2.462750275929769,0.06601527333259583,0.14207739134629568,-0.017300747179736693,-35.363452466666665,149.16504839999996,38161.666666666664,-70.33333333333333,-45.666666666666664,25.666666666666668,-17.666666666666668,-33.333333333333336,-995.0,68.0,144.33333333333334,-14.666666666666666,AUTO
19:23:59,43672.0,0.006747945522268613,0.07474809388319652,-2.46191136042277,-0.5823597659667333,0.07376448685924213,0.00038862787187099457,-35.363456199999995,149.16504493333335,37979.666666666664,-38.333333333333336,-24.0,18.0,-10.0,-23.0,-1017.6666666666666,-578.6666666666666,75.66666666666667,2.0,AUTO
19:24:01,43672.0,0.012394410402824482,-0.05668937166531881,-2.4614168802897134,0.3433581677575906,-0.09371515363454819,0.0010537782994409401,-35.363456066666664,149.16504513333334,37912.0,-1.0,-1.0,-0.6666666666666666,-1.3333333333333333,12.0,-990.0,346.0,-90.66666666666667,3.0,AUTO
19:24:04,28008.0,0.015298627782613039,0.02390634221956134,-2.4614765644073486,0.48473504185676575,-0.124197568744421,-0.0015521782916039228,-35.36346645,149.165037,37433.0,29.0,-0.5,-1.0,6.0,24.5,-1019.0,488.0,-121.0,0.5,AUTO
19:24:06,12344.0,0.0012785065191565081,-0.06595497578382492,-2.4630409479141235,-0.7189392149448395,0.09957272559404373,-0.0007936444599181414,-35.36346725,149.16503335,37337.5,-62.5,-43.5,23.5,-16.0,-50.5,-976.0,-716.0,102.0,1.5,AUTO
19:24:08,12344.0,0.012217633659020066,0.05434192344546318,-2.4610185623168945,-0.6034754812717438,-0.12117516994476318,0.00848700338974595,-35.36347525,149.16502680000002,36938.0,11.5,9.5,3.5,1.5,-27.5,-1014.0,-600.5,-118.0,10.5,AUTO
19:24:09,187403.0,0.015944925136864185,-0.023465270176529884,-2.4613687992095947,0.20300592482089996,-0.08325959090143442,0.0011548094335012138,-35.3634746,149.16502787500002,36942.5,15.0,5.5,-1.25,2.0,14.0,-1010.25,206.5,-79.75,3.25,AUTO
19:24:10,187403.0,0.0068053267896175385,-0.08433175086975098,-2.4633342027664185,-0.18724937736988068,0.06963604502379894,0.006697248434647918,-35.363475949999994,149.1650262,36881.5,-48.0,-44.0,18.0,-13.0,2.5,-973.0,-183.0,72.0,8.5,AUTO
19:24:12,187403.0,0.010073126293718815,0.08236202597618103,-2.462056040763855,0.2547421120107174,-0.06491991132497787,-0.008562316186726093,-35.3634847,149.16501685,36432.5,0.0,-1.5,7.5,0.0,24.5,-1031.5,259.0,-61.5,-6.0,AUTO
19:24:14,187403.0,0.012823284603655338,-0.09743926674127579,-2.4630343914031982,-0.5802711844444275,-0.02187626250088215,0.007760044187307358,-35.363484299999996,149.16501799999998,36408.0,-30.5,-24.0,10.0,-9.0,-32.0,-981.5,-577.0,-19.0,9.5,AUTO
19:24:15,75835.0,0.02830678434111178,-0.030653395457193255,-2.4640117287635803,0.01892402023077011,0.13371426798403263,0.009974389045964926,-35.363488149999995,149.165015225,36261.0,-60.0,-51.5,22.75,-17.0,3.0,-1001.5,23.0,136.0,12.0,AUTO
19:24:16,75835.0,0.015161385759711266,0.0915844738483429,-2.4620120525360107,-0.7344896495342255,-0.00379059836268425,-0.0015624548541381955,-35.363493649999995,149.16501010000002,35998.5,-4.0,-20.0,10.0,-2.5,-36.0,-1017.5,-731.5,-1.0,1.0,AUTO
19:24:18,75835.0,0.01232296577654779,-0.08837427198886871,-2.4622119665145874,0.08501774072647095,-0.07647385075688362,-0.001022587064653635,-35.3634926,149.16501065,35972.5,-12.0,-24.0,5.5,-5.5,19.5,-984.0,90.0,-73.0,1.0,AUTO
19:24:20,75835.0,0.03783557564020157,0.0866413526237011,-2.4627329111099243,0.5465359687805176,0.05115181393921375,0.006081117782741785,-35.3635022,149.1650027,35573.0,-13.0,-32.5,14.0,-6.0,23.0,-1043.5,550.5,53.5,8.0,AUTO
19:24:21,143313.0,0.01822639023885131,0.03785822226200253,-2.4608978033065796,-0.18207808397710323,-0.10557284019887447,0.004482763295527548,-35.363502325,149.16500235,35514.75,25.25,-5.25,1.5,4.0,-6.0,-1015.25,-177.75,-102.25,6.75,AUTO
19:24:22,143313.0,-0.00596987473545596,-0.0693211704492569,-2.461668610572815,-0.684981644153595,-0.08754567429423332,-0.001324341748841107,-35.36350075,149.16500230000003,35521.0,-0.5,-18.5,2.0,0.0,-26.5,-988.5,-680.5,-84.0,1.5,AUTO
19:24:24,143313.0,0.003295664966572076,0.0806768648326397,-2.4622766971588135,-0.44304845482110977,0.06613393500447273,0.0027642722707241774,-35.363508350000004,149.1649933,35166.5,-29.5,-24.0,15.5,-8.0,-11.0,-1030.0,-437.5,69.0,4.5,AUTO
19:24:26,143313.0,0.005962710594758391,-0.07245012745261192,-2.46253502368927,0.6233210563659668,-0.08354592323303223,-2.726272214204073e-05,-35.3635075,149.1649928,35106.5,-11.5,-3.5,2.5,0.0,24.5,-987.0,627.0,-80.0,2.0,AUTO
19:24:27,20459.0,-0.004385458134493092,-0.06562180584296584,-2.4630014896392822,-0.36835690902080387,0.08480061287991703,0.006427302490919828,-35.363509625,149.164990425,35013.0,-57.5,-31.5,19.0,-13.0,-21.5,-979.75,-364.0,87.75,8.75,AUTO
19:24:28,20459.0,0.024125239811837673,0.07000902853906155,-2.4620102643966675,0.38080634735524654,0.06435114331543446,-0.004091690760105848,-35.36351605,149.1649846,34724.5,-44.0,-18.0,19.5,-9.5,-8.5,-999.5,383.5,66.5,-1.0,AUTO
19:24:30,20459.0,-0.001736859674565494,-0.05605366267263889,-2.4614694118499756,-0.4445020779967308,-0.0857451856136322,0.00500789750367403,-35.36351605,149.1649847,34648.0,-5.0,5.5,0.0,-1.0,-25.0,-993.0,-440.5,-82.0,7.0,AUTO
19:24:32,20459.0,0.017865128815174103,0.048817504197359085,-2.4630318880081177,-0.8255310952663422,0.07710724137723446,0.0054368863347917795,-35.363524549999994,149.1649785,34319.0,-48.0,-36.5,21.5,-14.5,-51.5,-997.0,-821.5,80.0,7.5,AUTO
19:24:33,11256.0,0.019901779014617205,0.06647341791540384,-2.4615009427070618,0.2731204405426979,-0.02767711237538606,0.0035475564654916525,-35.3635264,149.16497675,34200.25,-3.5,-10.0,8.75,-2.5,18.0,-1029.0,277.0,-24.25,6.0,AUTO
19:24:34,11256.0,0.009537324775010347,-0.031570455990731716,-2.4613730907440186,-0.209053173661232,-0.08357615396380424,-0.011769176926463842,-35.363525749999994,149.1649777,34174.5,14.0,0.0,-2.0,1.5,7.5,-999.0,-204.5,-80.0,-9.0,AUTO
19:24:36,11256.0,0.03613834083080292,0.022151886485517025,-2.4633095264434814,0.7154180109500885,0.09981971979141235,-0.001718795276246965,-35.3635317,149.16497245,33939.0,-45.5,-49.0,20.5,-14.0,18.0,-1010.0,719.0,103.0,1.5,AUTO
19:24:38,11256.0,0.015909946523606777,-0.002421160927042365,-2.461581587791443,0.46524734795093536,-0.06539606302976608,0.006212451495230198,-35.363534,149.1649694,33732.5,21.5,0.0,-2.5,3.5,13.5,-1005.0,469.0,-62.0,8.0,AUTO
19:24:39,170918.0,-0.0014768560358788818,-0.04717935901135206,-2.462183356285095,-0.2986282408237457,-0.046845958568155766,0.001784397114533931,-35.363533475,149.164969175,33738.5,-1.0,-10.75,0.25,-2.0,-11.75,-988.0,-294.0,-43.0,4.25,AUTO
19:24:40,170918.0,0.0045929980697110295,-0.015118299867026508,-2.463577151298523,-0.6025727093219757,0.08388454653322697,-0.0020424106623977423,-35.3635364,149.1649655,33611.5,-46.0,-36.0,15.5,-9.0,-43.5,-990.0,-598.0,86.5,1.0,AUTO
19:24:42,170918.0,-0.006975018884986639,0.02227184595540166,-2.4618184566497803,-0.5248582661151886,-0.06298309750854969,-0.003296256996691227,-35.36354005,149.16496089999998,33370.0,7.0,10.5,0.5,1.0,-9.5,-1012.5,-520.0,-59.5,-0.5,AUTO
19:24:44,170918.0,0.02554396353662014,-0.028593494556844234,-2.4639623165130615,0.15637941658496857,0.050300292670726776,0.0012928101932629943,-35.36354215,149.16496189999998,33321.5,-28.5,-24.5,8.5,-10.5,21.5,-996.5,161.5,53.0,3.5,AUTO
19:24:45,219005.0,0.041803499683737755,-0.0017370242576362216,-2.4637638330459595,-0.11584297753870487,0.03999444004148245,0.0018941726593766361,-35.363545025,149.1649606,33229.75,-25.75,-34.5,12.5,-10.75,-16.5,-995.5,-111.75,43.0,4.25,AUTO
19:24:46,219005.0,0.04130172356963158,0.03076042700558901,-2.461992859840393,0.5548001974821091,-0.007591722067445517,0.0026282689068466425,-35.36354825,149.1649584,33069.0,4.0,-26.5,7.0,-3.5,20.0,-1018.0,559.5,-4.0,5.0,AUTO
19:24:48,219005.0,0.013731141109019518,-0.004921891653793864,-2.462250828742981,-0.5157199651002884,0.035729339346289635,-0.00014164834283292294,-35.36354925,149.1649568,32978.0,2.5,-31.0,2.5,-2.0,-19.0,-1010.5,-509.5,38.5,2.5,AUTO
19:24:50,194767.0,0.01997476816177368,0.01647369470447302,-2.4623419046401978,0.5493388772010803,-0.010058553889393806,0.0023184901801869273,-35.3635503,149.1649544,32913.0,14.5,-14.5,0.0,3.5,20.5,-1012.5,555.0,-6.0,4.5,AUTO
19:24:52,194767.0,-0.005264459792670095,0.004736439557746053,-2.4627803564071655,-0.5794582962989807,0.000880182720720768,-0.0008942753775045276,-35.3635489,149.164953,32942.0,2.5,-3.5,-7.5,2.5,-24.0,-1017.5,-573.5,4.0,2.0,RTL
19:24:54,112481.0,-0.009026560001075268,0.004602278349921107,-2.4617958068847656,-0.02395644783973694,4.579941742122173e-05,0.000567717244848609,-35.3635478,149.16495125,33844.5,-5.5,9.5,-85.0,0.0,-4.5,-1026.5,-18.5,3.0,3.0,RTL
19:24:56,30195.0,-0.007445326307788491,0.0030556597048416734,-2.4615398645401,0.007402638904750347,-0.001739540952257812,-0.00022911257110536098,-35.3635473,149.1649508,35769.0,-11.0,16.0,-86.5,0.0,0.0,-979.5,12.5,1.0,2.5,RTL
19:24:58,30195.0,-0.0036076874766877154,0.001434365811292082,-2.461976170539856,-0.19842399191111326,0.001186296227388084,0.00018943287432193756,-35.36354745,149.1649513,36998.5,-11.0,14.5,-26.0,0.0,-7.5,-964.0,-193.0,4.5,2.5,RTL
19:24:59,168283.0,0.003725876409589546,0.0006871725054224953,-2.462102472782135,0.007828015834093094,-0.0009744209237396717,-0.0006332763587124646,-35.3635476,149.16495165,37099.5,-10.0,12.75,-2.0,-0.75,0.25,-975.5,12.25,2.5,2.0,RTL
19:25:00,168283.0,0.016485036350786686,0.00019518261797202285,-2.4623262882232666,0.49184782803058624,0.0004779393784701824,-0.0012644454254768789,-35.363548050000006,149.1649524,37047.5,-7.0,8.0,4.5,-1.5,17.5,-1009.0,496.0,3.5,1.5,RTL
19:25:02,168283.0,0.009547300869598985,0.0038485380355268717,-2.4624425172805786,0.023907817900180817,0.0022032272536307573,0.0011796426260843873,-35.3635487,149.1649531,37479.0,0.0,0.0,-52.0,-0.5,8.5,-1016.0,29.0,5.5,3.5,RTL
19:25:04,168283.0,0.00045529333874583244,0.004763073520734906,-2.462628483772278,0.02289499342441559,-0.002332608448341489,0.0036584329791367054,-35.3635486,149.1649526,38217.5,1.0,0.0,-3.0,0.5,14.0,-978.0,28.0,1.5,6.5,RTL
19:25:05,218775.0,0.0054502933053299785,0.0043252017349004745,-2.4619187116622925,-0.013923421502113342,-0.005115348671097308,0.0011663869372569025,-35.3635485,149.1649525,38208.5,0.0,2.25,3.5,0.25,-9.25,-997.0,-10.0,-1.25,4.0,RTL
19:25:06,218775.0,0.016021074261516333,0.0003998007014160976,-2.462610363960266,0.35375770553946495,0.0008411061717197299,-0.0022308658808469772,-35.3635485,149.16495279999998,38225.5,0.0,2.0,-16.0,-1.0,9.5,-1041.0,357.5,3.5,1.0,RTL
19:25:08,218775.0,0.013804030604660511,0.0045783191453665495,-2.4622557163238525,-0.1417829841375351,0.0016858261078596115,-0.003070173552259803,-35.363549,149.16495344999998,39118.5,3.5,-3.0,-44.0,0.0,-11.0,-966.0,-137.5,4.5,0.0,RTL
19:25:10,218775.0,0.009457849897444248,0.005943013820797205,-2.4625483751296997,0.44700976461172104,-1.3837707228958607e-05,0.0022813724353909492,-35.3635489,149.1649529,39372.0,4.0,-1.5,3.0,1.0,22.5,-1004.0,452.0,3.0,5.0,RTL
19:25:11,46866.0,0.004305227659642696,0.005154741927981377,-2.4623122811317444,-0.242802482098341,-0.002186135563533753,0.0007402506598737091,-35.36354875,149.1649527,39368.5,3.0,0.0,-5.0,0.25,-16.25,-1025.5,-238.5,1.5,3.75,RTL
19:25:12,46866.0,0.002913201111368835,0.0037942363414913416,-2.462311029434204,-0.20344575494527817,-0.000930859474465251,0.000443468801677227,-35.3635486,149.1649525,39703.5,1.0,2.0,-49.5,0.0,-8.0,-1027.0,-198.5,2.0,3.0,RTL
19:25:14,46866.0,0.003266973541030893,0.0037068777019158006,-2.4628422260284424,-0.1071859747171402,0.0033123783068731427,0.0037694141501560807,-35.3635486,149.1649525,40579.5,0.0,1.5,-11.0,-0.5,8.5,-960.5,-101.5,6.5,6.5,RTL
19:25:16,46866.0,0.0020117589738219976,0.004409397719427943,-2.462194323539734,0.4303254187107086,8.9839450083673e-05,0.004985813284292817,-35.3635483,149.1649522,40586.0,-0.5,3.5,-10.0,0.5,24.5,-1036.5,435.0,3.0,7.5,RTL
19:25:17,30402.0,0.00260333382175304,0.003311971260700375,-2.462339162826538,-0.00507078692317009,0.0003242184757255018,0.0013431728002615273,-35.3635482,149.16495212499999,40777.5,-2.0,5.25,-37.5,-0.25,-0.75,-1035.25,-1.0,3.75,4.25,RTL
19:25:18,30402.0,0.0038599162362515926,0.0036760696675628424,-2.462271213531494,0.19321877509355545,-0.0017825695686042309,-0.0003520050086081028,-35.36354815,149.1649521,41419.5,-3.0,5.5,-52.5,0.0,6.5,-982.5,197.0,1.5,2.5,RTL
19:25:20,30402.0,-0.0023202227894216776,0.002372774062678218,-2.4624091386795044,0.0012640953063964844,-0.001137984567321837,0.000522216665558517,-35.3635479,149.16495185000002,41832.5,-5.0,7.0,2.5,-0.5,18.0,-992.5,6.5,2.0,3.5,RTL
19:25:22,30402.0,0.016407012939453125,0.0012764361454173923,-2.463045597076416,-0.39366865158081055,0.001770682167261839,0.0019360797014087439,-35.3635488,149.1649533,42019.0,0.0,0.0,-39.0,-2.0,-20.0,-1038.0,-389.0,5.0,5.0,RTL
19:25:23,37345.0,0.018715618643909693,0.002731228159973398,-2.4622138142585754,-0.0541687048971653,0.003335275629069656,0.0012433234951458871,-35.3635491,149.164953675,42334.75,2.5,-2.5,-52.5,-1.5,-0.25,-1010.25,-49.75,6.25,4.25,RTL
19:25:24,37345.0,0.014328633900731802,0.003969692625105381,-2.4626643657684326,-0.29785333573818207,0.001759457984007895,0.0002822673413902521,-35.36354935,149.1649539,42831.5,5.5,-6.0,-36.5,0.0,-11.5,-964.0,-293.0,5.0,3.0,RTL
19:25:26,37345.0,0.013402668759226799,0.004428207408636808,-2.4619152545928955,-0.01014527678489685,-0.002072806120850146,0.00017495639622211456,-35.3635493,149.1649536,43036.0,7.5,-6.5,2.5,0.0,0.0,-1003.0,-6.0,1.5,3.0,RTL
19:25:28,53027.0,0.015286715235561132,0.004147654166445136,-2.462421178817749,0.12648918107151985,0.002445311052724719,0.002748476341366768,-35.36354935,149.1649538,43457.0,8.0,-7.5,-48.0,0.0,10.0,-1018.5,131.5,6.0,5.5,RTL
19:25:30,68709.0,0.004515894397627562,0.004785982193425298,-2.4623963832855225,0.0070455968379974365,0.0004592357436195016,0.0013823461486026645,-35.363548949999995,149.1649531,44203.0,6.0,-3.5,-8.5,-0.5,5.5,-980.5,12.5,4.0,4.5,RTL
19:25:32,68709.0,0.01142846280708909,0.002770195249468088,-2.4625993967056274,-0.1472046971321106,-0.0012087628711014986,-0.00021376507356762886,-35.3635489,149.1649531,44248.5,3.0,-1.5,-15.0,0.0,-6.0,-1035.5,-142.5,2.0,3.0,RTL
19:25:33,126416.0,0.007854646421037614,0.0034937734599225223,-2.4622607231140137,-0.03878417145460844,0.0007575814379379153,0.0016101343207992613,-35.363548775,149.16495304999998,44573.5,3.0,-2.0,-48.75,0.25,-2.5,-1023.75,-33.75,4.25,4.5,RTL
19:25:34,126416.0,0.01123726274818182,0.004017800441943109,-2.4619585275650024,0.2938946560025215,0.00012024398893117905,-0.001083011389710009,-35.36354865,149.1649529,45103.5,1.5,-0.5,-45.5,0.0,7.0,-971.0,298.0,4.0,2.0,RTL
19:25:36,126416.0,0.0065751210786402225,0.004189405823126435,-2.462384343147278,-0.029349565505981445,-0.0016861052718013525,0.001010770327411592,-35.363548449999996,149.16495245,45443.5,-0.5,2.5,3.0,0.0,-4.0,-998.0,-24.5,2.0,4.5,RTL
19:25:38,126416.0,0.009440140798687935,0.0032321629114449024,-2.462400794029236,0.07135748863220215,0.0011752466671168804,0.0004735419061034918,-35.3635484,149.1649524,45697.0,-0.5,3.5,-40.0,-0.5,-1.5,-1027.0,75.5,4.5,3.5,RTL
19:25:39,56798.0,0.0074179129442200065,0.003563976672012359,-2.462128698825836,0.010638169595040381,0.0006194749148562551,0.001047082885634154,-35.363548425,149.164952475,46187.5,0.0,3.5,-47.5,-1.0,0.75,-982.25,15.75,4.25,4.0,RTL
19:25:40,56798.0,0.013678528368473053,0.003941820003092289,-2.4622989892959595,0.2953796423971653,-0.000726606696844101,0.002220870926976204,-35.363548550000004,149.16495255,46516.0,0.0,2.5,-15.0,-0.5,7.5,-971.5,300.0,3.0,5.0,RTL
19:25:42,56798.0,0.008363182307220995,0.003727627219632268,-2.4625494480133057,0.0797039121389389,-0.002389737986959517,0.00033672782592475414,-35.3635486,149.1649527,46561.5,1.5,0.5,-7.0,-0.5,4.0,-1024.0,85.0,1.5,3.5,RTL
19:25:44,56798.0,0.010085250716656446,0.0034641283564269543,-2.4620656967163086,-0.3136714845895767,0.0008221282623708248,0.0005928527098149061,-35.363548949999995,149.1649532,47296.5,3.0,-0.5,-50.0,0.0,-15.0,-985.0,-308.5,4.5,3.5,RTL
19:25:45,1154.0,0.013974148081615567,0.003957886481657624,-2.462110221385956,0.18544039316475391,-0.0001917665358632803,5.547938053496182e-05,-35.363548949999995,149.16495325,47698.5,3.75,-2.5,-19.5,0.5,4.5,-960.5,190.0,3.5,3.0,RTL
19:25:46,1154.0,0.008519078372046351,0.004410983179695904,-2.462226629257202,0.018764078617095947,-0.00036075827665627003,-0.002382803475484252,-35.36354885,149.16495305,47762.5,3.0,-2.0,1.5,-0.5,-4.0,-989.5,23.5,3.5,0.5,RTL
19:25:48,1154.0,0.01685233972966671,0.0007299774079001509,-2.462222456932068,-0.11549830436706543,-0.0011251288233324885,-0.00045774655882269144,-35.3635491,149.1649538,47938.0,5.0,-3.5,-36.0,-1.5,4.5,-1036.0,-110.0,2.5,2.5,RTL
19:25:50,1154.0,0.03583147097378969,0.0019308380433358252,-2.462555408477783,0.06835408508777618,0.005462129600346088,0.0031034540152177215,-35.3635503,149.16495550000002,48854.0,14.0,-17.0,-26.5,-1.0,8.5,-964.5,74.0,9.0,6.0,RTL
19:25:51,153057.0,0.03506914712488651,0.0044972061878070235,-2.4623170495033264,0.42616877518594265,0.002501513110473752,0.002094798197504133,-35.363550475000004,149.16495555,48977.25,17.75,-21.75,1.25,0.0,12.75,-988.75,432.0,6.0,5.25,RTL
19:25:52,153057.0,0.021665732376277447,0.005637896712869406,-2.4621654748916626,-0.09005963802337646,-8.337793406099081e-05,0.0018193983705714345,-35.3635503,149.16495515,48955.5,18.5,-21.5,-0.5,0.5,-3.0,-1017.0,-84.0,4.0,5.0,RTL
19:25:54,153057.0,0.015061312355101109,0.004571768222376704,-2.4619743824005127,0.17569864820688963,-0.002683657919988036,0.0015416141832247376,-35.363549750000004,149.16495425,49536.0,15.0,-14.5,-49.5,0.0,15.5,-998.0,182.0,1.0,5.0,RTL
19:25:56,119379.5,0.017549110110849142,0.0033906566677615047,-2.4620871543884277,-0.10261085629463196,0.00034865550696849823,-0.000576644903048873,-35.3635496,149.1649542,50108.0,11.5,-12.5,-1.0,0.5,-1.5,-989.0,-95.5,4.5,2.5,RTL
19:25:58,85702.0,0.005676689557731152,0.005447155563160777,-2.4625909328460693,0.02740389108657837,1.254095695912838e-05,0.000877156388014555,-35.36354885,149.1649531,50224.5,7.0,-7.0,-29.5,1.0,-8.0,-1040.0,34.5,3.5,4.5,RTL
19:26:00,85702.0,-0.0018451570067554712,0.005440706619992852,-2.462069272994995,0.11855699121952057,0.0004089346621185541,1.380906905978918e-05,-35.36354785,149.1649515,51160.0,-2.5,6.5,-35.5,0.5,-5.5,-960.5,124.5,4.5,3.0,RTL
19:26:01,25771.0,-0.011273377109318972,0.003746411297470331,-2.4619539380073547,-0.2986064702272415,-0.0012568000238388777,0.0012199339689686894,-35.36354754999999,149.164951125,51360.0,-6.25,11.25,-2.75,0.25,-9.5,-984.0,-291.75,2.5,4.75,RTL
19:26:02,25771.0,-0.002693429181817919,0.0029960855608806014,-2.462302565574646,0.12326516211032867,-5.201087333261967e-05,0.0002347114495933056,-35.3635473,149.164951,51344.5,-9.0,13.0,2.0,0.0,7.5,-1009.0,129.5,4.0,4.0,RTL
19:26:04,25771.0,0.0020153424702584743,0.0011336344759911299,-2.461988091468811,-0.1451568268239498,-0.00025757658295333385,0.00014640449080616236,-35.363547499999996,149.1649515,51822.5,-9.5,14.0,-51.5,-0.5,-10.5,-1016.0,-139.5,4.0,3.5,RTL
19:26:06,25771.0,0.0029208849882707,0.0019859812455251813,-2.4623076915740967,-0.6453930139541626,0.002229501726105809,-0.0008531444473192096,-35.3635481,149.1649524,52578.5,-5.0,6.0,-7.5,-0.5,-29.5,-971.5,-639.5,6.0,2.5,RTL
19:26:07,129147.0,0.005861428944626823,0.0025104553205892444,-2.4620311856269836,0.1044459342956543,-0.001696431660093367,0.0019394411938264966,-35.3635482,149.1649525,52580.75,-2.0,2.5,2.75,0.0,11.75,-1005.25,110.75,2.5,5.25,RTL
19:26:08,129147.0,0.011753687635064125,0.0011287004890618846,-2.461853504180908,0.030377928167581558,-0.004210449988022447,-0.0020453608594834805,-35.3635485,149.16495285000002,52653.5,-1.5,2.0,-20.5,-2.0,3.0,-1041.0,36.5,0.5,2.0,RTL
19:26:10,129147.0,0.026836012490093708,0.000884402481460711,-2.462105393409729,0.27910598553717136,0.0027063556481152773,0.0010899583576247096,-35.3635493,149.16495425,53544.0,4.0,-8.0,-40.5,0.0,7.5,-976.5,284.5,6.5,5.0,RTL
19:26:12,129147.0,0.008305811323225498,0.0035167455207556486,-2.4616293907165527,-0.08803145587444305,-0.00011878064833581448,0.0022033064160495996,-35.363549,149.1649536,53799.0,5.5,-8.0,3.5,0.0,-2.5,-995.0,-81.5,3.5,6.0,RTL
19:26:13,183580.0,0.009663461620220914,0.001423016787157394,-2.4621031880378723,0.042357563972473145,-0.0024125565541908145,-7.380230817943811e-05,-35.3635489,149.164953525,53821.25,3.75,-5.25,-13.25,-0.25,7.25,-1037.75,49.25,2.0,3.5,RTL
19:26:14,183580.0,0.015123744029551744,0.0019587837159633636,-2.462169885635376,0.02297665923833847,0.0014156256802380085,0.0004372491966933012,-35.36354885,149.16495355,54152.0,3.0,-5.0,-45.0,0.0,-9.5,-1015.5,29.0,5.5,4.0,RTL
19:26:16,183580.0,0.003799973987042904,0.0038309606024995446,-2.4624544382095337,0.042549073696136475,-0.0013915947638452053,7.41350231692195e-05,-35.3635484,149.16495275,54906.5,0.5,-2.0,-8.5,0.5,-5.0,-967.5,49.0,3.0,3.5,RTL
19:26:18,183580.0,0.008008208591490984,0.0016832880792208016,-2.4619104862213135,0.24477905873209238,-0.0019039594335481524,0.000943260733038187,-35.36354795,149.16495229999998,54941.0,-3.5,3.5,-13.0,-1.0,11.5,-1033.0,250.5,2.0,4.5,RTL
19:26:19,79958.0,0.007343933189986274,0.00026360939227743074,-2.461901903152466,-0.05178723856806755,-0.0020432602614164352,-0.0005060108378529549,-35.3635481,149.16495262499998,55234.0,-3.0,3.0,-46.5,-0.75,-1.75,-1025.5,-45.5,2.0,3.0,RTL
19:26:20,79958.0,0.014762966893613338,-0.0009445112955290824,-2.4616674184799194,-0.32997986674308777,-0.0026175775565207005,-0.000465927179902792,-35.3635485,149.16495335000002,55756.0,-1.5,0.5,-47.0,-1.0,-17.0,-974.5,-323.5,1.0,3.0,RTL
19:26:22,79958.0,0.014822530094534159,0.002451918087899685,-2.461815595626831,0.006975263357162476,-0.0011996834073215723,-0.0017322396161034703,-35.3635489,149.16495375,56122.0,2.5,-7.0,2.5,-0.5,1.0,-982.5,13.5,2.5,2.0,RTL
19:26:24,79958.0,0.011792000848799944,0.0020394098828546703,-2.4619171619415283,0.23982734605669975,0.00010337214916944504,0.0005992086371406913,-35.3635489,149.16495365,56383.5,3.0,-6.5,-42.0,0.0,13.5,-1033.0,246.0,4.0,4.5,RTL
19:26:25,189168.0,0.010015828243922442,0.00286249938653782,-2.461616337299347,0.05072984844446182,-0.0004273247322998941,-0.0001598953385837376,-35.3635488,149.164953425,56898.25,2.25,-5.25,-52.25,0.5,2.5,-988.25,57.5,3.75,3.25,RTL
19:26:26,189168.0,0.0038766853976994753,0.00336251687258482,-2.4621859788894653,0.17870720475912094,-5.384068936109543e-05,-4.9649737775325775e-05,-35.363548449999996,149.16495294999999,57285.5,0.5,-3.5,-20.0,1.5,14.0,-960.5,185.0,4.0,3.5,RTL
19:26:28,189168.0,-0.008263770840130746,0.0029604850569739938,-2.461544156074524,0.17987261712551117,-0.0019158960785716772,0.00080640590749681,-35.3635477,149.16495170000002,57350.0,-5.0,5.5,-3.0,1.0,13.0,-1024.5,186.5,2.0,4.5,RTL
19:26:30,189168.0,0.0013555343175539747,0.0014760704361833632,-2.4615172147750854,0.14072377979755402,0.0006287711439654231,0.0005260811885818839,-35.3635475,149.1649517,58009.5,-9.0,9.5,-52.5,0.0,-0.5,-995.5,146.5,4.5,4.5,RTL
19:26:31,102176.0,0.00259232526877895,0.0009079615556402132,-2.4619702100753784,-0.0069122654385864735,-0.0006603569490835071,4.364410415291786e-07,-35.3635477,149.16495195,58458.0,-8.5,9.0,-27.25,-0.75,4.0,-958.0,-0.5,3.0,3.75,RTL
19:26:32,102176.0,0.011393306544050574,0.0012204324011690915,-2.4615193605422974,0.20779234543442726,-0.00019032356794923544,0.0006512918043881655,-35.363548,149.1649524,58567.0,-6.0,5.5,-0.5,-1.0,12.0,-992.0,213.0,3.5,4.5,RTL
19:26:34,102176.0,0.002938203833764419,0.0011592795926844701,-2.4619780778884888,-0.2806054800748825,-0.0014636475825682282,0.000580270541831851,-35.3635483,149.1649528,58701.5,-2.0,1.0,-32.0,0.0,-9.5,-1039.5,-274.0,2.5,4.0,RTL
19:26:36,102176.0,-0.0009540896426187828,0.0026575507363304496,-2.462085008621216,-0.3889055773615837,-0.0016481317579746246,-0.0006800168193876743,-35.3635483,149.1649526,59650.0,-2.0,1.0,-34.0,0.0,-17.0,-961.0,-382.5,2.5,3.0,RTL
19:26:37,18640.0,-0.003410466233617626,0.0025877855950966477,-2.4623407125473022,-0.04488229751586914,0.001472894917242229,0.0007161907269619405,-35.363548125,149.16495235,59835.0,-3.25,3.0,-2.0,-0.25,7.75,-993.25,-38.5,5.25,4.5,RTL
19:26:38,18640.0,0.00939379632472992,0.002636896912008524,-2.461970329284668,0.7424501180648804,-0.0008231860119849443,0.003675621934235096,-35.363548,149.1649522,59826.0,-4.0,4.0,4.0,0.0,31.0,-1026.0,748.0,3.0,7.0,RTL
19:26:40,18640.0,0.00385650631505996,0.0003329161772853695,-2.4618473052978516,0.14573093131184578,-0.0011684520868584514,0.0010990484151989222,-35.3635479,149.16495235000002,60108.5,-5.0,4.5,-46.0,0.0,15.0,-1034.0,152.0,2.5,5.0,RTL
19:26:42,18640.0,0.01789210643619299,-0.00018453371740179136,-2.4619020223617554,0.4868820458650589,0.0022724787704646587,0.002298832405358553,-35.3635483,149.1649532,61089.0,-2.0,-0.5,-19.5,0.0,23.0,-965.5,492.5,6.0,5.5,RTL
19:26:43,118494.0,0.0010283636511303484,0.0019203083938919008,-2.4616312980651855,-0.2570648267865181,0.0007359592127613723,-9.454437531530857e-06,-35.3635484,149.164953075,61141.75,-1.0,-1.25,3.25,0.0,-2.0,-992.25,-250.75,4.5,3.5,RTL
19:26:44,118494.0,0.016501865349709988,0.0023906283313408494,-2.4617602825164795,0.5503384917974472,0.000428380211815238,-0.0016874037683010101,-35.3635484,149.16495294999999,61121.5,-1.5,-0.5,-0.5,0.5,10.5,-1022.0,555.0,4.0,2.0,RTL
19:26:46,118494.0,-0.0007598423399031162,0.002784097450785339,-2.461381196975708,0.1072428971529007,0.00010535621549934149,0.00097269332036376,-35.3635479,149.16495214999998,61809.0,-5.0,4.5,-53.5,0.0,11.0,-993.5,113.5,4.0,4.5,RTL
19:26:48,118494.0,-0.007028181804344058,0.0019583957619033754,-2.4621968269348145,-0.5746742486953735,-0.0008784523233771324,0.002386567648500204,-35.3635478,149.164952,62325.5,-6.5,6.5,2.5,0.0,-14.5,-987.0,-568.5,2.5,6.0,RTL
19:26:49,65737.0,0.005278529890347272,3.267923602834344e-07,-2.4618560075759888,-0.04459295142441988,-0.0011466705473139882,-0.0011707998346537352,-35.3635479,149.16495225,62310.75,-6.25,6.0,-6.75,-1.0,-6.0,-1027.25,-39.0,2.75,2.75,RTL
19:26:50,65737.0,0.013538345694541931,0.0007087263511493802,-2.461988687515259,0.33968517929315567,0.0012346245348453522,0.00043635780457407236,-35.3635481,149.16495255,62452.5,-5.0,4.0,-33.5,0.0,12.0,-1040.5,344.5,4.5,4.0,RTL
19:26:52,65737.0,0.009826343972235918,0.0015812232159078121,-2.461562991142273,0.009170189499855042,-0.0009730954188853502,-0.00219696294516325,-35.3635482,149.1649527,63401.0,-3.0,1.0,-26.0,0.0,-14.0,-951.5,13.5,2.5,1.5,RTL
19:26:54,65737.0,0.003107838681899011,0.002201543073169887,-2.461727499961853,-0.5365781784057617,0.001060348004102707,-0.0012670282740145922,-35.3635484,149.16495285000002,63469.0,-1.5,0.5,0.5,-0.5,-17.5,-1026.0,-530.5,4.5,2.5,RTL
19:26:55,135016.0,0.004367524175904691,0.002626006957143545,-2.4618449211120605,0.004694551229476929,0.000607374357059598,0.0007525039254687726,-35.3635484,149.1649528,63712.75,-0.5,0.0,-40.5,0.25,-1.25,-1033.0,9.75,4.0,4.25,RTL
19:26:56,135016.0,0.0032629244960844517,0.0022933450527489185,-2.461302638053894,-0.07919161766767502,-0.0011781471548601985,0.000982089200988412,-35.3635483,149.16495264999998,64090.5,-1.5,1.0,-56.0,0.0,-6.5,-1000.5,-74.5,2.0,4.5,RTL
19:26:58,135016.0,0.01013966090977192,0.0021216360037215054,-2.461536407470703,0.2154419794678688,-0.0022026519291102886,-0.0012027969351038337,-35.36354795,149.16495225,64712.5,-4.5,4.0,0.5,0.0,-12.0,-969.0,219.5,1.0,2.5,RTL
19:27:00,75251.5,0.006771921180188656,-0.0016550516593270004,-2.4625526666641235,-0.37003882229328156,0.001993115758523345,-0.001999519532546401,-35.3635481,149.16495279999998,64782.5,-4.5,3.5,-27.0,-2.5,-18.0,-1037.0,-365.0,6.0,2.0,RTL
19:27:02,15487.0,0.014587822370231152,0.0017529834294691682,-2.461076498031616,-0.3035682588815689,0.0007135801715776324,-0.00017477525398135185,-35.363549,149.16495385000002,65745.0,1.5,-5.0,-36.0,0.0,-13.0,-956.0,-298.0,4.5,3.5,RTL
19:27:04,15487.0,0.01791913714259863,0.003160469699651003,-2.4620277881622314,0.5319659560918808,0.0022430167300626636,0.0013470808044075966,-35.363548949999995,149.16495365,65895.5,4.5,-7.5,4.5,0.0,19.0,-1007.5,536.5,5.5,5.0,RTL
19:27:05,10990.0,0.004168088576989248,0.0028814630932174623,-2.4618070125579834,-0.023492584470659494,-0.001112881931476295,0.0006608100375160575,-35.36354865,149.164953075,66019.25,1.5,-3.5,-29.5,0.0,2.0,-1035.25,-18.0,2.25,4.25,RTL
19:27:06,10990.0,0.002174873079638928,0.0026221703737974167,-2.4614968299865723,-0.10685821622610092,-0.00036440847907215357,0.001111755263991654,-35.363548449999996,149.16495285000002,66333.0,0.0,-1.5,-52.0,0.5,-5.0,-1017.0,-101.5,3.0,4.5,RTL
19:27:08,10990.0,-0.010721768252551556,0.0019760160357691348,-2.4618395566940308,-0.6195160448551178,-0.0030331399757415056,-0.0024676515022292733,-35.363548050000006,149.16495235000002,67064.5,-3.0,2.0,-2.5,0.0,-24.0,-981.0,-614.0,0.5,1.0,RTL
19:27:10,10990.0,0.00790167530067265,-0.0010535663459450006,-2.461899995803833,0.1924339458346367,-0.0027745000552386045,0.00016709661576896906,-35.36354815,149.16495285000002,67090.0,-3.0,1.0,-19.5,-1.5,20.0,-1039.0,198.5,0.5,3.5,RTL
19:27:11,67564.0,0.015592691954225302,0.00019075798354606377,-2.461368441581726,-0.02551310509443283,-6.283639231696725e-05,6.915663834661245e-05,-35.36354855,149.164953475,67611.75,-0.75,-2.0,-53.25,-0.5,-0.25,-1004.0,-20.5,3.25,3.25,RTL
19:27:12,67564.0,0.01696565980091691,0.0007661952113267034,-2.4613142013549805,0.19066275656223297,2.306362148374319e-05,0.0007571091409772635,-35.363548800000004,149.16495375,68006.0,0.5,-4.5,-42.5,-0.5,14.5,-966.5,196.0,3.5,4.0,RTL
19:27:14,67564.0,0.0068130887957522646,0.002091223490424454,-2.4614546298980713,-0.519907683134079,0.0007481049979105592,-0.0027435138472355902,-35.363548949999995,149.16495375,68236.5,4.0,-8.0,3.5,0.0,-33.0,-996.5,-514.5,4.5,0.5,RTL
19:27:16,67564.0,0.0148154073394835,0.0026537892408668995,-2.461390733718872,0.21297581493854523,0.00013499613851308823,0.0010200669057667255,-35.3635489,149.1649536,68609.0,3.5,-5.5,-51.0,-0.5,5.0,-1028.5,217.5,3.0,4.5,RTL
19:27:17,33190.0,0.008115026357700117,0.002191325358580798,-2.461766242980957,-0.09771589562296867,-0.0007584160775877535,4.657311365008354e-06,-35.3635488,149.164953425,69257.25,2.75,-5.25,-39.0,0.5,-4.25,-961.5,-92.25,2.5,3.75,RTL
19:27:18,33190.0,0.01014533406123519,0.0032261130400002003,-2.461343288421631,0.5891236513853073,0.0011112369829788804,0.0025570171419531107,-35.363548550000004,149.16495305,69460.5,1.5,-4.5,-9.5,1.0,27.0,-965.5,594.5,4.0,5.5,RTL
19:27:20,33190.0,0.009615283459424973,0.001646915276069194,-2.461251974105835,0.20658224821090698,-0.0032101384131237864,-0.0016137644415721297,-35.363548050000006,149.16495235000002,69476.5,-3.0,3.0,-14.0,0.0,-2.0,-1035.0,211.5,0.5,2.0,RTL
19:27:22,33190.0,0.009119411464780569,0.0014622615417465568,-2.461376190185547,0.24363531917333603,0.0004872494610026479,0.0004152626497671008,-35.3635481,149.1649526,70381.0,-3.5,2.0,-54.5,0.5,9.0,-979.5,248.5,3.5,3.5,RTL
19:27:23,45989.0,0.003882030490785837,0.0023028869181871414,-2.4616199135780334,-0.018124938011169434,0.00014721779734827578,0.00036334479227662086,-35.363548,149.1649524,70784.0,-4.0,2.25,-8.5,0.0,-7.75,-966.25,-13.0,3.0,3.5,RTL
19:27:24,45989.0,-0.006873478181660175,0.0019742613658308983,-2.4613269567489624,-0.23053544387221336,-0.0022017317241989076,-0.001422983012162149,-35.363548,149.1649523,70796.0,-4.0,3.0,3.5,0.0,7.5,-1000.0,-224.5,0.5,2.0,RTL
19:27:26,45989.0,0.01592395268380642,0.0005619814182864502,-2.461586117744446,0.19203895330429077,8.315942250192165e-05,2.0836014300584793e-05,-35.36354835,149.1649529,71012.0,-3.5,2.0,-42.5,-1.0,-0.5,-1038.0,197.0,3.0,3.0,RTL
19:27:28,45989.0,0.0023620987000564733,0.003453261141354839,-2.461724122365316,-0.07542619109153748,0.0001690357457846403,-0.0008979795966297388,-35.36354839999999,149.16495283333333,72075.33333333333,-0.6666666666666666,-1.0,-23.333333333333332,0.3333333333333333,-11.333333333333334,-953.0,-70.66666666666667,3.0,2.3333333333333335,RTL
19:27:29,24345.0,-0.011258280777838081,0.003897111862897873,-2.46125590801239,-0.25354570150375366,-0.0005831105227116495,-0.0022243622806854546,-35.363547775,149.164951825,72152.5,-4.5,3.75,2.75,1.0,-15.5,-996.25,-248.75,2.75,1.25,RTL
19:27:30,24345.0,-0.00360604975867318,0.0028149447171017528,-2.4612388610839844,0.5667632073163986,0.0010898837354034185,0.0029330557445064187,-35.3635474,149.1649514,72128.0,-7.5,8.5,-1.5,0.0,26.0,-1022.0,572.0,4.0,6.0,RTL
19:27:32,24345.0,0.0007135163759812713,0.0004538365756161511,-2.460955262184143,0.20907580479979515,-5.283165955916047e-05,-0.00021467357873916626,-35.363547350000005,149.16495155,72802.5,-11.0,12.0,-57.5,0.0,14.5,-1001.0,214.0,2.5,3.0,RTL
19:27:34,24345.0,-0.003364007396157831,0.000966892868746072,-2.4616717100143433,-0.6462210118770599,0.0010938445338979363,-0.001885999459773302,-35.3635477,149.1649521,73433.5,-9.5,8.0,0.0,0.0,-25.0,-985.5,-641.5,4.0,1.5,RTL
19:27:35,171427.0,7.69319012761116e-05,0.0026024107937701046,-2.4617239832878113,0.03047630935907364,0.001808842527680099,-0.00045699073234573007,-35.363547625,149.16495187499999,73407.25,-8.5,6.5,-3.25,0.75,-7.5,-1028.5,34.25,4.75,2.5,RTL
19:27:36,171427.0,-0.011956057045608759,0.004161719232797623,-2.4617550373077393,0.23038698267191648,-8.919532410800457e-05,0.0010209257015958428,-35.363547350000005,149.16495129999998,73503.5,-9.5,8.0,-29.0,1.5,14.0,-1042.5,234.0,2.5,4.0,RTL
19:27:38,171427.0,-0.0070739982184022665,0.0011882703111041337,-2.4611517190933228,0.36437171697616577,-0.0018065753392875195,-0.00010229193139821291,-35.3635467,149.1649504,74481.0,-16.5,20.5,-39.0,-0.5,13.0,-962.0,367.5,1.5,3.0,RTL
