time_stamp,MODE,lat,lon,relative_alt,roll,pitch,yaw,rollspeed,pitchspeed,yawspeed,xacc,yacc,zacc,xgyro,ygyro,zgyro,vx,vy,vz,RTL_ALT
08:18:48.802,STABILIZE,-35.3632622,149.1652376,37,-0.00028463974012993276,0.0013940844219177961,0.028065448626875877,0.00020645689801312983,0.0002381901431363076,0.0022189198061823845,0,1,-1000,0,0,0,-2,3,2,1500.0
08:18:49.003,STABILIZE,-35.3632622,149.1652376,37,-0.00028463974012993276,0.0013940844219177961,0.028065448626875877,0.00020645689801312983,0.0002381901431363076,0.0022189198061823845,0,1,-1000,0,0,0,-2,3,2,1500.0
08:18:49.205,STABILIZE,-35.3632622,149.1652376,37,-0.00028463974012993276,0.0013940844219177961,0.028065448626875877,0.00020645689801312983,0.0002381901431363076,0.0022189198061823845,0,1,-1000,0,0,0,-2,3,2,1500.0
08:18:49.407,STABILIZE,-35.3632622,149.1652376,37,-0.00028463974012993276,0.0013940844219177961,0.028065448626875877,0.00020645689801312983,0.0002381901431363076,0.0022189198061823845,0,1,-1000,0,0,0,-2,3,2,1500.0
08:18:49.608,STABILIZE,-35.3632622,149.1652376,37,-0.0007957904017530382,0.001175917568616569,0.02745412476360798,0.0003510981914587319,0.0003048960061278194,0.002195917535573244,0,1,-1000,0,0,0,-2,3,2,1500.0
08:18:49.810,STABILIZE,-35.3632622,149.1652376,37,-0.0007957904017530382,0.001175917568616569,0.02745412476360798,0.0003510981914587319,0.0003048960061278194,0.002195917535573244,0,1,-1000,0,0,0,-2,3,2,1500.0
08:18:50.012,STABILIZE,-35.3632622,149.1652376,37,-0.0007957904017530382,0.001175917568616569,0.02745412476360798,0.0003510981914587319,0.0003048960061278194,0.002195917535573244,0,1,-1000,0,0,0,-2,3,2,1500.0
08:18:50.213,STABILIZE,-35.3632622,149.1652375,29,-0.0009547961526550353,0.0010827635414898396,0.02720392867922783,3.226919216103852e-05,0.00012857624096795917,0.0020791201386600733,0,1,-1000,0,0,0,-1,1,1,1500.0
08:18:50.415,STABILIZE,-35.3632622,149.1652375,29,-0.0009547961526550353,0.0010827635414898396,0.02720392867922783,3.226919216103852e-05,0.00012857624096795917,0.0020791201386600733,0,1,-1000,0,0,0,-1,1,1,1500.0
08:18:50.617,STABILIZE,-35.3632622,149.1652375,28,-0.0009547961526550353,0.0010827635414898396,0.02720392867922783,3.226919216103852e-05,0.00012857624096795917,0.0020791201386600733,0,1,-1000,0,0,0,-1,1,1,1500.0
08:18:50.818,STABILIZE,-35.3632622,149.1652375,28,-0.0009547961526550353,0.0010827635414898396,0.02720392867922783,3.226919216103852e-05,0.00012857624096795917,0.0020791201386600733,0,1,-1000,0,0,0,-1,1,1,1500.0
08:18:51.020,STABILIZE,-35.3632622,149.1652375,28,-0.0009547961526550353,0.0010827635414898396,0.02720392867922783,3.226919216103852e-05,0.00012857624096795917,0.0020791201386600733,0,1,-1000,0,0,0,-1,1,1,1500.0
08:18:51.221,STABILIZE,-35.3632622,149.1652375,28,-0.0009547961526550353,0.0010827635414898396,0.02720392867922783,3.226919216103852e-05,0.00012857624096795917,0.0020791201386600733,0,1,-1000,0,0,0,-1,1,1,1500.0
08:18:51.423,STABILIZE,-35.3632621,149.1652375,27,-0.0011224152985960245,0.000949990761000663,0.026673631742596626,0.0002726163947954774,0.0001977702195290476,0.001982881221920252,0,2,-1000,0,0,0,-1,0,0,1500.0
08:18:51.624,STABILIZE,-35.3632621,149.1652375,27,-0.0011224152985960245,0.000949990761000663,0.026673631742596626,0.0002726163947954774,0.0001977702195290476,0.001982881221920252,0,2,-1000,0,0,0,-1,0,0,1500.0
08:18:51.826,STABILIZE,-35.3632621,149.1652375,27,-0.0011354510206729174,0.0009329297463409603,0.026457175612449646,0.00027319323271512985,0.00023457652423530817,0.00198219227604568,0,1,-1000,0,0,0,-1,0,0,1500.0
08:18:52.028,STABILIZE,-35.3632621,149.1652375,27,-0.0011354510206729174,0.0009329297463409603,0.026457175612449646,0.00027319323271512985,0.00023457652423530817,0.00198219227604568,0,1,-1000,0,0,0,-1,0,0,1500.0
08:18:52.229,STABILIZE,-35.3632621,149.1652375,27,-0.0011354510206729174,0.0009329297463409603,0.026457175612449646,0.00027319323271512985,0.00023457652423530817,0.00198219227604568,0,1,-1000,0,0,0,-1,0,0,1500.0
08:18:52.431,STABILIZE,-35.3632621,149.1652375,28,-0.0011439445661380887,0.0009061081800609827,0.026292458176612854,0.00019403710030019283,0.00030520674772560596,0.002061155391857028,0,1,-1000,0,0,0,-1,0,0,1500.0
08:18:52.633,STABILIZE,-35.3632621,149.1652375,28,-0.0011382073862478137,0.0008996750693768263,0.0261977706104517,0.0003924821503460407,0.00029355520382523537,0.0018904763273894787,0,1,-1000,0,0,0,-1,0,0,1500.0
08:18:52.834,STABILIZE,-35.3632621,149.1652375,28,-0.0011382073862478137,0.0008996750693768263,0.0261977706104517,0.0003924821503460407,0.00029355520382523537,0.0018904763273894787,0,1,-1000,0,0,0,-1,0,0,1500.0
08:18:53.036,STABILIZE,-35.3632621,149.1652375,28,-0.0011382073862478137,0.0008996750693768263,0.0261977706104517,0.0003924821503460407,0.00029355520382523537,0.0018904763273894787,0,1,-1000,0,0,0,-1,0,0,1500.0
08:18:53.238,STABILIZE,-35.3632621,149.1652375,28,-0.0011382073862478137,0.0008996750693768263,0.0261977706104517,0.0003924821503460407,0.00029355520382523537,0.0018904763273894787,0,1,-1000,0,0,0,-1,0,0,1500.0
08:18:53.440,STABILIZE,-35.3632621,149.1652375,29,-0.001129440381191671,0.0009026328334584832,0.02591601014137268,0.00015822076238691807,0.00021226529497653246,0.0019245073199272156,0,1,-1000,0,0,0,-1,0,0,1500.0
08:18:53.642,STABILIZE,-35.3632621,149.1652375,29,-0.0011284321080893278,0.0009068514918908477,0.025822177529335022,0.00022971269208937883,0.00018895405810326338,0.0019008474191650748,0,1,-1000,0,0,0,-1,0,0,1500.0
08:18:53.844,STABILIZE,-35.3632621,149.1652375,29,-0.0011284321080893278,0.0009068514918908477,0.025822177529335022,0.00022971269208937883,0.00018895405810326338,0.0019008474191650748,0,1,-1000,0,0,0,-1,0,0,1500.0
08:18:54.046,STABILIZE,-35.3632621,149.1652375,29,-0.0011284321080893278,0.0009068514918908477,0.025822177529335022,0.00022971269208937883,0.00018895405810326338,0.0019008474191650748,0,1,-1000,0,0,0,-1,0,0,1500.0
08:18:54.247,STABILIZE,-35.3632621,149.1652375,29,-0.0011284321080893278,0.0009068514918908477,0.025822177529335022,0.00022971269208937883,0.00018895405810326338,0.0019008474191650748,0,1,-1000,0,0,0,-1,0,0,1500.0
08:18:54.449,STABILIZE,-35.3632621,149.1652375,32,-0.0011180344736203551,0.000903130101505667,0.025560792535543442,0.0001757228747010231,0.00021694740280508995,0.0018084215698763728,0,1,-1000,0,0,0,-1,0,0,1500.0
08:18:54.650,STABILIZE,-35.3632621,149.1652375,32,-0.0011180344736203551,0.000903130101505667,0.025560792535543442,0.0001757228747010231,0.00021694740280508995,0.0018084215698763728,0,1,-1000,0,0,0,-1,0,0,1500.0
08:18:54.853,STABILIZE,-35.3632621,149.1652375,32,-0.0011180344736203551,0.000903130101505667,0.025560792535543442,0.0001757228747010231,0.00021694740280508995,0.0018084215698763728,0,1,-1000,0,0,0,-1,0,0,1500.0
08:18:55.055,STABILIZE,-35.3632621,149.1652375,32,-0.0011180344736203551,0.000903130101505667,0.025560792535543442,0.0001757228747010231,0.00021694740280508995,0.0018084215698763728,0,1,-1000,0,0,0,-1,0,0,1500.0
08:18:55.257,STABILIZE,-35.3632621,149.1652375,32,-0.0011180344736203551,0.000903130101505667,0.025560792535543442,0.0001757228747010231,0.00021694740280508995,0.0018084215698763728,0,1,-1000,0,0,0,-1,0,0,1500.0
08:18:55.459,STABILIZE,-35.3632621,149.1652375,27,-0.0008551384089514613,0.0008873110637068748,0.02521742507815361,0.00021898228442296386,0.00019987230189144611,0.0018324090633541346,0,1,-1000,0,0,0,-1,1,1,1500.0
08:18:55.660,STABILIZE,-35.3632621,149.1652375,27,-0.0008551384089514613,0.0008873110637068748,0.02521742507815361,0.00021898228442296386,0.00019987230189144611,0.0018324090633541346,0,1,-1000,0,0,0,-1,1,1,1500.0
08:18:55.862,STABILIZE,-35.3632621,149.1652375,27,-0.0008974872762337327,0.0009038940188474953,0.025024481117725372,0.0003095904248766601,0.0002337752957828343,0.0017737980233505368,0,1,-1000,0,0,0,-1,1,0,1500.0
08:18:56.063,STABILIZE,-35.3632621,149.1652375,27,-0.0009289330337196589,0.0009052183595485985,0.02494088187813759,0.0001901500509120524,0.00017407728591933846,0.001900030067190528,0,2,-1000,0,0,0,-1,1,0,1500.0
08:18:56.265,STABILIZE,-35.3632621,149.1652375,27,-0.0009289330337196589,0.0009052183595485985,0.02494088187813759,0.0001901500509120524,0.00017407728591933846,0.001900030067190528,0,2,-1000,0,0,0,-1,1,0,1500.0
08:18:56.467,STABILIZE,-35.3632621,149.1652375,27,-0.0009491240489296615,0.0009028182248584926,0.02486289106309414,0.00019620975945144892,0.0002926692832261324,0.0017997398972511292,0,1,-1000,0,0,0,-1,1,0,1500.0
08:18:56.668,STABILIZE,-35.3632621,149.1652375,27,-0.0009491240489296615,0.0009028182248584926,0.02486289106309414,0.00019620975945144892,0.0002926692832261324,0.0017997398972511292,0,1,-1000,0,0,0,-1,1,0,1500.0
08:18:56.870,STABILIZE,-35.3632621,149.1652375,27,-0.0009491240489296615,0.0009028182248584926,0.02486289106309414,0.00019620975945144892,0.0002926692832261324,0.0017997398972511292,0,1,-1000,0,0,0,-1,1,0,1500.0
08:18:57.072,STABILIZE,-35.3632621,149.1652375,27,-0.0009491240489296615,0.0009028182248584926,0.02486289106309414,0.00019620975945144892,0.0002926692832261324,0.0017997398972511292,0,1,-1000,0,0,0,-1,1,0,1500.0
08:18:57.274,STABILIZE,-35.3632621,149.1652375,27,-0.0009491240489296615,0.0009028182248584926,0.02486289106309414,0.00019620975945144892,0.0002926692832261324,0.0017997398972511292,0,1,-1000,0,0,0,-1,1,0,1500.0
08:18:57.476,STABILIZE,-35.3632621,149.1652375,29,-0.001032377826049924,0.0009257530909962952,0.02449343539774418,0.000184980861376971,0.00031941384077072144,0.0016640855465084314,0,1,-1000,0,0,0,-1,1,0,1500.0
08:18:57.678,STABILIZE,-35.3632621,149.1652375,29,-0.001032377826049924,0.0009257530909962952,0.02449343539774418,0.000184980861376971,0.00031941384077072144,0.0016640855465084314,0,1,-1000,0,0,0,-1,1,0,1500.0
08:18:57.879,STABILIZE,-35.3632621,149.1652375,29,-0.001032377826049924,0.0009257530909962952,0.02449343539774418,0.000184980861376971,0.00031941384077072144,0.0016640855465084314,0,1,-1000,0,0,0,-1,1,0,1500.0
08:18:58.082,STABILIZE,-35.3632622,149.1652375,30,-0.001078471657820046,0.0009371708729304373,0.02424813061952591,0.00023301428882405162,0.00031403504544869065,0.0016605103155598044,0,1,-1000,0,0,0,-1,1,0,1500.0
08:18:58.283,STABILIZE,-35.3632622,149.1652375,30,-0.001078471657820046,0.0009371708729304373,0.02424813061952591,0.00023301428882405162,0.00031403504544869065,0.0016605103155598044,0,1,-1000,0,0,0,-1,1,0,1500.0
08:18:58.485,STABILIZE,-35.3632622,149.1652375,30,-0.001078471657820046,0.0009371708729304373,0.02424813061952591,0.00023301428882405162,0.00031403504544869065,0.0016605103155598044,0,1,-1000,0,0,0,-1,1,0,1500.0
08:18:58.687,STABILIZE,-35.3632622,149.1652375,32,-0.0010943844681605697,0.0009399161208420992,0.02408938854932785,0.00027184654027223587,0.0002153259119950235,0.0016926852986216545,0,2,-1000,0,0,0,-1,1,0,1500.0
08:18:58.897,STABILIZE,-35.3632622,149.1652375,32,-0.0010943844681605697,0.0009399161208420992,0.02408938854932785,0.00027184654027223587,0.0002153259119950235,0.0016926852986216545,0,2,-1000,0,0,0,-1,1,0,1500.0
08:18:59.100,STABILIZE,-35.3632622,149.1652375,32,-0.0010943844681605697,0.0009399161208420992,0.02408938854932785,0.00027184654027223587,0.0002153259119950235,0.0016926852986216545,0,2,-1000,0,0,0,-1,1,0,1500.0
08:18:59.302,STABILIZE,-35.3632622,149.1652375,32,-0.0010943844681605697,0.0009399161208420992,0.02408938854932785,0.00027184654027223587,0.0002153259119950235,0.0016926852986216545,0,2,-1000,0,0,0,-1,1,0,1500.0
08:18:59.504,STABILIZE,-35.3632622,149.1652375,32,-0.0010943844681605697,0.0009399161208420992,0.02408938854932785,0.00027184654027223587,0.0002153259119950235,0.0016926852986216545,0,2,-1000,0,0,0,-1,1,0,1500.0
08:18:59.706,STABILIZE,-35.3632622,149.1652375,35,-0.001096563064493239,0.0009573224815540016,0.023799104616045952,0.0002400566590949893,0.00033502280712127686,0.0016569574363529682,0,1,-1000,0,0,1,-1,1,0,1500.0
08:18:59.907,STABILIZE,-35.3632622,149.1652375,36,-0.0010933367302641273,0.0009652609005570412,0.023739337921142578,0.00029788457322865725,0.00040145934326574206,0.0015450833598151803,0,1,-1000,0,0,0,-1,1,0,1500.0
08:19:00.109,STABILIZE,-35.3632622,149.1652375,36,-0.00109176489058882,0.0009583992650732398,0.023660933598876,0.00023879093350842595,0.00027048896299675107,0.0016188817098736763,0,1,-1000,0,0,0,-1,1,0,1500.0
08:19:00.311,STABILIZE,-35.3632622,149.1652375,37,-0.0010930226417258382,0.000966460385825485,0.023587951436638832,0.0002002650871872902,0.00018012459622696042,0.001617704750970006,0,2,-1000,0,0,0,-1,1,0,1500.0
08:19:00.513,STABILIZE,-35.3632622,149.1652375,37,-0.0010930226417258382,0.000966460385825485,0.023587951436638832,0.0002002650871872902,0.00018012459622696042,0.001617704750970006,0,2,-1000,0,0,0,-1,1,0,1500.0
08:19:00.715,STABILIZE,-35.3632622,149.1652375,38,-0.0010908001568168402,0.0009687738493084908,0.0235257837921381,0.0003365715965628624,0.0002527685137465596,0.001599685288965702,0,2,-1000,1,1,0,-1,1,0,1500.0
08:19:00.917,STABILIZE,-35.3632622,149.1652375,38,-0.0010908001568168402,0.0009687738493084908,0.0235257837921381,0.0003365715965628624,0.0002527685137465596,0.001599685288965702,0,2,-1000,1,1,0,-1,1,0,1500.0
08:19:01.119,STABILIZE,-35.3632622,149.1652375,38,-0.0010908001568168402,0.0009687738493084908,0.0235257837921381,0.0003365715965628624,0.0002527685137465596,0.001599685288965702,0,2,-1000,1,1,0,-1,1,0,1500.0
08:19:01.321,STABILIZE,-35.3632622,149.1652375,40,-0.0010693104704841971,0.0009739953675307333,0.02331354282796383,0.00033371447352692485,0.0003056927816942334,0.0014421488158404827,0,2,-1000,1,0,0,-1,1,0,1500.0
08:19:01.523,STABILIZE,-35.3632622,149.1652375,40,-0.0010693104704841971,0.0009739953675307333,0.02331354282796383,0.00033371447352692485,0.0003056927816942334,0.0014421488158404827,0,2,-1000,1,0,0,-1,1,0,1500.0
08:19:01.725,STABILIZE,-35.3632622,149.1652375,45,-0.0010638399980962276,0.0009831821080297232,0.023238759487867355,0.0002553384401835501,0.0002821761299856007,0.0015058380085974932,0,1,-1000,0,1,0,-1,0,-3,1500.0
08:19:01.927,STABILIZE,-35.3632622,149.1652375,45,-0.0010638399980962276,0.0009831821080297232,0.023238759487867355,0.0002553384401835501,0.0002821761299856007,0.0015058380085974932,0,1,-1000,1,0,0,-1,0,-3,1500.0
08:19:02.128,STABILIZE,-35.3632622,149.1652375,53,-0.0009341616532765329,0.0009911666857078671,0.023098306730389595,0.0003134285216219723,0.000289060000795871,0.0016514697344973683,0,1,-1000,0,0,0,-1,0,-3,1500.0
08:19:02.330,STABILIZE,-35.3632622,149.1652375,53,-0.0009341616532765329,0.0009911666857078671,0.023098306730389595,0.0003134285216219723,0.000289060000795871,0.0016514697344973683,0,1,-1000,0,0,0,-1,0,-3,1500.0
08:19:02.532,STABILIZE,-35.3632622,149.1652375,53,-0.0009341616532765329,0.0009911666857078671,0.023098306730389595,0.0003134285216219723,0.000289060000795871,0.0016514697344973683,0,1,-1000,0,0,0,-1,0,-3,1500.0
08:19:02.733,STABILIZE,-35.3632622,149.1652375,53,-0.0009341616532765329,0.0009911666857078671,0.023098306730389595,0.0003134285216219723,0.000289060000795871,0.0016514697344973683,0,1,-1000,0,0,0,-1,0,-3,1500.0
08:19:02.935,AUTO,-35.3632622,149.1652375,53,-0.0009341616532765329,0.0009911666857078671,0.023098306730389595,0.0003134285216219723,0.000289060000795871,0.0016514697344973683,0,1,-1000,0,0,0,-1,0,-3,1500.0
08:19:03.137,AUTO,-35.3632622,149.1652375,53,-0.0009341616532765329,0.0009911666857078671,0.023098306730389595,0.0003134285216219723,0.000289060000795871,0.0016514697344973683,0,1,-1000,0,0,0,-1,0,-3,1500.0
08:19:03.339,AUTO,-35.3632622,149.1652375,2,-0.0006726851570419967,0.001012367894873023,0.022800061851739883,0.00027505710022524,0.00027738604694604874,0.0015479950234293938,0,1,-1000,0,1,0,-1,0,-2,1500.0
08:19:03.541,AUTO,-35.3632622,149.1652375,4,-0.0006442621815949678,0.0010201989207416773,0.02272726036608219,0.00032246409682556987,0.00024731847224757075,0.0014769425615668297,0,1,-1000,0,0,0,-1,0,-2,1500.0
08:19:03.742,AUTO,-35.3632622,149.1652375,4,-0.0006442621815949678,0.0010201989207416773,0.02272726036608219,0.00032246409682556987,0.00024731847224757075,0.0014769425615668297,0,1,-1000,0,0,0,-1,0,-2,1500.0
08:19:03.947,AUTO,-35.3632621,149.1652375,5,-0.0006101665203459561,0.001033241394907236,0.022656744346022606,0.0003921746974810958,0.0002969679771922529,0.0014848008286207914,0,1,-1000,0,0,0,-1,0,-2,1500.0
08:19:04.149,AUTO,-35.3632621,149.1652375,6,-0.0005750103737227619,0.0010582376271486282,0.022575033828616142,0.0002709419932216406,0.0003695813356898725,0.001528079272247851,0,1,-1000,0,0,0,0,0,-2,1500.0
08:19:04.352,AUTO,-35.3632621,149.1652375,7,-0.0005347402184270322,0.0010960863437503576,0.022496001794934273,0.0003064788761548698,0.000318281352519989,0.0014828583225607872,0,1,-1000,0,1,0,0,0,-1,1500.0
08:19:04.555,AUTO,-35.3632621,149.1652375,8,-0.00047968418220989406,0.0011500909458845854,0.02242175303399563,0.00034445675555616617,0.00029178254771977663,0.0014377059414982796,0,1,-1000,0,0,0,0,0,-1,1500.0
08:19:04.757,AUTO,-35.3632621,149.1652375,8,-0.00047968418220989406,0.0011500909458845854,0.02242175303399563,0.00034445675555616617,0.00029178254771977663,0.0014377059414982796,0,1,-1000,0,0,0,0,0,-1,1500.0
08:19:04.959,AUTO,-35.3632621,149.1652375,8,-0.00047968418220989406,0.0011500909458845854,0.02242175303399563,0.00034445675555616617,0.00029178254771977663,0.0014377059414982796,0,1,-1000,0,0,0,0,0,-1,1500.0
08:19:05.161,AUTO,-35.3632621,149.1652375,8,-0.00047968418220989406,0.0011500909458845854,0.02242175303399563,0.00034445675555616617,0.00029178254771977663,0.0014377059414982796,0,1,-1000,0,0,0,0,0,-1,1500.0
08:19:05.363,AUTO,-35.3632621,149.1652375,4,2.176306770707015e-05,0.0013498419430106878,0.022154442965984344,0.00027674867305904627,0.0002655237913131714,0.001458796439692378,0,1,-1000,1,0,0,0,1,0,1500.0
08:19:05.598,AUTO,-35.3632621,149.1652375,3,8.75100158737041e-05,0.0014199233846738935,0.022051436826586723,0.00030382885597646236,0.0003275460912846029,0.0013969007413834333,0,1,-1000,1,0,1,0,1,0,1500.0
08:19:05.894,AUTO,-35.3632621,149.1652375,3,0.00015848329348955303,0.001496547949500382,0.02195623144507408,0.0002799649955704808,0.00026737659936770797,0.0013997643254697323,0,2,-1000,0,1,0,0,0,0,1500.0
08:19:06.112,AUTO,-35.3632621,149.1652375,2,0.00022705391165800393,0.0015715196495875716,0.021859632804989815,0.00037072249688208103,0.00024727446725592017,0.0015142473857849836,0,1,-1000,0,0,0,0,0,0,1500.0
08:19:06.374,AUTO,-35.3632621,149.1652375,2,0.0002991687215398997,0.0016488753026351333,0.021761195734143257,0.00032999750692397356,0.0003076122375205159,0.0014784781960770488,0,1,-1000,1,0,0,0,0,0,1500.0
08:19:06.584,AUTO,-35.3632621,149.1652375,1,0.0003778132377192378,0.0017230947269126773,0.02165738306939602,0.00039121799636632204,0.0003639020142145455,0.0013996571069583297,0,1,-1000,0,0,0,0,0,0,1500.0
08:19:06.787,AUTO,-35.3632621,149.1652375,1,0.0003778132377192378,0.0017230947269126773,0.02165738306939602,0.00039121799636632204,0.0003639020142145455,0.0013996571069583297,0,1,-1000,0,0,0,0,0,0,1500.0
08:19:06.995,AUTO,-35.3632621,149.1652375,1,0.0003778132377192378,0.0017230947269126773,0.02165738306939602,0.00039121799636632204,0.0003639020142145455,0.0013996571069583297,0,1,-1000,0,0,0,0,0,0,1500.0
08:19:07.197,AUTO,-35.3632621,149.1652375,1,0.0003778132377192378,0.0017230947269126773,0.02165738306939602,0.00039121799636632204,0.0003639020142145455,0.0013996571069583297,0,1,-1000,0,0,0,0,0,0,1500.0
08:19:07.402,AUTO,-35.3632621,149.1652375,194,0.0036389108281582594,0.00014599182759411633,0.021444199606776237,0.003634116379544139,0.005094605498015881,0.0013584900880232453,0,0,-1130,4,5,1,0,1,-71,81353.0
08:19:07.603,AUTO,-35.3632621,149.1652375,194,0.0036389108281582594,0.00014599182759411633,0.021444199606776237,0.003634116379544139,0.005094605498015881,0.0013584900880232453,0,0,-1130,4,5,1,0,1,-71,81353.0
08:19:07.805,AUTO,-35.3632621,149.1652375,409,0.0027376904617995024,0.0011998723493888974,0.021397700533270836,-0.007382208481431007,0.0027445198502391577,0.0010516735492274165,0,0,-1110,-6,3,0,0,1,-100,81353.0
08:19:08.006,AUTO,-35.3632621,149.1652375,692,0.0024600073229521513,0.0016901812050491571,0.02130042389035225,0.004101088270545006,-0.0005185563350096345,-0.0008544408483430743,0,0,-1088,4,0,-1,0,1,-124,81353.0
08:19:08.208,AUTO,-35.3632621,149.1652375,1027,0.011851546354591846,0.0007469295524060726,0.020883886143565178,0.04751399904489517,-0.005812006536871195,0.0011261282488703728,0,0,-1040,48,-5,0,0,2,-138,81353.0
08:19:08.410,AUTO,-35.3632621,149.1652375,1390,0.023643892258405685,-0.0009411809733137488,0.02080419845879078,0.04689504951238632,-0.0070171598345041275,0.00209365994669497,0,0,-1017,47,-6,1,0,5,-144,81353.0
08:19:08.612,AUTO,-35.3632621,149.1652375,1390,0.023643892258405685,-0.0009411809733137488,0.02080419845879078,0.04689504951238632,-0.0070171598345041275,0.00209365994669497,0,0,-1017,47,-6,1,0,5,-144,81353.0
08:19:08.814,AUTO,-35.363262,149.1652377,1765,0.03509439900517464,-0.0028749776538461447,0.020876094698905945,0.045110803097486496,-0.008466815575957298,0.0027289562858641148,0,-1,-1007,45,-7,2,1,12,-147,81353.0
08:19:09.015,AUTO,-35.363262,149.1652377,1765,0.03509439900517464,-0.0028749776538461447,0.020876094698905945,0.045110803097486496,-0.008466815575957298,0.0027289562858641148,0,-1,-1007,45,-7,2,1,12,-147,81353.0
08:19:09.217,AUTO,-35.363262,149.1652377,1765,0.03509439900517464,-0.0028749776538461447,0.020876094698905945,0.045110803097486496,-0.008466815575957298,0.0027289562858641148,0,-1,-1007,45,-7,2,1,12,-147,81353.0
08:19:09.419,AUTO,-35.3632616,149.1652398,2913,0.06282074004411697,-0.009095780551433563,-0.010167243890464306,-0.015118064358830452,0.02320317178964615,-0.04463396593928337,1,-7,-992,-14,23,-45,8,44,-147,81353.0
08:19:09.621,AUTO,-35.3632616,149.1652398,2913,0.06282074004411697,-0.009095780551433563,-0.010167243890464306,-0.015118064358830452,0.02320317178964615,-0.04463396593928337,1,-7,-992,-14,23,-45,8,44,-147,81353.0
08:19:09.823,AUTO,-35.3632614,149.1652411,3291,0.0414155051112175,0.01322704553604126,-0.03279184550046921,-0.14232054352760315,0.09838913381099701,-0.1030484214425087,3,-10,-991,-141,98,-103,10,53,-145,81353.0
08:19:10.025,AUTO,-35.3632611,149.1652426,3673,-0.003127042669802904,0.023773817345499992,-0.053018298000097275,-0.1446094661951065,-0.002571014454588294,-0.06747912615537643,5,-11,-1007,-143,-1,-67,6,54,-144,81353.0
08:19:10.227,AUTO,-35.363261,149.165244,4050,-0.024612758308649063,0.016871387138962746,-0.06363078951835632,-0.05041149631142616,-0.034747883677482605,-0.03809567913413048,5,-11,-1010,-49,-34,-38,3,47,-147,81353.0
08:19:10.429,AUTO,-35.3632609,149.1652451,4431,-0.033122092485427856,0.008775186724960804,-0.07055186480283737,-0.03832849860191345,-0.02274981513619423,-0.030737221240997314,4,-9,-1004,-37,-22,-31,1,37,-148,81353.0
08:19:10.632,AUTO,-35.3632609,149.1652451,4431,-0.033122092485427856,0.008775186724960804,-0.07055186480283737,-0.03832849860191345,-0.02274981513619423,-0.030737221240997314,4,-9,-1004,-37,-22,-31,1,37,-148,81353.0
08:19:10.834,AUTO,-35.3632608,149.165246,4815,-0.0478714294731617,0.00415875343605876,-0.07746274024248123,-0.07275708019733429,-0.00974301714450121,-0.03185391053557396,3,-5,-1000,-72,-9,-32,1,24,-148,81353.0
08:19:11.036,AUTO,-35.3632608,149.165246,4815,-0.0478714294731617,0.00415875343605876,-0.07746274024248123,-0.07275708019733429,-0.00974301714450121,-0.03185391053557396,3,-5,-1000,-72,-9,-32,1,24,-148,81353.0
08:19:11.238,AUTO,-35.3632608,149.165246,4815,-0.0478714294731617,0.00415875343605876,-0.07746274024248123,-0.07275708019733429,-0.00974301714450121,-0.03185391053557396,3,-5,-1000,-72,-9,-32,1,24,-148,81353.0
08:19:11.482,AUTO,-35.3632608,149.1652458,5956,-0.06786554306745529,-0.00031006641802378,-0.09825006872415543,0.05150393024086952,-0.0026095921639353037,-0.01792163960635662,-1,4,-1002,52,-2,-18,-2,-29,-148,81353.0
08:19:11.839,AUTO,-35.3632609,149.1652449,6340,-0.05410938709974289,-0.0005359953502193093,-0.10244534909725189,0.05760638415813446,0.002428482286632061,-0.01192356925457716,-3,7,-1000,58,3,-12,-4,-43,-148,81353.0
08:19:12.133,AUTO,-35.3632609,149.1652436,6723,-0.03917485475540161,0.0006110705435276031,-0.10507053881883621,0.062103018164634705,0.006825563032180071,-0.006962573155760765,-5,9,-1001,62,7,-7,-6,-52,-148,81353.0
08:19:12.371,AUTO,-35.3632611,149.1652421,7107,-0.023317774757742882,0.002738163573667407,-0.1065872311592102,0.06527620553970337,0.009670060127973557,-0.0033487053588032722,-6,11,-1002,65,10,-3,-8,-58,-149,81353.0
08:19:12.669,AUTO,-35.3632616,149.1652388,7879,0.009967642836272717,0.008105384185910225,-0.10698206722736359,0.06750141829252243,0.01054313313215971,0.0008495975052937865,-5,12,-1004,67,11,0,-12,-56,-151,81353.0
08:19:12.872,AUTO,-35.3632616,149.1652388,7879,0.009967642836272717,0.008105384185910225,-0.10698206722736359,0.06750141829252243,0.01054313313215971,0.0008495975052937865,-5,12,-1004,67,11,0,-12,-56,-151,81353.0
08:19:13.074,AUTO,-35.3632616,149.1652388,7879,0.009967642836272717,0.008105384185910225,-0.10698206722736359,0.06750141829252243,0.01054313313215971,0.0008495975052937865,-5,12,-1004,67,11,0,-12,-56,-151,81353.0
08:19:13.276,AUTO,-35.3632616,149.1652388,7879,0.009967642836272717,0.008105384185910225,-0.10698206722736359,0.06750141829252243,0.01054313313215971,0.0008495975052937865,-5,12,-1004,67,11,0,-12,-56,-151,81353.0
08:19:13.479,AUTO,-35.3632626,149.1652349,9060,0.05938372388482094,0.012197204865515232,-0.10403915494680405,0.062497492879629135,-0.0014153477968648076,0.00447208434343338,-2,9,-1002,62,0,4,-19,-24,-153,130607.0
08:19:13.681,AUTO,-35.3632631,149.1652344,9452,0.07087825983762741,0.008272520266473293,-0.09942146390676498,0.010944275185465813,-0.04339061304926872,0.044889554381370544,1,6,-996,11,-42,44,-19,-7,-152,130607.0
08:19:13.883,AUTO,-35.3632631,149.1652344,9452,0.07087825983762741,0.008272520266473293,-0.09942146390676498,0.010944275185465813,-0.04339061304926872,0.044889554381370544,1,6,-996,11,-42,44,-19,-7,-152,130607.0
08:19:14.084,AUTO,-35.3632635,149.1652344,9841,0.06355910003185272,-0.015178174711763859,-0.08038219809532166,-0.05213648080825806,-0.11917275190353394,0.10941402614116669,4,2,-995,-51,-118,108,-16,9,-150,130607.0
08:19:14.286,AUTO,-35.3632637,149.1652347,10227,0.044812485575675964,-0.04614780470728874,-0.05429506301879883,-0.10148176550865173,-0.0757695883512497,0.07779287546873093,3,-1,-994,-100,-75,77,-6,20,-149,130607.0
08:19:14.488,AUTO,-35.3632637,149.1652352,10609,0.0168351698666811,-0.04647976905107498,-0.04784382879734039,-0.10404164344072342,0.04658404737710953,-0.008922724053263664,2,-4,-999,-103,47,-9,7,25,-148,130607.0
08:19:14.691,AUTO,-35.3632636,149.1652359,10990,-0.0045145414769649506,-0.03024027869105339,-0.056893009692430496,-0.06990939378738403,0.07052353024482727,-0.05635488033294678,0,-6,-1003,-69,71,-56,17,24,-148,130607.0
08:19:14.903,AUTO,-35.3632636,149.1652359,10990,-0.0045145414769649506,-0.03024027869105339,-0.056893009692430496,-0.06990939378738403,0.07052353024482727,-0.05635488033294678,0,-6,-1003,-69,71,-56,17,24,-148,130607.0
08:19:15.105,AUTO,-35.3632636,149.1652359,10990,-0.0045145414769649506,-0.03024027869105339,-0.056893009692430496,-0.06990939378738403,0.07052353024482727,-0.05635488033294678,0,-6,-1003,-69,71,-56,17,24,-148,130607.0
08:19:15.308,AUTO,-35.3632636,149.1652359,10990,-0.0045145414769649506,-0.03024027869105339,-0.056893009692430496,-0.06990939378738403,0.07052353024482727,-0.05635488033294678,0,-6,-1003,-69,71,-56,17,24,-148,130607.0
08:19:15.510,AUTO,-35.3632621,149.1652369,12144,-0.022651158273220062,0.004250767175108194,-0.1092183068394661,0.004203115124255419,0.029034264385700226,-0.06210329011082649,-4,-4,-1003,4,29,-62,22,2,-151,130607.0
08:19:15.711,AUTO,-35.3632616,149.1652369,12532,-0.019066227599978447,0.009471477940678596,-0.12422804534435272,0.02006261609494686,0.021302856504917145,-0.055135201662778854,-3,-2,-1002,20,22,-55,19,-3,-152,130607.0
08:19:15.913,AUTO,-35.3632612,149.1652368,12926,-0.013789602555334568,0.013834056444466114,-0.1370612531900406,0.02630067989230156,0.01621469110250473,-0.043318796902894974,-4,-2,-1001,26,17,-43,15,-8,-152,130607.0
08:19:16.115,AUTO,-35.3632612,149.1652368,12926,-0.013789602555334568,0.013834056444466114,-0.1370612531900406,0.02630067989230156,0.01621469110250473,-0.043318796902894974,-4,-2,-1001,26,17,-43,15,-8,-152,130607.0
08:19:16.316,AUTO,-35.3632608,149.1652365,13316,-0.0062832459807395935,0.016909340396523476,-0.1470973938703537,0.030801402404904366,0.010362816043198109,-0.03248494863510132,-4,0,-1001,31,11,-32,10,-11,-152,130607.0
08:19:16.518,AUTO,-35.3632606,149.1652362,13708,0.0007408919045701623,0.018375353887677193,-0.15403273701667786,0.028180962428450584,0.0027692837174981833,-0.020484227687120438,-3,0,-1000,28,3,-20,6,-11,-152,130607.0
08:19:16.720,AUTO,-35.3632605,149.1652358,14099,0.007009707856923342,0.018636077642440796,-0.15847858786582947,0.021692369133234024,-0.000976955983787775,-0.0127379996702075,-3,1,-999,22,0,-13,1,-10,-152,130607.0
08:19:16.923,AUTO,-35.3632605,149.1652358,14099,0.007009707856923342,0.018636077642440796,-0.15847858786582947,0.021692369133234024,-0.000976955983787775,-0.0127379996702075,-3,1,-999,22,0,-13,1,-10,-152,130607.0
08:19:17.125,AUTO,-35.3632605,149.1652358,14099,0.007009707856923342,0.018636077642440796,-0.15847858786582947,0.021692369133234024,-0.000976955983787775,-0.0127379996702075,-3,1,-999,22,0,-13,1,-10,-152,130607.0
08:19:17.342,AUTO,-35.3632605,149.1652358,14099,0.007009707856923342,0.018636077642440796,-0.15847858786582947,0.021692369133234024,-0.000976955983787775,-0.0127379996702075,-3,1,-999,22,0,-13,1,-10,-152,130607.0
08:19:17.637,AUTO,-35.3632605,149.1652352,15267,0.015230879187583923,0.013050371780991554,-0.16087470948696136,-0.0006125708459876478,-0.009269880130887032,0.0008651361567899585,0,1,-999,0,-8,0,-7,0,-152,130607.0
08:19:17.996,AUTO,-35.3632609,149.1652351,16044,0.012401698157191277,0.008435957133769989,-0.16091202199459076,-0.008058646693825722,-0.008565901778638363,-0.004296016879379749,1,0,-1000,-7,-8,-4,-10,5,-152,130607.0
08:19:18.324,AUTO,-35.363261,149.1652352,16432,0.00986231304705143,0.00668430607765913,-0.1622231900691986,-0.00910742674022913,-0.006719475146383047,-0.007475983817130327,1,0,-1000,-8,-6,-7,-10,7,-152,130607.0
08:19:18.583,AUTO,-35.3632612,149.1652354,16821,0.00769108347594738,0.00441881874576211,-0.16371466219425201,-0.005468911491334438,-0.007792923599481583,-0.007448276970535517,2,0,-1000,-4,-7,-7,-10,8,-152,130607.0
08:19:18.785,AUTO,-35.3632614,149.1652355,17209,0.005755674559623003,0.002557433908805251,-0.16604407131671906,-0.006562965922057629,-0.006621214095503092,-0.010743211954832077,2,0,-1000,-5,-5,-10,-9,8,-152,130607.0
08:19:18.993,AUTO,-35.3632614,149.1652355,17209,0.005755674559623003,0.002557433908805251,-0.16604407131671906,-0.006562965922057629,-0.006621214095503092,-0.010743211954832077,2,0,-1000,-5,-5,-10,-9,8,-152,130607.0
08:19:19.195,AUTO,-35.3632614,149.1652355,17209,0.005755674559623003,0.002557433908805251,-0.16604407131671906,-0.006562965922057629,-0.006621214095503092,-0.010743211954832077,2,0,-1000,-5,-5,-10,-9,8,-152,14730.0
08:19:19.404,AUTO,-35.3632618,149.165236,18375,-0.010362637229263783,-0.00010850651597138494,-0.17848655581474304,-0.08062607795000076,-0.0012901885202154517,-0.020868241786956787,1,0,-995,-80,0,-21,-6,6,-151,14730.0
08:19:19.605,AUTO,-35.3632618,149.165236,18375,-0.010362637229263783,-0.00010850651597138494,-0.17848655581474304,-0.08062607795000076,-0.0012901885202154517,-0.020868241786956787,1,0,-995,-80,0,-21,-6,6,-151,14730.0
08:19:19.807,AUTO,-35.3632619,149.165236,18760,-0.036042191088199615,-0.0005969575722701848,-0.18419036269187927,-0.1122603490948677,-0.001430027885362506,-0.023164929822087288,2,0,-996,-111,-1,-23,-6,0,-150,14730.0
08:19:20.008,AUTO,-35.363262,149.1652359,19141,-0.05585964769124985,0.00982285849750042,-0.17079134285449982,-0.035127684473991394,0.08733291923999786,0.16540496051311493,0,2,-981,-34,87,165,-8,-12,-147,14730.0
08:19:20.210,AUTO,-35.3632622,149.1652353,19510,-0.05727777257561684,0.04111117497086525,-0.09322888404130936,-0.009457494132220745,0.10542405396699905,0.44711369276046753,0,4,-980,-8,106,446,-16,-25,-141,14730.0
08:19:20.412,AUTO,-35.3632627,149.1652344,19860,-0.03874452784657478,0.04513540863990784,0.008371503092348576,0.11755123734474182,-0.11667332053184509,0.3131769895553589,1,8,-954,118,-116,313,-27,-35,-132,14730.0
08:19:20.614,AUTO,-35.3632627,149.1652344,19860,-0.03874452784657478,0.04513540863990784,0.008371503092348576,0.11755123734474182,-0.11667332053184509,0.3131769895553589,1,8,-954,118,-116,313,-27,-35,-132,14730.0
08:19:20.816,AUTO,-35.3632633,149.1652333,20182,-0.0006394816446118057,0.0057328431867063046,0.05958421528339386,0.14789900183677673,-0.1674855351448059,0.11165136843919754,0,11,-954,148,-166,111,-32,-38,-120,14730.0
08:19:21.018,AUTO,-35.3632633,149.1652333,20182,-0.0006394816446118057,0.0057328431867063046,0.05958421528339386,0.14789900183677673,-0.1674855351448059,0.11165136843919754,0,11,-954,148,-166,111,-32,-38,-120,14730.0
08:19:21.221,AUTO,-35.3632633,149.1652333,20182,-0.0006394816446118057,0.0057328431867063046,0.05958421528339386,0.14789900183677673,-0.1674855351448059,0.11165136843919754,0,11,-954,148,-166,111,-32,-38,-120,14730.0
08:19:21.423,AUTO,-35.3632648,149.1652311,20984,0.0629461407661438,-0.04134804382920265,0.05150612071156502,0.013341881334781647,0.004215420689433813,-0.038834284991025925,1,4,-964,14,4,-39,-10,-5,-89,14730.0
08:19:21.625,AUTO,-35.3632648,149.1652311,20984,0.0629461407661438,-0.04134804382920265,0.05150612071156502,0.013341881334781647,0.004215420689433813,-0.038834284991025925,1,4,-964,14,4,-39,-10,-5,-89,14730.0
08:19:21.826,AUTO,-35.363265,149.165231,21201,0.06203547492623329,-0.03719013184309006,0.04426565766334534,-0.0191133264452219,0.022527504712343216,-0.02266792580485344,0,0,-968,-18,23,-22,-1,9,-80,14730.0
08:19:22.028,AUTO,-35.3632649,149.1652313,21397,0.05471178516745567,-0.029750114306807518,0.04065955802798271,-0.0342428982257843,0.031892500817775726,-0.0082000233232975,0,-3,-972,-33,32,-8,6,22,-72,14730.0
08:19:22.230,AUTO,-35.3632648,149.1652319,21573,0.04436859115958214,-0.02098557911813259,0.0394570417702198,-0.04534345120191574,0.03670566901564598,0.0009832991054281592,0,-6,-974,-44,37,0,12,31,-65,14730.0
08:19:22.432,AUTO,-35.3632644,149.1652328,21732,0.03313155472278595,-0.011871952563524246,0.03923918306827545,-0.04701460152864456,0.035042744129896164,0.005158458836376667,0,-9,-975,-46,35,4,16,38,-59,14730.0
08:19:22.634,AUTO,-35.3632644,149.1652328,21732,0.03313155472278595,-0.011871952563524246,0.03923918306827545,-0.04701460152864456,0.035042744129896164,0.005158458836376667,0,-9,-975,-46,35,4,16,38,-59,14730.0
08:19:22.836,AUTO,-35.363264,149.1652338,21875,0.021571636199951172,-0.0029160582926124334,0.038989484310150146,-0.04571780189871788,0.03308951482176781,0.0017831926234066486,0,-10,-977,-44,34,1,19,41,-53,14730.0
08:19:23.038,AUTO,-35.363264,149.1652338,21875,0.021571636199951172,-0.0029160582926124334,0.038989484310150146,-0.04571780189871788,0.03308951482176781,0.0017831926234066486,0,-10,-977,-44,34,1,19,41,-53,14730.0
08:19:23.253,AUTO,-35.363264,149.1652338,21875,0.021571636199951172,-0.0029160582926124334,0.038989484310150146,-0.04571780189871788,0.03308951482176781,0.0017831926234066486,0,-10,-977,-44,34,1,19,41,-53,14730.0
08:19:23.486,AUTO,-35.3632626,149.1652369,22216,-0.003211191389709711,0.012517992407083511,0.036900464445352554,-0.021573428064584732,0.013221598230302334,0.0009942413307726383,0,-9,-977,-20,13,0,16,35,-37,14730.0
08:19:23.856,AUTO,-35.3632622,149.1652378,22300,-0.007860157638788223,0.015076695010066032,0.03634820878505707,-0.016880586743354797,0.007521787658333778,-0.001509999972768128,0,-8,-976,-15,8,-1,14,31,-31,14730.0
08:19:24.183,AUTO,-35.3632617,149.1652391,22422,-0.011700380593538284,0.015119114890694618,0.03493007272481918,-0.002892102114856243,-0.0018262005178257823,-0.0022574099712073803,0,-6,-973,-2,0,-2,8,21,-18,14730.0
08:19:24.385,AUTO,-35.3632617,149.1652391,22422,-0.011700380593538284,0.015119114890694618,0.03493007272481918,-0.002892102114856243,-0.0018262005178257823,-0.0022574099712073803,0,-6,-973,-2,0,-2,8,21,-18,14730.0
08:19:24.588,AUTO,-35.3632615,149.1652396,22458,-0.01205391064286232,0.014256104826927185,0.034148406237363815,-0.006616006605327129,-0.0041604856960475445,-0.0033039741683751345,0,-4,-970,-5,-3,-3,5,16,-11,14730.0
08:19:24.791,AUTO,-35.3632613,149.16524,22474,-0.011286706663668156,0.012443231418728828,0.033396922051906586,0.017771992832422256,-0.008348644711077213,-0.003481191350147128,0,-2,-965,18,-7,-3,3,12,-3,14730.0
08:19:24.998,AUTO,-35.3632613,149.16524,22474,-0.011286706663668156,0.012443231418728828,0.033396922051906586,0.017771992832422256,-0.008348644711077213,-0.003481191350147128,0,-2,-965,18,-7,-3,3,12,-3,14730.0
08:19:25.206,AUTO,-35.3632613,149.16524,22474,-0.011286706663668156,0.012443231418728828,0.033396922051906586,0.017771992832422256,-0.008348644711077213,-0.003481191350147128,0,-2,-965,18,-7,-3,3,12,-3,34811.0
08:19:25.408,AUTO,-35.3632614,149.1652398,22364,0.0044136568903923035,0.007446154486387968,0.03126201033592224,-0.5206173062324524,-0.03186435624957085,-0.006084909662604332,-1,-35,-1006,-520,-31,-5,-7,-9,20,34811.0
08:19:25.610,AUTO,-35.3632614,149.1652398,22364,0.0044136568903923035,0.007446154486387968,0.03126201033592224,-0.5206173062324524,-0.03186435624957085,-0.006084909662604332,-1,-35,-1006,-520,-31,-5,-7,-9,20,34811.0
08:19:25.811,AUTO,-35.3632614,149.1652398,22313,0.024123605340719223,0.0011787712574005127,0.030396323651075363,-0.5137730836868286,-0.018431760370731354,-0.0020431384909898043,1,-14,-1019,-512,-17,-2,-8,-2,17,34811.0
08:19:26.013,AUTO,-35.3632616,149.1652398,22270,0.05395160987973213,-0.0022170094307512045,0.029340632259845734,0.3558211028575897,-0.009113606065511703,-0.0015468562487512827,1,25,-1030,357,-8,-1,-7,8,11,34811.0
08:19:26.215,AUTO,-35.3632617,149.1652401,22239,0.08032432198524475,-0.004168947692960501,0.028278473764657974,0.6749582886695862,-0.006169122643768787,-0.0027752851601690054,4,28,-1021,676,-5,-3,-6,23,7,34811.0
08:19:26.417,AUTO,-35.3632618,149.1652409,22219,0.08911072462797165,-0.004184531047940254,0.027596520259976387,-0.040387675166130066,0.002146068960428238,-0.0029735222924500704,5,-26,-1010,-40,2,-2,-3,39,4,34811.0
08:19:26.619,AUTO,-35.3632618,149.1652409,22219,0.08911072462797165,-0.004184531047940254,0.027596520259976387,-0.040387675166130066,0.002146068960428238,-0.0029735222924500704,5,-26,-1010,-40,2,-2,-3,39,4,34811.0
08:19:26.821,AUTO,-35.3632618,149.1652423,22205,0.09094614535570145,-0.005844146013259888,0.057066094130277634,-0.583713710308075,-0.0060356310568749905,0.19791126251220703,8,-42,-1011,-583,-5,197,-1,59,2,34811.0
08:19:27.023,AUTO,-35.3632618,149.1652423,22205,0.09094614535570145,-0.005844146013259888,0.057066094130277634,-0.583713710308075,-0.0060356310568749905,0.19791126251220703,8,-42,-1011,-583,-5,197,-1,59,2,34811.0
08:19:27.225,AUTO,-35.3632618,149.1652423,22205,0.09094614535570145,-0.005844146013259888,0.057066094130277634,-0.583713710308075,-0.0060356310568749905,0.19791126251220703,8,-42,-1011,-583,-5,197,-1,59,2,34811.0
08:19:27.429,AUTO,-35.3632617,149.1652498,22183,0.13548544049263,-0.020626435056328773,0.23084156215190887,0.26336485147476196,0.005774392746388912,0.21573315560817719,9,-32,-1006,263,6,215,5,127,0,34811.0
08:19:27.631,AUTO,-35.3632617,149.1652498,22183,0.13548544049263,-0.020626435056328773,0.23084156215190887,0.26336485147476196,0.005774392746388912,0.21573315560817719,9,-32,-1006,263,6,215,5,127,0,34811.0
08:19:27.833,AUTO,-35.3632615,149.1652538,22177,0.13538657128810883,-0.026389524340629578,0.283633291721344,-0.4496423602104187,-0.00041698681889101863,0.20362873375415802,11,-63,-1000,-449,0,203,7,153,0,34811.0
08:19:28.035,AUTO,-35.3632613,149.1652585,22168,0.14240142703056335,-0.031673021614551544,0.3344467580318451,-0.12687890231609344,-0.0017029480077326298,0.2016255259513855,8,-42,-1007,-125,0,201,9,180,1,34811.0
08:19:28.237,AUTO,-35.3632611,149.165264,22158,0.1572827249765396,-0.03913288563489914,0.38304784893989563,0.475066214799881,-0.007582885678857565,0.1994730532169342,6,-24,-1003,476,-6,199,10,209,1,34811.0
08:19:28.439,AUTO,-35.3632609,149.1652703,22146,0.16590158641338348,-0.04883620887994766,0.431537926197052,0.10697987675666809,0.0028842217288911343,0.1944565623998642,9,-61,-1002,107,3,194,12,237,1,34811.0
08:19:28.642,AUTO,-35.3632606,149.1652774,22134,0.16760189831256866,-0.05728096514940262,0.48003867268562317,-0.33871105313301086,-0.0017346927197650075,0.1956527978181839,5,-86,-1001,-338,0,195,13,268,2,34811.0
08:19:28.845,AUTO,-35.3632606,149.1652774,22134,0.16760189831256866,-0.05728096514940262,0.48003867268562317,-0.33871105313301086,-0.0017346927197650075,0.1956527978181839,5,-86,-1001,-338,0,195,13,268,2,34811.0
08:19:29.047,AUTO,-35.3632606,149.1652774,22134,0.16760189831256866,-0.05728096514940262,0.48003867268562317,-0.33871105313301086,-0.0017346927197650075,0.1956527978181839,5,-86,-1001,-338,0,195,13,268,2,34811.0
08:19:29.301,AUTO,-35.3632606,149.1652774,22134,0.16760189831256866,-0.05728096514940262,0.48003867268562317,-0.33871105313301086,-0.0017346927197650075,0.1956527978181839,5,-86,-1001,-338,0,195,13,268,2,34811.0
08:19:29.547,AUTO,-35.3632597,149.1653041,22094,0.16481338441371918,-0.0675082802772522,0.6315746307373047,-0.19748063385486603,0.002645279746502638,0.20172855257987976,-7,-103,-998,-197,3,201,17,354,1,34811.0
08:19:29.763,AUTO,-35.3632594,149.1653145,22083,0.16354699432849884,-0.07686679065227509,0.681157648563385,-0.060077257454395294,-0.018057720735669136,0.19862127304077148,-16,-89,-1002,-58,-17,198,16,380,1,34811.0
08:19:29.993,AUTO,-35.363259,149.1653256,22070,0.1673894226551056,-0.0868912786245346,0.7306624054908752,0.18848377466201782,-0.00507950596511364,0.1956179440021515,-16,-92,-1001,189,-4,195,17,406,2,34811.0
08:19:30.245,AUTO,-35.3632587,149.1653375,22056,0.16872772574424744,-0.09589032083749771,0.7795170545578003,-0.04180523380637169,-0.00139783532358706,0.1995663344860077,-21,-114,-1000,-41,0,199,18,432,3,34811.0
08:19:30.447,AUTO,-35.3632583,149.16535,22041,0.17071697115898132,-0.10709942877292633,0.8278864026069641,-0.005196375772356987,-0.017046887427568436,0.1976735144853592,-34,-112,-994,-4,-16,197,19,457,3,34811.0
08:19:30.650,AUTO,-35.3632579,149.1653633,22023,0.17643851041793823,-0.12159014493227005,0.8759498000144958,0.1449325978755951,-0.022459130734205246,0.19731546938419342,-45,-95,-994,145,-21,197,20,484,5,34811.0
08:19:30.859,AUTO,-35.3632579,149.1653633,22023,0.17643851041793823,-0.12159014493227005,0.8759498000144958,0.1449325978755951,-0.022459130734205246,0.19731546938419342,-45,-95,-994,145,-21,197,20,484,5,34811.0
08:19:31.064,AUTO,-35.3632579,149.1653633,22023,0.17643851041793823,-0.12159014493227005,0.8759498000144958,0.1449325978755951,-0.022459130734205246,0.19731546938419342,-45,-95,-994,145,-21,197,20,484,5,34811.0
08:19:31.267,AUTO,-35.3632579,149.1653633,22023,0.17643851041793823,-0.12159014493227005,0.8759498000144958,0.1449325978755951,-0.022459130734205246,0.19731546938419342,-45,-95,-994,145,-21,197,20,484,5,60870.0
08:19:31.470,AUTO,-35.3632567,149.1654076,21966,0.15199223160743713,-0.13486865162849426,1.0393617153167725,-0.012457281351089478,0.020499026402831078,0.3817462623119354,-66,-120,-1003,-11,21,381,21,561,2,60870.0
08:19:31.672,AUTO,-35.3632563,149.1654234,21956,0.12716661393642426,-0.1562637835741043,1.2086387872695923,0.02451375685632229,-0.0013587919529527426,0.9552475810050964,-86,-112,-999,25,0,955,22,581,1,60870.0
08:19:31.874,AUTO,-35.3632563,149.1654234,21956,0.12716661393642426,-0.1562637835741043,1.2086387872695923,0.02451375685632229,-0.0013587919529527426,0.9552475810050964,-86,-112,-999,25,0,955,22,581,1,60870.0
08:19:32.076,AUTO,-35.3632558,149.1654399,21946,0.08704908937215805,-0.17569072544574738,1.4609678983688354,-0.010866026394069195,0.05786830559372902,0.910122275352478,-116,-73,-1001,-10,58,909,22,600,0,60870.0
08:19:32.278,AUTO,-35.3632554,149.1654572,21941,0.06314226984977722,-0.17105142772197723,1.6155565977096558,0.035193219780921936,0.04211537539958954,0.3521824777126312,-128,-65,-1004,35,42,351,20,616,-1,60870.0
08:19:32.481,AUTO,-35.3632549,149.1654745,21941,0.06107321381568909,-0.17439037561416626,1.6494708061218262,0.03180196136236191,-0.010157478041946888,0.0004773238906636834,-132,-61,-984,32,-9,0,20,627,-1,60870.0
08:19:32.683,AUTO,-35.3632545,149.165492,21936,0.06598476320505142,-0.17524756491184235,1.6279877424240112,0.028787145391106606,-0.014709539711475372,-0.12754350900650024,-137,-61,-985,29,-13,-127,20,639,0,60870.0
08:19:32.885,AUTO,-35.3632545,149.165492,21936,0.06598476320505142,-0.17524756491184235,1.6279877424240112,0.028787145391106606,-0.014709539711475372,-0.12754350900650024,-137,-61,-985,29,-13,-127,20,639,0,60870.0
08:19:33.087,AUTO,-35.3632545,149.165492,21936,0.06598476320505142,-0.17524756491184235,1.6279877424240112,0.028787145391106606,-0.014709539711475372,-0.12754350900650024,-137,-61,-985,29,-13,-127,20,639,0,60870.0
08:19:33.302,AUTO,-35.3632545,149.165492,21936,0.06598476320505142,-0.17524756491184235,1.6279877424240112,0.028787145391106606,-0.014709539711475372,-0.12754350900650024,-137,-61,-985,29,-13,-127,20,639,0,60870.0
08:19:33.507,AUTO,-35.363253,149.1655462,21906,0.08008161932229996,-0.16158366203308105,1.5651562213897705,0.03514159470796585,0.03616509214043617,-0.025671398267149925,-147,-87,-1006,35,37,-25,21,672,2,60870.0
08:19:33.710,AUTO,-35.3632525,149.1655648,21897,0.08011769503355026,-0.15528810024261475,1.563579797744751,-0.01800842583179474,0.018392544239759445,0.00661530252546072,-126,-72,-984,-17,19,6,20,680,2,60870.0
08:19:33.912,AUTO,-35.3632519,149.1655835,21890,0.08447575569152832,-0.1524103879928589,1.5649394989013672,-0.0034085398074239492,0.013938529416918755,0.00660056434571743,-138,-80,-983,-2,14,6,21,684,1,60870.0
08:19:34.114,AUTO,-35.3632519,149.1655835,21890,0.08447575569152832,-0.1524103879928589,1.5649394989013672,-0.0034085398074239492,0.013938529416918755,0.00660056434571743,-138,-80,-983,-2,14,6,21,684,1,60870.0
08:19:34.316,AUTO,-35.3632514,149.1656025,21882,0.08689150214195251,-0.14222024381160736,1.5668798685073853,-0.013231600634753704,0.07693362981081009,0.0018207374960184097,-132,-70,-991,-12,77,1,20,688,2,60870.0
08:19:34.518,AUTO,-35.3632509,149.1656215,21878,0.0824437290430069,-0.1286347508430481,1.567933440208435,-0.04922613501548767,0.011443441733717918,0.005693497601896524,-139,-74,-991,-48,12,5,18,688,0,60870.0
08:19:34.721,AUTO,-35.3632505,149.1656403,21874,0.08567028492689133,-0.12801535427570343,1.5672138929367065,0.01194603368639946,-0.02176380529999733,-0.0029173651710152626,-130,-79,-975,12,-20,-3,18,686,1,60870.0
08:19:34.924,AUTO,-35.3632505,149.1656403,21874,0.08567028492689133,-0.12801535427570343,1.5672138929367065,0.01194603368639946,-0.02176380529999733,-0.0029173651710152626,-130,-79,-975,12,-20,-3,18,686,1,60870.0
08:19:35.126,AUTO,-35.3632505,149.1656403,21874,0.08567028492689133,-0.12801535427570343,1.5672138929367065,0.01194603368639946,-0.02176380529999733,-0.0029173651710152626,-130,-79,-975,12,-20,-3,18,686,1,60870.0
08:19:35.334,AUTO,-35.3632505,149.1656403,21874,0.08567028492689133,-0.12801535427570343,1.5672138929367065,0.01194603368639946,-0.02176380529999733,-0.0029173651710152626,-130,-79,-975,12,-20,-3,18,686,1,60870.0
08:19:35.649,AUTO,-35.3632491,149.1656974,21820,0.08627406507730484,-0.138273224234581,1.5655194520950317,-0.009921891614794731,-0.004800118040293455,-0.009041978046298027,-134,-74,-981,-9,-4,-9,17,688,8,60870.0
08:19:35.973,AUTO,-35.3632482,149.1657352,21775,0.08849865198135376,-0.11851745843887329,1.5641801357269287,0.003049542661756277,0.04689713194966316,-0.008686931803822517,-143,-61,-999,3,47,-8,16,686,5,60870.0
08:19:36.287,AUTO,-35.3632478,149.1657539,21761,0.08376005291938782,-0.10871031880378723,1.5646713972091675,-0.009136911481618881,0.06789630651473999,-0.002677186159417033,-143,-85,-996,-8,68,-3,15,680,3,60870.0
08:19:36.491,AUTO,-35.3632473,149.1657725,21751,0.08505240827798843,-0.08937650918960571,1.5647282600402832,0.003274420741945505,0.08432946354150772,-0.005094209685921669,-135,-81,-1002,3,84,-5,15,673,1,60870.0
08:19:36.694,AUTO,-35.3632469,149.1657907,21748,0.08751779049634933,-0.07709194719791412,1.5646450519561768,-0.006583327427506447,0.02838430181145668,0.0011409611906856298,-129,-76,-984,-6,29,0,15,660,0,60870.0
08:19:36.898,AUTO,-35.3632469,149.1657907,21748,0.08751779049634933,-0.07709194719791412,1.5646450519561768,-0.006583327427506447,0.02838430181145668,0.0011409611906856298,-129,-76,-984,-6,29,0,15,660,0,60870.0
08:19:37.112,AUTO,-35.3632469,149.1657907,21748,0.08751779049634933,-0.07709194719791412,1.5646450519561768,-0.006583327427506447,0.02838430181145668,0.0011409611906856298,-129,-76,-984,-6,29,0,15,660,0,60870.0
08:19:37.316,AUTO,-35.3632469,149.1657907,21748,0.08751779049634933,-0.07709194719791412,1.5646450519561768,-0.006583327427506447,0.02838430181145668,0.0011409611906856298,-129,-76,-984,-6,29,0,15,660,0,273368.0
08:19:37.518,AUTO,-35.3632458,149.1658433,21734,0.08449585735797882,-0.038726095110177994,1.5644633769989014,-0.08935312181711197,0.04756392911076546,-0.0008158740238286555,-119,-90,-985,-89,48,-1,14,610,1,273368.0
08:19:37.720,AUTO,-35.3632455,149.1658599,21726,0.08442354947328568,-0.022416990250349045,1.5640559196472168,-0.06217121705412865,0.08155984431505203,-0.003879174357280135,-108,-75,-991,-61,82,-4,13,590,2,273368.0
08:19:37.922,AUTO,-35.3632452,149.1658758,21716,0.08340814709663391,-0.008324328809976578,1.5640300512313843,0.20688186585903168,0.03430843725800514,-0.012557323090732098,-113,-72,-993,207,34,-12,12,567,2,273368.0
08:19:38.124,AUTO,-35.3632452,149.1658758,21716,0.08340814709663391,-0.008324328809976578,1.5640300512313843,0.20688186585903168,0.03430843725800514,-0.012557323090732098,-113,-72,-993,207,34,-12,12,567,2,273368.0
08:19:38.326,AUTO,-35.363245,149.1658912,21703,0.07347360998392105,-0.000788541161455214,1.5641863346099854,-0.4579419791698456,0.0396287776529789,0.024038231000304222,-108,-107,-987,-457,40,24,12,541,4,273368.0
08:19:38.528,AUTO,-35.3632448,149.1659058,21683,0.06788463890552521,0.015503651462495327,1.5629620552062988,-0.18984179198741913,0.07655428349971771,-0.03981146588921547,-100,-55,-988,-187,77,-40,10,515,8,273368.0
08:19:38.730,AUTO,-35.3632446,149.1659196,21656,0.0700448676943779,0.028242317959666252,1.5628451108932495,0.6717314720153809,0.04673156514763832,-0.044073477387428284,-97,-30,-999,673,47,-44,9,485,9,273368.0
08:19:38.932,AUTO,-35.3632446,149.1659196,21656,0.0700448676943779,0.028242317959666252,1.5628451108932495,0.6717314720153809,0.04673156514763832,-0.044073477387428284,-97,-30,-999,673,47,-44,9,485,9,273368.0
08:19:39.135,AUTO,-35.3632446,149.1659196,21656,0.0700448676943779,0.028242317959666252,1.5628451108932495,0.6717314720153809,0.04673156514763832,-0.044073477387428284,-97,-30,-999,673,47,-44,9,485,9,273368.0
08:19:39.337,AUTO,-35.3632446,149.1659196,21656,0.0700448676943779,0.028242317959666252,1.5628451108932495,0.6717314720153809,0.04673156514763832,-0.044073477387428284,-97,-30,-999,673,47,-44,9,485,9,273368.0
08:19:39.539,AUTO,-35.3632442,149.1659558,21576,0.05421913042664528,0.053964763879776,1.563982605934143,-0.5053272843360901,-0.007924791425466537,0.053553562611341476,-88,-89,-1012,-506,-7,53,9,390,9,273368.0
08:19:39.741,AUTO,-35.3632441,149.1659661,21554,0.04224221035838127,0.04942143335938454,1.5638140439987183,-0.7595444917678833,-0.020953049883246422,0.015939418226480484,-63,-62,-1002,-758,-20,15,8,360,7,273368.0
08:19:39.944,AUTO,-35.3632439,149.1659756,21531,0.04592260718345642,0.050473570823669434,1.5633195638656616,0.12403129786252975,0.001563242170959711,-0.0481194406747818,-70,-19,-1015,125,2,-48,6,331,6,273368.0
08:19:40.146,AUTO,-35.3632437,149.1659844,21511,0.055559758096933365,0.053785789757966995,1.5632407665252686,0.7522929906845093,0.020753832533955574,-0.028470363467931747,-58,-7,-1016,753,21,-28,6,304,5,273368.0
08:19:40.349,AUTO,-35.3632437,149.1659844,21511,0.055559758096933365,0.053785789757966995,1.5632407665252686,0.7522929906845093,0.020753832533955574,-0.028470363467931747,-58,-7,-1016,753,21,-28,6,304,5,273368.0
08:19:40.551,AUTO,-35.3632435,149.1659924,21494,0.05563174933195114,0.05817412585020065,1.5634983777999878,0.21787424385547638,0.009316974319517612,0.01610439643263817,-53,-43,-996,217,10,16,5,276,5,273368.0
08:19:40.753,AUTO,-35.3632434,149.1659996,21479,0.038049254566431046,0.06398763507604599,1.5640112161636353,-0.7095487713813782,0.018222369253635406,0.021223625168204308,-48,-74,-1001,-710,18,20,4,248,3,273368.0
08:19:40.956,AUTO,-35.3632434,149.1659996,21479,0.038049254566431046,0.06398763507604599,1.5640112161636353,-0.7095487713813782,0.018222369253635406,0.021223625168204308,-48,-74,-1001,-710,18,20,4,248,3,273368.0
08:19:41.158,AUTO,-35.3632434,149.1659996,21479,0.038049254566431046,0.06398763507604599,1.5640112161636353,-0.7095487713813782,0.018222369253635406,0.021223625168204308,-48,-74,-1001,-710,18,20,4,248,3,273368.0
08:19:41.383,AUTO,-35.3632434,149.1659996,21479,0.038049254566431046,0.06398763507604599,1.5640112161636353,-0.7095487713813782,0.018222369253635406,0.021223625168204308,-48,-74,-1001,-710,18,20,4,248,3,273368.0
08:19:41.692,AUTO,-35.3632427,149.166021,21445,0.04155362397432327,0.08318113535642624,1.5623828172683716,0.23322299122810364,-0.03088906779885292,0.01197136752307415,-29,-25,-999,232,-29,11,-1,137,1,273368.0
08:19:41.910,AUTO,-35.3632425,149.1660245,21441,0.023861709982156754,0.07402484118938446,1.5623377561569214,-0.5876602530479431,-0.034211523830890656,0.007722876965999603,-29,-25,-999,232,-29,11,-3,112,0,273368.0
08:19:42.146,AUTO,-35.3632425,149.1660245,21441,0.023861709982156754,0.07402484118938446,1.5623377561569214,-0.5876602530479431,-0.034211523830890656,0.007722876965999603,-27,-49,-998,-588,-33,7,-3,112,0,273368.0
08:19:42.366,AUTO,-35.3632424,149.1660274,21437,0.016462724655866623,0.06675782054662704,1.5615025758743286,-0.5397840738296509,-0.025537125766277313,-0.0034195948392152786,-23,-23,-1011,-538,-24,-3,-4,91,1,273368.0
08:19:42.629,AUTO,-35.3632423,149.1660298,21433,0.01877010613679886,0.06298690289258957,1.5614582300186157,0.13454218208789825,-0.008752264082431793,-0.009632425382733345,-16,14,-1008,136,-7,-10,-6,72,1,273368.0
08:19:42.832,AUTO,-35.3632422,149.1660317,21432,0.02425306849181652,0.05932857096195221,1.5604077577590942,0.6768637895584106,-0.019131764769554138,-0.009536396712064743,-14,27,-1009,678,-18,-9,-8,55,0,273368.0
08:19:43.037,AUTO,-35.3632422,149.1660317,21432,0.02425306849181652,0.05932857096195221,1.5604077577590942,0.6768637895584106,-0.019131764769554138,-0.009536396712064743,-14,27,-1009,678,-18,-9,-8,55,0,273368.0
08:19:43.240,AUTO,-35.3632422,149.1660317,21432,0.02425306849181652,0.05932857096195221,1.5604077577590942,0.6768637895584106,-0.019131764769554138,-0.009536396712064743,-14,27,-1009,678,-18,-9,-8,55,0,167009.0
08:19:43.443,AUTO,-35.3632417,149.1660351,21437,0.01601645164191723,0.04644768312573433,1.5591102838516235,0.002839795546606183,-0.01209335308521986,-0.005120412912219763,-6,12,-1000,4,-11,-5,-9,16,-1,167009.0
08:19:43.645,AUTO,-35.3632417,149.1660351,21437,0.01601645164191723,0.04644768312573433,1.5591102838516235,0.002839795546606183,-0.01209335308521986,-0.005120412912219763,-6,12,-1000,4,-11,-5,-9,16,-1,167009.0
08:19:43.847,AUTO,-35.3632416,149.1660356,21440,0.02574693039059639,0.04233010113239288,1.5583099126815796,0.6268783211708069,-0.016768820583820343,0.0012260469375178218,-4,23,-1001,627,-15,1,-10,6,-1,167009.0
08:19:44.048,AUTO,-35.3632413,149.1660359,21442,0.025617294013500214,0.03682391718029976,1.5575987100601196,0.21954341232776642,-0.025338435545563698,0.0025763800367712975,-3,-4,-1004,219,-24,2,-11,-1,0,167009.0
08:19:44.250,AUTO,-35.3632412,149.166036,21445,0.011422638781368732,0.03039143793284893,1.5569097995758057,-0.5615960359573364,-0.027171660214662552,0.0023996257223188877,-1,-28,-999,-560,-26,1,-11,-7,-1,167009.0
08:19:44.453,AUTO,-35.3632411,149.1660359,21450,0.010125808417797089,0.023597273975610733,1.556000828742981,-0.13121850788593292,-0.023945441469550133,-0.0014148072805255651,-1,12,-991,-129,-22,-1,-13,-12,0,167009.0
08:19:44.656,AUTO,-35.363241,149.1660358,21452,0.022215018048882484,0.017352331429719925,1.5551152229309082,0.5982617735862732,-0.028583915904164314,0.003303461940959096,0,35,-999,600,-27,3,-14,-14,0,167009.0
08:19:44.858,AUTO,-35.363241,149.1660358,21452,0.022215018048882484,0.017352331429719925,1.5551152229309082,0.5982617735862732,-0.028583915904164314,0.003303461940959096,0,35,-999,600,-27,3,-14,-14,0,167009.0
08:19:45.060,AUTO,-35.363241,149.1660358,21452,0.022215018048882484,0.017352331429719925,1.5551152229309082,0.5982617735862732,-0.028583915904164314,0.003303461940959096,0,35,-999,600,-27,3,-14,-14,0,167009.0
08:19:45.262,AUTO,-35.363241,149.1660358,21452,0.022215018048882484,0.017352331429719925,1.5551152229309082,0.5982617735862732,-0.028583915904164314,0.003303461940959096,0,35,-999,600,-27,3,-14,-14,0,167009.0
08:19:45.465,AUTO,-35.3632404,149.1660356,21458,0.012151933275163174,0.006143342237919569,1.5535696744918823,-0.5269782543182373,0.011671523563563824,0.00503038102760911,-1,-16,-990,-524,12,4,-15,-11,0,167009.0
08:19:45.667,AUTO,-35.3632402,149.1660355,21459,0.0232172142714262,0.001948422403074801,1.5526869297027588,0.18096795678138733,-0.04003802686929703,0.00419872161000967,-1,22,-997,183,-38,4,-16,-10,0,167009.0
08:19:45.869,AUTO,-35.3632402,149.1660355,21459,0.0232172142714262,0.001948422403074801,1.5526869297027588,0.18096795678138733,-0.04003802686929703,0.00419872161000967,-1,22,-997,183,-38,4,-16,-10,0,167009.0
08:19:46.071,RTL,-35.3632399,149.1660356,21460,0.03391741216182709,-0.010383091866970062,1.5516365766525269,0.6234574317932129,-0.05105486512184143,0.005387468263506889,-1,36,-1001,625,-49,5,-18,-6,0,167009.0
08:19:46.273,RTL,-35.3632398,149.1660358,21459,0.03249974548816681,-0.0068634264171123505,1.5515683889389038,0.11742386221885681,0.09334655851125717,-0.0003626096877269447,-2,-11,-998,117,94,0,-19,0,0,167009.0
08:19:46.475,RTL,-35.3632398,149.166036,21461,0.020251326262950897,0.013039792887866497,1.552416443824768,-0.5504896640777588,0.05675096809864044,0.009065012447535992,-1,-36,-998,-549,57,9,-21,1,0,167009.0
08:19:46.677,RTL,-35.3632399,149.1660363,21466,0.014040503650903702,0.018696028739213943,1.5523593425750732,-0.2741873860359192,0.013425862416625023,0.009553524665534496,-1,-1,-1012,-271,14,9,-22,0,-3,167009.0
08:19:46.879,RTL,-35.3632399,149.1660363,21466,0.014040503650903702,0.018696028739213943,1.5523593425750732,-0.2741873860359192,0.013425862416625023,0.009553524665534496,-1,-1,-1012,-271,14,9,-22,0,-3,167009.0
08:19:47.082,RTL,-35.3632399,149.1660363,21466,0.014040503650903702,0.018696028739213943,1.5523593425750732,-0.2741873860359192,0.013425862416625023,0.009553524665534496,-1,-1,-1012,-271,14,9,-22,0,-3,167009.0
08:19:47.358,RTL,-35.3632399,149.1660363,21466,0.014040503650903702,0.018696028739213943,1.5523593425750732,-0.2741873860359192,0.013425862416625023,0.009553524665534496,-1,-1,-1012,-271,14,9,-22,0,-3,167009.0
08:19:47.684,RTL,-35.3632403,149.1660371,21651,0.007125291042029858,0.020690780133008957,1.5521169900894165,-0.07226311415433884,6.83364924043417e-05,0.007249379996210337,0,4,-1047,-69,1,7,-21,-7,-37,167009.0
08:19:47.958,RTL,-35.3632403,149.1660372,21761,0.011861774139106274,0.020403951406478882,1.5517339706420898,0.29671797156333923,-0.00673949858173728,0.00423777149990201,0,13,-1056,298,-5,4,-20,-9,-49,167009.0
08:19:48.187,RTL,-35.3632404,149.1660373,21905,0.010005135089159012,0.018550341948866844,1.5516659021377563,-0.04064888879656792,-0.009772175922989845,0.004266840405762196,0,-8,-1052,-38,-8,4,-18,-11,-62,167009.0
08:19:48.421,RTL,-35.3632406,149.1660372,22080,0.0055935923010110855,0.01713567227125168,1.5517606735229492,-0.1269793063402176,0.003440304659307003,0.004411021713167429,1,-4,-1049,-124,4,4,-18,-11,-75,167009.0
