time_stamp,MODE,lat,lon,relative_alt,roll,pitch,yaw,rollspeed,pitchspeed,yawspeed,xacc,yacc,zacc,xgyro,ygyro,zgyro,vx,vy,vz,LAND_SPEED_HIGH,WPNAV_SPEED_DN,RTL_ALT
13:40:22.278,GUIDED,-35.3632621,149.1652374,0,8.170192450052127e-05,0.0015044260071590543,0.027787858620285988,0.0002969709748867899,0.00020666298223659396,0.0023610920179635286,0,0,-1003,0,0,0,0,2,2,60.0,90.0,1500.0
13:40:22.486,GUIDED,-35.3632621,149.1652375,0,-5.965779200778343e-05,0.001630930113606155,0.0270778089761734,0.00016603698895778507,0.00035236167605035007,0.002221125876531005,0,1,-1000,0,0,0,-1,2,2,60.0,90.0,1500.0
13:40:22.689,GUIDED,-35.3632621,149.1652375,0,-0.0003056504938285798,0.001577648799866438,0.026590367779135704,0.0002158788702217862,0.0003617164329625666,0.0022392417304217815,0,1,-1000,0,0,0,-2,2,1,60.0,90.0,1500.0
13:40:22.895,GUIDED,-35.3632621,149.1652375,0,-0.000404018210247159,0.0015255383914336562,0.026422234252095222,0.00015758648805785924,0.0002824980765581131,0.0022938698530197144,0,1,-1000,0,0,0,-2,2,1,60.0,90.0,1500.0
13:40:23.101,GUIDED,-35.3632621,149.1652375,0,-0.000404018210247159,0.0015255383914336562,0.026422234252095222,0.00015758648805785924,0.0002824980765581131,0.0022938698530197144,0,1,-1000,0,0,0,-2,2,1,60.0,90.0,1500.0
13:40:23.305,GUIDED,-35.3632621,149.1652375,0,-0.000404018210247159,0.0015255383914336562,0.026422234252095222,0.00015758648805785924,0.0002824980765581131,0.0022938698530197144,0,1,-1000,0,0,0,-2,2,1,60.0,90.0,1500.0
13:40:23.511,GUIDED,-35.3632621,149.1652375,0,-0.000404018210247159,0.0015255383914336562,0.026422234252095222,0.00015758648805785924,0.0002824980765581131,0.0022938698530197144,0,1,-1000,0,0,0,-2,2,1,60.0,90.0,1500.0
13:40:23.713,GUIDED,-35.3632621,149.1652375,0,-0.000404018210247159,0.0015255383914336562,0.026422234252095222,0.00015758648805785924,0.0002824980765581131,0.0022938698530197144,0,1,-1000,0,0,0,-2,2,1,60.0,90.0,1500.0
13:40:23.916,GUIDED,-35.3632621,149.1652375,0,-0.000404018210247159,0.0015255383914336562,0.026422234252095222,0.00015758648805785924,0.0002824980765581131,0.0022938698530197144,0,1,-1000,0,0,0,-2,2,1,60.0,90.0,1500.0
13:40:24.120,GUIDED,-35.3632621,149.1652375,0,-0.000404018210247159,0.0015255383914336562,0.026422234252095222,0.00015758648805785924,0.0002824980765581131,0.0022938698530197144,0,1,-1000,0,0,0,-2,2,1,60.0,90.0,1500.0
13:40:24.323,GUIDED,-35.3632621,149.1652375,0,-0.000404018210247159,0.0015255383914336562,0.026422234252095222,0.00015758648805785924,0.0002824980765581131,0.0022938698530197144,0,1,-1000,0,0,0,-2,2,1,60.0,90.0,1500.0
13:40:24.542,GUIDED,-35.3632621,149.1652375,0,-0.000404018210247159,0.0015255383914336562,0.026422234252095222,0.00015758648805785924,0.0002824980765581131,0.0022938698530197144,0,1,-1000,0,0,0,-2,2,1,60.0,90.0,1500.0
13:40:24.746,GUIDED,-35.3632621,149.1652375,0,-0.000404018210247159,0.0015255383914336562,0.026422234252095222,0.00015758648805785924,0.0002824980765581131,0.0022938698530197144,0,1,-1000,0,0,0,-2,2,1,60.0,90.0,1500.0
13:40:24.949,GUIDED,-35.3632621,149.1652375,0,-0.000404018210247159,0.0015255383914336562,0.026422234252095222,0.00015758648805785924,0.0002824980765581131,0.0022938698530197144,0,1,-1000,0,0,0,-2,2,1,60.0,90.0,1500.0
13:40:25.154,GUIDED,-35.3632621,149.1652375,0,-0.000404018210247159,0.0015255383914336562,0.026422234252095222,0.00015758648805785924,0.0002824980765581131,0.0022938698530197144,0,1,-1000,0,0,0,-2,2,1,60.0,90.0,1500.0
13:40:25.356,GUIDED,-35.3632621,149.1652375,0,-0.000404018210247159,0.0015255383914336562,0.026422234252095222,0.00015758648805785924,0.0002824980765581131,0.0022938698530197144,0,1,-1000,0,0,0,-2,2,1,60.0,90.0,1500.0
13:40:25.559,GUIDED,-35.3632621,149.1652375,0,-0.000404018210247159,0.0015255383914336562,0.026422234252095222,0.00015758648805785924,0.0002824980765581131,0.0022938698530197144,0,1,-1000,0,0,0,-2,2,1,60.0,90.0,1500.0
13:40:25.762,GUIDED,-35.3632622,149.1652375,8,-0.0006682169041596353,0.0013958122581243515,0.026039594784379005,0.00013457848399411887,0.0003469668445177376,0.0020851781591773033,0,2,-1000,0,0,0,-2,1,0,60.0,90.0,1500.0
13:40:25.968,GUIDED,-35.3632621,149.1652375,8,-0.0006961470935493708,0.0013031030539423227,0.025679675862193108,5.620876618195325e-05,0.0002984780876431614,0.0021060523577034473,0,-2,-1007,0,0,0,-1,0,0,60.0,90.0,1500.0
13:40:26.176,GUIDED,-35.3632621,149.1652375,11,-0.0006228418787941337,0.001406639232300222,0.02533288672566414,0.00015387967869173735,0.0003406881878618151,0.0020702166948467493,0,1,-1000,0,0,1,0,0,0,60.0,90.0,1500.0
13:40:26.379,GUIDED,-35.3632621,149.1652375,11,-0.0006228418787941337,0.001406639232300222,0.02533288672566414,0.00015387967869173735,0.0003406881878618151,0.0020702166948467493,0,1,-1000,0,0,1,0,0,0,60.0,90.0,1500.0
13:40:26.585,GUIDED,-35.3632621,149.1652375,11,-0.0006228418787941337,0.001406639232300222,0.02533288672566414,0.00015387967869173735,0.0003406881878618151,0.0020702166948467493,0,1,-1000,0,0,1,0,0,0,60.0,90.0,1500.0
13:40:26.792,GUIDED,-35.3632621,149.1652375,11,-0.0006228418787941337,0.001406639232300222,0.02533288672566414,0.00015387967869173735,0.0003406881878618151,0.0020702166948467493,0,1,-1000,0,0,1,0,0,0,60.0,90.0,1500.0
13:40:26.996,GUIDED,-35.3632621,149.1652375,11,-0.0006228418787941337,0.001406639232300222,0.02533288672566414,0.00015387967869173735,0.0003406881878618151,0.0020702166948467493,0,1,-1000,0,0,1,0,0,0,60.0,90.0,1500.0
13:40:27.199,GUIDED,-35.3632621,149.1652375,11,-0.0006228418787941337,0.001406639232300222,0.02533288672566414,0.00015387967869173735,0.0003406881878618151,0.0020702166948467493,0,1,-1000,0,0,1,0,0,0,60.0,90.0,1500.0
13:40:27.404,GUIDED,-35.3632621,149.1652375,11,-0.0006228418787941337,0.001406639232300222,0.02533288672566414,0.00015387967869173735,0.0003406881878618151,0.0020702166948467493,0,1,-1000,0,0,1,0,0,0,60.0,90.0,1500.0
13:40:27.606,GUIDED,-35.3632621,149.1652375,11,-0.0006228418787941337,0.001406639232300222,0.02533288672566414,0.00015387967869173735,0.0003406881878618151,0.0020702166948467493,0,1,-1000,0,0,1,0,0,0,60.0,90.0,1500.0
13:40:27.810,GUIDED,-35.3632621,149.1652375,11,-0.0006228418787941337,0.001406639232300222,0.02533288672566414,0.00015387967869173735,0.0003406881878618151,0.0020702166948467493,0,1,-1000,0,0,1,0,0,0,60.0,90.0,1500.0
13:40:28.018,GUIDED,-35.3632621,149.1652375,11,-0.0006228418787941337,0.001406639232300222,0.02533288672566414,0.00015387967869173735,0.0003406881878618151,0.0020702166948467493,0,1,-1000,0,0,1,0,0,0,60.0,90.0,1500.0
13:40:28.224,GUIDED,-35.3632621,149.1652375,11,-0.0006228418787941337,0.001406639232300222,0.02533288672566414,0.00015387967869173735,0.0003406881878618151,0.0020702166948467493,0,1,-1000,0,0,1,0,0,0,60.0,90.0,1500.0
13:40:28.426,GUIDED,-35.3632621,149.1652375,11,-0.0006228418787941337,0.001406639232300222,0.02533288672566414,0.00015387967869173735,0.0003406881878618151,0.0020702166948467493,0,1,-1000,0,0,1,0,0,0,60.0,90.0,1500.0
13:40:28.631,GUIDED,-35.3632621,149.1652375,11,-0.0006228418787941337,0.001406639232300222,0.02533288672566414,0.00015387967869173735,0.0003406881878618151,0.0020702166948467493,0,1,-1000,0,0,1,0,0,0,60.0,90.0,1500.0
13:40:28.833,GUIDED,-35.3632621,149.1652375,11,-0.0006228418787941337,0.001406639232300222,0.02533288672566414,0.00015387967869173735,0.0003406881878618151,0.0020702166948467493,0,1,-1000,0,0,1,0,0,0,60.0,90.0,1500.0
13:40:29.034,GUIDED,-35.3632621,149.1652375,11,-0.0006228418787941337,0.001406639232300222,0.02533288672566414,0.00015387967869173735,0.0003406881878618151,0.0020702166948467493,0,1,-1000,0,0,1,0,0,0,60.0,90.0,1500.0
13:40:29.237,GUIDED,-35.3632621,149.1652375,13,-0.0004926439723931253,0.0015851522330194712,0.025015827268362045,0.0002420288510620594,0.00041082274401560426,0.002057839184999466,0,1,-1000,0,0,1,0,0,0,60.0,90.0,1500.0
13:40:29.440,GUIDED,-35.3632621,149.1652375,15,-0.00032693202956579626,0.001780201680958271,0.02464226447045803,0.0002788937708828598,0.00034003256587311625,0.0020268000662326813,0,1,-1000,0,0,0,0,0,0,60.0,90.0,1500.0
13:40:29.643,GUIDED,-35.3632621,149.1652375,16,-0.00020751934789586812,0.0019347673514857888,0.024405531585216522,0.0002325046225450933,0.0003110950638074428,0.0019387545762583613,0,2,-1000,0,0,0,0,0,0,60.0,90.0,1500.0
13:40:29.847,GUIDED,-35.3632621,149.1652375,16,-0.00020751934789586812,0.0019347673514857888,0.024405531585216522,0.0002325046225450933,0.0003110950638074428,0.0019387545762583613,0,2,-1000,0,0,0,0,0,0,60.0,90.0,1500.0
13:40:30.051,GUIDED,-35.3632621,149.1652375,16,-0.00020751934789586812,0.0019347673514857888,0.024405531585216522,0.0002325046225450933,0.0003110950638074428,0.0019387545762583613,0,2,-1000,0,0,0,0,0,0,60.0,90.0,1500.0
13:40:30.253,GUIDED,-35.3632621,149.1652375,16,-0.00020751934789586812,0.0019347673514857888,0.024405531585216522,0.0002325046225450933,0.0003110950638074428,0.0019387545762583613,0,2,-1000,0,0,0,0,0,0,60.0,90.0,1500.0
13:40:30.455,GUIDED,-35.3632621,149.1652375,16,-0.00020751934789586812,0.0019347673514857888,0.024405531585216522,0.0002325046225450933,0.0003110950638074428,0.0019387545762583613,0,2,-1000,0,0,0,0,0,0,60.0,90.0,1500.0
13:40:30.658,GUIDED,-35.3632621,149.1652375,16,-0.00020751934789586812,0.0019347673514857888,0.024405531585216522,0.0002325046225450933,0.0003110950638074428,0.0019387545762583613,0,2,-1000,0,0,0,0,0,0,60.0,90.0,1500.0
13:40:30.860,GUIDED,-35.3632621,149.1652375,16,-0.00020751934789586812,0.0019347673514857888,0.024405531585216522,0.0002325046225450933,0.0003110950638074428,0.0019387545762583613,0,2,-1000,0,0,0,0,0,0,60.0,90.0,1500.0
13:40:31.064,GUIDED,-35.3632621,149.1652375,16,-0.00020751934789586812,0.0019347673514857888,0.024405531585216522,0.0002325046225450933,0.0003110950638074428,0.0019387545762583613,0,2,-1000,0,0,0,0,0,0,60.0,90.0,1500.0
13:40:31.276,GUIDED,-35.3632621,149.1652375,16,-0.00020751934789586812,0.0019347673514857888,0.024405531585216522,0.0002325046225450933,0.0003110950638074428,0.0019387545762583613,0,2,-1000,0,0,0,0,0,0,60.0,90.0,1500.0
13:40:31.478,GUIDED,-35.3632621,149.1652375,16,-0.00020751934789586812,0.0019347673514857888,0.024405531585216522,0.0002325046225450933,0.0003110950638074428,0.0019387545762583613,0,2,-1000,0,0,0,0,0,0,60.0,90.0,1500.0
13:40:31.684,GUIDED,-35.3632621,149.1652375,16,-0.00020751934789586812,0.0019347673514857888,0.024405531585216522,0.0002325046225450933,0.0003110950638074428,0.0019387545762583613,0,2,-1000,0,0,0,0,0,0,60.0,90.0,1500.0
13:40:31.889,GUIDED,-35.3632621,149.1652375,16,-0.00020751934789586812,0.0019347673514857888,0.024405531585216522,0.0002325046225450933,0.0003110950638074428,0.0019387545762583613,0,2,-1000,0,0,0,0,0,0,60.0,90.0,1500.0
13:40:32.092,GUIDED,-35.3632621,149.1652375,16,-0.00020751934789586812,0.0019347673514857888,0.024405531585216522,0.0002325046225450933,0.0003110950638074428,0.0019387545762583613,0,2,-1000,0,0,0,0,0,0,60.0,90.0,1500.0
13:40:32.296,GUIDED,-35.3632621,149.1652375,16,-0.00020751934789586812,0.0019347673514857888,0.024405531585216522,0.0002325046225450933,0.0003110950638074428,0.0019387545762583613,0,2,-1000,0,0,0,0,0,0,60.0,90.0,1500.0
13:40:32.502,GUIDED,-35.3632621,149.1652375,16,-0.00020751934789586812,0.0019347673514857888,0.024405531585216522,0.0002325046225450933,0.0003110950638074428,0.0019387545762583613,0,2,-1000,0,0,0,0,0,0,60.0,90.0,1500.0
13:40:32.708,GUIDED,-35.3632621,149.1652374,25,0.00031784147722646594,0.0023871019948273897,0.023558907210826874,0.00027218382456339896,0.00024399050744250417,0.0018690365832298994,0,2,-1000,0,0,0,0,0,-2,60.0,90.0,1500.0
13:40:32.911,GUIDED,-35.3632621,149.1652375,27,0.0005271344562061131,0.002609451301395893,0.023137107491493225,0.0003880657022818923,0.00035989831667393446,0.0017669734079390764,0,1,-1000,0,0,0,0,0,-2,60.0,90.0,1500.0
13:40:33.115,GUIDED,-35.3632621,149.1652375,27,0.0005271344562061131,0.002609451301395893,0.023137107491493225,0.0003880657022818923,0.00035989831667393446,0.0017669734079390764,0,1,-1000,0,0,0,0,0,-2,60.0,90.0,1500.0
13:40:33.318,GUIDED,-35.3632621,149.1652375,27,0.0005271344562061131,0.002609451301395893,0.023137107491493225,0.0003880657022818923,0.00035989831667393446,0.0017669734079390764,0,1,-1000,0,0,0,0,0,-2,60.0,90.0,1500.0
13:40:33.520,GUIDED,-35.3632621,149.1652375,27,0.0005271344562061131,0.002609451301395893,0.023137107491493225,0.0003880657022818923,0.00035989831667393446,0.0017669734079390764,0,1,-1000,0,0,0,0,0,-2,60.0,90.0,1500.0
13:40:33.724,GUIDED,-35.3632621,149.1652375,27,0.0005271344562061131,0.002609451301395893,0.023137107491493225,0.0003880657022818923,0.00035989831667393446,0.0017669734079390764,0,1,-1000,0,0,0,0,0,-2,60.0,90.0,1500.0
13:40:33.932,GUIDED,-35.3632621,149.1652375,27,0.0005271344562061131,0.002609451301395893,0.023137107491493225,0.0003880657022818923,0.00035989831667393446,0.0017669734079390764,0,1,-1000,0,0,0,0,0,-2,60.0,90.0,1500.0
13:40:34.137,GUIDED,-35.3632621,149.1652375,27,0.0005271344562061131,0.002609451301395893,0.023137107491493225,0.0003880657022818923,0.00035989831667393446,0.0017669734079390764,0,1,-1000,0,0,0,0,0,-2,60.0,90.0,1500.0
13:40:34.341,GUIDED,-35.3632621,149.1652375,27,0.0005271344562061131,0.002609451301395893,0.023137107491493225,0.0003880657022818923,0.00035989831667393446,0.0017669734079390764,0,1,-1000,0,0,0,0,0,-2,60.0,90.0,1500.0
13:40:34.549,GUIDED,-35.3632621,149.1652375,27,0.0005271344562061131,0.002609451301395893,0.023137107491493225,0.0003880657022818923,0.00035989831667393446,0.0017669734079390764,0,1,-1000,0,0,0,0,0,-2,60.0,90.0,1500.0
13:40:34.752,GUIDED,-35.3632621,149.1652375,27,0.0005271344562061131,0.002609451301395893,0.023137107491493225,0.0003880657022818923,0.00035989831667393446,0.0017669734079390764,0,1,-1000,0,0,0,0,0,-2,60.0,90.0,1500.0
13:40:34.954,GUIDED,-35.3632621,149.1652375,27,0.0005271344562061131,0.002609451301395893,0.023137107491493225,0.0003880657022818923,0.00035989831667393446,0.0017669734079390764,0,1,-1000,0,0,0,0,0,-2,60.0,90.0,1500.0
13:40:35.156,GUIDED,-35.3632621,149.1652375,27,0.0005271344562061131,0.002609451301395893,0.023137107491493225,0.0003880657022818923,0.00035989831667393446,0.0017669734079390764,0,1,-1000,0,0,0,0,0,-2,60.0,90.0,1500.0
13:40:35.359,GUIDED,-35.3632621,149.1652375,27,0.0005271344562061131,0.002609451301395893,0.023137107491493225,0.0003880657022818923,0.00035989831667393446,0.0017669734079390764,0,1,-1000,0,0,0,0,0,-2,60.0,90.0,1500.0
13:40:35.564,GUIDED,-35.3632621,149.1652375,27,0.0005271344562061131,0.002609451301395893,0.023137107491493225,0.0003880657022818923,0.00035989831667393446,0.0017669734079390764,0,1,-1000,0,0,0,0,0,-2,60.0,90.0,1500.0
13:40:35.768,GUIDED,-35.3632621,149.1652375,104,0.0009905745973810554,-0.002355431206524372,0.02305341511964798,0.004117873962968588,0.004206543322652578,0.00217567291110754,0,0,-1141,3,4,1,0,0,-47,60.0,90.0,1500.0
13:40:35.973,GUIDED,-35.3632621,149.1652374,782,0.0029986572917550802,0.00265095685608685,0.022703662514686584,0.02674313634634018,0.0018668901175260544,0.00047797238221392035,0,0,-1106,-1,5,1,0,0,-129,60.0,90.0,1500.0
13:40:36.184,GUIDED,-35.363262,149.1652374,1128,0.014087353833019733,0.001850492786616087,0.02250899001955986,0.04836474731564522,-0.004877492319792509,0.002146374899893999,0,0,-1034,48,-4,0,0,1,-142,60.0,90.0,1500.0
13:40:36.387,GUIDED,-35.363262,149.1652374,1128,0.014087353833019733,0.001850492786616087,0.02250899001955986,0.04836474731564522,-0.004877492319792509,0.002146374899893999,0,0,-1034,48,-4,0,0,1,-142,60.0,90.0,1500.0
13:40:36.591,GUIDED,-35.363262,149.1652374,1128,0.014087353833019733,0.001850492786616087,0.02250899001955986,0.04836474731564522,-0.004877492319792509,0.002146374899893999,0,0,-1034,48,-4,0,0,1,-142,60.0,90.0,1500.0
13:40:36.793,GUIDED,-35.363262,149.1652374,1128,0.014087353833019733,0.001850492786616087,0.02250899001955986,0.04836474731564522,-0.004877492319792509,0.002146374899893999,0,0,-1034,48,-4,0,0,1,-142,60.0,90.0,1500.0
13:40:36.996,GUIDED,-35.363262,149.1652374,1128,0.014087353833019733,0.001850492786616087,0.02250899001955986,0.04836474731564522,-0.004877492319792509,0.002146374899893999,0,0,-1034,48,-4,0,0,1,-142,60.0,90.0,1500.0
13:40:37.200,GUIDED,-35.363262,149.1652374,1128,0.014087353833019733,0.001850492786616087,0.02250899001955986,0.04836474731564522,-0.004877492319792509,0.002146374899893999,0,0,-1034,48,-4,0,0,1,-142,60.0,90.0,1500.0
13:40:37.403,GUIDED,-35.363262,149.1652374,1128,0.014087353833019733,0.001850492786616087,0.02250899001955986,0.04836474731564522,-0.004877492319792509,0.002146374899893999,0,0,-1034,48,-4,0,0,1,-142,60.0,90.0,1500.0
13:40:37.606,GUIDED,-35.363262,149.1652374,1128,0.014087353833019733,0.001850492786616087,0.02250899001955986,0.04836474731564522,-0.004877492319792509,0.002146374899893999,0,0,-1034,48,-4,0,0,1,-142,60.0,90.0,1500.0
13:40:37.810,GUIDED,-35.363262,149.1652374,1128,0.014087353833019733,0.001850492786616087,0.02250899001955986,0.04836474731564522,-0.004877492319792509,0.002146374899893999,0,0,-1034,48,-4,0,0,1,-142,60.0,90.0,1500.0
13:40:38.013,GUIDED,-35.363262,149.1652374,1128,0.014087353833019733,0.001850492786616087,0.02250899001955986,0.04836474731564522,-0.004877492319792509,0.002146374899893999,0,0,-1034,48,-4,0,0,1,-142,60.0,90.0,1500.0
13:40:38.217,GUIDED,-35.363262,149.1652374,1128,0.014087353833019733,0.001850492786616087,0.02250899001955986,0.04836474731564522,-0.004877492319792509,0.002146374899893999,0,0,-1034,48,-4,0,0,1,-142,60.0,90.0,1500.0
13:40:38.421,GUIDED,-35.363262,149.1652374,1128,0.014087353833019733,0.001850492786616087,0.02250899001955986,0.04836474731564522,-0.004877492319792509,0.002146374899893999,0,0,-1034,48,-4,0,0,1,-142,60.0,90.0,1500.0
13:40:38.633,GUIDED,-35.363262,149.1652374,1128,0.014087353833019733,0.001850492786616087,0.02250899001955986,0.04836474731564522,-0.004877492319792509,0.002146374899893999,0,0,-1034,48,-4,0,0,1,-142,60.0,90.0,1500.0
13:40:38.836,GUIDED,-35.3632617,149.1652384,2496,0.0540335588157177,-0.005010874010622501,0.022849466651678085,0.040525685995817184,-0.010144692845642567,0.003913096617907286,1,-3,-1000,40,-9,3,3,28,-150,60.0,90.0,1500.0
13:40:39.041,GUIDED,-35.3632613,149.1652404,3266,0.054733991622924805,0.0045091379433870316,-0.020488692447543144,-0.0889064148068428,0.10422278940677643,-0.11298970133066177,2,-6,-998,35,-11,3,9,53,-147,60.0,90.0,1500.0
13:40:39.244,GUIDED,-35.3632609,149.1652434,4022,-0.0023858570493757725,-0.002143137389793992,-0.033348601311445236,-0.018998434767127037,-0.0891217291355133,0.01735796220600605,5,-9,-1012,-19,-88,16,6,56,-148,60.0,90.0,1500.0
13:40:39.447,GUIDED,-35.3632609,149.1652434,4022,-0.0023858570493757725,-0.002143137389793992,-0.033348601311445236,-0.018998434767127037,-0.0891217291355133,0.01735796220600605,5,-9,-1012,-19,-88,16,6,56,-148,60.0,90.0,1500.0
13:40:39.651,GUIDED,-35.3632609,149.1652434,4022,-0.0023858570493757725,-0.002143137389793992,-0.033348601311445236,-0.018998434767127037,-0.0891217291355133,0.01735796220600605,5,-9,-1012,-19,-88,16,6,56,-148,60.0,90.0,1500.0
13:40:39.855,GUIDED,-35.3632609,149.1652434,4022,-0.0023858570493757725,-0.002143137389793992,-0.033348601311445236,-0.018998434767127037,-0.0891217291355133,0.01735796220600605,5,-9,-1012,-19,-88,16,6,56,-148,60.0,90.0,1500.0
13:40:40.060,GUIDED,-35.3632609,149.1652434,4022,-0.0023858570493757725,-0.002143137389793992,-0.033348601311445236,-0.018998434767127037,-0.0891217291355133,0.01735796220600605,5,-9,-1012,-19,-88,16,6,56,-148,60.0,90.0,1500.0
13:40:40.265,GUIDED,-35.3632609,149.1652434,4022,-0.0023858570493757725,-0.002143137389793992,-0.033348601311445236,-0.018998434767127037,-0.0891217291355133,0.01735796220600605,5,-9,-1012,-19,-88,16,6,56,-148,60.0,90.0,1500.0
13:40:40.472,GUIDED,-35.3632609,149.1652434,4022,-0.0023858570493757725,-0.002143137389793992,-0.033348601311445236,-0.018998434767127037,-0.0891217291355133,0.01735796220600605,5,-9,-1012,-19,-88,16,6,56,-148,60.0,90.0,1500.0
13:40:40.681,GUIDED,-35.3632609,149.1652434,4022,-0.0023858570493757725,-0.002143137389793992,-0.033348601311445236,-0.018998434767127037,-0.0891217291355133,0.01735796220600605,5,-9,-1012,-19,-88,16,6,56,-148,60.0,90.0,1500.0
13:40:40.884,GUIDED,-35.3632609,149.1652434,4022,-0.0023858570493757725,-0.002143137389793992,-0.033348601311445236,-0.018998434767127037,-0.0891217291355133,0.01735796220600605,5,-9,-1012,-19,-88,16,6,56,-148,60.0,90.0,1500.0
13:40:41.089,GUIDED,-35.3632609,149.1652434,4022,-0.0023858570493757725,-0.002143137389793992,-0.033348601311445236,-0.018998434767127037,-0.0891217291355133,0.01735796220600605,5,-9,-1012,-19,-88,16,6,56,-148,60.0,90.0,1500.0
13:40:41.296,GUIDED,-35.3632609,149.1652434,4022,-0.0023858570493757725,-0.002143137389793992,-0.033348601311445236,-0.018998434767127037,-0.0891217291355133,0.01735796220600605,5,-9,-1012,-19,-88,16,6,56,-148,60.0,90.0,1500.0
13:40:41.500,GUIDED,-35.3632609,149.1652434,4022,-0.0023858570493757725,-0.002143137389793992,-0.033348601311445236,-0.018998434767127037,-0.0891217291355133,0.01735796220600605,5,-9,-1012,-19,-88,16,6,56,-148,60.0,90.0,1500.0
13:40:41.705,GUIDED,-35.3632609,149.1652434,4022,-0.0023858570493757725,-0.002143137389793992,-0.033348601311445236,-0.018998434767127037,-0.0891217291355133,0.01735796220600605,5,-9,-1012,-19,-88,16,6,56,-148,60.0,90.0,1500.0
13:40:41.914,GUIDED,-35.3632609,149.1652434,4022,-0.0023858570493757725,-0.002143137389793992,-0.033348601311445236,-0.018998434767127037,-0.0891217291355133,0.01735796220600605,5,-9,-1012,-19,-88,16,6,56,-148,60.0,90.0,1500.0
13:40:42.123,GUIDED,-35.3632609,149.1652434,4022,-0.0023858570493757725,-0.002143137389793992,-0.033348601311445236,-0.018998434767127037,-0.0891217291355133,0.01735796220600605,5,-9,-1012,-19,-88,16,6,56,-148,60.0,90.0,1500.0
13:40:42.329,GUIDED,-35.3632609,149.1652434,4022,-0.0023858570493757725,-0.002143137389793992,-0.033348601311445236,-0.018998434767127037,-0.0891217291355133,0.01735796220600605,5,-9,-1012,-19,-88,16,6,56,-148,60.0,90.0,1500.0
13:40:42.530,GUIDED,-35.3632567,149.1652502,6326,-0.05623821169137955,-0.05159250274300575,0.01454268116503954,-0.24117380380630493,0.12133282423019409,-0.11649491637945175,-3,-12,-998,-67,-2,37,64,17,-146,60.0,90.0,1500.0
13:40:42.735,GUIDED,-35.3632552,149.1652504,6705,-0.0989522635936737,-0.009193481877446175,-0.030858317390084267,-0.14169153571128845,0.17676660418510437,-0.17843303084373474,-13,-9,-1008,-141,177,-179,68,-5,-145,60.0,90.0,1500.0
13:40:42.937,GUIDED,-35.3632552,149.1652504,6705,-0.0989522635936737,-0.009193481877446175,-0.030858317390084267,-0.14169153571128845,0.17676660418510437,-0.17843303084373474,-13,-9,-1008,-141,177,-179,68,-5,-145,60.0,90.0,1500.0
13:40:43.141,GUIDED,-35.3632552,149.1652504,6705,-0.0989522635936737,-0.009193481877446175,-0.030858317390084267,-0.14169153571128845,0.17676660418510437,-0.17843303084373474,-13,-9,-1008,-141,177,-179,68,-5,-145,60.0,90.0,1500.0
13:40:43.343,GUIDED,-35.3632552,149.1652504,6705,-0.0989522635936737,-0.009193481877446175,-0.030858317390084267,-0.14169153571128845,0.17676660418510437,-0.17843303084373474,-13,-9,-1008,-141,177,-179,68,-5,-145,60.0,90.0,1500.0
13:40:43.546,GUIDED,-35.3632552,149.1652504,6705,-0.0989522635936737,-0.009193481877446175,-0.030858317390084267,-0.14169153571128845,0.17676660418510437,-0.17843303084373474,-13,-9,-1008,-141,177,-179,68,-5,-145,60.0,90.0,1500.0
13:40:43.750,GUIDED,-35.3632552,149.1652504,6705,-0.0989522635936737,-0.009193481877446175,-0.030858317390084267,-0.14169153571128845,0.17676660418510437,-0.17843303084373474,-13,-9,-1008,-141,177,-179,68,-5,-145,60.0,90.0,1500.0
13:40:43.954,GUIDED,-35.3632552,149.1652504,6705,-0.0989522635936737,-0.009193481877446175,-0.030858317390084267,-0.14169153571128845,0.17676660418510437,-0.17843303084373474,-13,-9,-1008,-141,177,-179,68,-5,-145,60.0,90.0,1500.0
13:40:44.164,GUIDED,-35.3632552,149.1652504,6705,-0.0989522635936737,-0.009193481877446175,-0.030858317390084267,-0.14169153571128845,0.17676660418510437,-0.17843303084373474,-13,-9,-1008,-141,177,-179,68,-5,-145,60.0,90.0,1500.0
13:40:44.372,GUIDED,-35.3632552,149.1652504,6705,-0.0989522635936737,-0.009193481877446175,-0.030858317390084267,-0.14169153571128845,0.17676660418510437,-0.17843303084373474,-13,-9,-1008,-141,177,-179,68,-5,-145,60.0,90.0,1500.0
13:40:44.575,GUIDED,-35.3632552,149.1652504,6705,-0.0989522635936737,-0.009193481877446175,-0.030858317390084267,-0.14169153571128845,0.17676660418510437,-0.17843303084373474,-13,-9,-1008,-141,177,-179,68,-5,-145,60.0,90.0,1500.0
13:40:44.780,GUIDED,-35.3632552,149.1652504,6705,-0.0989522635936737,-0.009193481877446175,-0.030858317390084267,-0.14169153571128845,0.17676660418510437,-0.17843303084373474,-13,-9,-1008,-141,177,-179,68,-5,-145,60.0,90.0,1500.0
13:40:44.982,GUIDED,-35.3632552,149.1652504,6705,-0.0989522635936737,-0.009193481877446175,-0.030858317390084267,-0.14169153571128845,0.17676660418510437,-0.17843303084373474,-13,-9,-1008,-141,177,-179,68,-5,-145,60.0,90.0,1500.0
13:40:45.185,GUIDED,-35.3632552,149.1652504,6705,-0.0989522635936737,-0.009193481877446175,-0.030858317390084267,-0.14169153571128845,0.17676660418510437,-0.17843303084373474,-13,-9,-1008,-141,177,-179,68,-5,-145,60.0,90.0,1500.0
13:40:45.390,GUIDED,-35.3632552,149.1652504,6705,-0.0989522635936737,-0.009193481877446175,-0.030858317390084267,-0.14169153571128845,0.17676660418510437,-0.17843303084373474,-13,-9,-1008,-141,177,-179,68,-5,-145,60.0,90.0,1500.0
13:40:45.598,GUIDED,-35.3632552,149.1652504,6705,-0.0989522635936737,-0.009193481877446175,-0.030858317390084267,-0.14169153571128845,0.17676660418510437,-0.17843303084373474,-13,-9,-1008,-141,177,-179,68,-5,-145,60.0,90.0,1500.0
13:40:45.802,GUIDED,-35.3632515,149.1652463,7905,-0.09278149902820587,0.04592912644147873,-0.12508779764175415,0.05786594748497009,0.043995149433612823,-0.0652533620595932,-21,6,-1002,57,44,-66,28,-87,-147,60.0,90.0,1500.0
13:40:46.006,GUIDED,-35.3632513,149.1652374,9036,-0.040403202176094055,0.07501120865345001,-0.1528831422328949,0.08528352528810501,0.034572213888168335,-0.02263868972659111,-14,21,-1003,75,41,-34,-30,-118,-146,60.0,90.0,1500.0
13:40:46.208,GUIDED,-35.3632536,149.165231,9789,0.0034271574113518,0.08758562803268433,-0.15765956044197083,0.09243044257164001,0.01401090994477272,-0.005526436958462,-6,31,-1007,92,14,-6,-73,-107,-147,60.0,90.0,1500.0
13:40:46.413,GUIDED,-35.3632536,149.165231,9789,0.0034271574113518,0.08758562803268433,-0.15765956044197083,0.09243044257164001,0.01401090994477272,-0.005526436958462,-6,31,-1007,92,14,-6,-73,-107,-147,60.0,90.0,1500.0
13:40:46.617,GUIDED,-35.3632536,149.165231,9789,0.0034271574113518,0.08758562803268433,-0.15765956044197083,0.09243044257164001,0.01401090994477272,-0.005526436958462,-6,31,-1007,92,14,-6,-73,-107,-147,60.0,90.0,1500.0
13:40:46.820,GUIDED,-35.3632536,149.165231,9789,0.0034271574113518,0.08758562803268433,-0.15765956044197083,0.09243044257164001,0.01401090994477272,-0.005526436958462,-6,31,-1007,92,14,-6,-73,-107,-147,60.0,90.0,1500.0
13:40:47.022,GUIDED,-35.3632536,149.165231,9789,0.0034271574113518,0.08758562803268433,-0.15765956044197083,0.09243044257164001,0.01401090994477272,-0.005526436958462,-6,31,-1007,92,14,-6,-73,-107,-147,60.0,90.0,1500.0
13:40:47.225,GUIDED,-35.3632536,149.165231,9789,0.0034271574113518,0.08758562803268433,-0.15765956044197083,0.09243044257164001,0.01401090994477272,-0.005526436958462,-6,31,-1007,92,14,-6,-73,-107,-147,60.0,90.0,1500.0
13:40:47.429,GUIDED,-35.3632536,149.165231,9789,0.0034271574113518,0.08758562803268433,-0.15765956044197083,0.09243044257164001,0.01401090994477272,-0.005526436958462,-6,31,-1007,92,14,-6,-73,-107,-147,60.0,90.0,1500.0
13:40:47.635,GUIDED,-35.3632536,149.165231,9789,0.0034271574113518,0.08758562803268433,-0.15765956044197083,0.09243044257164001,0.01401090994477272,-0.005526436958462,-6,31,-1007,92,14,-6,-73,-107,-147,60.0,90.0,1500.0
13:40:47.838,GUIDED,-35.3632536,149.165231,9789,0.0034271574113518,0.08758562803268433,-0.15765956044197083,0.09243044257164001,0.01401090994477272,-0.005526436958462,-6,31,-1007,92,14,-6,-73,-107,-147,60.0,90.0,1500.0
13:40:48.043,GUIDED,-35.3632536,149.165231,9789,0.0034271574113518,0.08758562803268433,-0.15765956044197083,0.09243044257164001,0.01401090994477272,-0.005526436958462,-6,31,-1007,92,14,-6,-73,-107,-147,60.0,90.0,1500.0
13:40:48.246,GUIDED,-35.3632536,149.165231,9789,0.0034271574113518,0.08758562803268433,-0.15765956044197083,0.09243044257164001,0.01401090994477272,-0.005526436958462,-6,31,-1007,92,14,-6,-73,-107,-147,60.0,90.0,1500.0
13:40:48.448,GUIDED,-35.3632536,149.165231,9789,0.0034271574113518,0.08758562803268433,-0.15765956044197083,0.09243044257164001,0.01401090994477272,-0.005526436958462,-6,31,-1007,92,14,-6,-73,-107,-147,60.0,90.0,1500.0
13:40:48.657,GUIDED,-35.3632536,149.165231,9789,0.0034271574113518,0.08758562803268433,-0.15765956044197083,0.09243044257164001,0.01401090994477272,-0.005526436958462,-6,31,-1007,92,14,-6,-73,-107,-147,60.0,90.0,1500.0
13:40:48.859,GUIDED,-35.3632536,149.165231,9789,0.0034271574113518,0.08758562803268433,-0.15765956044197083,0.09243044257164001,0.01401090994477272,-0.005526436958462,-6,31,-1007,92,14,-6,-73,-107,-147,60.0,90.0,1500.0
13:40:51.423,GUIDED,-35.363262,149.1652232,11156,0.08838067203760147,0.07446268945932388,-0.15056754648685455,0.0918048843741417,-0.04449843615293503,0.011780559085309505,15,25,-1006,91,-44,11,-131,-33,-148,60.0,90.0,1500.0
13:40:51.624,GUIDED,-35.3632712,149.1652241,12287,0.12826961278915405,0.002538420492783189,-0.12874054908752441,-0.07415047287940979,-0.19154751300811768,0.1413114070892334,32,9,-1002,-74,-191,140,-132,66,-144,60.0,90.0,1500.0
13:40:51.827,GUIDED,-35.3632712,149.1652241,12287,0.12826961278915405,0.002538420492783189,-0.12874054908752441,-0.07415047287940979,-0.19154751300811768,0.1413114070892334,32,9,-1002,-74,-191,140,-132,66,-144,60.0,90.0,1500.0
13:40:52.030,GUIDED,-35.3632712,149.1652241,12287,0.12826961278915405,0.002538420492783189,-0.12874054908752441,-0.07415047287940979,-0.19154751300811768,0.1413114070892334,32,9,-1002,-74,-191,140,-132,66,-144,60.0,90.0,1500.0
13:40:52.235,GUIDED,-35.3632712,149.1652241,12287,0.12826961278915405,0.002538420492783189,-0.12874054908752441,-0.07415047287940979,-0.19154751300811768,0.1413114070892334,32,9,-1002,-74,-191,140,-132,66,-144,60.0,90.0,1500.0
13:40:52.438,GUIDED,-35.3632712,149.1652241,12287,0.12826961278915405,0.002538420492783189,-0.12874054908752441,-0.07415047287940979,-0.19154751300811768,0.1413114070892334,32,9,-1002,-74,-191,140,-132,66,-144,60.0,90.0,1500.0
13:40:52.644,GUIDED,-35.3632712,149.1652241,12287,0.12826961278915405,0.002538420492783189,-0.12874054908752441,-0.07415047287940979,-0.19154751300811768,0.1413114070892334,32,9,-1002,-74,-191,140,-132,66,-144,60.0,90.0,1500.0
13:40:52.846,GUIDED,-35.3632712,149.1652241,12287,0.12826961278915405,0.002538420492783189,-0.12874054908752441,-0.07415047287940979,-0.19154751300811768,0.1413114070892334,32,9,-1002,-74,-191,140,-132,66,-144,60.0,90.0,1500.0
13:40:53.049,GUIDED,-35.3632712,149.1652241,12287,0.12826961278915405,0.002538420492783189,-0.12874054908752441,-0.07415047287940979,-0.19154751300811768,0.1413114070892334,32,9,-1002,-74,-191,140,-132,66,-144,60.0,90.0,1500.0
13:40:53.252,GUIDED,-35.3632712,149.1652241,12287,0.12826961278915405,0.002538420492783189,-0.12874054908752441,-0.07415047287940979,-0.19154751300811768,0.1413114070892334,32,9,-1002,-74,-191,140,-132,66,-144,60.0,90.0,1500.0
13:40:53.457,GUIDED,-35.3632712,149.1652241,12287,0.12826961278915405,0.002538420492783189,-0.12874054908752441,-0.07415047287940979,-0.19154751300811768,0.1413114070892334,32,9,-1002,-74,-191,140,-132,66,-144,60.0,90.0,1500.0
13:40:53.662,GUIDED,-35.3632712,149.1652241,12287,0.12826961278915405,0.002538420492783189,-0.12874054908752441,-0.07415047287940979,-0.19154751300811768,0.1413114070892334,32,9,-1002,-74,-191,140,-132,66,-144,60.0,90.0,1500.0
13:40:53.870,GUIDED,-35.3632712,149.1652241,12287,0.12826961278915405,0.002538420492783189,-0.12874054908752441,-0.07415047287940979,-0.19154751300811768,0.1413114070892334,32,9,-1002,-74,-191,140,-132,66,-144,60.0,90.0,1500.0
13:40:54.075,GUIDED,-35.3632712,149.1652241,12287,0.12826961278915405,0.002538420492783189,-0.12874054908752441,-0.07415047287940979,-0.19154751300811768,0.1413114070892334,32,9,-1002,-74,-191,140,-132,66,-144,60.0,90.0,1500.0
13:40:54.278,GUIDED,-35.3632712,149.1652241,12287,0.12826961278915405,0.002538420492783189,-0.12874054908752441,-0.07415047287940979,-0.19154751300811768,0.1413114070892334,32,9,-1002,-74,-191,140,-132,66,-144,60.0,90.0,1500.0
13:40:54.480,GUIDED,-35.3632712,149.1652241,12287,0.12826961278915405,0.002538420492783189,-0.12874054908752441,-0.07415047287940979,-0.19154751300811768,0.1413114070892334,32,9,-1002,-74,-191,140,-132,66,-144,60.0,90.0,1500.0
13:40:54.685,GUIDED,-35.3632712,149.1652241,12287,0.12826961278915405,0.002538420492783189,-0.12874054908752441,-0.07415047287940979,-0.19154751300811768,0.1413114070892334,32,9,-1002,-74,-191,140,-132,66,-144,60.0,90.0,1500.0
13:40:54.891,GUIDED,-35.3632787,149.1652366,13857,0.01826939918100834,-0.11481592804193497,-0.08897127211093903,-0.14620985090732574,-0.02116983011364937,-0.037903837859630585,23,-19,-1011,-146,-20,-38,-12,129,-148,60.0,90.0,1500.0
13:40:55.094,GUIDED,-35.3632778,149.1652431,14619,-0.04613789916038513,-0.12183258682489395,-0.11612305045127869,-0.08495551347732544,-0.013051643036305904,-0.0411812849342823,16,-23,-1013,-139,-12,-55,52,102,-149,60.0,90.0,1500.0
13:40:55.297,GUIDED,-35.3632743,149.1652472,15374,-0.11671160906553268,-0.10467532277107239,-0.16358092427253723,-0.1852380484342575,0.1216219887137413,-0.15056557953357697,-8,-25,-1005,-185,122,-151,104,42,-145,60.0,90.0,1500.0
13:40:55.500,GUIDED,-35.3632644,149.1652422,16836,-0.1442878097295761,-0.014097591862082481,-0.31392404437065125,0.04366632550954819,0.09289508312940598,-0.06407532840967178,-33,-1,-1004,43,93,-64,94,-127,-139,60.0,90.0,1500.0
13:40:55.705,GUIDED,-35.3632644,149.1652422,16836,-0.1442878097295761,-0.014097591862082481,-0.31392404437065125,0.04366632550954819,0.09289508312940598,-0.06407532840967178,-33,-1,-1004,43,93,-64,94,-127,-139,60.0,90.0,1500.0
13:40:55.913,GUIDED,-35.3632644,149.1652422,16836,-0.1442878097295761,-0.014097591862082481,-0.31392404437065125,0.04366632550954819,0.09289508312940598,-0.06407532840967178,-33,-1,-1004,43,93,-64,94,-127,-139,60.0,90.0,1500.0
13:40:56.121,GUIDED,-35.3632644,149.1652422,16836,-0.1442878097295761,-0.014097591862082481,-0.31392404437065125,0.04366632550954819,0.09289508312940598,-0.06407532840967178,-33,-1,-1004,43,93,-64,94,-127,-139,60.0,90.0,1500.0
13:40:56.329,GUIDED,-35.3632644,149.1652422,16836,-0.1442878097295761,-0.014097591862082481,-0.31392404437065125,0.04366632550954819,0.09289508312940598,-0.06407532840967178,-33,-1,-1004,43,93,-64,94,-127,-139,60.0,90.0,1500.0
13:40:56.531,GUIDED,-35.3632644,149.1652422,16836,-0.1442878097295761,-0.014097591862082481,-0.31392404437065125,0.04366632550954819,0.09289508312940598,-0.06407532840967178,-33,-1,-1004,43,93,-64,94,-127,-139,60.0,90.0,1500.0
13:40:56.734,GUIDED,-35.3632644,149.1652422,16836,-0.1442878097295761,-0.014097591862082481,-0.31392404437065125,0.04366632550954819,0.09289508312940598,-0.06407532840967178,-33,-1,-1004,43,93,-64,94,-127,-139,60.0,90.0,1500.0
13:40:56.936,GUIDED,-35.3632644,149.1652422,16836,-0.1442878097295761,-0.014097591862082481,-0.31392404437065125,0.04366632550954819,0.09289508312940598,-0.06407532840967178,-33,-1,-1004,43,93,-64,94,-127,-139,60.0,90.0,1500.0
13:40:57.145,GUIDED,-35.3632644,149.1652422,16836,-0.1442878097295761,-0.014097591862082481,-0.31392404437065125,0.04366632550954819,0.09289508312940598,-0.06407532840967178,-33,-1,-1004,43,93,-64,94,-127,-139,60.0,90.0,1500.0
13:40:57.349,GUIDED,-35.3632644,149.1652422,16836,-0.1442878097295761,-0.014097591862082481,-0.31392404437065125,0.04366632550954819,0.09289508312940598,-0.06407532840967178,-33,-1,-1004,43,93,-64,94,-127,-139,60.0,90.0,1500.0
13:40:57.553,GUIDED,-35.3632644,149.1652422,16836,-0.1442878097295761,-0.014097591862082481,-0.31392404437065125,0.04366632550954819,0.09289508312940598,-0.06407532840967178,-33,-1,-1004,43,93,-64,94,-127,-139,60.0,90.0,1500.0
13:40:57.761,GUIDED,-35.3632644,149.1652422,16836,-0.1442878097295761,-0.014097591862082481,-0.31392404437065125,0.04366632550954819,0.09289508312940598,-0.06407532840967178,-33,-1,-1004,43,93,-64,94,-127,-139,60.0,90.0,1500.0
13:40:57.964,GUIDED,-35.3632644,149.1652422,16836,-0.1442878097295761,-0.014097591862082481,-0.31392404437065125,0.04366632550954819,0.09289508312940598,-0.06407532840967178,-33,-1,-1004,43,93,-64,94,-127,-139,60.0,90.0,1500.0
13:40:58.169,GUIDED,-35.3632644,149.1652422,16836,-0.1442878097295761,-0.014097591862082481,-0.31392404437065125,0.04366632550954819,0.09289508312940598,-0.06407532840967178,-33,-1,-1004,43,93,-64,94,-127,-139,60.0,90.0,1500.0
13:40:58.371,GUIDED,-35.3632644,149.1652422,16836,-0.1442878097295761,-0.014097591862082481,-0.31392404437065125,0.04366632550954819,0.09289508312940598,-0.06407532840967178,-33,-1,-1004,43,93,-64,94,-127,-139,60.0,90.0,1500.0
13:40:58.574,GUIDED,-35.3632644,149.1652422,16836,-0.1442878097295761,-0.014097591862082481,-0.31392404437065125,0.04366632550954819,0.09289508312940598,-0.06407532840967178,-33,-1,-1004,43,93,-64,94,-127,-139,60.0,90.0,1500.0
13:40:58.777,GUIDED,-35.3632596,149.1652231,18256,-0.08060802519321442,0.08444435149431229,-0.36173316836357117,0.0869988277554512,0.10804338753223419,-0.01703975722193718,-38,26,-1016,86,108,-17,-3,-200,-141,60.0,90.0,1500.0
13:40:58.981,GUIDED,-35.36326,149.1652176,18619,-0.05811105668544769,0.1094539687037468,-0.36601975560188293,0.09654491394758224,0.0972965732216835,-0.009425832889974117,-27,30,-1016,96,97,-10,-36,-198,-143,60.0,90.0,1500.0
13:40:59.186,GUIDED,-35.36326,149.1652176,18619,-0.05811105668544769,0.1094539687037468,-0.36601975560188293,0.09654491394758224,0.0972965732216835,-0.009425832889974117,-27,30,-1016,96,97,-10,-36,-198,-143,60.0,90.0,1500.0
13:40:59.391,GUIDED,-35.36326,149.1652176,18619,-0.05811105668544769,0.1094539687037468,-0.36601975560188293,0.09654491394758224,0.0972965732216835,-0.009425832889974117,-27,30,-1016,96,97,-10,-36,-198,-143,60.0,90.0,1500.0
13:40:59.593,GUIDED,-35.36326,149.1652176,18619,-0.05811105668544769,0.1094539687037468,-0.36601975560188293,0.09654491394758224,0.0972965732216835,-0.009425832889974117,-27,30,-1016,96,97,-10,-36,-198,-143,60.0,90.0,1500.0
13:40:59.798,GUIDED,-35.36326,149.1652176,18619,-0.05811105668544769,0.1094539687037468,-0.36601975560188293,0.09654491394758224,0.0972965732216835,-0.009425832889974117,-27,30,-1016,96,97,-10,-36,-198,-143,60.0,90.0,1500.0
13:41:00.001,GUIDED,-35.36326,149.1652176,18619,-0.05811105668544769,0.1094539687037468,-0.36601975560188293,0.09654491394758224,0.0972965732216835,-0.009425832889974117,-27,30,-1016,96,97,-10,-36,-198,-143,60.0,90.0,1500.0
13:41:00.205,GUIDED,-35.36326,149.1652176,18619,-0.05811105668544769,0.1094539687037468,-0.36601975560188293,0.09654491394758224,0.0972965732216835,-0.009425832889974117,-27,30,-1016,96,97,-10,-36,-198,-143,60.0,90.0,1500.0
13:41:00.407,GUIDED,-35.36326,149.1652176,18619,-0.05811105668544769,0.1094539687037468,-0.36601975560188293,0.09654491394758224,0.0972965732216835,-0.009425832889974117,-27,30,-1016,96,97,-10,-36,-198,-143,60.0,90.0,1500.0
13:41:00.610,GUIDED,-35.36326,149.1652176,18619,-0.05811105668544769,0.1094539687037468,-0.36601975560188293,0.09654491394758224,0.0972965732216835,-0.009425832889974117,-27,30,-1016,96,97,-10,-36,-198,-143,60.0,90.0,1500.0
13:41:00.816,GUIDED,-35.36326,149.1652176,18619,-0.05811105668544769,0.1094539687037468,-0.36601975560188293,0.09654491394758224,0.0972965732216835,-0.009425832889974117,-27,30,-1016,96,97,-10,-36,-198,-143,60.0,90.0,1500.0
13:41:01.037,GUIDED,-35.36326,149.1652176,18619,-0.05811105668544769,0.1094539687037468,-0.36601975560188293,0.09654491394758224,0.0972965732216835,-0.009425832889974117,-27,30,-1016,96,97,-10,-36,-198,-143,60.0,90.0,1500.0
13:41:01.239,GUIDED,-35.36326,149.1652176,18619,-0.05811105668544769,0.1094539687037468,-0.36601975560188293,0.09654491394758224,0.0972965732216835,-0.009425832889974117,-27,30,-1016,96,97,-10,-36,-198,-143,60.0,90.0,1500.0
13:41:01.443,GUIDED,-35.36326,149.1652176,18619,-0.05811105668544769,0.1094539687037468,-0.36601975560188293,0.09654491394758224,0.0972965732216835,-0.009425832889974117,-27,30,-1016,96,97,-10,-36,-198,-143,60.0,90.0,1500.0
13:41:01.645,GUIDED,-35.36326,149.1652176,18619,-0.05811105668544769,0.1094539687037468,-0.36601975560188293,0.09654491394758224,0.0972965732216835,-0.009425832889974117,-27,30,-1016,96,97,-10,-36,-198,-143,60.0,90.0,1500.0
13:41:01.850,GUIDED,-35.3632671,149.1652014,19883,0.03528355434536934,0.16434089839458466,-0.36482149362564087,0.12017680704593658,0.024416137486696243,0.010708382353186607,-5,46,-1010,120,25,9,-155,-130,-144,60.0,90.0,1500.0
13:41:02.052,GUIDED,-35.3632799,149.1651954,20967,0.12678150832653046,0.1465296447277069,-0.35434967279434204,0.11742569506168365,-0.06754469871520996,0.023111142218112946,15,49,-1007,119,-35,20,-224,-4,-136,60.0,90.0,1500.0
13:41:02.255,GUIDED,-35.3632849,149.1651958,21314,0.15256574749946594,0.12149715423583984,-0.34870466589927673,0.08046308159828186,-0.12540429830551147,0.052998799830675125,34,37,-1006,80,-124,52,-231,45,-133,60.0,90.0,1500.0
13:41:02.463,GUIDED,-35.3632849,149.1651958,21314,0.15256574749946594,0.12149715423583984,-0.34870466589927673,0.08046308159828186,-0.12540429830551147,0.052998799830675125,34,37,-1006,80,-124,52,-231,45,-133,60.0,90.0,1500.0
13:41:02.669,GUIDED,-35.3632849,149.1651958,21314,0.15256574749946594,0.12149715423583984,-0.34870466589927673,0.08046308159828186,-0.12540429830551147,0.052998799830675125,34,37,-1006,80,-124,52,-231,45,-133,60.0,90.0,1500.0
13:41:02.877,GUIDED,-35.3632849,149.1651958,21314,0.15256574749946594,0.12149715423583984,-0.34870466589927673,0.08046308159828186,-0.12540429830551147,0.052998799830675125,34,37,-1006,80,-124,52,-231,45,-133,60.0,90.0,1500.0
13:41:03.087,GUIDED,-35.3632849,149.1651958,21314,0.15256574749946594,0.12149715423583984,-0.34870466589927673,0.08046308159828186,-0.12540429830551147,0.052998799830675125,34,37,-1006,80,-124,52,-231,45,-133,60.0,90.0,1500.0
13:41:03.290,GUIDED,-35.3632849,149.1651958,21314,0.15256574749946594,0.12149715423583984,-0.34870466589927673,0.08046308159828186,-0.12540429830551147,0.052998799830675125,34,37,-1006,80,-124,52,-231,45,-133,60.0,90.0,1500.0
13:41:03.494,GUIDED,-35.3632849,149.1651958,21314,0.15256574749946594,0.12149715423583984,-0.34870466589927673,0.08046308159828186,-0.12540429830551147,0.052998799830675125,34,37,-1006,80,-124,52,-231,45,-133,60.0,90.0,1500.0
13:41:03.698,GUIDED,-35.3632849,149.1651958,21314,0.15256574749946594,0.12149715423583984,-0.34870466589927673,0.08046308159828186,-0.12540429830551147,0.052998799830675125,34,37,-1006,80,-124,52,-231,45,-133,60.0,90.0,1500.0
13:41:03.905,GUIDED,-35.3632849,149.1651958,21314,0.15256574749946594,0.12149715423583984,-0.34870466589927673,0.08046308159828186,-0.12540429830551147,0.052998799830675125,34,37,-1006,80,-124,52,-231,45,-133,60.0,90.0,1500.0
13:41:04.107,GUIDED,-35.3632849,149.1651958,21314,0.15256574749946594,0.12149715423583984,-0.34870466589927673,0.08046308159828186,-0.12540429830551147,0.052998799830675125,34,37,-1006,80,-124,52,-231,45,-133,60.0,90.0,1500.0
13:41:04.312,GUIDED,-35.3632849,149.1651958,21314,0.15256574749946594,0.12149715423583984,-0.34870466589927673,0.08046308159828186,-0.12540429830551147,0.052998799830675125,34,37,-1006,80,-124,52,-231,45,-133,60.0,90.0,1500.0
13:41:04.515,GUIDED,-35.3632849,149.1651958,21314,0.15256574749946594,0.12149715423583984,-0.34870466589927673,0.08046308159828186,-0.12540429830551147,0.052998799830675125,34,37,-1006,80,-124,52,-231,45,-133,60.0,90.0,1500.0
13:41:04.719,GUIDED,-35.3632849,149.1651958,21314,0.15256574749946594,0.12149715423583984,-0.34870466589927673,0.08046308159828186,-0.12540429830551147,0.052998799830675125,34,37,-1006,80,-124,52,-231,45,-133,60.0,90.0,1500.0
13:41:04.926,GUIDED,-35.3632849,149.1651958,21314,0.15256574749946594,0.12149715423583984,-0.34870466589927673,0.08046308159828186,-0.12540429830551147,0.052998799830675125,34,37,-1006,80,-124,52,-231,45,-133,60.0,90.0,1500.0
13:41:05.132,GUIDED,-35.3632849,149.1651958,21314,0.15256574749946594,0.12149715423583984,-0.34870466589927673,0.08046308159828186,-0.12540429830551147,0.052998799830675125,34,37,-1006,80,-124,52,-231,45,-133,60.0,90.0,1500.0
13:41:05.337,GUIDED,-35.3632849,149.1651958,21314,0.15256574749946594,0.12149715423583984,-0.34870466589927673,0.08046308159828186,-0.12540429830551147,0.052998799830675125,34,37,-1006,80,-124,52,-231,45,-133,60.0,90.0,1500.0
13:41:05.540,GUIDED,-35.3633057,149.1652177,22988,0.19609791040420532,-0.10855244100093842,-0.30018866062164307,-0.04870690405368805,-0.20278386771678925,0.11984950304031372,61,-14,-1020,-48,-202,119,-98,262,-127,60.0,90.0,1500.0
13:41:05.744,GUIDED,-35.3633028,149.1652495,24197,0.052259404212236404,-0.31276193261146545,-0.18050670623779297,-0.21416735649108887,-0.004787582438439131,0.04176575690507889,31,-58,-1010,-134,-209,203,180,287,-100,60.0,90.0,1500.0
13:41:05.954,GUIDED,-35.3633028,149.1652495,24197,0.052259404212236404,-0.31276193261146545,-0.18050670623779297,-0.21416735649108887,-0.004787582438439131,0.04176575690507889,18,-79,-1002,-214,-3,41,180,287,-100,60.0,90.0,1500.0
13:41:06.157,GUIDED,-35.3633028,149.1652495,24197,0.052259404212236404,-0.31276193261146545,-0.18050670623779297,-0.21416735649108887,-0.004787582438439131,0.04176575690507889,18,-79,-1002,-214,-3,41,180,287,-100,60.0,90.0,1500.0
13:41:06.359,GUIDED,-35.3633028,149.1652495,24197,0.052259404212236404,-0.31276193261146545,-0.18050670623779297,-0.21416735649108887,-0.004787582438439131,0.04176575690507889,18,-79,-1002,-214,-3,41,180,287,-100,60.0,90.0,1500.0
13:41:06.561,GUIDED,-35.3633028,149.1652495,24197,0.052259404212236404,-0.31276193261146545,-0.18050670623779297,-0.21416735649108887,-0.004787582438439131,0.04176575690507889,18,-79,-1002,-214,-3,41,180,287,-100,60.0,90.0,1500.0
13:41:06.765,GUIDED,-35.3633028,149.1652495,24197,0.052259404212236404,-0.31276193261146545,-0.18050670623779297,-0.21416735649108887,-0.004787582438439131,0.04176575690507889,18,-79,-1002,-214,-3,41,180,287,-100,60.0,90.0,1500.0
13:41:06.968,GUIDED,-35.3633028,149.1652495,24197,0.052259404212236404,-0.31276193261146545,-0.18050670623779297,-0.21416735649108887,-0.004787582438439131,0.04176575690507889,18,-79,-1002,-214,-3,41,180,287,-100,60.0,90.0,1500.0
13:41:07.173,GUIDED,-35.3633028,149.1652495,24197,0.052259404212236404,-0.31276193261146545,-0.18050670623779297,-0.21416735649108887,-0.004787582438439131,0.04176575690507889,18,-79,-1002,-214,-3,41,180,287,-100,60.0,90.0,1500.0
13:41:07.382,GUIDED,-35.3633028,149.1652495,24197,0.052259404212236404,-0.31276193261146545,-0.18050670623779297,-0.21416735649108887,-0.004787582438439131,0.04176575690507889,18,-79,-1002,-214,-3,41,180,287,-100,60.0,90.0,1500.0
13:41:07.589,GUIDED,-35.3633028,149.1652495,24197,0.052259404212236404,-0.31276193261146545,-0.18050670623779297,-0.21416735649108887,-0.004787582438439131,0.04176575690507889,18,-79,-1002,-214,-3,41,180,287,-100,60.0,90.0,1500.0
13:41:07.800,GUIDED,-35.3633028,149.1652495,24197,0.052259404212236404,-0.31276193261146545,-0.18050670623779297,-0.21416735649108887,-0.004787582438439131,0.04176575690507889,18,-79,-1002,-214,-3,41,180,287,-100,60.0,90.0,1500.0
13:41:08.004,GUIDED,-35.3633028,149.1652495,24197,0.052259404212236404,-0.31276193261146545,-0.18050670623779297,-0.21416735649108887,-0.004787582438439131,0.04176575690507889,18,-79,-1002,-214,-3,41,180,287,-100,60.0,90.0,1500.0
13:41:08.207,GUIDED,-35.3632823,149.1652696,24974,-0.11076480150222778,-0.20828209817409515,-0.30687618255615234,-0.23518595099449158,0.15977288782596588,-0.24611330032348633,18,-79,-1002,-214,-3,41,363,147,-101,60.0,90.0,1500.0
13:41:08.410,GUIDED,-35.363257,149.1652734,25864,-0.1749240756034851,-0.045308250933885574,-0.4196576774120331,0.02690877392888069,0.2262127548456192,-0.008145662024617195,-53,-72,-1080,27,226,-8,361,-52,-135,60.0,90.0,1500.0
13:41:08.613,GUIDED,-35.3632493,149.1652713,26224,-0.1687178760766983,0.0070070237852633,-0.42698970437049866,0.016816681250929832,0.20488503575325012,0.015617040917277336,-68,-59,-1070,17,205,15,326,-102,-147,60.0,90.0,1500.0
13:41:08.821,GUIDED,-35.3632493,149.1652713,26224,-0.1687178760766983,0.0070070237852633,-0.42698970437049866,0.016816681250929832,0.20488503575325012,0.015617040917277336,-68,-59,-1070,17,205,15,326,-102,-147,60.0,90.0,1500.0
13:41:09.025,GUIDED,-35.3632493,149.1652713,26224,-0.1687178760766983,0.0070070237852633,-0.42698970437049866,0.016816681250929832,0.20488503575325012,0.015617040917277336,-68,-59,-1070,17,205,15,326,-102,-147,60.0,90.0,1500.0
13:41:09.229,GUIDED,-35.3632493,149.1652713,26224,-0.1687178760766983,0.0070070237852633,-0.42698970437049866,0.016816681250929832,0.20488503575325012,0.015617040917277336,-68,-59,-1070,17,205,15,326,-102,-147,60.0,90.0,1500.0
13:41:09.432,GUIDED,-35.3632493,149.1652713,26224,-0.1687178760766983,0.0070070237852633,-0.42698970437049866,0.016816681250929832,0.20488503575325012,0.015617040917277336,-68,-59,-1070,17,205,15,326,-102,-147,60.0,90.0,1500.0
13:41:09.635,GUIDED,-35.3632493,149.1652713,26224,-0.1687178760766983,0.0070070237852633,-0.42698970437049866,0.016816681250929832,0.20488503575325012,0.015617040917277336,-68,-59,-1070,17,205,15,326,-102,-147,60.0,90.0,1500.0
13:41:09.840,GUIDED,-35.3632493,149.1652713,26224,-0.1687178760766983,0.0070070237852633,-0.42698970437049866,0.016816681250929832,0.20488503575325012,0.015617040917277336,-68,-59,-1070,17,205,15,326,-102,-147,60.0,90.0,1500.0
13:41:10.042,GUIDED,-35.3632493,149.1652713,26224,-0.1687178760766983,0.0070070237852633,-0.42698970437049866,0.016816681250929832,0.20488503575325012,0.015617040917277336,-68,-59,-1070,17,205,15,326,-102,-147,60.0,90.0,1500.0
13:41:10.244,GUIDED,-35.3632493,149.1652713,26224,-0.1687178760766983,0.0070070237852633,-0.42698970437049866,0.016816681250929832,0.20488503575325012,0.015617040917277336,-68,-59,-1070,17,205,15,326,-102,-147,60.0,90.0,1500.0
13:41:10.449,GUIDED,-35.3632493,149.1652713,26224,-0.1687178760766983,0.0070070237852633,-0.42698970437049866,0.016816681250929832,0.20488503575325012,0.015617040917277336,-68,-59,-1070,17,205,15,326,-102,-147,60.0,90.0,1500.0
13:41:10.656,GUIDED,-35.3632493,149.1652713,26224,-0.1687178760766983,0.0070070237852633,-0.42698970437049866,0.016816681250929832,0.20488503575325012,0.015617040917277336,-68,-59,-1070,17,205,15,326,-102,-147,60.0,90.0,1500.0
13:41:10.859,GUIDED,-35.3632493,149.1652713,26224,-0.1687178760766983,0.0070070237852633,-0.42698970437049866,0.016816681250929832,0.20488503575325012,0.015617040917277336,-68,-59,-1070,17,205,15,326,-102,-147,60.0,90.0,1500.0
13:41:11.066,GUIDED,-35.3632493,149.1652713,26224,-0.1687178760766983,0.0070070237852633,-0.42698970437049866,0.016816681250929832,0.20488503575325012,0.015617040917277336,-68,-59,-1070,17,205,15,326,-102,-147,60.0,90.0,1500.0
13:41:11.269,GUIDED,-35.36323,149.1652541,27765,-0.1659630835056305,0.17916619777679443,-0.4580738842487335,0.0369521826505661,0.16890239715576172,-0.003204423701390624,-63,-17,-1039,18,177,-6,109,-211,-162,60.0,90.0,1500.0
13:41:11.471,GUIDED,-35.3632283,149.1652425,28565,-0.13695064187049866,0.2518124580383301,-0.47258591651916504,0.08146555721759796,0.1247340738773346,0.0014830032596364617,-41,25,-1001,81,125,1,-36,-213,-147,60.0,90.0,1500.0
13:41:11.678,GUIDED,-35.3632331,149.1652317,29257,-0.08505254238843918,0.29777786135673523,-0.47751909494400024,0.12288343161344528,0.060469504445791245,0.003021454904228449,-20,52,-985,122,61,2,-183,-176,-120,60.0,90.0,1500.0
13:41:11.884,GUIDED,-35.3632331,149.1652317,29257,-0.08505254238843918,0.29777786135673523,-0.47751909494400024,0.12288343161344528,0.060469504445791245,0.003021454904228449,-20,52,-985,122,61,2,-183,-176,-120,60.0,90.0,1500.0
13:41:12.088,GUIDED,-35.3632331,149.1652317,29257,-0.08505254238843918,0.29777786135673523,-0.47751909494400024,0.12288343161344528,0.060469504445791245,0.003021454904228449,-20,52,-985,122,61,2,-183,-176,-120,60.0,90.0,1500.0
13:41:12.292,GUIDED,-35.3632331,149.1652317,29257,-0.08505254238843918,0.29777786135673523,-0.47751909494400024,0.12288343161344528,0.060469504445791245,0.003021454904228449,-20,52,-985,122,61,2,-183,-176,-120,60.0,90.0,1500.0
13:41:12.495,GUIDED,-35.3632331,149.1652317,29257,-0.08505254238843918,0.29777786135673523,-0.47751909494400024,0.12288343161344528,0.060469504445791245,0.003021454904228449,-20,52,-985,122,61,2,-183,-176,-120,60.0,90.0,1500.0
13:41:12.696,GUIDED,-35.3632331,149.1652317,29257,-0.08505254238843918,0.29777786135673523,-0.47751909494400024,0.12288343161344528,0.060469504445791245,0.003021454904228449,-20,52,-985,122,61,2,-183,-176,-120,60.0,90.0,1500.0
13:41:12.900,GUIDED,-35.3632331,149.1652317,29257,-0.08505254238843918,0.29777786135673523,-0.47751909494400024,0.12288343161344528,0.060469504445791245,0.003021454904228449,-20,52,-985,122,61,2,-183,-176,-120,60.0,90.0,1500.0
13:41:13.103,GUIDED,-35.3632331,149.1652317,29257,-0.08505254238843918,0.29777786135673523,-0.47751909494400024,0.12288343161344528,0.060469504445791245,0.003021454904228449,-20,52,-985,122,61,2,-183,-176,-120,60.0,90.0,1500.0
13:41:13.307,GUIDED,-35.3632331,149.1652317,29257,-0.08505254238843918,0.29777786135673523,-0.47751909494400024,0.12288343161344528,0.060469504445791245,0.003021454904228449,-20,52,-985,122,61,2,-183,-176,-120,60.0,90.0,1500.0
13:41:13.510,GUIDED,-35.3632331,149.1652317,29257,-0.08505254238843918,0.29777786135673523,-0.47751909494400024,0.12288343161344528,0.060469504445791245,0.003021454904228449,-20,52,-985,122,61,2,-183,-176,-120,60.0,90.0,1500.0
13:41:13.713,GUIDED,-35.3632331,149.1652317,29257,-0.08505254238843918,0.29777786135673523,-0.47751909494400024,0.12288343161344528,0.060469504445791245,0.003021454904228449,-20,52,-985,122,61,2,-183,-176,-120,60.0,90.0,1500.0
13:41:13.920,GUIDED,-35.3632331,149.1652317,29257,-0.08505254238843918,0.29777786135673523,-0.47751909494400024,0.12288343161344528,0.060469504445791245,0.003021454904228449,-20,52,-985,122,61,2,-183,-176,-120,60.0,90.0,1500.0
13:41:14.125,GUIDED,-35.3632331,149.1652317,29257,-0.08505254238843918,0.29777786135673523,-0.47751909494400024,0.12288343161344528,0.060469504445791245,0.003021454904228449,-20,52,-985,122,61,2,-183,-176,-120,60.0,90.0,1500.0
13:41:14.330,GUIDED,-35.3632331,149.1652317,29257,-0.08505254238843918,0.29777786135673523,-0.47751909494400024,0.12288343161344528,0.060469504445791245,0.003021454904228449,-20,52,-985,122,61,2,-183,-176,-120,60.0,90.0,1500.0
13:41:14.533,GUIDED,-35.3632672,149.1652185,30560,0.033336155116558075,0.06177469715476036,-0.3016520142555237,0.0853026881814003,-0.1702817976474762,0.15322187542915344,48,86,-1073,85,-169,153,-356,-25,-121,60.0,90.0,1500.0
13:41:14.737,GUIDED,-35.3632897,149.1652198,31651,0.1255238652229309,-0.05816562846302986,-0.22977489233016968,0.11426346004009247,-0.15397317707538605,0.08604111522436142,61,48,-1062,127,-148,97,-289,61,-161,60.0,90.0,1500.0
13:41:14.939,GUIDED,-35.3632897,149.1652198,31651,0.1255238652229309,-0.05816562846302986,-0.22977489233016968,0.11426346004009247,-0.15397317707538605,0.08604111522436142,61,41,-1053,114,-153,86,-289,61,-161,60.0,90.0,1500.0
13:41:15.142,GUIDED,-35.3632897,149.1652198,31651,0.1255238652229309,-0.05816562846302986,-0.22977489233016968,0.11426346004009247,-0.15397317707538605,0.08604111522436142,61,41,-1053,114,-153,86,-289,61,-161,60.0,90.0,1500.0
13:41:15.344,GUIDED,-35.3632897,149.1652198,31651,0.1255238652229309,-0.05816562846302986,-0.22977489233016968,0.11426346004009247,-0.15397317707538605,0.08604111522436142,61,41,-1053,114,-153,86,-289,61,-161,60.0,90.0,1500.0
13:41:15.548,GUIDED,-35.3632897,149.1652198,31651,0.1255238652229309,-0.05816562846302986,-0.22977489233016968,0.11426346004009247,-0.15397317707538605,0.08604111522436142,61,41,-1053,114,-153,86,-289,61,-161,60.0,90.0,1500.0
13:41:15.751,GUIDED,-35.3632897,149.1652198,31651,0.1255238652229309,-0.05816562846302986,-0.22977489233016968,0.11426346004009247,-0.15397317707538605,0.08604111522436142,61,41,-1053,114,-153,86,-289,61,-161,60.0,90.0,1500.0
13:41:15.953,GUIDED,-35.3632897,149.1652198,31651,0.1255238652229309,-0.05816562846302986,-0.22977489233016968,0.11426346004009247,-0.15397317707538605,0.08604111522436142,61,41,-1053,114,-153,86,-289,61,-161,60.0,90.0,1500.0
13:41:16.156,GUIDED,-35.3632897,149.1652198,31651,0.1255238652229309,-0.05816562846302986,-0.22977489233016968,0.11426346004009247,-0.15397317707538605,0.08604111522436142,61,41,-1053,114,-153,86,-289,61,-161,60.0,90.0,1500.0
13:41:16.358,GUIDED,-35.3632897,149.1652198,31651,0.1255238652229309,-0.05816562846302986,-0.22977489233016968,0.11426346004009247,-0.15397317707538605,0.08604111522436142,61,41,-1053,114,-153,86,-289,61,-161,60.0,90.0,1500.0
13:41:16.560,GUIDED,-35.3632897,149.1652198,31651,0.1255238652229309,-0.05816562846302986,-0.22977489233016968,0.11426346004009247,-0.15397317707538605,0.08604111522436142,61,41,-1053,114,-153,86,-289,61,-161,60.0,90.0,1500.0
13:41:16.764,GUIDED,-35.3632897,149.1652198,31651,0.1255238652229309,-0.05816562846302986,-0.22977489233016968,0.11426346004009247,-0.15397317707538605,0.08604111522436142,61,41,-1053,114,-153,86,-289,61,-161,60.0,90.0,1500.0
13:41:16.972,GUIDED,-35.3632897,149.1652198,31651,0.1255238652229309,-0.05816562846302986,-0.22977489233016968,0.11426346004009247,-0.15397317707538605,0.08604111522436142,61,41,-1053,114,-153,86,-289,61,-161,60.0,90.0,1500.0
13:41:17.174,GUIDED,-35.3632897,149.1652198,31651,0.1255238652229309,-0.05816562846302986,-0.22977489233016968,0.11426346004009247,-0.15397317707538605,0.08604111522436142,61,41,-1053,114,-153,86,-289,61,-161,60.0,90.0,1500.0
13:41:17.380,GUIDED,-35.3632897,149.1652198,31651,0.1255238652229309,-0.05816562846302986,-0.22977489233016968,0.11426346004009247,-0.15397317707538605,0.08604111522436142,61,41,-1053,114,-153,86,-289,61,-161,60.0,90.0,1500.0
13:41:17.582,GUIDED,-35.3632897,149.1652198,31651,0.1255238652229309,-0.05816562846302986,-0.22977489233016968,0.11426346004009247,-0.15397317707538605,0.08604111522436142,61,41,-1053,114,-153,86,-289,61,-161,60.0,90.0,1500.0
13:41:17.786,GUIDED,-35.3633062,149.1652468,33994,0.14601945877075195,-0.3098110556602478,-0.15995824337005615,-0.199807271361351,-0.0744500681757927,0.03029787912964821,36,-30,-973,-66,-174,110,90,240,-111,60.0,90.0,1500.0
13:41:17.989,GUIDED,-35.3632927,149.1652656,34710,-0.03896450996398926,-0.23613619804382324,-0.2582199275493622,-0.2861867845058441,0.1455557495355606,-0.22263962030410767,0,-76,-1028,-308,131,-181,295,186,-90,60.0,90.0,1500.0
13:41:18.194,GUIDED,-35.3632927,149.1652656,34710,-0.03896450996398926,-0.23613619804382324,-0.2582199275493622,-0.2861867845058441,0.1455557495355606,-0.22263962030410767,-6,-91,-1061,-285,146,-222,295,186,-90,60.0,90.0,1500.0
13:41:18.397,GUIDED,-35.3632927,149.1652656,34710,-0.03896450996398926,-0.23613619804382324,-0.2582199275493622,-0.2861867845058441,0.1455557495355606,-0.22263962030410767,-6,-91,-1061,-285,146,-222,295,186,-90,60.0,90.0,1500.0
13:41:18.600,GUIDED,-35.3632927,149.1652656,34710,-0.03896450996398926,-0.23613619804382324,-0.2582199275493622,-0.2861867845058441,0.1455557495355606,-0.22263962030410767,-6,-91,-1061,-285,146,-222,295,186,-90,60.0,90.0,1500.0
13:41:18.804,GUIDED,-35.3632927,149.1652656,34710,-0.03896450996398926,-0.23613619804382324,-0.2582199275493622,-0.2861867845058441,0.1455557495355606,-0.22263962030410767,-6,-91,-1061,-285,146,-222,295,186,-90,60.0,90.0,1500.0
13:41:19.009,GUIDED,-35.3632927,149.1652656,34710,-0.03896450996398926,-0.23613619804382324,-0.2582199275493622,-0.2861867845058441,0.1455557495355606,-0.22263962030410767,-6,-91,-1061,-285,146,-222,295,186,-90,60.0,90.0,1500.0
