time_stamp,MODE,lat,lon,relative_alt,roll,pitch,yaw,rollspeed,pitchspeed,yawspeed,xacc,yacc,zacc,xgyro,ygyro,zgyro,vx,vy,vz,RTL_ALT
05:41:59.324,STABILIZE,-35.3632622,149.1652375,0,-0.0009210458374582231,0.0010511062573641539,0.02658335492014885,7.8308250522241e-05,0.0002497008827049285,0.0020309705287218094,0,1,-1000,0,1,0,-1,1,0,1500.0
05:41:59.525,STABILIZE,-35.3632622,149.1652375,0,-0.0009210458374582231,0.0010511062573641539,0.02658335492014885,7.8308250522241e-05,0.0002497008827049285,0.0020309705287218094,0,1,-1000,0,1,0,-1,1,0,1500.0
05:41:59.727,STABILIZE,-35.3632622,149.1652375,0,-0.0009210458374582231,0.0010511062573641539,0.02658335492014885,7.8308250522241e-05,0.0002497008827049285,0.0020309705287218094,0,1,-1000,0,1,0,-1,1,0,1500.0
05:41:59.928,STABILIZE,-35.3632621,149.1652375,0,-0.0010202816920354962,0.000981233431957662,0.026207057759165764,8.706934750080109e-05,0.0002220221795141697,0.001956015359610319,0,1,-1000,0,1,0,-1,0,0,1500.0
05:42:00.130,STABILIZE,-35.3632621,149.1652375,0,-0.0010314688552170992,0.0009740715613588691,0.026099281385540962,0.00027835648506879807,0.00022955119493417442,0.002119067357853055,0,1,-1000,0,1,0,-1,0,0,1500.0
05:42:00.331,STABILIZE,-35.3632621,149.1652375,0,-0.0010382210602983832,0.0009670114377513528,0.02599521540105343,0.00014570786152034998,0.00027550169033929706,0.001959822606295347,0,1,-1000,0,0,0,-1,0,0,1500.0
05:42:00.532,STABILIZE,-35.3632621,149.1652375,0,-0.0010382210602983832,0.0009670114377513528,0.02599521540105343,0.00014570786152034998,0.00027550169033929706,0.001959822606295347,0,1,-1000,0,0,0,-1,0,0,1500.0
05:42:00.733,STABILIZE,-35.3632621,149.1652375,0,-0.0010270948987454176,0.0009533307747915387,0.02592143788933754,0.00038100010715425014,0.00022796244593337178,0.0020508235320448875,0,1,-1000,0,0,0,-1,0,0,1500.0
05:42:00.935,STABILIZE,-35.3632621,149.1652375,0,-0.0010285850148648024,0.0009487496572546661,0.025846026837825775,0.0002569335629232228,0.00021792075131088495,0.002028794726356864,0,1,-1000,0,0,0,-1,0,0,1500.0
05:42:01.136,STABILIZE,-35.3632621,149.1652375,0,-0.0010285850148648024,0.0009487496572546661,0.025846026837825775,0.0002569335629232228,0.00021792075131088495,0.002028794726356864,0,1,-1000,0,0,0,-1,0,0,1500.0
05:42:01.338,STABILIZE,-35.3632621,149.1652375,0,-0.0010285850148648024,0.0009487496572546661,0.025846026837825775,0.0002569335629232228,0.00021792075131088495,0.002028794726356864,0,1,-1000,0,0,0,-1,0,0,1500.0
05:42:01.539,STABILIZE,-35.3632621,149.1652375,0,-0.0010285850148648024,0.0009487496572546661,0.025846026837825775,0.0002569335629232228,0.00021792075131088495,0.002028794726356864,0,1,-1000,0,0,0,-1,0,0,1500.0
05:42:01.741,STABILIZE,-35.3632621,149.1652375,0,-0.0010351790115237236,0.0009382342686876655,0.02557690069079399,0.00026566971791908145,0.0002049678296316415,0.0018972987309098244,0,1,-1000,0,0,0,-1,0,0,1500.0
05:42:01.942,STABILIZE,-35.3632621,149.1652375,0,-0.0010351790115237236,0.0009382342686876655,0.02557690069079399,0.00026566971791908145,0.0002049678296316415,0.0018972987309098244,0,1,-1000,0,0,0,-1,0,0,1500.0
05:42:02.144,STABILIZE,-35.3632621,149.1652375,0,-0.0010290744248777628,0.0009296140051446855,0.025375915691256523,0.000241402187384665,0.0002068110043182969,0.0018433710793033242,0,1,-1000,0,0,0,-1,0,0,1500.0
05:42:02.345,STABILIZE,-35.3632621,149.1652375,0,-0.0010290744248777628,0.0009296140051446855,0.025375915691256523,0.000241402187384665,0.0002068110043182969,0.0018433710793033242,0,1,-1000,0,0,0,-1,0,0,1500.0
05:42:02.546,STABILIZE,-35.3632621,149.1652375,0,-0.0010290744248777628,0.0009296140051446855,0.025375915691256523,0.000241402187384665,0.0002068110043182969,0.0018433710793033242,0,1,-1000,0,0,0,-1,0,0,1500.0
05:42:02.747,STABILIZE,-35.3632621,149.1652375,0,-0.0010290744248777628,0.0009296140051446855,0.025375915691256523,0.000241402187384665,0.0002068110043182969,0.0018433710793033242,0,1,-1000,1,0,1,-1,0,0,1500.0
05:42:02.949,STABILIZE,-35.3632621,149.1652375,0,-0.0010290744248777628,0.0009296140051446855,0.025375915691256523,0.000241402187384665,0.0002068110043182969,0.0018433710793033242,0,1,-1000,1,0,1,-1,0,0,1500.0
05:42:03.150,STABILIZE,-35.3632621,149.1652375,0,-0.0010290744248777628,0.0009296140051446855,0.025375915691256523,0.000241402187384665,0.0002068110043182969,0.0018433710793033242,0,1,-1000,1,0,1,-1,0,0,1500.0
05:42:03.352,STABILIZE,-35.3632621,149.1652375,0,-0.0010290744248777628,0.0009296140051446855,0.025375915691256523,0.000241402187384665,0.0002068110043182969,0.0018433710793033242,0,1,-1000,1,0,1,-1,0,0,1500.0
05:42:03.553,STABILIZE,-35.3632621,149.1652375,0,-0.0010290744248777628,0.0009296140051446855,0.025375915691256523,0.000241402187384665,0.0002068110043182969,0.0018433710793033242,0,1,-1000,1,0,1,-1,0,0,1500.0
05:42:03.755,STABILIZE,-35.3632621,149.1652375,0,-0.0010290744248777628,0.0009296140051446855,0.025375915691256523,0.000241402187384665,0.0002068110043182969,0.0018433710793033242,0,1,-1000,1,0,1,-1,0,0,1500.0
05:42:03.956,STABILIZE,-35.3632622,149.1652375,0,-0.0008412726456299424,0.0009336514631286263,0.024708224460482597,0.00029223685851320624,0.0002523898147046566,0.0017383547965437174,0,1,-1000,0,0,1,-1,2,1,1500.0
05:42:04.158,STABILIZE,-35.3632622,149.1652375,0,-0.0008412726456299424,0.0009336514631286263,0.024708224460482597,0.00029223685851320624,0.0002523898147046566,0.0017383547965437174,0,1,-1000,0,0,1,-1,2,1,1500.0
05:42:04.359,STABILIZE,-35.3632622,149.1652375,0,-0.0009104245691560209,0.0009377195965498686,0.024538345634937286,0.00034325773594900966,0.00027061603032052517,0.0017585443565621972,0,2,-1000,0,0,0,-1,1,1,1500.0
05:42:04.561,STABILIZE,-35.3632622,149.1652375,0,-0.0009104245691560209,0.0009377195965498686,0.024538345634937286,0.00034325773594900966,0.00027061603032052517,0.0017585443565621972,0,2,-1000,0,0,0,-1,1,1,1500.0
05:42:04.762,STABILIZE,-35.3632622,149.1652375,0,-0.0009104245691560209,0.0009377195965498686,0.024538345634937286,0.00034325773594900966,0.00027061603032052517,0.0017585443565621972,0,2,-1000,0,0,0,-1,1,1,1500.0
05:42:04.963,STABILIZE,-35.3632622,149.1652375,0,-0.0009104245691560209,0.0009377195965498686,0.024538345634937286,0.00034325773594900966,0.00027061603032052517,0.0017585443565621972,0,2,-1000,0,0,0,-1,1,1,1500.0
05:42:05.165,STABILIZE,-35.3632622,149.1652375,0,-0.0009104245691560209,0.0009377195965498686,0.024538345634937286,0.00034325773594900966,0.00027061603032052517,0.0017585443565621972,0,2,-1000,0,0,0,-1,1,1,1500.0
05:42:05.366,STABILIZE,-35.3632622,149.1652375,0,-0.0009104245691560209,0.0009377195965498686,0.024538345634937286,0.00034325773594900966,0.00027061603032052517,0.0017585443565621972,0,2,-1000,0,0,0,-1,1,1,1500.0
05:42:05.575,STABILIZE,-35.3632622,149.1652375,0,-0.0009104245691560209,0.0009377195965498686,0.024538345634937286,0.00034325773594900966,0.00027061603032052517,0.0017585443565621972,0,2,-1000,0,0,0,-1,1,1,1500.0
05:42:05.776,STABILIZE,-35.3632622,149.1652375,0,-0.0009104245691560209,0.0009377195965498686,0.024538345634937286,0.00034325773594900966,0.00027061603032052517,0.0017585443565621972,0,2,-1000,0,0,0,-1,1,1,1500.0
05:42:05.978,STABILIZE,-35.3632622,149.1652375,0,-0.0009104245691560209,0.0009377195965498686,0.024538345634937286,0.00034325773594900966,0.00027061603032052517,0.0017585443565621972,0,2,-1000,0,0,0,-1,1,1,1500.0
05:42:06.179,STABILIZE,-35.3632622,149.1652375,0,-0.0009104245691560209,0.0009377195965498686,0.024538345634937286,0.00034325773594900966,0.00027061603032052517,0.0017585443565621972,0,2,-1000,0,0,0,-1,1,1,1500.0
05:42:06.381,STABILIZE,-35.3632622,149.1652375,0,-0.0011142619187012315,0.0009610216948203743,0.023888932541012764,0.00028533791191875935,0.00020844198297709227,0.001716718077659607,0,1,-1000,0,1,0,-1,1,0,1500.0
05:42:06.583,STABILIZE,-35.3632622,149.1652375,0,-0.001131783938035369,0.0009650551364757121,0.023831641301512718,0.000331422605086118,0.000321022467687726,0.001672473968937993,0,1,-1000,0,0,0,-1,1,0,1500.0
05:42:06.785,STABILIZE,-35.3632622,149.1652375,0,-0.001131783938035369,0.0009650551364757121,0.023831641301512718,0.000331422605086118,0.000321022467687726,0.001672473968937993,0,1,-1000,0,0,0,-1,1,0,1500.0
05:42:06.986,STABILIZE,-35.3632622,149.1652375,0,-0.0011323523940518498,0.0009685303666628897,0.02375425584614277,0.00023525033611804247,0.0002585145994089544,0.0016391919925808907,0,1,-1000,0,1,0,-1,1,0,1500.0
05:42:07.188,STABILIZE,-35.3632622,149.1652375,0,-0.0011323523940518498,0.0009685303666628897,0.02375425584614277,0.00023525033611804247,0.0002585145994089544,0.0016391919925808907,0,1,-1000,0,1,0,-1,1,0,1500.0
05:42:07.389,STABILIZE,-35.3632622,149.1652375,0,-0.0011323523940518498,0.0009685303666628897,0.02375425584614277,0.00023525033611804247,0.0002585145994089544,0.0016391919925808907,0,1,-1000,0,1,0,-1,1,0,1500.0
05:42:07.591,STABILIZE,-35.3632622,149.1652375,0,-0.0011323523940518498,0.0009685303666628897,0.02375425584614277,0.00023525033611804247,0.0002585145994089544,0.0016391919925808907,0,1,-1000,0,1,0,-1,1,0,1500.0
05:42:07.792,STABILIZE,-35.3632622,149.1652375,0,-0.0011323523940518498,0.0009685303666628897,0.02375425584614277,0.00023525033611804247,0.0002585145994089544,0.0016391919925808907,0,1,-1000,0,1,0,-1,1,0,1500.0
05:42:07.993,STABILIZE,-35.3632622,149.1652375,0,-0.001138476305641234,0.0009714175248518586,0.02350003272294998,0.00034934707218781114,0.0003347624442540109,0.0015936058480292559,0,2,-1000,1,1,0,-1,1,0,1500.0
05:42:08.195,STABILIZE,-35.3632622,149.1652375,0,-0.001138476305641234,0.0009714175248518586,0.02350003272294998,0.00034934707218781114,0.0003347624442540109,0.0015936058480292559,0,2,-1000,1,1,0,-1,1,0,1500.0
05:42:08.396,STABILIZE,-35.3632622,149.1652375,0,-0.001138476305641234,0.0009714175248518586,0.02350003272294998,0.00034934707218781114,0.0003347624442540109,0.0015936058480292559,0,2,-1000,1,1,0,-1,1,0,1500.0
05:42:08.597,STABILIZE,-35.3632622,149.1652375,0,-0.001138476305641234,0.0009714175248518586,0.02350003272294998,0.00034934707218781114,0.0003347624442540109,0.0015936058480292559,0,2,-1000,1,1,0,-1,1,0,1500.0
05:42:08.798,STABILIZE,-35.3632622,149.1652375,0,-0.001138476305641234,0.0009714175248518586,0.02350003272294998,0.00034934707218781114,0.0003347624442540109,0.0015936058480292559,0,2,-1000,1,1,0,-1,1,0,1500.0
05:42:08.999,STABILIZE,-35.3632622,149.1652375,0,-0.0011132953222841024,0.0009705217089504004,0.023249924182891846,0.0002872493350878358,0.0002926309243775904,0.001584389596246183,0,2,-1000,1,0,0,-1,1,0,1500.0
05:42:09.201,AUTO,-35.3632622,149.1652375,0,-0.0011132953222841024,0.0009705217089504004,0.023249924182891846,0.0002872493350878358,0.0002926309243775904,0.001584389596246183,0,2,-1000,1,0,0,-1,1,0,1500.0
05:42:09.403,AUTO,-35.3632622,149.1652375,0,-0.0011132953222841024,0.0009705217089504004,0.023249924182891846,0.0002872493350878358,0.0002926309243775904,0.001584389596246183,0,2,-1000,1,0,0,-1,1,0,1500.0
05:42:09.604,AUTO,-35.3632622,149.1652375,10,-0.001084057381376624,0.0009860537247732282,0.023069608956575394,0.0003562562633305788,0.0003549133543856442,0.0016093559097498655,0,2,-1000,0,0,1,-1,1,0,1500.0
05:42:09.806,AUTO,-35.3632622,149.1652375,10,-0.001084057381376624,0.0009860537247732282,0.023069608956575394,0.0003562562633305788,0.0003549133543856442,0.0016093559097498655,0,2,-1000,0,0,1,-1,1,0,1500.0
05:42:10.007,AUTO,-35.3632622,149.1652375,11,-0.0010787969222292304,0.0010010135592892766,0.02301529236137867,0.00019928294932469726,0.00024254940217360854,0.0014774780720472336,0,1,-1000,0,1,0,-1,0,0,1500.0
05:42:10.214,AUTO,-35.3632621,149.1652375,11,-0.0010604619747027755,0.001023747492581606,0.022942522540688515,0.0002409478765912354,0.0003015949623659253,0.0014947904273867607,0,1,-1000,1,0,0,0,0,0,1500.0
05:42:10.460,AUTO,-35.3632621,149.1652375,12,-0.0010287535842508078,0.0010568508878350258,0.022889219224452972,0.00043185229878872633,0.00031035608844831586,0.0015576679725199938,0,2,-1000,1,0,0,0,0,0,1500.0
05:42:10.724,AUTO,-35.3632621,149.1652375,12,-0.0009843714069575071,0.0010998242069035769,0.0228316280990839,0.00033241009805351496,0.0002711045672185719,0.0015857652761042118,0,2,-1000,1,0,0,0,0,0,1500.0
05:42:11.059,AUTO,-35.3632621,149.1652375,13,-0.0009385497542098165,0.0011530525516718626,0.02277197130024433,0.00031365168979391456,0.0002742367796599865,0.0015576013829559088,0,1,-1000,0,0,0,0,0,0,1500.0
05:42:11.261,AUTO,-35.3632621,149.1652375,13,-0.0009385497542098165,0.0011530525516718626,0.02277197130024433,0.00031365168979391456,0.0002742367796599865,0.0015576013829559088,0,1,-1000,0,0,0,0,0,0,1500.0
05:42:11.463,AUTO,-35.3632621,149.1652375,13,-0.0009385497542098165,0.0011530525516718626,0.02277197130024433,0.00031365168979391456,0.0002742367796599865,0.0015576013829559088,0,1,-1000,0,0,0,0,0,0,1500.0
05:42:11.665,AUTO,-35.3632621,149.1652375,14,-0.0007627890445291996,0.0013587522553279996,0.022594299167394638,0.0003880748408846557,0.00022989808348938823,0.001561808167025447,0,2,-1000,1,1,0,0,0,0,1500.0
05:42:11.877,AUTO,-35.3632621,149.1652375,14,-0.0007046742248348892,0.0014314623549580574,0.022513486444950104,0.00031113182194530964,0.0002859134110622108,0.0015389493200927973,0,1,-1000,1,0,0,0,0,0,1500.0
05:42:12.079,AUTO,-35.3632621,149.1652375,14,-0.0006381928687915206,0.0015062580350786448,0.022432737052440643,0.00020385324023663998,0.0003046751953661442,0.0014740147162228823,0,1,-1000,0,1,0,0,0,0,11676.0
05:42:12.281,AUTO,-35.3632621,149.1652375,14,-0.0006381928687915206,0.0015062580350786448,0.022432737052440643,0.00020385324023663998,0.0003046751953661442,0.0014740147162228823,0,1,-1000,0,1,0,0,0,0,11676.0
05:42:12.484,AUTO,-35.3632621,149.1652375,15,-0.0005662176408804953,0.0015803247224539518,0.022361939772963524,0.0002924001310020685,0.0002850753371603787,0.0014334323350340128,0,2,-1000,1,0,1,0,0,0,11676.0
05:42:12.686,AUTO,-35.3632621,149.1652375,15,-0.0004945640102960169,0.001654952298849821,0.02227860875427723,0.0002906646695919335,0.00032580888364464045,0.0014907433651387691,0,2,-1000,1,0,1,0,0,0,11676.0
05:42:12.888,AUTO,-35.3632621,149.1652375,15,-0.00042186162318103015,0.0017237827414646745,0.02219129540026188,0.00024930795188993216,0.00029811926651746035,0.0014377969782799482,0,2,-1000,0,1,1,0,0,0,11676.0
05:42:13.090,AUTO,-35.3632621,149.1652375,15,-0.00042186162318103015,0.0017237827414646745,0.02219129540026188,0.00024930795188993216,0.00029811926651746035,0.0014377969782799482,0,2,-1000,0,1,1,0,0,0,11676.0
05:42:13.292,AUTO,-35.3632621,149.1652375,15,-0.00042186162318103015,0.0017237827414646745,0.02219129540026188,0.00024930795188993216,0.00029811926651746035,0.0014377969782799482,0,2,-1000,0,1,1,0,0,0,11676.0
05:42:13.493,AUTO,-35.3632621,149.1652375,15,-0.00042186162318103015,0.0017237827414646745,0.02219129540026188,0.00024930795188993216,0.00029811926651746035,0.0014377969782799482,0,2,-1000,0,1,1,0,0,0,11676.0
05:42:13.695,AUTO,-35.3632621,149.1652375,210,0.00270497496239841,0.00020811193098779768,0.02200976386666298,-0.0009540311293676496,0.003484392073005438,0.002657604403793812,0,0,-1130,0,4,1,0,0,-72,11676.0
05:42:13.897,AUTO,-35.3632621,149.1652375,428,0.001711855293251574,0.0011198812862858176,0.02194971591234207,-0.009910720400512218,0.003480267245322466,0.0009926017373800278,0,0,-1109,-9,4,0,0,1,-101,11676.0
05:42:14.098,AUTO,-35.3632621,149.1652375,712,0.001449368428438902,0.0016161483945325017,0.02189883217215538,0.004741157870739698,-0.0006852700025774539,0.0010311738587915897,0,0,-1087,5,0,0,0,0,-125,11676.0
05:42:14.300,AUTO,-35.3632621,149.1652375,712,0.001449368428438902,0.0016161483945325017,0.02189883217215538,0.004741157870739698,-0.0006852700025774539,0.0010311738587915897,0,0,-1087,5,0,0,0,0,-125,11676.0
05:42:14.502,AUTO,-35.3632621,149.1652375,1050,0.010818347334861755,0.0007353787659667432,0.021536972373723984,0.04779433459043503,-0.00619742926210165,0.0013180089881643653,0,0,-1040,48,-5,0,0,1,-139,11676.0
05:42:14.704,AUTO,-35.363262,149.1652375,1415,0.02265107072889805,-0.0009640800417400897,0.021489422768354416,0.046863049268722534,-0.007158630061894655,0.002234239364042878,0,0,-1017,47,-6,1,1,5,-145,11676.0
05:42:14.906,AUTO,-35.363262,149.1652377,1793,0.03409317508339882,-0.002886309986934066,0.021594610065221786,0.04501897096633911,-0.007892665453255177,0.0027800423558801413,0,-1,-1007,45,-7,2,1,11,-148,11676.0
05:42:15.107,AUTO,-35.363262,149.1652377,1793,0.03409317508339882,-0.002886309986934066,0.021594610065221786,0.04501897096633911,-0.007892665453255177,0.0027800423558801413,0,-1,-1007,45,-7,2,1,11,-148,11676.0
05:42:15.309,AUTO,-35.363262,149.1652377,1793,0.03409317508339882,-0.002886309986934066,0.021594610065221786,0.04501897096633911,-0.007892665453255177,0.0027800423558801413,0,-1,-1007,45,-7,2,1,11,-148,11676.0
05:42:15.511,AUTO,-35.363262,149.1652377,1793,0.03409317508339882,-0.002886309986934066,0.021594610065221786,0.04501897096633911,-0.007892665453255177,0.0027800423558801413,0,-1,-1007,45,-7,2,1,11,-148,11676.0
05:42:15.713,AUTO,-35.3632616,149.1652397,2946,0.061936382204294205,-0.008968773297965527,-0.008102115243673325,-0.014741153456270695,0.02428927831351757,-0.04687800630927086,2,-9,-992,-14,24,-47,8,43,-148,11676.0
05:42:15.914,AUTO,-35.3632614,149.165241,3326,0.041224632412195206,0.013313373550772667,-0.030690623447299004,-0.1342509537935257,0.09650297462940216,-0.1002211645245552,2,-9,-991,-133,97,-100,9,53,-146,11676.0
05:42:16.200,AUTO,-35.3632611,149.1652425,3701,-0.004144098609685898,0.02543863095343113,-0.05518554523587227,-0.19393976032733917,0.058065690100193024,-0.18110810220241547,1,-12,-997,-193,58,-181,6,54,-145,11676.0
05:42:16.479,AUTO,-35.363261,149.1652438,4078,-0.029713883996009827,0.046211808919906616,-0.09279822558164597,-0.031554535031318665,0.049681905657052994,-0.12623339891433716,5,-10,-1013,-30,50,-126,-1,46,-147,11676.0
05:42:16.808,AUTO,-35.3632611,149.1652449,4461,-0.03749551996588707,0.045007333159446716,-0.11536018550395966,-0.03309376537799835,-0.028864052146673203,-0.07540708780288696,5,-8,-1004,-32,-28,-76,-11,36,-149,11676.0
05:42:17.178,AUTO,-35.3632613,149.1652458,4845,-0.051361098885536194,0.03449590504169464,-0.12844794988632202,-0.06942017376422882,-0.037556637078523636,-0.05288352072238922,7,-5,-999,-68,-37,-53,-19,24,-149,11676.0
05:42:17.387,AUTO,-35.3632613,149.1652458,4845,-0.051361098885536194,0.03449590504169464,-0.12844794988632202,-0.06942017376422882,-0.037556637078523636,-0.05288352072238922,7,-5,-999,-68,-37,-53,-19,24,-149,11676.0
05:42:17.594,AUTO,-35.3632629,149.1652458,5996,-0.06179399415850639,-0.01996886357665062,-0.10331465303897858,0.055826008319854736,-0.024059027433395386,0.025844240561127663,1,6,-1003,56,-23,25,-22,-25,-150,11676.0
05:42:17.797,AUTO,-35.3632629,149.1652458,5996,-0.06179399415850639,-0.01996886357665062,-0.10331465303897858,0.055826008319854736,-0.024059027433395386,0.025844240561127663,1,6,-1003,56,-23,25,-22,-25,-150,11676.0
05:42:17.999,AUTO,-35.3632634,149.165245,6382,-0.04727925732731819,-0.023532895371317863,-0.09915869683027267,0.060340262949466705,-0.011434994637966156,0.02059848979115486,1,7,-1001,61,-10,20,-17,-37,-150,182388.0
05:42:18.201,AUTO,-35.3632638,149.1652439,6771,-0.03175916150212288,-0.024908797815442085,-0.09564828872680664,0.06355880200862885,-0.0029790420085191727,0.01751047931611538,-3,11,-1001,64,-2,17,-12,-45,-150,182388.0
05:42:18.403,AUTO,-35.363264,149.1652425,7157,-0.015955917537212372,-0.02467450499534607,-0.0926714614033699,0.06358883529901505,0.002780870534479618,0.014954552054405212,-5,14,-1002,64,3,14,-7,-50,-151,182388.0
05:42:18.605,AUTO,-35.3632642,149.1652411,7545,-2.6820613129530102e-05,-0.023251591250300407,-0.0902843028306961,0.06355205178260803,0.007168182171881199,0.012764331884682178,-5,12,-1003,64,8,12,-2,-50,-151,182388.0
05:42:18.807,AUTO,-35.3632642,149.1652411,7545,-2.6820613129530102e-05,-0.023251591250300407,-0.0902843028306961,0.06355205178260803,0.007168182171881199,0.012764331884682178,-5,12,-1003,64,8,12,-2,-50,-151,182388.0
05:42:19.009,AUTO,-35.3632643,149.1652397,7935,0.01570114679634571,-0.020969726145267487,-0.08836086094379425,0.06272677332162857,0.01002594269812107,0.010843204334378242,-6,8,-1003,63,10,10,1,-47,-152,182388.0
05:42:19.211,AUTO,-35.3632643,149.1652397,7935,0.01570114679634571,-0.020969726145267487,-0.08836086094379425,0.06272677332162857,0.01002594269812107,0.010843204334378242,-6,8,-1003,63,10,10,1,-47,-152,182388.0
05:42:19.413,AUTO,-35.3632643,149.1652397,7935,0.01570114679634571,-0.020969726145267487,-0.08836086094379425,0.06272677332162857,0.01002594269812107,0.010843204334378242,-6,8,-1003,63,10,10,1,-47,-152,182388.0
05:42:19.615,AUTO,-35.3632639,149.1652366,9103,0.0417637825012207,-0.029683994129300117,-0.06776193529367447,-0.0025873547419905663,-0.048478204756975174,0.0713239461183548,-5,3,-998,-1,-47,70,15,-21,-152,182388.0
05:42:19.817,AUTO,-35.3632639,149.1652366,9103,0.0417637825012207,-0.029683994129300117,-0.06776193529367447,-0.0025873547419905663,-0.048478204756975174,0.0713239461183548,-5,3,-998,-1,-47,70,15,-21,-152,182388.0
05:42:20.018,AUTO,-35.3632634,149.1652361,9492,0.038782525807619095,-0.04383821785449982,-0.048795200884342194,-0.019823243841528893,-0.05468928813934326,0.07972695678472519,-6,1,-996,-18,-54,78,23,-11,-151,182388.0
05:42:20.220,AUTO,-35.3632628,149.1652358,9877,0.026039544492959976,-0.04117369279265404,-0.043304674327373505,-0.061903733760118484,0.06606995314359665,-0.014742068946361542,-7,-2,-996,-61,66,-15,34,-5,-149,182388.0
05:42:20.422,AUTO,-35.363262,149.1652357,10260,0.01200398150831461,-0.017256157472729683,-0.055514831095933914,-0.05223837122321129,0.10365259647369385,-0.06574007123708725,-6,-3,-1001,-51,104,-66,40,-2,-149,182388.0
05:42:20.624,AUTO,-35.3632611,149.1652356,10643,0.0022305927705019712,0.0063173044472932816,-0.07437632977962494,-0.023121565580368042,0.07483594864606857,-0.07027512043714523,-9,-5,-1005,-22,75,-70,39,-2,-150,182388.0
05:42:20.826,AUTO,-35.3632602,149.1652355,11029,-0.0018160311738029122,0.020691730082035065,-0.09225666522979736,-0.013428866863250732,0.048088330775499344,-0.06679427623748779,-7,-4,-1003,-12,48,-67,34,-3,-151,182388.0
05:42:21.048,AUTO,-35.3632602,149.1652355,11029,-0.0018160311738029122,0.020691730082035065,-0.09225666522979736,-0.013428866863250732,0.048088330775499344,-0.06679427623748779,-7,-4,-1003,-12,48,-67,34,-3,-151,182388.0
05:42:21.440,AUTO,-35.3632602,149.1652355,11029,-0.0018160311738029122,0.020691730082035065,-0.09225666522979736,-0.013428866863250732,0.048088330775499344,-0.06679427623748779,-7,-4,-1003,-12,48,-67,34,-3,-151,182388.0
05:42:21.760,AUTO,-35.3632587,149.1652349,12196,0.0019933730363845825,0.0355798676609993,-0.12734125554561615,0.017687564715743065,-0.0021525209303945303,-0.020884647965431213,-4,0,-1000,18,-1,-21,8,-6,-152,182388.0
05:42:21.977,AUTO,-35.3632586,149.1652347,12586,0.006268322002142668,0.03399040549993515,-0.13125041127204895,0.01697799749672413,-0.008588088676333427,-0.008800324983894825,-2,0,-1000,17,-7,-9,0,-4,-152,182388.0
05:42:22.180,AUTO,-35.3632586,149.1652346,12976,0.009793732315301895,0.030506419017910957,-0.13182134926319122,0.013423868454992771,-0.017400188371539116,0.004435671027749777,0,1,-999,13,-16,4,-7,-2,-152,182388.0
05:42:22.382,AUTO,-35.3632587,149.1652345,13365,0.012062435038387775,0.02526383474469185,-0.1298329085111618,0.0058961594477295876,-0.020938560366630554,0.008559409528970718,1,1,-999,6,-20,8,-13,0,-152,182388.0
05:42:22.586,AUTO,-35.363259,149.1652345,13754,0.012532048858702183,0.019723983481526375,-0.1268918812274933,-0.00016470975242555141,-0.02169964462518692,0.009986819699406624,2,1,-999,0,-21,9,-17,4,-152,182388.0
05:42:22.789,AUTO,-35.363259,149.1652345,13754,0.012532048858702183,0.019723983481526375,-0.1268918812274933,-0.00016470975242555141,-0.02169964462518692,0.009986819699406624,2,1,-999,0,-21,9,-17,4,-152,182388.0
05:42:22.991,AUTO,-35.3632594,149.1652345,14143,0.01165525708347559,0.014368503354489803,-0.12407492101192474,-0.006186918821185827,-0.01895672082901001,0.008020104840397835,3,1,-999,-5,-18,7,-19,6,-152,39304.0
05:42:23.193,AUTO,-35.3632594,149.1652345,14143,0.01165525708347559,0.014368503354489803,-0.12407492101192474,-0.006186918821185827,-0.01895672082901001,0.008020104840397835,3,1,-999,-5,-18,7,-19,6,-152,39304.0
05:42:23.395,AUTO,-35.3632594,149.1652345,14143,0.01165525708347559,0.014368503354489803,-0.12407492101192474,-0.006186918821185827,-0.01895672082901001,0.008020104840397835,3,1,-999,-5,-18,7,-19,6,-152,39304.0
05:42:23.597,AUTO,-35.3632607,149.1652351,15306,0.004774528089910746,0.0012544518103823066,-0.12083767354488373,-0.012164692394435406,-0.012111905962228775,-0.005939779803156853,4,0,-1000,-11,-11,-6,-19,11,-152,39304.0
05:42:23.799,AUTO,-35.3632607,149.1652351,15306,0.004774528089910746,0.0012544518103823066,-0.12083767354488373,-0.012164692394435406,-0.012111905962228775,-0.005939779803156853,4,0,-1000,-11,-11,-6,-19,11,-152,39304.0
05:42:24.000,AUTO,-35.3632611,149.1652354,15694,0.0025706563610583544,-0.0017162617295980453,-0.1225300282239914,-0.007568588480353355,-0.009903362952172756,-0.010115549899637699,4,1,-1000,-6,-8,-10,-17,11,-152,39304.0
05:42:24.202,AUTO,-35.3632614,149.1652356,16086,0.00048013278865255415,-0.003986760973930359,-0.125618577003479,-0.0074144164100289345,-0.0073455022647976875,-0.015650928020477295,3,0,-1000,-6,-6,-16,-14,10,-152,39304.0
05:42:24.403,AUTO,-35.3632617,149.1652358,16474,-0.001126703922636807,-0.0052749826572835445,-0.13020524382591248,-0.004565882030874491,-0.00261886790394783,-0.022061584517359734,3,0,-1000,-3,-1,-22,-12,9,-152,39304.0
05:42:24.605,AUTO,-35.3632619,149.165236,16863,-0.002010931959375739,-0.005550810135900974,-0.13620255887508392,-0.002366518136113882,0.00018289440777152777,-0.025950010865926743,2,0,-1000,-1,0,-26,-9,7,-152,39304.0
05:42:24.807,AUTO,-35.3632619,149.165236,16863,-0.002010931959375739,-0.005550810135900974,-0.13620255887508392,-0.002366518136113882,0.00018289440777152777,-0.025950010865926743,2,0,-1000,-1,0,-26,-9,7,-152,39304.0
05:42:25.009,AUTO,-35.3632621,149.1652361,17253,-0.005440680310130119,-0.005349287763237953,-0.1430278867483139,-0.04332459345459938,0.002422901103273034,-0.02851487137377262,2,0,-996,-42,3,-28,-7,6,-152,39304.0
05:42:25.211,AUTO,-35.3632621,149.1652361,17253,-0.005440680310130119,-0.005349287763237953,-0.1430278867483139,-0.04332459345459938,0.002422901103273034,-0.02851487137377262,2,0,-996,-42,3,-28,-7,6,-152,39304.0
05:42:25.413,AUTO,-35.3632621,149.1652361,17253,-0.005440680310130119,-0.005349287763237953,-0.1430278867483139,-0.04332459345459938,0.002422901103273034,-0.02851487137377262,2,0,-996,-42,3,-28,-7,6,-152,39304.0
05:42:25.614,AUTO,-35.3632624,149.1652357,18397,-0.05660553276538849,0.01766374707221985,-0.1260419487953186,-0.0026888521388173103,0.11386419832706451,0.2519478499889374,-1,3,-980,-1,114,251,-8,-21,-145,39304.0
05:42:25.816,AUTO,-35.3632624,149.1652357,18397,-0.05660553276538849,0.01766374707221985,-0.1260419487953186,-0.0026888521388173103,0.11386419832706451,0.2519478499889374,-1,3,-980,-1,114,251,-8,-21,-145,39304.0
05:42:26.017,AUTO,-35.3632626,149.1652349,18761,-0.052569083869457245,0.048834796994924545,-0.029784169048070908,0.03159167245030403,0.05330730229616165,0.44107678532600403,0,7,-971,32,53,440,-16,-33,-139,39304.0
05:42:26.219,AUTO,-35.3632631,149.1652338,19103,-0.023207830265164375,0.03298165276646614,0.05400384962558746,0.13961288332939148,-0.15614378452301025,0.23428764939308167,0,10,-952,140,-155,233,-26,-40,-128,39304.0
05:42:26.526,AUTO,-35.3632636,149.1652327,19417,0.014679282903671265,-0.006843633949756622,0.08776630461215973,0.14119870960712433,-0.14170104265213013,0.057328224182128906,2,11,-955,141,-141,57,-28,-39,-117,39304.0
05:42:26.856,AUTO,-35.3632646,149.1652309,19960,0.0607423298060894,-0.03933853283524513,0.07972174882888794,0.040783800184726715,-0.015538138337433338,-0.044746316969394684,0,6,-962,41,-14,-45,-15,-15,-96,39304.0
05:42:27.180,AUTO,-35.3632646,149.1652309,19960,0.0607423298060894,-0.03933853283524513,0.07972174882888794,0.040783800184726715,-0.015538138337433338,-0.044746316969394684,0,6,-962,41,-14,-45,-15,-15,-96,39304.0
05:42:27.455,AUTO,-35.3632646,149.1652309,19960,0.0607423298060894,-0.03933853283524513,0.07972174882888794,0.040783800184726715,-0.015538138337433338,-0.044746316969394684,0,6,-962,41,-14,-45,-15,-15,-96,39304.0
05:42:27.658,AUTO,-35.3632647,149.1652312,20591,0.051881980150938034,-0.02533336915075779,0.06142030283808708,-0.042722806334495544,0.03528114780783653,-0.004301839042454958,0,-5,-973,-41,36,-4,8,27,-70,39304.0
05:42:27.860,AUTO,-35.3632645,149.1652319,20761,0.03979240357875824,-0.016172653064131737,0.06072637438774109,-0.04637995734810829,0.03712426498532295,0.00152817543130368,0,-8,-976,-45,37,1,13,35,-64,39304.0
05:42:28.062,AUTO,-35.3632645,149.1652319,20761,0.03979240357875824,-0.016172653064131737,0.06072637438774109,-0.04637995734810829,0.03712426498532295,0.00152817543130368,0,-8,-976,-45,37,1,13,35,-64,39304.0
05:42:28.266,AUTO,-35.3632642,149.1652329,20915,0.02755659446120262,-0.007555631920695305,0.060479238629341125,-0.04833369329571724,0.03291196748614311,0.0032923114486038685,0,-9,-976,-47,33,2,16,41,-58,2828.0
05:42:28.468,AUTO,-35.3632638,149.165234,21053,0.01660289242863655,9.218801278620958e-05,0.060040704905986786,-0.036886751651763916,0.027991073206067085,0.0034708150196820498,0,-10,-977,-36,28,3,18,42,-52,2828.0
05:42:28.670,AUTO,-35.3632633,149.1652351,21179,0.00687082763761282,0.006440978497266769,0.0595991276204586,-0.03521165996789932,0.022246723994612694,0.004676055163145065,0,-10,-978,-34,22,4,17,42,-46,2828.0
05:42:28.876,AUTO,-35.3632629,149.1652362,21289,-0.001107161515392363,0.010633385740220547,0.05916609987616539,-0.026714611798524857,0.015138482674956322,0.00149652233812958,1,-10,-978,-25,15,1,16,39,-41,2828.0
05:42:29.079,AUTO,-35.3632629,149.1652362,21289,-0.001107161515392363,0.010633385740220547,0.05916609987616539,-0.026714611798524857,0.015138482674956322,0.00149652233812958,1,-10,-978,-25,15,1,16,39,-41,2828.0
05:42:29.281,AUTO,-35.3632629,149.1652362,21289,-0.001107161515392363,0.010633385740220547,0.05916609987616539,-0.026714611798524857,0.015138482674956322,0.00149652233812958,1,-10,-978,-25,15,1,16,39,-41,2828.0
05:42:29.485,AUTO,-35.3632629,149.1652362,21289,-0.001107161515392363,0.010633385740220547,0.05916609987616539,-0.026714611798524857,0.015138482674956322,0.00149652233812958,1,-10,-978,-25,15,1,16,39,-41,2828.0
05:42:29.687,AUTO,-35.3632629,149.1652362,21289,-0.001107161515392363,0.010633385740220547,0.05916609987616539,-0.026714611798524857,0.015138482674956322,0.00149652233812958,1,-10,-978,-25,15,1,16,39,-41,2828.0
05:42:29.896,AUTO,-35.3632618,149.1652389,21548,-0.012791083194315434,0.014852575957775116,0.05656444653868675,-0.003121048677712679,-0.001799059216864407,-0.001800444908440113,0,-5,-973,-2,-1,-2,8,22,-20,2828.0
05:42:30.098,AUTO,-35.3632616,149.1652395,21588,-0.012762519530951977,0.014334656298160553,0.055886976420879364,0.014695190824568272,-0.0032224124297499657,-0.003209579735994339,0,-4,-971,15,-2,-3,5,17,-13,2828.0
05:42:30.300,AUTO,-35.3632614,149.1652399,21609,-0.012897912412881851,0.012966902926564217,0.05527253448963165,-0.022880883887410164,-0.00401507830247283,-0.005762892309576273,0,-4,-966,-21,-3,-5,3,13,-5,2828.0
05:42:30.501,AUTO,-35.3632614,149.1652401,21606,-0.04070676490664482,0.024920986965298653,0.053468793630599976,0.1755305528640747,0.057406313717365265,-0.00550118088722229,0,17,-928,177,58,-5,0,6,8,2828.0
05:42:30.704,AUTO,-35.3632614,149.1652401,21566,-0.033393219113349915,0.027099905535578728,0.0526585578918457,0.2888176441192627,-0.002663104794919491,-0.009565223939716816,0,-12,-962,288,-1,-9,-4,-5,18,2828.0
05:42:30.906,AUTO,-35.3632614,149.1652401,21566,-0.033393219113349915,0.027099905535578728,0.0526585578918457,0.2888176441192627,-0.002663104794919491,-0.009565223939716816,0,-12,-962,288,-1,-9,-4,-5,18,2828.0
05:42:31.108,AUTO,-35.3632614,149.1652399,21508,-0.021925628185272217,0.02996768057346344,0.05220401659607887,-0.5190819501876831,0.019317500293254852,-0.009580966085195541,0,-31,-1021,-519,20,-10,-10,-13,21,2828.0
05:42:31.310,AUTO,-35.3632614,149.1652399,21508,-0.021925628185272217,0.02996768057346344,0.05220401659607887,-0.5190819501876831,0.019317500293254852,-0.009580966085195541,0,-31,-1021,-519,20,-10,-10,-13,21,2828.0
05:42:31.512,AUTO,-35.3632614,149.1652399,21508,-0.021925628185272217,0.02996768057346344,0.05220401659607887,-0.5190819501876831,0.019317500293254852,-0.009580966085195541,0,-31,-1021,-519,20,-10,-10,-13,21,2828.0
05:42:31.714,AUTO,-35.3632628,149.1652388,21378,0.02107674442231655,0.048961348831653595,0.051474351435899734,0.6007165908813477,0.033001046627759933,-0.00044894873281009495,5,42,-1021,602,33,-1,-36,-8,6,2828.0
05:42:31.915,AUTO,-35.3632628,149.1652388,21378,0.02107674442231655,0.048961348831653595,0.051474351435899734,0.6007165908813477,0.033001046627759933,-0.00044894873281009495,5,42,-1021,602,33,-1,-36,-8,6,2828.0
05:42:32.117,AUTO,-35.3632636,149.1652386,21357,0.03147896006703377,0.05663425475358963,0.050743427127599716,0.5777189135551453,0.030694393441081047,-0.005298599135130644,8,22,-1022,578,31,-5,-47,-3,4,2828.0
05:42:32.428,AUTO,-35.3632648,149.1652386,21345,0.030076386407017708,0.06482886523008347,0.05087671056389809,-0.17577841877937317,0.032907530665397644,0.02234264463186264,10,-11,-1005,-176,33,22,-59,3,1,2828.0
05:42:32.681,AUTO,-35.363268,149.1652389,21331,0.03934969753026962,0.07600530236959457,0.3075040876865387,-0.04219191521406174,0.0355752594769001,0.8471311926841736,20,17,-1004,-40,36,847,-88,16,0,2828.0
05:42:33.046,AUTO,-35.3632702,149.1652393,21327,0.07136523723602295,0.07369103282690048,0.5245532393455505,0.5897212624549866,0.05165637657046318,0.8674730062484741,24,25,-1007,591,52,867,-105,23,0,2828.0
05:42:33.313,AUTO,-35.3632702,149.1652393,21327,0.07136523723602295,0.07369103282690048,0.5245532393455505,0.5897212624549866,0.05165637657046318,0.8674730062484741,24,25,-1007,591,52,867,-105,23,0,2828.0
05:42:33.515,AUTO,-35.3632702,149.1652393,21327,0.07136523723602295,0.07369103282690048,0.5245532393455505,0.5897212624549866,0.05165637657046318,0.8674730062484741,24,25,-1007,591,52,867,-105,23,0,2828.0
05:42:33.718,AUTO,-35.3632792,149.1652418,21311,0.12134802341461182,0.04629533737897873,1.1051093339920044,-0.28299084305763245,0.0294553954154253,0.7194706201553345,28,-33,-996,-281,30,719,-166,44,0,2828.0
05:42:33.920,AUTO,-35.3632792,149.1652418,21311,0.12134802341461182,0.04629533737897873,1.1051093339920044,-0.28299084305763245,0.0294553954154253,0.7194706201553345,28,-33,-996,-281,30,719,-166,44,0,2828.0
05:42:34.123,AUTO,-35.3632831,149.165243,21300,0.14932160079479218,0.0293334499001503,1.2807925939559937,0.4828263223171234,0.03491061180830002,0.7188171744346619,29,-18,-1005,484,35,718,-190,50,1,57820.0
05:42:34.325,AUTO,-35.3632877,149.1652444,21287,0.1657913327217102,0.007777804043143988,1.454482078552246,0.21713510155677795,0.01978720724582672,0.7079543471336365,23,-48,-1005,217,20,707,-216,57,2,57820.0
05:42:34.526,AUTO,-35.3632929,149.1652459,21273,0.1658785194158554,-0.01945667900145054,1.6304504871368408,-0.3801916241645813,0.0001896867179311812,0.7074113488197327,16,-67,-998,-379,1,707,-244,64,3,57820.0
05:42:34.728,AUTO,-35.3632987,149.1652476,21258,0.1690388321876526,-0.04817217215895653,1.8060147762298584,0.21769681572914124,0.003867107443511486,0.7170079350471497,6,-45,-1006,219,4,716,-272,69,3,57820.0
05:42:34.931,AUTO,-35.3633051,149.1652495,21242,0.16102606058120728,-0.07313556969165802,1.9824204444885254,0.30134233832359314,0.03369654342532158,0.7055028676986694,0,-59,-1003,302,34,705,-298,75,3,57820.0
05:42:35.134,AUTO,-35.3633051,149.1652495,21242,0.16102606058120728,-0.07313556969165802,1.9824204444885254,0.30134233832359314,0.03369654342532158,0.7055028676986694,0,-59,-1003,302,34,705,-298,75,3,57820.0
05:42:35.336,AUTO,-35.3633051,149.1652495,21242,0.16102606058120728,-0.07313556969165802,1.9824204444885254,0.30134233832359314,0.03369654342532158,0.7055028676986694,0,-59,-1003,302,34,705,-298,75,3,57820.0
05:42:35.537,AUTO,-35.3633051,149.1652495,21242,0.16102606058120728,-0.07313556969165802,1.9824204444885254,0.30134233832359314,0.03369654342532158,0.7055028676986694,0,-59,-1003,302,34,705,-298,75,3,57820.0
05:42:35.739,AUTO,-35.3633272,149.165256,21213,0.09699830412864685,-0.10916109383106232,2.5180437564849854,0.3288927972316742,0.01822776347398758,0.7149385213851929,-47,-54,-997,330,19,714,-354,87,1,57820.0
05:42:35.941,AUTO,-35.3633354,149.1652585,21205,0.07242564111948013,-0.1210174486041069,2.701525926589966,-0.2557225227355957,-0.006287213880568743,0.730821967124939,-65,-76,-993,-255,-5,730,-368,90,1,57820.0
05:42:36.145,AUTO,-35.3633354,149.1652585,21205,0.07242564111948013,-0.1210174486041069,2.701525926589966,-0.2557225227355957,-0.006287213880568743,0.730821967124939,-65,-76,-993,-255,-5,730,-368,90,1,57820.0
05:42:36.347,AUTO,-35.3633438,149.1652609,21196,0.05054200440645218,-0.12706461548805237,2.8798840045928955,-0.132224902510643,0.03041256219148636,0.6908209323883057,-72,-43,-995,-130,31,690,-381,92,2,57820.0
05:42:36.549,AUTO,-35.3633526,149.1652635,21187,0.05125250294804573,-0.12637296319007874,2.9999325275421143,0.40210771560668945,0.025319570675492287,0.27713072299957275,-76,-30,-992,403,26,277,-392,95,2,57820.0
05:42:36.751,AUTO,-35.3633615,149.1652661,21176,0.04692903533577919,-0.12336108833551407,3.027902364730835,-0.14091412723064423,-0.005050040781497955,0.008369325660169125,-85,-55,-995,-140,-4,8,-402,95,2,57820.0
05:42:36.953,AUTO,-35.3633706,149.1652686,21166,0.04340513050556183,-0.12456037849187851,3.009193181991577,-0.25182750821113586,-0.0012350328033789992,-0.10546430945396423,-89,-51,-991,-250,0,-105,-410,95,3,57820.0
05:42:37.155,AUTO,-35.3633706,149.1652686,21166,0.04340513050556183,-0.12456037849187851,3.009193181991577,-0.25182750821113586,-0.0012350328033789992,-0.10546430945396423,-89,-51,-991,-250,0,-105,-410,95,3,57820.0
05:42:37.357,AUTO,-35.3633706,149.1652686,21166,0.04340513050556183,-0.12456037849187851,3.009193181991577,-0.25182750821113586,-0.0012350328033789992,-0.10546430945396423,-89,-51,-991,-250,0,-105,-410,95,3,57820.0
05:42:37.559,AUTO,-35.3633706,149.1652686,21166,0.04340513050556183,-0.12456037849187851,3.009193181991577,-0.25182750821113586,-0.0012350328033789992,-0.10546430945396423,-89,-51,-991,-250,0,-105,-410,95,3,57820.0
05:42:37.763,AUTO,-35.363399,149.1652763,21122,0.047306060791015625,-0.10639964789152145,2.959427833557129,-0.38177210092544556,0.010326851159334183,0.0009840078419074416,-83,-77,-990,-380,11,0,-430,99,4,57820.0
05:42:37.966,AUTO,-35.3634088,149.1652789,21108,0.04958200827240944,-0.10010194778442383,2.957655191421509,0.12714603543281555,0.02333926595747471,-0.010523594915866852,-83,-34,-994,128,24,-10,-434,98,4,57820.0
05:42:38.192,AUTO,-35.3634186,149.1652815,21095,0.05341293290257454,-0.08928591758012772,2.9589779376983643,0.3095298409461975,0.043904807418584824,0.010499589145183563,-83,-34,-994,128,24,-10,-435,99,4,57820.0
05:42:38.517,AUTO,-35.3634285,149.1652842,21083,0.048347316682338715,-0.08081596344709396,2.9599685668945312,-0.3798730969429016,0.024794990196824074,0.02185436710715294,-92,-75,-993,-379,25,21,-434,100,3,57820.0
05:42:38.916,AUTO,-35.3634383,149.1652869,21070,0.04793292284011841,-0.0819975808262825,2.9592125415802,-0.2238035351037979,-0.029504330828785896,-0.00544609222561121,-92,-68,-991,-222,-28,-5,-431,99,4,57820.0
05:42:39.138,AUTO,-35.3634483,149.1652897,21054,0.06108831986784935,-0.08489730954170227,2.957322835922241,0.49073660373687744,0.01320255920290947,-0.022588355466723442,-94,-28,-992,491,14,-22,-431,98,6,57820.0
05:42:39.342,AUTO,-35.3634483,149.1652897,21054,0.06108831986784935,-0.08489730954170227,2.957322835922241,0.49073660373687744,0.01320255920290947,-0.022588355466723442,-94,-28,-992,491,14,-22,-431,98,6,57820.0
05:42:39.544,AUTO,-35.3634483,149.1652897,21054,0.06108831986784935,-0.08489730954170227,2.957322835922241,0.49073660373687744,0.01320255920290947,-0.022588355466723442,-94,-28,-992,491,14,-22,-431,98,6,57820.0
05:42:39.747,AUTO,-35.3634773,149.1652976,21006,0.055534981191158295,-0.04627309367060661,2.9569077491760254,0.021505290642380714,0.05612615495920181,-0.01930428110063076,-88,-37,-1001,23,57,-19,-419,94,3,57820.0
05:42:39.949,AUTO,-35.3634867,149.1653002,20997,0.06243635341525078,-0.03453998267650604,2.9569103717803955,0.48765796422958374,0.04482511058449745,-0.015276774764060974,-87,-31,-994,488,45,-15,-409,91,2,32465.0
05:42:40.151,AUTO,-35.3634867,149.1653002,20997,0.06243635341525078,-0.03453998267650604,2.9569103717803955,0.48765796422958374,0.04482511058449745,-0.015276774764060974,-87,-31,-994,488,45,-15,-409,91,2,32465.0
05:42:40.353,AUTO,-35.3634959,149.1653026,20989,0.05504736304283142,-0.02340799942612648,2.9573004245758057,-0.27608758211135864,0.041276514530181885,0.020273631438612938,-85,-72,-990,-275,41,20,-397,89,3,32465.0
05:42:40.555,AUTO,-35.3635048,149.165305,20978,0.046664465218782425,-0.012668652459979057,2.956543445587158,-0.5108934640884399,0.033261869102716446,0.010612827725708485,-94,-65,-997,-509,34,10,-382,84,3,32465.0
05:42:40.757,AUTO,-35.3635134,149.1653072,20965,0.052224189043045044,0.000662317790556699,2.9561750888824463,0.39861780405044556,0.060251299291849136,-0.028759827837347984,-79,-23,-1008,400,61,-29,-366,80,4,32465.0
05:42:40.959,AUTO,-35.3635217,149.1653093,20953,0.05745230242609978,0.014406992122530937,2.955638885498047,0.5659366250038147,0.042995039373636246,-0.0002303514047525823,-76,-37,-994,566,44,0,-348,76,4,32465.0
05:42:41.161,AUTO,-35.3635217,149.1653093,20953,0.05745230242609978,0.014406992122530937,2.955638885498047,0.5659366250038147,0.042995039373636246,-0.0002303514047525823,-76,-37,-994,566,44,0,-348,76,4,32465.0
05:42:41.364,AUTO,-35.3635217,149.1653093,20953,0.05745230242609978,0.014406992122530937,2.955638885498047,0.5659366250038147,0.042995039373636246,-0.0002303514047525823,-76,-37,-994,566,44,0,-348,76,4,32465.0
05:42:41.566,AUTO,-35.3635217,149.1653093,20953,0.05745230242609978,0.014406992122530937,2.955638885498047,0.5659366250038147,0.042995039373636246,-0.0002303514047525823,-76,-37,-994,566,44,0,-348,76,4,32465.0
05:42:41.768,AUTO,-35.3635436,149.1653149,20910,0.02371436357498169,0.053588662296533585,2.9559082984924316,-0.5826919078826904,0.04479655250906944,0.00362381455488503,-63,-52,-1015,-580,46,3,-280,61,4,32465.0
05:42:41.970,AUTO,-35.36355,149.1653166,20896,0.04089607298374176,0.06655525416135788,2.955029010772705,0.5688726305961609,0.04659523069858551,-0.026488307863473892,-53,0,-1000,571,47,-26,-254,55,6,32465.0
05:42:42.173,AUTO,-35.36355,149.1653166,20896,0.04089607298374176,0.06655525416135788,2.955029010772705,0.5688726305961609,0.04659523069858551,-0.026488307863473892,-53,0,-1000,571,47,-26,-254,55,6,32465.0
05:42:42.375,AUTO,-35.3635557,149.165318,20883,0.045407410711050034,0.08049703389406204,2.9538516998291016,0.6965930461883545,0.060411881655454636,-0.0074910493567585945,-50,-8,-1009,697,61,-7,-226,49,5,32465.0
05:42:42.577,AUTO,-35.3635607,149.1653191,20871,0.032460104674100876,0.0941617414355278,2.9527337551116943,-0.10615875571966171,0.05189947038888931,0.015461471863090992,-46,-62,-1007,-106,52,15,-196,43,4,32465.0
05:42:42.780,AUTO,-35.363565,149.1653201,20860,0.015260456129908562,0.10049007087945938,2.9526963233947754,-0.7605995535850525,0.008834980428218842,0.011937383562326431,-34,-61,-999,-759,10,11,-166,36,5,32465.0
05:42:43.007,AUTO,-35.3635687,149.1653207,20847,0.004332151263952255,0.09829910099506378,2.9508156776428223,-0.5487016439437866,-0.030519502237439156,0.002049410715699196,-25,-32,-990,-546,-29,2,-137,28,7,32465.0
05:42:43.221,AUTO,-35.3635687,149.1653207,20847,0.004332151263952255,0.09829910099506378,2.9508156776428223,-0.5487016439437866,-0.030519502237439156,0.002049410715699196,-25,-32,-990,-546,-29,2,-137,28,7,32465.0
05:42:43.483,AUTO,-35.3635687,149.1653207,20847,0.004332151263952255,0.09829910099506378,2.9508156776428223,-0.5487016439437866,-0.030519502237439156,0.002049410715699196,-25,-32,-990,-546,-29,2,-137,28,7,32465.0
05:42:43.780,AUTO,-35.3635763,149.1653215,20816,-0.0061716423369944096,0.0637640655040741,2.947402238845825,-0.27304717898368835,-0.04018712788820267,0.020957233384251595,-14,-41,-997,-273,-39,21,-68,19,3,32465.0
05:42:44.011,AUTO,-35.363578,149.1653216,20809,-0.02031536214053631,0.05544587969779968,2.9473588466644287,-0.5890809297561646,-0.0352550633251667,0.009867139160633087,-11,-30,-1009,-588,-33,10,-52,17,3,32465.0
05:42:44.213,AUTO,-35.3635793,149.1653217,20806,-0.01677515357732773,0.04939402639865875,2.9476442337036133,0.23330678045749664,-0.016981974244117737,0.00693789916113019,-10,18,-1001,235,-15,7,-39,16,2,32465.0
05:42:44.417,AUTO,-35.3635793,149.1653217,20806,-0.01677515357732773,0.04939402639865875,2.9476442337036133,0.23330678045749664,-0.016981974244117737,0.00693789916113019,-10,18,-1001,235,-15,7,-39,16,2,32465.0
05:42:44.621,AUTO,-35.3635803,149.1653218,20803,-0.006014927756041288,0.04586714133620262,2.9476733207702637,0.6829940676689148,-0.004142278339713812,0.0052521685138344765,-7,17,-1008,683,-2,5,-27,18,2,32465.0
05:42:44.823,AUTO,-35.3635811,149.1653219,20800,-0.013159278780221939,0.04208645597100258,2.947859048843384,0.1854497194290161,-0.018616365268826485,0.006452783942222595,-5,-11,-1008,184,-16,6,-16,18,1,12307.0
05:42:45.025,AUTO,-35.3635816,149.1653221,20801,-0.023776547983288765,0.03631444647908211,2.9478695392608643,-0.5672343969345093,-0.02558571845293045,0.002778184600174427,-5,-24,-1005,-566,-24,3,-7,18,0,12307.0
05:42:45.227,AUTO,-35.3635816,149.1653221,20801,-0.023776547983288765,0.03631444647908211,2.9478695392608643,-0.5672343969345093,-0.02558571845293045,0.002778184600174427,-5,-24,-1005,-566,-24,3,-7,18,0,12307.0
05:42:45.429,AUTO,-35.3635816,149.1653221,20801,-0.023776547983288765,0.03631444647908211,2.9478695392608643,-0.5672343969345093,-0.02558571845293045,0.002778184600174427,-5,-24,-1005,-566,-24,3,-7,18,0,12307.0
05:42:45.631,AUTO,-35.3635816,149.1653221,20801,-0.023776547983288765,0.03631444647908211,2.9478695392608643,-0.5672343969345093,-0.02558571845293045,0.002778184600174427,-5,-24,-1005,-566,-24,3,-7,18,0,12307.0
05:42:45.833,AUTO,-35.3635822,149.1653226,20808,-0.005763414781540632,0.021474797278642654,2.947808027267456,0.3386240601539612,-0.025621505454182625,-8.909936877898872e-05,-2,-3,-1000,338,-24,0,10,17,0,12307.0
05:42:46.035,AUTO,-35.3635822,149.1653229,20811,-0.011940348893404007,0.013932728208601475,2.9475862979888916,-0.5362774133682251,-0.03766102343797684,-0.0018103173933923244,-1,-27,-998,-536,-36,-1,13,17,0,12307.0
05:42:46.237,AUTO,-35.3635822,149.1653231,20814,-0.014664754271507263,0.0064432090148329735,2.9468624591827393,-0.25436636805534363,-0.02316070720553398,-0.008918089792132378,-2,8,-993,-252,-21,-8,14,15,0,12307.0
05:42:46.439,AUTO,-35.3635821,149.1653234,20815,-0.0014777600299566984,-0.0016254006186500192,2.9457755088806152,0.6194142699241638,-0.026137422770261765,-0.005711764562875032,-3,32,-999,620,-24,-5,13,14,0,12307.0
05:42:46.641,AUTO,-35.3635821,149.1653234,20815,-0.0014777600299566984,-0.0016254006186500192,2.9457755088806152,0.6194142699241638,-0.026137422770261765,-0.005711764562875032,-3,32,-999,620,-24,-5,13,14,0,12307.0
05:42:46.843,AUTO,-35.363582,149.1653236,20816,0.0060279881581664085,-0.004000394139438868,2.945603847503662,0.5822650194168091,0.010322355665266514,-0.003156473394483328,-1,28,-999,582,11,-2,11,14,0,12307.0
05:42:47.045,AUTO,-35.363582,149.1653239,20817,-0.0006269802688620985,-0.0031076238956302404,2.945796012878418,-0.17906241118907928,-0.022016039118170738,0.003813358023762703,-1,-19,-1003,-179,-20,4,9,14,0,12307.0
05:42:47.247,RTL,-35.363582,149.1653239,20817,-0.0006269802688620985,-0.0031076238956302404,2.945796012878418,-0.17906241118907928,-0.022016039118170738,0.003813358023762703,-1,-19,-1003,-179,-20,4,9,14,0,12307.0
05:42:47.449,RTL,-35.363582,149.1653239,20817,-0.0006269802688620985,-0.0031076238956302404,2.945796012878418,-0.17906241118907928,-0.022016039118170738,0.003813358023762703,-1,-19,-1003,-179,-20,4,9,14,0,12307.0
05:42:47.651,RTL,-35.363582,149.1653239,20817,-0.0006269802688620985,-0.0031076238956302404,2.945796012878418,-0.17906241118907928,-0.022016039118170738,0.003813358023762703,-1,-19,-1003,-179,-20,4,9,14,0,12307.0
05:42:47.853,RTL,-35.3635822,149.165325,20819,0.009454159997403622,0.007306196261197329,2.943521022796631,0.50953608751297,0.028730228543281555,-0.0016026133671402931,-3,30,-1019,510,30,-1,1,9,0,12307.0
05:42:48.055,RTL,-35.3635823,149.1653253,20827,0.011297723278403282,0.009747804142534733,2.943399429321289,0.11204032599925995,-9.646755643188953e-06,0.0006928495713509619,-5,-5,-1018,111,1,1,2,7,-4,12307.0
05:42:48.274,RTL,-35.3635824,149.1653255,20847,0.0012485916959121823,0.009681935422122478,2.943167209625244,-0.5567896962165833,0.004186604637652636,-0.00228399527259171,-2,-30,-1009,-557,5,-1,3,5,-9,12307.0
05:42:48.625,RTL,-35.3635825,149.1653257,20882,0.00025313234073109925,0.010064157657325268,2.942941427230835,-0.15174736082553864,0.007379838265478611,-0.0027192591223865747,-2,4,-1036,-150,9,-2,4,2,-18,12307.0
05:42:48.941,RTL,-35.3635825,149.1653259,21026,0.006558017805218697,0.01008082740008831,2.941507339477539,0.10310588777065277,-0.0017832358134910464,0.00023254030384123325,0,-4,-1050,103,0,0,6,0,-39,12307.0
05:42:49.276,RTL,-35.3635825,149.1653259,21026,0.006558017805218697,0.01008082740008831,2.941507339477539,0.10310588777065277,-0.0017832358134910464,0.00023254030384123325,0,-4,-1050,103,0,0,6,0,-39,12307.0
05:42:49.478,RTL,-35.3635825,149.1653259,21026,0.006558017805218697,0.01008082740008831,2.941507339477539,0.10310588777065277,-0.0017832358134910464,0.00023254030384123325,0,-4,-1050,103,0,0,6,0,-39,12307.0
05:42:49.698,RTL,-35.3635825,149.1653259,21026,0.006558017805218697,0.01008082740008831,2.941507339477539,0.10310588777065277,-0.0017832358134910464,0.00023254030384123325,0,-4,-1050,103,0,0,6,0,-39,12307.0
05:42:49.901,RTL,-35.3635826,149.1653261,21472,2.5153653950837906e-06,0.007747527211904526,2.9398880004882812,0.129905566573143,0.0012345006689429283,-0.0010515262838453054,0,2,-1049,130,3,0,7,-2,-77,12307.0
05:42:50.104,RTL,-35.3635826,149.165326,21684,-0.0025472603738307953,0.007593967020511627,2.939384937286377,-0.07126517593860626,-0.005182215943932533,-0.0008909956086426973,0,-5,-1047,-70,-3,0,8,-2,-88,34749.0
05:42:50.305,RTL,-35.3635826,149.165326,21926,-0.002900118939578533,0.006703083403408527,2.939074993133545,-0.014178666286170483,0.001285627717152238,0.00011240478488616645,0,0,-1046,-13,3,0,8,-2,-100,34749.0
05:42:50.507,RTL,-35.3635825,149.165326,22196,-0.00259179575368762,0.0060396092012524605,2.9389424324035645,0.01759149506688118,-0.001341467839665711,-0.0006335581419989467,0,0,-1046,17,0,0,8,-2,-111,34749.0
05:42:50.709,RTL,-35.3635824,149.165326,22495,-0.0025127436965703964,0.005120148882269859,2.9386746883392334,-0.0009530119132250547,-0.001376439817249775,-0.003162149339914322,0,0,-1046,0,0,-2,8,-2,-122,34749.0
05:42:50.911,RTL,-35.3635824,149.165326,22495,-0.0025127436965703964,0.005120148882269859,2.9386746883392334,-0.0009530119132250547,-0.001376439817249775,-0.003162149339914322,0,0,-1046,0,0,-2,8,-2,-122,34749.0
05:42:51.113,RTL,-35.3635824,149.1653259,22827,-0.002273030113428831,0.004437402356415987,2.9382901191711426,0.0008741093915887177,-0.00451109791174531,-0.001434286474250257,0,0,-1044,1,-2,-1,8,-2,-134,34749.0
05:42:51.315,RTL,-35.3635824,149.1653259,22827,-0.002273030113428831,0.004437402356415987,2.9382901191711426,0.0008741093915887177,-0.00451109791174531,-0.001434286474250257,0,0,-1044,1,-2,-1,8,-2,-134,34749.0
05:42:51.517,RTL,-35.3635824,149.1653259,22827,-0.002273030113428831,0.004437402356415987,2.9382901191711426,0.0008741093915887177,-0.00451109791174531,-0.001434286474250257,0,0,-1044,1,-2,-1,8,-2,-134,34749.0
05:42:51.719,RTL,-35.3635822,149.1653257,23930,0.028113365173339844,-0.0029473614413291216,2.937258005142212,0.04761020839214325,-0.012340748682618141,0.001595788635313511,1,0,-1005,48,-10,2,4,-10,-148,34749.0
05:42:51.921,RTL,-35.3635822,149.1653257,23930,0.028113365173339844,-0.0029473614413291216,2.937258005142212,0.04761020839214325,-0.012340748682618141,0.001595788635313511,1,0,-1005,48,-10,2,4,-10,-148,34749.0
05:42:52.123,RTL,-35.3635822,149.1653254,24314,0.03964865952730179,-0.006359804421663284,2.9375317096710205,0.04511957988142967,-0.01335216499865055,0.0026725016068667173,1,-1,-1002,45,-11,3,0,-18,-149,34749.0
05:42:52.325,RTL,-35.3635822,149.1653249,24698,0.050509728491306305,-0.010072941891849041,2.9379358291625977,0.04244020953774452,-0.015402204357087612,0.003190689953044057,2,-3,-999,43,-13,3,-5,-28,-149,34749.0
05:42:52.526,RTL,-35.3635824,149.165324,25081,0.06014934554696083,-0.014057117514312267,2.937404155731201,0.022547760978341103,-0.009086009114980698,-0.03959077224135399,2,-6,-995,22,-7,-39,-11,-39,-148,34749.0
05:42:52.728,RTL,-35.3635828,149.1653228,25461,0.04255743324756622,0.0064677344635128975,2.914628505706787,-0.12188265472650528,0.11381375044584274,-0.1161203533411026,4,-9,-990,-121,115,-115,-17,-49,-146,34749.0
05:42:52.932,RTL,-35.3635832,149.1653215,25835,5.5080912716221064e-05,0.021685926243662834,2.891911506652832,-0.1899692863225937,0.01117148157209158,-0.07093844562768936,4,-10,-998,-189,13,-70,-15,-53,-144,34749.0
05:42:53.135,RTL,-35.3635832,149.1653215,25835,5.5080912716221064e-05,0.021685926243662834,2.891911506652832,-0.1899692863225937,0.01117148157209158,-0.07093844562768936,4,-10,-998,-189,13,-70,-15,-53,-144,34749.0
05:42:53.337,RTL,-35.3635832,149.1653215,25835,5.5080912716221064e-05,0.021685926243662834,2.891911506652832,-0.1899692863225937,0.01117148157209158,-0.07093844562768936,4,-10,-998,-189,13,-70,-15,-53,-144,34749.0
05:42:53.539,RTL,-35.3635832,149.1653215,25835,5.5080912716221064e-05,0.021685926243662834,2.891911506652832,-0.1899692863225937,0.01117148157209158,-0.07093844562768936,4,-10,-998,-189,13,-70,-15,-53,-144,34749.0
05:42:53.742,RTL,-35.3635836,149.1653187,26973,-0.06451629847288132,0.00224588462151587,2.862560272216797,0.00218887347728014,-0.022532304748892784,-0.021104831248521805,3,-3,-1005,3,-20,-20,0,-15,-149,34749.0
05:42:53.944,RTL,-35.3635836,149.1653186,27362,-0.06327846646308899,-0.003642675234004855,2.858861207962036,0.0002932079369202256,-0.02110612764954567,-0.014098981395363808,1,0,-1000,0,-19,-13,3,0,-150,34749.0
05:42:54.153,RTL,-35.3635836,149.1653186,27362,-0.06327846646308899,-0.003642675234004855,2.858861207962036,0.0002932079369202256,-0.02110612764954567,-0.014098981395363808,1,0,-1000,0,-19,-13,3,0,-150,34749.0
05:42:54.506,RTL,-35.3635833,149.1653195,28134,-0.04831269755959511,-0.006187124643474817,2.8511581420898438,0.05332987383008003,0.00012732611503452063,-0.0112783657386899,-2,5,-1001,53,2,-10,8,27,-149,34749.0
05:42:54.806,RTL,-35.363583,149.1653204,28520,-0.03425676375627518,-0.005814578849822283,2.848635673522949,0.059463340789079666,0.0027279136702418327,-0.007169284392148256,-4,8,-1001,59,4,-6,10,35,-150,34749.0
05:42:55.037,RTL,-35.3635827,149.1653216,28907,-0.019442876800894737,-0.004642042331397533,2.8468003273010254,0.06161745265126228,0.005206928588449955,-0.004997407551854849,-3,7,-1002,62,7,-4,11,40,-150,34749.0
05:42:55.240,RTL,-35.3635827,149.1653216,28907,-0.019442876800894737,-0.004642042331397533,2.8468003273010254,0.06161745265126228,0.005206928588449955,-0.004997407551854849,-3,7,-1002,62,7,-4,11,40,-150,34749.0
05:42:55.443,RTL,-35.3635827,149.1653216,28907,-0.019442876800894737,-0.004642042331397533,2.8468003273010254,0.06161745265126228,0.005206928588449955,-0.004997407551854849,-3,7,-1002,62,7,-4,11,40,-150,34749.0
05:42:55.646,RTL,-35.3635827,149.1653216,28907,-0.019442876800894737,-0.004642042331397533,2.8468003273010254,0.06161745265126228,0.005206928588449955,-0.004997407551854849,-3,7,-1002,62,7,-4,11,40,-150,34749.0
05:42:55.850,RTL,-35.3635817,149.1653251,30070,0.017793606966733932,-0.0024773399345576763,2.848320484161377,0.026472317054867744,0.0009416845859959722,0.009201399981975555,-4,10,-1000,27,2,9,10,32,-151,96570.0
05:42:56.051,RTL,-35.3635814,149.1653261,30460,0.021158641204237938,-0.0028060218319296837,2.8506217002868652,0.007523464970290661,-0.0024587754160165787,0.009123573079705238,-4,8,-999,8,0,9,9,26,-151,96570.0
05:42:56.253,RTL,-35.3635811,149.1653269,30850,0.023407280445098877,-0.003824986284598708,2.853119134902954,0.00891625415533781,-0.003203576896339655,0.01012336928397417,-2,7,-1000,9,-1,10,7,20,-151,96570.0
05:42:56.455,RTL,-35.3635809,149.1653275,31239,0.02290511503815651,-0.00413768645375967,2.854818344116211,-0.0005511218914762139,-0.0034260512329638004,0.0065765040926635265,-2,5,-1000,0,-1,7,5,13,-151,96570.0
05:42:56.658,RTL,-35.3635809,149.1653275,31239,0.02290511503815651,-0.00413768645375967,2.854818344116211,-0.0005511218914762139,-0.0034260512329638004,0.0065765040926635265,-2,5,-1000,0,-1,7,5,13,-151,96570.0
05:42:56.860,RTL,-35.3635807,149.165328,31628,0.02097889967262745,-0.004474479705095291,2.855696439743042,-0.008204447105526924,-0.00042409903835505247,0.002274048049002886,-1,4,-999,-7,1,2,3,8,-151,96570.0
05:42:57.062,RTL,-35.3635806,149.1653283,32020,0.017545878887176514,-0.004358961246907711,2.8554182052612305,-0.016552990302443504,-0.00020501227118074894,-0.003614508081227541,-1,2,-999,-16,1,-3,1,3,-151,96570.0
05:42:57.264,RTL,-35.3635806,149.1653283,32020,0.017545878887176514,-0.004358961246907711,2.8554182052612305,-0.016552990302443504,-0.00020501227118074894,-0.003614508081227541,-1,2,-999,-16,1,-3,1,3,-151,96570.0
05:42:57.467,RTL,-35.3635806,149.1653283,32020,0.017545878887176514,-0.004358961246907711,2.8554182052612305,-0.016552990302443504,-0.00020501227118074894,-0.003614508081227541,-1,2,-999,-16,1,-3,1,3,-151,96570.0
05:42:57.671,RTL,-35.3635806,149.1653283,32020,0.017545878887176514,-0.004358961246907711,2.8554182052612305,-0.016552990302443504,-0.00020501227118074894,-0.003614508081227541,-1,2,-999,-16,1,-3,1,3,-151,96570.0
05:42:57.873,RTL,-35.3635804,149.1653288,33184,0.01000997144728899,-0.004221181385219097,2.8499131202697754,-0.01156756840646267,0.0009595317533239722,-0.012648600153625011,0,0,-999,-10,2,-11,-3,-4,-151,96570.0
05:42:58.075,RTL,-35.3635804,149.1653288,33573,0.007513043005019426,-0.0035551991313695908,2.8462753295898438,-0.010670055635273457,0.002735838759690523,-0.01743251271545887,0,0,-999,-9,4,-17,-5,-5,-151,96570.0
05:42:58.278,RTL,-35.3635803,149.1653289,33961,0.005794084165245295,-0.002822409849613905,2.8421080112457275,-0.0017992474604398012,0.002193229738622904,-0.01685883291065693,0,0,-1001,-1,4,-16,-6,-6,-151,96570.0
05:42:58.481,RTL,-35.3635804,149.1653289,34358,0.005381343420594931,-0.0022600004449486732,2.837550640106201,0.0006848594639450312,0.0014691276010125875,-0.018558014184236526,0,0,-1000,1,3,-18,-6,-6,-151,96570.0
05:42:58.683,RTL,-35.3635804,149.1653289,34358,0.005381343420594931,-0.0022600004449486732,2.837550640106201,0.0006848594639450312,0.0014691276010125875,-0.018558014184236526,0,0,-1000,1,3,-18,-6,-6,-151,96570.0
05:42:58.960,RTL,-35.3635805,149.1653288,35136,0.004097850993275642,-0.0010460331104695797,2.827754259109497,-0.004851905629038811,0.0037161058280617,-0.02024385891854763,0,-1,-999,-3,5,-19,-7,-7,-151,96570.0
05:42:59.232,RTL,-35.3635805,149.1653288,35136,0.004097850993275642,-0.0010460331104695797,2.827754259109497,-0.004851905629038811,0.0037161058280617,-0.02024385891854763,0,-1,-999,-3,5,-19,-7,-7,-151,96570.0
05:42:59.622,RTL,-35.3635805,149.1653288,35136,0.004097850993275642,-0.0010460331104695797,2.827754259109497,-0.004851905629038811,0.0037161058280617,-0.02024385891854763,0,-1,-999,-3,5,-19,-7,-7,-151,96570.0
05:42:59.985,RTL,-35.3635808,149.1653286,36687,0.0032129690516740084,0.0010046599199995399,2.8076674938201904,-0.0019730469211935997,0.003857813309878111,-0.020738674327731133,0,-1,-999,0,5,-20,-7,-7,-152,96570.0
