time_stamp,RTL_ALT,chan4_raw,xacc,yacc,zacc,xgyro,ygyro,zgyro,MODE,lat,lon,relative_alt,vx,vy,vz,roll,pitch,yaw,rollspeed,pitchspeed,yawspeed
14:07:31,1500.0,1500.0,0.0,2.0,-1000.0,0.0,0.0,0.0,STABILIZE,-35.36326215,149.16523755,0.0,-2.0,1.5,2.5,-0.0003206577675882727,0.001544659724459052,0.026415403932332993,0.00019882764900103211,0.00016093498561531305,0.002197174821048975
14:07:46,1500.0,1500.0,0.0,2.6666666666666665,-998.1666666666666,1.5,0.16666666666666666,0.6666666666666666,AUTO,-35.3632622,149.1652375,0.8333333333333334,-1.0,0.5,-1.0,-0.0010295092361047864,0.0009685360904162129,0.023008027734855812,0.001540107613739868,0.0002581427203646551,0.001605409081093967
14:07:48,1500.0,1500.0,0.0,1.4285714285714286,-1000.0,0.42857142857142855,0.42857142857142855,0.2857142857142857,AUTO,-35.36326212857142,149.16523750000002,6.428571428571429,-0.2857142857142857,0.14285714285714285,-1.0,-0.0009022812924480864,0.0010577758075669408,0.02257169144494193,0.00028351443220994303,0.00026021426310762763,0.001594182220287621
14:07:50,1500.0,1500.0,0.0,1.4,-1000.0,0.6,0.0,0.0,AUTO,-35.3632621,149.1652375,0.0,0.0,1.2,1.8,-4.815617794520222e-05,0.0015076763462275266,0.022057504579424857,0.00030736097833141687,0.00030045148450881244,0.0014822622993960976
14:07:52,1500.0,1500.0,0.0,-0.16666666666666666,-1073.8333333333333,21.666666666666668,-1.1666666666666667,0.8333333333333334,AUTO,-35.36326208333333,149.16523753333334,791.1666666666666,0.16666666666666666,2.8333333333333335,-112.83333333333333,0.010624581986727813,0.0002760138777375687,0.021394079240659874,0.021123084317271907,-0.001789414886540423,0.001714845042442903
14:08:01,1500.0,1500.0,-10.0,-19.5,-999.6666666666666,-25.333333333333332,15.166666666666666,17.0,AUTO,-35.36326353333333,149.16524346666668,14917.166666666666,-38.666666666666664,-108.83333333333333,-138.0,0.018581844633445144,-0.14918155719836554,-2.35550057888031,-0.02606876737748583,0.014741665994127592,0.01778701056415836
14:08:03,1500.0,1500.0,-32.666666666666664,-26.166666666666668,-1013.6666666666666,-22.0,140.0,9.5,AUTO,-35.363279416666664,149.16520976666666,17809.666666666668,-79.5,-132.83333333333334,-157.16666666666666,0.028486338444054127,0.07541527505964041,-2.2816051244735718,-0.022419073308507603,0.13989677528540292,0.010061033147697648
14:08:15,1500.0,1687.3333333333333,6.333333333333333,16.666666666666668,-1003.6666666666666,23.333333333333332,-66.0,765.6666666666666,AUTO,-35.36327645,149.16523625000002,30455.0,-50.5,-43.5,-147.0,-0.044243769720196724,-0.07317693158984184,-0.19230599701404572,0.025297269225120544,-0.06303395703434944,0.7664651274681091
14:08:17,1500.0,1500.0,-13.833333333333334,1.3333333333333333,-999.0,62.0,6.833333333333333,-39.833333333333336,AUTO,-35.36327551666667,149.16522899999998,32723.833333333332,71.16666666666667,-10.833333333333334,-146.33333333333334,0.05756239593029022,-0.11825346201658249,0.23071440060933432,0.061034913485248886,0.006136682505408923,-0.04001155340423187
14:08:19,1500.0,1500.0,-10.166666666666666,-27.666666666666668,-1005.0,-27.0,53.5,-80.5,AUTO,-35.363256566666664,149.16523991666665,35713.833333333336,88.83333333333333,84.5,-153.66666666666666,0.04329791199415922,0.04829335740456978,0.02041731619586547,-0.028322347711461287,0.053251770635445915,-0.08089696491758029
14:08:21,1500.0,1500.0,7.0,-0.3333333333333333,-1000.1666666666666,-44.166666666666664,-23.833333333333332,6.666666666666667,AUTO,-35.3632519,149.1652546,38841.0,-33.333333333333336,2.1666666666666665,-151.16666666666666,-0.10393336042761803,0.047035845617453255,-0.046482362474004425,-0.04544947358469168,-0.025140378158539534,0.006659220710086326
14:08:23,1500.0,1500.0,2.5,32.666666666666664,-1010.5,100.33333333333333,-14.5,16.166666666666668,AUTO,-35.36326378333333,149.16523816666665,41841.666666666664,-88.0,-107.66666666666667,-150.66666666666666,-0.001962790576120218,0.014029207251345118,-0.021005535187820595,0.09968425085147221,-0.015820396908869345,0.01652375313763817
14:08:25,1500.0,1473.8333333333333,12.833333333333334,-8.5,-993.3333333333334,-50.0,-57.0,34.666666666666664,AUTO,-35.36327698333333,149.16523088333335,44974.166666666664,-26.666666666666668,77.83333333333333,-147.5,0.11437190572420756,-0.08456444864471753,0.030044159953831695,-0.051152696212132774,-0.058254703879356384,0.03466423321515322
14:08:27,1500.0,1343.0,-0.5,-16.0,-1001.5,-11.5,26.166666666666668,-844.0,AUTO,-35.3632699,149.1652476333333,47877.333333333336,47.0,-9.0,-145.0,-0.07986632982889812,-0.06702896378313501,-0.9477941940228144,-0.012870619151120385,0.02552431294073661,-0.8448036511739095
14:08:29,1500.0,1473.8333333333333,-1.1666666666666667,-4.833333333333333,-942.1666666666666,63.0,20.666666666666668,-172.83333333333334,AUTO,-35.36326628333334,149.16523743333335,49932.333333333336,6.166666666666667,-30.166666666666668,-51.5,-0.01594380068127066,0.056317473451296486,-2.239379127820333,0.0608044791345795,0.01977943815290928,-0.17371853068470955
14:08:31,1500.0,1500.0,4.166666666666667,-22.833333333333332,-983.1666666666666,-380.6666666666667,-14.666666666666666,15.5,AUTO,-35.36326256666666,149.16523638333334,50163.833333333336,21.166666666666668,4.166666666666667,13.333333333333334,-0.004132349948728613,-0.004999252501875162,-2.1825949350992837,-0.3784459087376793,-0.01570329211729889,0.015375433334459862
14:08:33,1500.0,1500.0,-2.6666666666666665,-24.666666666666668,-1009.1666666666666,62.5,-2.0,675.0,AUTO,-35.36325625,149.16523096666666,49952.0,69.66666666666667,-69.83333333333333,-0.5,0.08135610570510228,-0.052494139255334936,-1.7249397834142048,0.06156898786624273,-0.0029993838785837093,0.6748502391080061
14:08:35,1500.0,1500.0,-66.0,-40.5,-1005.6666666666666,6.666666666666667,-17.333333333333332,12.666666666666666,AUTO,-35.36323041666666,149.1651992666667,49914.0,215.66666666666666,-215.83333333333334,-1.0,0.03203220603366693,-0.1759758914510409,-0.7349886000156403,0.0061461734585464,-0.018740755117808778,0.011652559507638216
14:08:37,1500.0,1544.3333333333333,-101.16666666666667,-62.5,-999.1666666666666,2.5,2.3333333333333335,48.666666666666664,AUTO,-35.363175616666666,149.16513351666666,49881.666666666664,373.0,-374.3333333333333,-1.8333333333333333,0.06074669025838375,-0.2019956906636556,-0.7734579344590505,0.0018285138066858053,0.001467811098943154,0.0480808955617249
14:08:39,1500.0,1766.0,-120.16666666666667,75.0,-984.5,20.833333333333332,-3.1666666666666665,744.1666666666666,AUTO,-35.3630975,149.16503955000002,49951.0,471.3333333333333,-462.6666666666667,-6.666666666666667,-0.09613829168180625,-0.14418659235040346,0.3056558159490426,0.020429313270142302,-0.004234157192210357,0.7440845171610514
14:08:41,1500.0,1544.3333333333333,13.166666666666666,155.5,-986.3333333333334,13.5,-4.833333333333333,124.16666666666667,AUTO,-35.363009733333335,149.16493513333333,50029.833333333336,490.1666666666667,-469.8333333333333,-1.5,-0.15309472382068634,0.006737975714107354,1.416474997997284,0.013119367882609367,-0.005926592120279868,0.12329643716414769
14:08:43,1500.0,1500.0,-3.5,147.0,-982.8333333333334,133.33333333333334,-27.333333333333332,-1.3333333333333333,AUTO,-35.36292401666667,149.16483321666666,50075.166666666664,443.3333333333333,-428.0,-3.0,-0.0781744917233785,-0.04430208262056112,1.3886268933614094,0.134072278936704,-0.0289445910602808,-0.001803753082640469
14:08:45,1500.0,1500.0,-5.0,118.66666666666667,-995.6666666666666,260.8333333333333,-14.333333333333334,-0.8333333333333334,AUTO,-35.36285586666667,149.16475358333332,50064.0,295.6666666666667,-279.6666666666667,3.6666666666666665,0.009380524434770146,-0.07373801122109096,1.385910411675771,0.2559272026022275,-0.015849898879726727,-0.0017643168102949858
14:08:51,1500.0,1500.0,-29.0,31.0,-1025.0,668.0,-8.0,15.0,AUTO,-35.3628084,149.1647148,49990.0,112.0,40.0,3.0,0.07194410264492035,-0.1609908491373062,1.3805748224258423,0.6683294177055359,-0.01037630159407854,0.014193585142493248
14:08:53,1500.0,1848.0,-78.0,-11.0,-1002.0,26.0,7.0,777.0,AUTO,-35.3627924,149.1647583,49925.0,87.0,329.0,1.0,-0.04001547023653984,-0.18837453424930573,1.8814111948013306,0.029572660103440285,0.006607355549931526,0.7764924764633179
14:08:55,1500.0,1708.8,-56.2,98.0,-1001.6,-17.2,-25.8,490.8,AUTO,-35.36277934,149.164829,49907.2,117.4,492.8,0.0,-0.19675569236278534,-0.056267980486154556,1.6748966217041015,-0.017147231847047806,-0.027555868681520223,0.489986053109169
14:08:59,1500.0,1500.0,-63.833333333333336,148.83333333333334,-984.0,-19.0,0.8333333333333334,-7.5,AUTO,-35.36273198333333,149.1650898,50041.0,144.66666666666666,662.8333333333334,-3.3333333333333335,-0.13396494338909784,-0.062245976800719895,3.082696715990702,-0.019664633087813854,-0.0013930534866328041,-0.008181631535990164
14:09:01,1500.0,1500.0,-73.0,155.0,-989.0,204.0,-6.0,0.0,AUTO,-35.3626967,149.1652844,49976.0,153.0,665.0,0.0,-0.1413242220878601,-0.05938325822353363,3.080822706222534,0.2013774961233139,-0.008157070726156235,-0.0015231119468808174
14:09:03,1500.0,1500.0,-46.0,134.0,-972.0,140.0,-4.0,8.0,AUTO,-35.3626688,149.1654323,49978.0,153.0,663.0,0.0,-0.1390344202518463,-0.06347738206386566,3.081378936767578,0.14117930829524994,-0.006467161700129509,0.007922258228063583
14:09:09,1500.0,1500.0,-146.0,-44.5,-983.0,-12.0,-8.0,-1.5,AUTO,-35.36258675,149.16586325,49993.0,147.5,656.0,-1.0,0.04735519364476204,-0.13997694104909897,1.619438350200653,-0.014562144875526428,-0.009979389607906342,-0.003015204449184239
14:09:11,1500.0,1500.0,-144.5,-38.5,-986.5,82.5,29.5,-3.5,AUTO,-35.362559149999996,149.16600925,49990.0,151.0,654.5,-0.5,0.048754600808024406,-0.14224563539028168,1.6197847127914429,0.08047974482178688,0.02744948584586382,-0.0042182812467217445
14:09:13,1500.0,1500.0,-141.0,-56.0,-990.0,-223.0,-19.0,34.0,AUTO,-35.3625292,149.166164,49986.0,149.0,655.0,-1.0,0.04654747247695923,-0.14172899723052979,1.6199324131011963,-0.22484883666038513,-0.02161860093474388,0.03321239352226257
14:09:15,1500.0,1500.0,-144.5,-49.5,-988.5,-104.5,19.0,-7.0,AUTO,-35.362502649999996,149.1663002,49983.0,146.0,659.5,-0.5,0.0508322361856699,-0.14862394332885742,1.6195563673973083,-0.10747373290359974,0.017650079214945436,-0.00791090470738709
14:09:17,1500.0,1496.0,-152.5,-41.75,-992.75,14.5,18.0,10.75,AUTO,-35.3624766,149.16643723333334,49990.0,146.66666666666666,662.0,-0.6666666666666666,0.04929229865471522,-0.14538459976514181,1.6192206144332886,-0.0020830382903416953,0.023295607107381027,0.004360116203315556
14:09:21,1500.0,1500.0,-134.66666666666666,-60.333333333333336,-979.0,-101.66666666666667,46.666666666666664,30.0,AUTO,-35.3624203,149.1667336,50090.0,132.0,594.5,-1.0,0.06378265284001827,-0.0639948882162571,1.6251760721206665,-0.31909385696053505,0.0468265675008297,0.05003638006746769
14:09:28,1500.0,1500.0,-49.166666666666664,-2.8333333333333335,-1013.1666666666666,624.6666666666666,81.66666666666667,-11.666666666666666,AUTO,-35.36239161666667,149.16689621666666,50022.833333333336,42.5,210.66666666666666,2.3333333333333335,0.07552808274825414,0.1035333586235841,1.6357048153877258,0.6236499945322672,0.08021575957536697,-0.013190915885691842
14:09:30,1500.0,1500.0,24.666666666666668,-11.0,-1009.5,-12.0,39.0,460.5,AUTO,-35.36239401666667,149.16690956666665,49979.666666666664,-49.833333333333336,-98.83333333333333,3.8333333333333335,0.09088872683544953,0.17522363116343817,1.8199835220972698,-0.013362949093182882,0.037140203174203634,0.4592390072842439
14:09:32,1500.0,1500.0,4.333333333333333,-90.83333333333333,-1005.3333333333334,0.16666666666666666,15.5,724.0,AUTO,-35.36241535,149.16685675,49928.333333333336,-148.83333333333334,-380.3333333333333,1.0,0.19929890086253485,-0.030379148665815592,0.08075149854024251,-0.002784010022878647,0.013555773165232191,0.7225720783074697
14:09:48,1500.0,1437.6666666666667,-122.66666666666667,-99.5,-991.6666666666666,2.8333333333333335,10.5,-86.16666666666667,AUTO,-35.36280476666666,149.16579549999997,50028.0,-279.1666666666667,-621.6666666666666,2.3333333333333335,0.10403874392310779,-0.12013362596432368,-2.1342312892278037,0.0014605413501461346,0.008536970514493683,-0.08788397101064523
14:10:04,1500.0,1290.0,60.5,-69.5,-995.3333333333334,-449.0,9.666666666666666,-686.8333333333334,AUTO,-35.36309145,149.1650248,49990.666666666664,-156.66666666666666,-366.3333333333333,-1.1666666666666667,-0.05830683885142207,0.0558774716531237,2.495019515355428,-0.45616742099324864,0.007575866688663761,-0.6892542243003845
14:10:06,1500.0,1500.0,44.833333333333336,-31.333333333333332,-1005.5,-436.5,-19.5,22.833333333333332,AUTO,-35.36311235,149.1649667833333,49952.833333333336,-53.333333333333336,-168.16666666666666,-3.0,-0.09244737898310025,-0.01660982888036718,2.0504860877990723,-0.4367158313592275,-0.02234586173047622,0.02169807559888189
14:10:08,1500.0,1500.0,4.857142857142857,-12.714285714285714,-1000.4285714285714,-170.28571428571428,10.571428571428571,-1.8571428571428572,AUTO,-35.363118885714286,149.16494645714286,49972.0,12.714285714285714,-13.571428571428571,-1.5714285714285714,-0.04781415446528366,-0.023106784027601992,2.065848180225917,-0.1705121642776898,0.008103071745218975,-0.003275156694663955
14:10:10,1500.0,1500.0,-3.1666666666666665,-0.8333333333333334,-998.5,250.66666666666666,31.333333333333332,6.166666666666667,AUTO,-35.363118316666664,149.16494733333334,49979.0,12.333333333333334,8.666666666666666,-1.3333333333333333,0.01675346354022622,0.011971622821874917,2.065248131752014,0.2518300265073776,0.029120367912886042,0.005063348954233031
14:10:12,1500.0,1500.0,2.4,-10.4,-1003.4,-171.6,-20.6,3.4,AUTO,-35.36311782,149.16494678,49984.6,4.0,-18.4,0.2,-0.0052383746020495895,-0.00025785802281461654,2.065718412399292,-0.17218054234981536,-0.02393560130149126,0.0018989094533026218
