time_stamp,MODE,lat,lon,relative_alt,roll,pitch,yaw,rollspeed,pitchspeed,yawspeed,xacc,yacc,zacc,xgyro,ygyro,zgyro,vx,vy,vz,RTL_ALT
14:18:51.659,STABILIZE,-35.3632622,149.1652374,0,-0.00033464268199168146,0.0010787155479192734,0.025623256340622902,0.0002756043686531484,0.0003570491389837116,0.0019725675228983164,0,1,-1000,1,0,0,-1,1,-2,1500.0
14:18:51.861,STABILIZE,-35.3632622,149.1652374,0,-0.00033464268199168146,0.0010787155479192734,0.025623256340622902,0.0002756043686531484,0.0003570491389837116,0.0019725675228983164,0,1,-1000,1,0,0,-1,1,-2,1500.0
14:18:52.062,STABILIZE,-35.3632622,149.1652374,0,-0.0002844009140972048,0.0009953936096280813,0.025128431618213654,0.00027751672314479947,0.000336404045810923,0.0019362486200407147,0,1,-1000,0,0,0,-1,1,-2,1500.0
14:18:52.263,STABILIZE,-35.3632622,149.1652374,0,-0.0002844009140972048,0.0009953936096280813,0.025128431618213654,0.00027751672314479947,0.000336404045810923,0.0019362486200407147,0,1,-1000,0,0,0,-1,1,-2,1500.0
14:18:52.464,STABILIZE,-35.3632622,149.1652374,0,-0.0002844009140972048,0.0009953936096280813,0.025128431618213654,0.00027751672314479947,0.000336404045810923,0.0019362486200407147,0,1,-1000,0,0,0,-1,1,-2,1500.0
14:18:52.665,STABILIZE,-35.3632622,149.1652374,0,-0.0002844009140972048,0.0009953936096280813,0.025128431618213654,0.00027751672314479947,0.000336404045810923,0.0019362486200407147,0,1,-1000,1,0,0,-1,1,-2,1500.0
14:18:52.866,STABILIZE,-35.3632621,149.1652374,0,-0.0003388368641026318,0.0009704718249849975,0.024788815528154373,0.0003117095911875367,0.00029193179216235876,0.0018746787682175636,0,1,-1000,0,0,0,-1,1,-2,1500.0
14:18:53.068,STABILIZE,-35.3632621,149.1652375,0,-0.0003538647433742881,0.0009679290815256536,0.024667203426361084,0.00020091835176572204,0.00038180718547664583,0.001977433217689395,0,1,-1000,0,0,0,-1,1,-1,1500.0
14:18:53.270,STABILIZE,-35.3632621,149.1652375,0,-0.0003538647433742881,0.0009679290815256536,0.024667203426361084,0.00020091835176572204,0.00038180718547664583,0.001977433217689395,0,1,-1000,0,0,0,-1,1,-1,1500.0
14:18:53.472,STABILIZE,-35.3632621,149.1652375,0,-0.0003538647433742881,0.0009679290815256536,0.024667203426361084,0.00020091835176572204,0.00038180718547664583,0.001977433217689395,0,1,-1000,0,0,0,-1,1,-1,1500.0
14:18:53.674,STABILIZE,-35.3632621,149.1652375,0,-0.0003538647433742881,0.0009679290815256536,0.024667203426361084,0.00020091835176572204,0.00038180718547664583,0.001977433217689395,0,1,-1000,0,0,0,-1,1,-1,1500.0
14:18:53.875,STABILIZE,-35.3632621,149.1652375,0,-0.0003538647433742881,0.0009679290815256536,0.024667203426361084,0.00020091835176572204,0.00038180718547664583,0.001977433217689395,0,1,-1000,0,0,0,-1,1,-1,1500.0
14:18:54.076,STABILIZE,-35.3632621,149.1652375,0,-0.00046506657963618636,0.0009365823352709413,0.02424262836575508,0.0002524433075450361,0.00012581274495460093,0.0018894495442509651,0,1,-1000,0,0,0,-1,1,-1,1500.0
14:18:54.277,STABILIZE,-35.3632621,149.1652375,0,-0.00046506657963618636,0.0009365823352709413,0.02424262836575508,0.0002524433075450361,0.00012581274495460093,0.0018894495442509651,0,1,-1000,0,0,0,-1,1,-1,1500.0
14:18:54.479,STABILIZE,-35.3632621,149.1652375,0,-0.0005197771242819726,0.0009294073097407818,0.024046553298830986,0.0002764090895652771,0.00020984874572604895,0.0018740303348749876,0,1,-1000,0,0,0,-1,1,-1,1500.0
14:18:54.680,STABILIZE,-35.3632621,149.1652375,0,-0.0005197771242819726,0.0009294073097407818,0.024046553298830986,0.0002764090895652771,0.00020984874572604895,0.0018740303348749876,0,1,-1000,0,0,0,-1,1,-1,1500.0
14:18:54.881,STABILIZE,-35.3632621,149.1652375,0,-0.0005197771242819726,0.0009294073097407818,0.024046553298830986,0.0002764090895652771,0.00020984874572604895,0.0018740303348749876,0,1,-1000,0,0,0,-1,1,-1,1500.0
14:18:55.082,STABILIZE,-35.3632621,149.1652375,0,-0.00024455858510918915,0.0009263751562684774,0.02383408695459366,0.00027702428633347154,0.0002712035784497857,0.001778939738869667,0,0,-1002,0,0,0,-1,2,0,1500.0
14:18:55.283,STABILIZE,-35.3632621,149.1652375,0,-0.00024455858510918915,0.0009263751562684774,0.02383408695459366,0.00027702428633347154,0.0002712035784497857,0.001778939738869667,0,1,-1000,0,0,0,-1,2,0,1500.0
14:18:55.493,STABILIZE,-35.3632621,149.1652375,0,-0.00024455858510918915,0.0009263751562684774,0.02383408695459366,0.00027702428633347154,0.0002712035784497857,0.001778939738869667,0,1,-1000,0,0,0,-1,2,0,1500.0
14:18:55.695,STABILIZE,-35.3632621,149.1652375,0,-0.00024455858510918915,0.0009263751562684774,0.02383408695459366,0.00027702428633347154,0.0002712035784497857,0.001778939738869667,0,1,-1000,0,0,0,-1,2,0,1500.0
14:18:55.900,STABILIZE,-35.3632621,149.1652375,0,-0.00024455858510918915,0.0009263751562684774,0.02383408695459366,0.00027702428633347154,0.0002712035784497857,0.001778939738869667,0,1,-1000,0,0,0,-1,2,0,1500.0
14:18:56.101,STABILIZE,-35.3632621,149.1652375,0,-0.00024455858510918915,0.0009263751562684774,0.02383408695459366,0.00027702428633347154,0.0002712035784497857,0.001778939738869667,0,1,-1000,0,0,0,-1,2,0,1500.0
14:18:56.303,STABILIZE,-35.3632621,149.1652375,0,-0.0005299902986735106,0.0009430404752492905,0.023338444530963898,0.00027046853210777044,0.0001834045979194343,0.0017919567180797458,0,1,-1000,0,0,1,-1,2,0,1500.0
14:18:56.504,STABILIZE,-35.3632621,149.1652375,0,-0.0005854282644577324,0.0009448923519812524,0.023239191621541977,0.00021694909082725644,0.0003910422674380243,0.0016659959219396114,0,1,-1000,0,0,0,-1,2,0,1500.0
14:18:56.705,STABILIZE,-35.3632621,149.1652375,0,-0.0005854282644577324,0.0009448923519812524,0.023239191621541977,0.00021694909082725644,0.0003910422674380243,0.0016659959219396114,0,1,-1000,0,0,0,-1,2,0,1500.0
14:18:56.906,STABILIZE,-35.3632622,149.1652375,0,-0.0006418608245439827,0.0009510858217254281,0.023162448778748512,0.00026550848269835114,0.0003008230123668909,0.00173668481875211,0,1,-1000,0,0,0,-1,2,0,1500.0
14:18:57.108,STABILIZE,-35.3632622,149.1652375,0,-0.0006418608245439827,0.0009510858217254281,0.023162448778748512,0.00026550848269835114,0.0003008230123668909,0.00173668481875211,0,1,-1000,0,0,0,-1,2,0,1500.0
14:18:57.309,STABILIZE,-35.3632622,149.1652375,0,-0.0006418608245439827,0.0009510858217254281,0.023162448778748512,0.00026550848269835114,0.0003008230123668909,0.00173668481875211,0,1,-1000,0,0,0,-1,2,0,1500.0
14:18:57.510,STABILIZE,-35.3632622,149.1652375,0,-0.0006418608245439827,0.0009510858217254281,0.023162448778748512,0.00026550848269835114,0.0003008230123668909,0.00173668481875211,0,1,-1000,0,0,0,-1,2,0,1500.0
14:18:57.711,STABILIZE,-35.3632622,149.1652375,0,-0.0006418608245439827,0.0009510858217254281,0.023162448778748512,0.00026550848269835114,0.0003008230123668909,0.00173668481875211,0,1,-1000,0,0,0,-1,2,0,1500.0
14:18:57.913,STABILIZE,-35.3632622,149.1652375,0,-0.0006418608245439827,0.0009510858217254281,0.023162448778748512,0.00026550848269835114,0.0003008230123668909,0.00173668481875211,0,1,-1000,0,0,0,-1,2,0,1500.0
14:18:58.114,STABILIZE,-35.3632622,149.1652375,0,-0.0008985507301986217,0.0009644199744798243,0.022784734144806862,9.010534267872572e-05,0.0003792450297623873,0.001757356571033597,0,2,-1000,0,0,1,-1,1,0,1500.0
14:18:58.315,STABILIZE,-35.3632622,149.1652375,0,-0.0009421381982974708,0.0009669194696471095,0.022714504972100258,0.00015017419354990125,0.00026246398920193315,0.0016434325370937586,0,1,-1000,0,0,0,-1,1,0,1500.0
14:18:58.517,STABILIZE,-35.3632622,149.1652375,0,-0.0009421381982974708,0.0009669194696471095,0.022714504972100258,0.00015017419354990125,0.00026246398920193315,0.0016434325370937586,0,3,-997,0,0,0,-1,1,0,1500.0
14:18:58.718,STABILIZE,-35.3632622,149.1652375,0,-0.0009421381982974708,0.0009669194696471095,0.022714504972100258,0.00015017419354990125,0.00026246398920193315,0.0016434325370937586,0,3,-997,0,0,0,-1,1,0,1500.0
14:18:58.919,STABILIZE,-35.3632622,149.1652375,0,-0.0009849780471995473,0.0009682432282716036,0.022590050473809242,0.00018565141363069415,0.00026595807867124677,0.001697102328762412,0,1,-1000,0,0,0,-1,0,-2,1500.0
14:18:59.120,STABILIZE,-35.3632622,149.1652375,0,-0.0009849780471995473,0.0009682432282716036,0.022590050473809242,0.00018565141363069415,0.00026595807867124677,0.001697102328762412,0,1,-1000,0,0,0,-1,0,-2,1500.0
14:18:59.322,STABILIZE,-35.3632622,149.1652375,0,-0.0009849780471995473,0.0009682432282716036,0.022590050473809242,0.00018565141363069415,0.00026595807867124677,0.001697102328762412,0,1,-1000,0,0,0,-1,0,-2,1500.0
14:18:59.523,STABILIZE,-35.3632622,149.1652375,0,-0.0009849780471995473,0.0009682432282716036,0.022590050473809242,0.00018565141363069415,0.00026595807867124677,0.001697102328762412,0,1,-1000,0,0,0,-1,0,-2,1500.0
14:18:59.724,STABILIZE,-35.3632622,149.1652375,0,-0.0009849780471995473,0.0009682432282716036,0.022590050473809242,0.00018565141363069415,0.00026595807867124677,0.001697102328762412,0,1,-1000,0,0,0,-1,0,-2,1500.0
14:18:59.926,STABILIZE,-35.3632622,149.1652375,0,-0.0009849780471995473,0.0009682432282716036,0.022590050473809242,0.00018565141363069415,0.00026595807867124677,0.001697102328762412,0,1,-1000,0,0,0,-1,0,-2,1500.0
14:19:00.127,STABILIZE,-35.3632622,149.1652375,0,-0.0008008690783753991,0.0009767913725227118,0.022303596138954163,0.0002692107227630913,0.00015040632570162416,0.0016266955062747002,0,2,-1000,0,0,0,-1,0,-1,1500.0
14:19:00.328,STABILIZE,-35.3632622,149.1652375,0,-0.0007752893725410104,0.0009747417643666267,0.022264622151851654,0.00029711780371144414,0.00014256295980885625,0.0015643754741176963,0,2,-1000,0,0,0,-1,0,-1,1500.0
14:19:00.529,STABILIZE,-35.3632622,149.1652375,0,-0.0007752893725410104,0.0009747417643666267,0.022264622151851654,0.00029711780371144414,0.00014256295980885625,0.0015643754741176963,0,1,-1000,1,1,0,-1,0,-1,1500.0
14:19:00.731,STABILIZE,-35.3632622,149.1652375,0,-0.0007752893725410104,0.0009747417643666267,0.022264622151851654,0.00029711780371144414,0.00014256295980885625,0.0015643754741176963,0,1,-1000,1,1,0,-1,0,-1,1500.0
14:19:00.932,STABILIZE,-35.3632622,149.1652375,0,-0.0007752893725410104,0.0009747417643666267,0.022264622151851654,0.00029711780371144414,0.00014256295980885625,0.0015643754741176963,0,1,-1000,1,1,0,-1,0,-1,1500.0
14:19:01.133,STABILIZE,-35.3632622,149.1652375,0,-0.0007245339802466333,0.0009784548310562968,0.022073784843087196,0.00029761664336547256,0.0002902467967942357,0.0015130300307646394,0,2,-1000,0,1,0,-1,1,-1,1500.0
14:19:01.334,STABILIZE,-35.3632622,149.1652375,0,-0.0007245339802466333,0.0009784548310562968,0.022073784843087196,0.00029761664336547256,0.0002902467967942357,0.0015130300307646394,0,2,-1000,0,1,0,-1,1,-1,1500.0
14:19:01.536,STABILIZE,-35.3632622,149.1652375,0,-0.0007245339802466333,0.0009784548310562968,0.022073784843087196,0.00029761664336547256,0.0002902467967942357,0.0015130300307646394,0,2,-1000,0,1,0,-1,1,-1,1500.0
14:19:01.737,STABILIZE,-35.3632622,149.1652375,0,-0.0007245339802466333,0.0009784548310562968,0.022073784843087196,0.00029761664336547256,0.0002902467967942357,0.0015130300307646394,0,2,-1000,0,1,0,-1,1,-1,1500.0
14:19:01.938,STABILIZE,-35.3632622,149.1652375,0,-0.0007245339802466333,0.0009784548310562968,0.022073784843087196,0.00029761664336547256,0.0002902467967942357,0.0015130300307646394,0,2,-1000,0,1,0,-1,1,-1,1500.0
14:19:02.139,STABILIZE,-35.3632622,149.1652375,0,-0.0007245339802466333,0.0009784548310562968,0.022073784843087196,0.00029761664336547256,0.0002902467967942357,0.0015130300307646394,0,2,-1000,0,1,0,-1,1,-1,1500.0
14:19:02.341,STABILIZE,-35.3632622,149.1652375,0,-0.0007245339802466333,0.0009784548310562968,0.022073784843087196,0.00029761664336547256,0.0002902467967942357,0.0015130300307646394,0,2,-1000,0,1,0,-1,1,-1,1500.0
14:19:02.542,STABILIZE,-35.3632622,149.1652375,0,-0.00048557069385424256,0.000989111722446978,0.021671222522854805,0.00031075626611709595,0.00023509067250415683,0.0015768076991662383,0,1,-1000,0,1,0,-1,2,0,1500.0
14:19:02.743,STABILIZE,-35.3632622,149.1652375,0,-0.00048557069385424256,0.000989111722446978,0.021671222522854805,0.00031075626611709595,0.00023509067250415683,0.0015768076991662383,0,2,-1000,1,1,0,-1,2,0,1500.0
14:19:02.944,STABILIZE,-35.3632622,149.1652375,0,-0.00048557069385424256,0.000989111722446978,0.021671222522854805,0.00031075626611709595,0.00023509067250415683,0.0015768076991662383,0,2,-1000,1,1,0,-1,2,0,1500.0
14:19:03.145,STABILIZE,-35.3632622,149.1652375,0,-0.00048557069385424256,0.000989111722446978,0.021671222522854805,0.00031075626611709595,0.00023509067250415683,0.0015768076991662383,0,1,-1000,0,0,0,-1,2,0,1500.0
14:19:03.347,STABILIZE,-35.3632622,149.1652375,0,-0.00048557069385424256,0.000989111722446978,0.021671222522854805,0.00031075626611709595,0.00023509067250415683,0.0015768076991662383,0,2,-1000,1,0,1,-1,2,0,1500.0
14:19:03.548,STABILIZE,-35.3632622,149.1652375,0,-0.00048557069385424256,0.000989111722446978,0.021671222522854805,0.00031075626611709595,0.00023509067250415683,0.0015768076991662383,0,2,-1000,1,0,1,-1,2,0,1500.0
14:19:03.749,STABILIZE,-35.3632622,149.1652375,0,-0.00048557069385424256,0.000989111722446978,0.021671222522854805,0.00031075626611709595,0.00023509067250415683,0.0015768076991662383,0,2,-1000,1,0,1,-1,2,0,1500.0
14:19:03.950,STABILIZE,-35.3632622,149.1652375,0,-0.00048557069385424256,0.000989111722446978,0.021671222522854805,0.00031075626611709595,0.00023509067250415683,0.0015768076991662383,0,2,-1000,1,0,1,-1,2,0,1500.0
14:19:04.151,STABILIZE,-35.3632622,149.1652375,0,-0.0007374644046649337,0.0009926141938194633,0.021319659426808357,0.000357024313416332,0.00020975718507543206,0.001474194461479783,0,2,-1000,1,1,1,-1,2,0,1500.0
14:19:04.352,STABILIZE,-35.3632622,149.1652375,0,-0.0007748924545012414,0.0009910828666761518,0.021260211244225502,0.0003218387137167156,0.0002560372231528163,0.0014617396518588066,0,1,-1000,1,1,0,-1,2,0,1500.0
14:19:04.554,STABILIZE,-35.3632622,149.1652375,0,-0.0008090383489616215,0.0009889538632705808,0.021195512264966965,0.00030240818159654737,0.0002553716767579317,0.0013976495247334242,0,2,-1000,1,1,1,-1,1,0,1500.0
14:19:04.755,STABILIZE,-35.3632622,149.1652375,0,-0.0008090383489616215,0.0009889538632705808,0.021195512264966965,0.00030240818159654737,0.0002553716767579317,0.0013976495247334242,0,2,-1000,0,0,0,-1,1,0,1500.0
14:19:04.956,STABILIZE,-35.3632622,149.1652375,0,-0.0008090383489616215,0.0009889538632705808,0.021195512264966965,0.00030240818159654737,0.0002553716767579317,0.0013976495247334242,0,2,-1000,0,0,0,-1,1,0,1500.0
14:19:05.158,STABILIZE,-35.3632622,149.1652375,0,-0.0008090383489616215,0.0009889538632705808,0.021195512264966965,0.00030240818159654737,0.0002553716767579317,0.0013976495247334242,0,2,-1000,0,0,0,-1,1,0,1500.0
14:19:05.359,STABILIZE,-35.3632622,149.1652375,0,-0.0008090383489616215,0.0009889538632705808,0.021195512264966965,0.00030240818159654737,0.0002553716767579317,0.0013976495247334242,0,2,-1000,0,1,0,-1,1,0,1500.0
14:19:05.561,AUTO,-35.3632622,149.1652375,0,-0.0008090383489616215,0.0009889538632705808,0.021195512264966965,0.00030240818159654737,0.0002553716767579317,0.0013976495247334242,0,2,-1000,0,1,0,-1,1,0,1500.0
14:19:05.769,AUTO,-35.3632622,149.1652375,0,-0.0008090383489616215,0.0009889538632705808,0.021195512264966965,0.00030240818159654737,0.0002553716767579317,0.0013976495247334242,0,2,-1000,0,1,0,-1,1,0,202421.0
14:19:05.970,AUTO,-35.3632622,149.1652375,0,-0.0008090383489616215,0.0009889538632705808,0.021195512264966965,0.00030240818159654737,0.0002553716767579317,0.0013976495247334242,0,2,-1000,0,1,0,-1,1,0,202421.0
14:19:06.171,AUTO,-35.3632622,149.1652376,1,-0.0007937632035464048,0.0009935342241078615,0.020914988592267036,0.00032881752122193575,0.0001800665631890297,0.0015562797198072076,0,1,-1000,0,0,0,-1,2,3,202421.0
14:19:06.373,AUTO,-35.3632622,149.1652376,0,-0.0008713420829735696,0.0009981595212593675,0.020855657756328583,0.0002797868219204247,0.00017527776071801782,0.0014506455045193434,0,2,-1000,1,0,0,-1,2,3,202421.0
14:19:06.574,AUTO,-35.3632621,149.1652375,0,-0.000914628675673157,0.0010190490866079926,0.02081374078989029,0.0002798996865749359,0.0002024880377575755,0.0014179896097630262,0,2,-1000,0,1,1,0,1,3,202421.0
14:19:06.775,AUTO,-35.3632621,149.1652375,0,-0.0009240124491043389,0.0010531196603551507,0.020781420171260834,0.00026947754668071866,0.0002818868379108608,0.001417163060978055,0,1,-1000,1,0,1,0,0,2,202421.0
14:19:06.976,AUTO,-35.3632621,149.1652375,0,-0.0009240124491043389,0.0010531196603551507,0.020781420171260834,0.00026947754668071866,0.0002818868379108608,0.001417163060978055,0,1,-1000,1,0,1,0,0,2,202421.0
14:19:07.178,AUTO,-35.3632621,149.1652375,0,-0.000901611871086061,0.001102187903597951,0.020740240812301636,0.0002914436627179384,0.0003211222356185317,0.0014537005918100476,0,1,-1000,0,1,0,0,0,2,202421.0
14:19:07.379,AUTO,-35.3632621,149.1652375,0,-0.0008616802515462041,0.0011626373743638396,0.020703231915831566,0.0002911203191615641,0.00018483237363398075,0.0014436912024393678,0,2,-1000,0,0,1,0,0,2,202421.0
14:19:07.581,AUTO,-35.3632621,149.1652375,0,-0.0008616802515462041,0.0011626373743638396,0.020703231915831566,0.0002911203191615641,0.00018483237363398075,0.0014436912024393678,0,2,-1000,0,0,1,0,0,2,202421.0
14:19:07.782,AUTO,-35.3632621,149.1652375,0,-0.0008616802515462041,0.0011626373743638396,0.020703231915831566,0.0002911203191615641,0.00018483237363398075,0.0014436912024393678,0,2,-1000,0,0,1,0,0,2,202421.0
14:19:07.983,AUTO,-35.3632621,149.1652375,0,-0.0008616802515462041,0.0011626373743638396,0.020703231915831566,0.0002911203191615641,0.00018483237363398075,0.0014436912024393678,0,2,-1000,0,0,1,0,0,2,202421.0
14:19:08.185,AUTO,-35.3632621,149.1652374,0,-0.0007040481432341039,0.0013524463865906,0.020571056753396988,0.00035786087391898036,0.0002264666836708784,0.001441006432287395,0,1,-1000,1,1,0,0,-1,1,202421.0
14:19:08.386,AUTO,-35.3632621,149.1652374,0,-0.0006523000192828476,0.0014222031459212303,0.020527338609099388,0.0002994943642988801,0.0002411808236502111,0.0013728741323575377,0,2,-1000,1,0,1,0,-1,1,202421.0
14:19:08.587,AUTO,-35.3632621,149.1652374,0,-0.0006046663038432598,0.0014949062606319785,0.020486250519752502,0.00027186976512894034,0.00028925540391355753,0.001374255632981658,0,1,-1000,1,0,0,0,-1,1,202421.0
14:19:08.788,AUTO,-35.3632621,149.1652374,0,-0.0005484309513121843,0.0015668484847992659,0.020417192950844765,0.0002643672050908208,0.00037988321855664253,0.0013521488290280104,0,1,-1000,1,1,0,0,0,1,173140.0
14:19:08.990,AUTO,-35.3632621,149.1652374,0,-0.00029718363657593727,0.001637249835766852,0.020367557182908058,0.00026914686895906925,0.00034896197030320764,0.0013478088658303022,0,1,-1001,0,1,0,0,0,2,173140.0
14:19:09.192,AUTO,-35.3632621,149.1652374,0,-0.00029718363657593727,0.001637249835766852,0.020367557182908058,0.00026914686895906925,0.00034896197030320764,0.0013478088658303022,0,1,-1001,0,1,0,0,0,2,173140.0
14:19:09.393,AUTO,-35.3632621,149.1652374,0,-0.00023181570577435195,0.0017140874406322837,0.020314518362283707,0.0004259948036633432,0.0002840319648385048,0.0013510220451280475,0,1,-1000,0,0,0,0,0,2,173140.0
14:19:09.595,AUTO,-35.3632621,149.1652374,0,-0.00023181570577435195,0.0017140874406322837,0.020314518362283707,0.0004259948036633432,0.0002840319648385048,0.0013510220451280475,0,1,-1000,0,0,0,0,0,2,173140.0
14:19:09.801,AUTO,-35.3632621,149.1652374,0,-0.00023181570577435195,0.0017140874406322837,0.020314518362283707,0.0004259948036633432,0.0002840319648385048,0.0013510220451280475,0,1,-1000,0,0,0,0,0,2,173140.0
14:19:10.002,AUTO,-35.3632621,149.1652375,277,0.002551878336817026,0.0005139517597854137,0.02038504183292389,0.002124845515936613,0.004295931197702885,-0.00016183537081815302,0,0,-1127,2,4,0,0,0,-89,173140.0
14:19:10.204,AUTO,-35.3632621,149.1652375,277,0.002551878336817026,0.0005139517597854137,0.02038504183292389,0.002124845515936613,0.004295931197702885,-0.00016183537081815302,0,0,-1127,2,4,0,0,0,-89,173140.0
14:19:10.405,AUTO,-35.3632621,149.1652375,541,0.0016191499307751656,0.0014300753828138113,0.020255712792277336,-0.004947608802467585,0.0028234245255589485,0.0025161243975162506,0,0,-1091,-4,3,2,0,0,-115,173140.0
14:19:10.607,AUTO,-35.3632621,149.1652375,864,0.0011785898823291063,0.0019397324649617076,0.02019967883825302,-0.0010025618830695748,0.000451408966910094,0.0004170186002738774,0,0,-1052,0,1,0,0,0,-132,173140.0
14:19:10.808,AUTO,-35.3632621,149.1652375,1221,0.004057637415826321,0.0017631098162382841,0.0192483589053154,0.020634502172470093,-0.0004333525721449405,-0.004985117353498936,0,0,-1024,21,0,-5,0,0,-141,173140.0
14:19:11.010,AUTO,-35.363262,149.1652375,1595,0.010300777852535248,0.0016638552770018578,0.017546048387885094,0.029354959726333618,-0.00022203961270861328,-0.005384971387684345,0,0,-1011,30,0,-5,0,1,-145,173140.0
14:19:11.212,AUTO,-35.363262,149.1652375,1595,0.010300777852535248,0.0016638552770018578,0.017546048387885094,0.029354959726333618,-0.00022203961270861328,-0.005384971387684345,0,0,-1011,30,0,-5,0,1,-145,173140.0
14:19:11.413,AUTO,-35.363262,149.1652375,1977,0.0195358544588089,0.0016359371365979314,0.015362193807959557,0.04258967190980911,-0.0033574046101421118,-0.005371701903641224,0,0,-1006,43,-2,-5,0,4,-147,173140.0
14:19:11.615,AUTO,-35.363262,149.1652375,1977,0.0195358544588089,0.0016359371365979314,0.015362193807959557,0.04258967190980911,-0.0033574046101421118,-0.005371701903641224,0,0,-1006,43,-2,-5,0,4,-147,176484.0
14:19:11.817,AUTO,-35.363262,149.1652375,1977,0.0195358544588089,0.0016359371365979314,0.015362193807959557,0.04258967190980911,-0.0033574046101421118,-0.005371701903641224,0,0,-1006,43,-2,-5,0,4,-147,176484.0
14:19:12.019,AUTO,-35.3632619,149.1652386,3147,0.0520753376185894,-0.004931469447910786,-0.013246561400592327,0.0394413135945797,-0.011846235021948814,0.0007515068864449859,1,-4,-999,40,-11,0,3,28,-149,176484.0
14:19:12.220,AUTO,-35.3632619,149.1652386,3147,0.0520753376185894,-0.004931469447910786,-0.013246561400592327,0.0394413135945797,-0.011846235021948814,0.0007515068864449859,1,-4,-999,40,-11,0,3,28,-149,176484.0
14:19:12.421,AUTO,-35.3632617,149.1652395,3534,0.06160740926861763,-0.008359457366168499,-0.013228065334260464,0.03550565242767334,-0.013518099673092365,-0.001763363485224545,2,-6,-998,36,-12,-2,6,39,-148,176484.0
14:19:12.623,AUTO,-35.3632615,149.1652408,3916,0.04926235228776932,0.004808645695447922,-0.0294758640229702,-0.12442197650671005,0.08448924124240875,-0.08701891452074051,3,-10,-988,-123,85,-87,8,51,-146,176484.0
14:19:12.825,AUTO,-35.3632613,149.1652422,4292,0.004841737449169159,0.01653992012143135,-0.04842565953731537,-0.1935347318649292,0.007165052462369204,-0.06728580594062805,6,-16,-996,-192,7,-67,7,54,-144,176484.0
14:19:13.027,AUTO,-35.3632612,149.1652436,4666,-0.041294194757938385,0.013376242481172085,-0.06345907598733902,-0.17333298921585083,-0.01978229731321335,-0.056927114725112915,5,-11,-1008,-172,-18,-57,5,46,-145,176484.0
14:19:13.229,AUTO,-35.3632612,149.1652436,4666,-0.041294194757938385,0.013376242481172085,-0.06345907598733902,-0.17333298921585083,-0.01978229731321335,-0.056927114725112915,5,-11,-1008,-172,-18,-57,5,46,-145,176484.0
14:19:13.431,AUTO,-35.363261,149.1652446,5044,-0.07393038272857666,0.008230685256421566,-0.07542747259140015,-0.09240143746137619,-0.013697093352675438,-0.04600628837943077,3,-6,-1011,-91,-13,-46,3,28,-147,176484.0
14:19:13.633,AUTO,-35.363261,149.1652446,5044,-0.07393038272857666,0.008230685256421566,-0.07542747259140015,-0.09240143746137619,-0.013697093352675438,-0.04600628837943077,3,-6,-1011,-91,-13,-46,3,28,-147,176484.0
14:19:13.835,AUTO,-35.363261,149.1652446,5044,-0.07393038272857666,0.008230685256421566,-0.07542747259140015,-0.09240143746137619,-0.013697093352675438,-0.04600628837943077,3,-6,-1011,-91,-13,-46,3,28,-147,176484.0
14:19:14.038,AUTO,-35.3632609,149.1652445,6199,-0.06867044419050217,0.0007314303074963391,-0.09994392842054367,0.052527762949466705,-0.0016291674692183733,-0.019878637045621872,-2,4,-1000,53,0,-20,-2,-33,-149,176484.0
14:19:14.240,AUTO,-35.3632609,149.1652445,6199,-0.06867044419050217,0.0007314303074963391,-0.09994392842054367,0.052527762949466705,-0.0016291674692183733,-0.019878637045621872,-2,4,-1000,53,0,-20,-2,-33,-149,176484.0
14:19:14.441,AUTO,-35.3632609,149.1652434,6584,-0.0547822080552578,0.0008003372931852937,-0.1040329858660698,0.058956220746040344,0.00390678271651268,-0.01338290236890316,-3,6,-1000,59,4,-13,-4,-46,-149,176484.0
14:19:14.643,AUTO,-35.363261,149.165242,6968,-0.039582282304763794,0.002222777111455798,-0.10661004483699799,0.06279026716947556,0.008245730772614479,-0.008306906558573246,-5,10,-1001,63,9,-8,-6,-56,-149,271531.0
14:19:14.845,AUTO,-35.3632612,149.1652403,7357,-0.023261716589331627,0.0046623097732663155,-0.10820279270410538,0.06536581367254257,0.010857480578124523,-0.004440630786120892,-7,14,-1002,66,11,-4,-9,-61,-150,271531.0
14:19:15.047,AUTO,-35.3632614,149.1652386,7743,-0.0065134502947330475,0.00750799709931016,-0.10889502614736557,0.06842735409736633,0.01202783640474081,-0.00169372686650604,-6,12,-1003,69,12,-1,-11,-62,-150,271531.0
14:19:15.250,AUTO,-35.3632617,149.1652369,8132,0.010523354634642601,0.010372310876846313,-0.10899320989847183,0.06945445388555527,0.01116168312728405,0.00038103191764093935,-4,13,-1004,69,11,0,-14,-58,-151,271531.0
14:19:15.452,AUTO,-35.3632617,149.1652369,8132,0.010523354634642601,0.010372310876846313,-0.10899320989847183,0.06945445388555527,0.01116168312728405,0.00038103191764093935,-4,13,-1004,69,11,0,-14,-58,-151,271531.0
14:19:15.654,AUTO,-35.3632617,149.1652369,8132,0.010523354634642601,0.010372310876846313,-0.10899320989847183,0.06945445388555527,0.01116168312728405,0.00038103191764093935,-4,13,-1004,69,11,0,-14,-58,-151,271531.0
14:19:15.856,AUTO,-35.3632617,149.1652369,8132,0.010523354634642601,0.010372310876846313,-0.10899320989847183,0.06945445388555527,0.01116168312728405,0.00038103191764093935,-4,13,-1004,69,11,0,-14,-58,-151,271531.0
14:19:16.057,AUTO,-35.363263,149.1652331,9304,0.06006023287773132,0.014097841456532478,-0.10566000640392303,0.06335996091365814,-0.002293250523507595,0.004823219962418079,0,10,-1002,64,-1,4,-22,-24,-153,271531.0
14:19:16.259,AUTO,-35.3632635,149.1652326,9698,0.07298199087381363,0.010887988843023777,-0.1020183190703392,0.019527314230799675,-0.03727653995156288,0.040268898010253906,1,6,-996,20,-36,40,-23,-6,-153,271531.0
14:19:16.461,AUTO,-35.3632635,149.1652326,9698,0.07298199087381363,0.010887988843023777,-0.1020183190703392,0.019527314230799675,-0.03727653995156288,0.040268898010253906,1,6,-996,20,-36,40,-23,-6,-153,271531.0
14:19:16.663,AUTO,-35.363264,149.1652326,10089,0.06796573847532272,-0.010838348418474197,-0.08466000854969025,-0.04095853120088577,-0.10975957661867142,0.10203750431537628,3,3,-995,-40,-109,101,-20,10,-151,271531.0
14:19:16.864,AUTO,-35.3632643,149.165233,10476,0.055253930389881134,-0.043052706867456436,-0.056715596467256546,-0.05484744906425476,-0.13024091720581055,0.13999707996845245,5,-1,-998,-54,-129,139,-10,24,-150,271531.0
14:19:17.066,AUTO,-35.3632644,149.1652336,10859,0.02962738275527954,-0.06092843785881996,-0.03832262381911278,-0.12399127334356308,0.006159820128232241,0.028376003727316856,3,-5,-995,-123,6,28,4,32,-148,271531.0
14:19:17.268,AUTO,-35.3632642,149.1652344,11239,0.00032980460673570633,-0.045750606805086136,-0.04395049810409546,-0.10448232293128967,0.08483605086803436,-0.05039912462234497,1,-7,-1002,-103,85,-50,19,32,-148,271531.0
14:19:17.470,AUTO,-35.3632642,149.1652344,11239,0.00032980460673570633,-0.045750606805086136,-0.04395049810409546,-0.10448232293128967,0.08483605086803436,-0.05039912462234497,1,-7,-1002,-103,85,-50,19,32,-148,271531.0
14:19:17.672,AUTO,-35.3632642,149.1652344,11239,0.00032980460673570633,-0.045750606805086136,-0.04395049810409546,-0.10448232293128967,0.08483605086803436,-0.05039912462234497,1,-7,-1002,-103,85,-50,19,32,-148,8310.0
14:19:17.874,AUTO,-35.3632642,149.1652344,11239,0.00032980460673570633,-0.045750606805086136,-0.04395049810409546,-0.10448232293128967,0.08483605086803436,-0.05039912462234497,1,-7,-1002,-103,85,-50,19,32,-148,8310.0
14:19:18.076,AUTO,-35.3632624,149.165236,12390,-0.02922152727842331,0.0021732549648731947,-0.1049879863858223,0.00027200556360185146,0.04296652227640152,-0.08277174830436707,-4,-7,-1004,0,43,-83,30,8,-152,8310.0
14:19:18.278,AUTO,-35.3632617,149.1652361,12779,-0.026708170771598816,0.01047042477875948,-0.12463031709194183,0.019129768013954163,0.02849486842751503,-0.06821774691343307,-5,-5,-1003,20,29,-68,26,0,-152,8310.0
14:19:18.479,AUTO,-35.3632617,149.1652361,12779,-0.026708170771598816,0.01047042477875948,-0.12463031709194183,0.019129768013954163,0.02849486842751503,-0.06821774691343307,-5,-5,-1003,20,29,-68,26,0,-152,8310.0
14:19:18.681,AUTO,-35.3632611,149.165236,13170,-0.020407918840646744,0.01613752916455269,-0.14082233607769012,0.030933620408177376,0.021243421360850334,-0.05548838526010513,-5,-2,-1002,31,21,-55,22,-7,-153,8310.0
14:19:18.883,AUTO,-35.3632607,149.1652358,13561,-0.011735665611922741,0.020525112748146057,-0.15371212363243103,0.03981555253267288,0.015785222873091698,-0.04356296360492706,-4,0,-1001,40,16,-43,16,-11,-153,8310.0
14:19:19.084,AUTO,-35.3632604,149.1652354,13953,-0.002535722916945815,0.0234153363853693,-0.1631055623292923,0.03830955550074577,0.008406425826251507,-0.03058495931327343,-5,0,-1001,39,8,-30,9,-13,-153,8310.0
14:19:19.286,AUTO,-35.3632602,149.165235,14346,0.006190713495016098,0.0241241492331028,-0.16873575747013092,0.03301399201154709,-0.0014019561931490898,-0.015434653498232365,-4,0,-1000,33,0,-15,3,-12,-153,8310.0
14:19:19.500,AUTO,-35.3632602,149.165235,14346,0.006190713495016098,0.0241241492331028,-0.16873575747013092,0.03301399201154709,-0.0014019561931490898,-0.015434653498232365,-4,0,-1000,33,0,-15,3,-12,-153,8310.0
14:19:19.703,AUTO,-35.3632602,149.165235,14346,0.006190713495016098,0.0241241492331028,-0.16873575747013092,0.03301399201154709,-0.0014019561931490898,-0.015434653498232365,-4,0,-1000,33,0,-15,3,-12,-153,8310.0
14:19:19.905,AUTO,-35.3632602,149.165235,14346,0.006190713495016098,0.0241241492331028,-0.16873575747013092,0.03301399201154709,-0.0014019561931490898,-0.015434653498232365,-4,0,-1000,33,0,-15,3,-12,-153,8310.0
14:19:20.107,AUTO,-35.3632603,149.1652343,15519,0.01641729660332203,0.017848560586571693,-0.17102380096912384,-0.0001471951836720109,-0.011210243217647076,0.00241438252851367,0,1,-999,0,-10,2,-9,0,-153,8310.0
14:19:20.308,AUTO,-35.3632604,149.1652343,15909,0.015612002462148666,0.014371789060533047,-0.16977344453334808,-0.0063637332059443,-0.013248587027192116,0.005774322897195816,1,1,-999,-5,-12,5,-11,3,-152,8310.0
14:19:20.510,AUTO,-35.3632606,149.1652344,16297,0.01362176425755024,0.010848570615053177,-0.1687016636133194,-0.007920549251139164,-0.013200845569372177,0.0032447115518152714,2,1,-1000,-7,-12,2,-13,6,-152,8310.0
14:19:20.712,AUTO,-35.3632606,149.1652344,16297,0.01362176425755024,0.010848570615053177,-0.1687016636133194,-0.007920549251139164,-0.013200845569372177,0.0032447115518152714,2,1,-1000,-7,-12,2,-13,6,-152,27896.0
14:19:20.914,AUTO,-35.3632608,149.1652344,16690,0.010846962220966816,0.007703348994255066,-0.16847309470176697,-0.009764716029167175,-0.010479536838829517,-0.0039545693434774876,2,0,-1000,-8,-9,-3,-13,8,-152,27896.0
14:19:21.115,AUTO,-35.363261,149.1652346,17079,0.008097266778349876,0.005235212855041027,-0.16939616203308105,-0.009172400459647179,-0.009952006861567497,-0.004271499812602997,3,0,-1000,-8,-9,-4,-13,10,-152,27896.0
14:19:21.317,AUTO,-35.3632613,149.1652349,17468,0.005570367444306612,0.0027793459594249725,-0.17118190228939056,-0.010985290631651878,-0.007874757051467896,-0.009675566107034683,3,0,-1000,-10,-6,-9,-12,11,-152,27896.0
14:19:21.519,AUTO,-35.3632613,149.1652349,17468,0.005570367444306612,0.0027793459594249725,-0.17118190228939056,-0.010985290631651878,-0.007874757051467896,-0.009675566107034683,3,0,-1000,-10,-6,-9,-12,11,-152,27896.0
14:19:21.722,AUTO,-35.3632613,149.1652349,17468,0.005570367444306612,0.0027793459594249725,-0.17118190228939056,-0.010985290631651878,-0.007874757051467896,-0.009675566107034683,3,0,-1000,-10,-6,-9,-12,11,-152,27896.0
14:19:21.925,AUTO,-35.3632613,149.1652349,17468,0.005570367444306612,0.0027793459594249725,-0.17118190228939056,-0.010985290631651878,-0.007874757051467896,-0.009675566107034683,3,0,-1000,-10,-6,-9,-12,11,-152,27896.0
14:19:22.126,AUTO,-35.3632618,149.1652355,18632,0.00017453586042393,-0.0014989653136581182,-0.18227408826351166,-0.0018044204916805029,-0.0015457188710570335,-0.019426198676228523,2,0,-1001,-1,0,-19,-8,9,-153,27896.0
14:19:22.328,AUTO,-35.3632619,149.1652357,19022,-0.0005989738856442273,-0.0018582623451948166,-0.18782928586006165,-0.003086947137489915,0.0006890029762871563,-0.02462053671479225,1,0,-1000,-1,1,-24,-6,8,-153,27896.0
14:19:22.530,AUTO,-35.363262,149.1652359,19412,-0.0009852951625362039,-0.0017511636251583695,-0.19393473863601685,-0.0001979769440367818,0.0012321260292083025,-0.023444054648280144,1,0,-1000,0,2,-23,-5,7,-153,27896.0
14:19:22.731,AUTO,-35.363262,149.1652359,19412,-0.0009852951625362039,-0.0017511636251583695,-0.19393473863601685,-0.0001979769440367818,0.0012321260292083025,-0.023444054648280144,1,0,-1000,0,2,-23,-5,7,-153,27896.0
14:19:22.933,AUTO,-35.3632621,149.165236,19801,-0.0006074010161682963,-0.001304768375121057,-0.20054738223552704,0.0032585556618869305,0.0029434633906930685,-0.027829667553305626,0,0,-1000,4,3,-28,-3,5,-153,27896.0
14:19:23.135,AUTO,-35.3632621,149.1652361,20190,-9.668216807767749e-05,-0.00032581077539362013,-0.20764939486980438,0.002393933944404125,0.005127586890012026,-0.027968134731054306,0,0,-1000,3,6,-28,-2,4,-153,27896.0
14:19:23.338,AUTO,-35.3632621,149.1652361,20580,0.0006837873952463269,0.00029421228100545704,-0.21445542573928833,0.004984946455806494,0.003863242920488119,-0.026449771597981453,0,0,-1000,6,4,-26,-2,3,-153,27896.0
14:19:23.540,AUTO,-35.3632621,149.1652361,20580,0.0006837873952463269,0.00029421228100545704,-0.21445542573928833,0.004984946455806494,0.003863242920488119,-0.026449771597981453,0,0,-1000,6,4,-26,-2,3,-153,27896.0
14:19:23.741,AUTO,-35.3632621,149.1652361,20580,0.0006837873952463269,0.00029421228100545704,-0.21445542573928833,0.004984946455806494,0.003863242920488119,-0.026449771597981453,0,0,-1000,6,4,-26,-2,3,-153,203428.0
14:19:23.943,AUTO,-35.3632621,149.1652361,20580,0.0006837873952463269,0.00029421228100545704,-0.21445542573928833,0.004984946455806494,0.003863242920488119,-0.026449771597981453,0,0,-1000,6,4,-26,-2,3,-153,203428.0
14:19:24.145,AUTO,-35.3632621,149.1652362,21750,0.00314219668507576,0.0023058708757162094,-0.23397065699100494,0.003786020912230015,0.0030267350375652313,-0.024079101160168648,0,0,-1000,4,3,-24,-1,2,-153,203428.0
14:19:24.346,AUTO,-35.3632621,149.1652362,22141,0.00383619568310678,0.0028531081043183804,-0.2399810552597046,0.002697431482374668,0.00223333272151649,-0.02327132038772106,0,0,-1000,3,3,-23,-1,2,-153,203428.0
14:19:24.548,AUTO,-35.3632621,149.1652362,22530,0.004370464943349361,0.003012648783624172,-0.24552412331104279,0.002200187649577856,0.0010840101167559624,-0.02181248553097248,0,0,-1000,2,2,-21,-1,2,-153,203428.0
14:19:24.749,AUTO,-35.3632621,149.1652362,22920,0.004636069759726524,0.0031158237252384424,-0.250789999961853,0.0006570749683305621,-0.00011647801147773862,-0.02073386311531067,0,0,-1000,1,0,-20,-1,3,-153,203428.0
14:19:24.951,AUTO,-35.3632621,149.1652362,22920,0.004636069759726524,0.0031158237252384424,-0.250789999961853,0.0006570749683305621,-0.00011647801147773862,-0.02073386311531067,0,0,-1000,1,0,-20,-1,3,-153,203428.0
14:19:25.153,AUTO,-35.3632621,149.1652362,23310,0.004612409044057131,0.003112201113253832,-0.2558976411819458,0.00030456826789304614,0.0016976975603029132,-0.02023782581090927,0,0,-1000,1,2,-20,-1,3,-153,203428.0
14:19:25.356,AUTO,-35.3632621,149.1652363,23700,0.00422324612736702,0.003303829114884138,-0.2609845995903015,-0.0029932567849755287,0.0008119110716506839,-0.019900204613804817,0,0,-1000,-1,1,-19,-1,3,-153,203428.0
14:19:25.558,AUTO,-35.3632621,149.1652363,23700,0.00422324612736702,0.003303829114884138,-0.2609845995903015,-0.0029932567849755287,0.0008119110716506839,-0.019900204613804817,0,0,-1000,-1,1,-19,-1,3,-153,203428.0
14:19:25.759,AUTO,-35.3632621,149.1652363,23700,0.00422324612736702,0.003303829114884138,-0.2609845995903015,-0.0029932567849755287,0.0008119110716506839,-0.019900204613804817,0,0,-1000,-1,1,-19,-1,3,-153,203428.0
14:19:25.961,AUTO,-35.3632621,149.1652363,23700,0.00422324612736702,0.003303829114884138,-0.2609845995903015,-0.0029932567849755287,0.0008119110716506839,-0.019900204613804817,0,0,-1000,-1,1,-19,-1,3,-153,203428.0
14:19:26.163,AUTO,-35.3632621,149.1652365,24868,0.002404145197942853,0.0032686975318938494,-0.27589279413223267,-0.0009484271286055446,0.0009481003507971764,-0.020014535635709763,0,0,-1000,0,1,-19,-1,4,-153,203428.0
14:19:26.364,AUTO,-35.3632621,149.1652365,25255,-0.009177585132420063,0.00462007150053978,-0.27845537662506104,-0.04480450600385666,0.009594381786882877,-0.0024524200707674026,0,0,-1000,-43,10,-2,-1,3,-152,203428.0
14:19:26.566,AUTO,-35.3632621,149.1652365,25642,-0.009628349915146828,0.005944147240370512,-0.2772422134876251,0.028815336525440216,0.0009789702016860247,0.008650694042444229,0,0,-1005,29,1,8,-3,0,-153,203428.0
14:19:26.767,AUTO,-35.3632621,149.1652364,26035,-0.0009384602308273315,0.005555299110710621,-0.27337080240249634,0.03277561441063881,-0.0038960122037678957,0.019138650968670845,0,1,-1001,33,-2,18,-4,-1,-153,18201.0
14:19:26.969,AUTO,-35.3632621,149.1652364,26035,-0.0009384602308273315,0.005555299110710621,-0.27337080240249634,0.03277561441063881,-0.0038960122037678957,0.019138650968670845,0,1,-1001,33,-2,18,-4,-1,-153,18201.0
14:19:27.171,AUTO,-35.3632622,149.1652364,26425,0.006196557078510523,0.00484174769371748,-0.26766437292099,0.023483145982027054,-0.002189749851822853,0.025609850883483887,0,0,-1000,24,-1,25,-5,0,-153,18201.0
14:19:27.372,AUTO,-35.3632622,149.1652364,26815,0.00985056534409523,0.003998419735580683,-0.2610486149787903,0.00935534480959177,-0.000615564058534801,0.02643309347331524,0,0,-999,10,0,26,-5,1,-153,18201.0
14:19:27.574,AUTO,-35.3632622,149.1652364,26815,0.00985056534409523,0.003998419735580683,-0.2610486149787903,0.00935534480959177,-0.000615564058534801,0.02643309347331524,0,0,-999,10,0,26,-5,1,-153,18201.0
14:19:27.776,AUTO,-35.3632622,149.1652364,26815,0.00985056534409523,0.003998419735580683,-0.2610486149787903,0.00935534480959177,-0.000615564058534801,0.02643309347331524,0,0,-999,10,0,26,-5,1,-153,18201.0
14:19:27.978,AUTO,-35.3632622,149.1652364,26815,0.00985056534409523,0.003998419735580683,-0.2610486149787903,0.00935534480959177,-0.000615564058534801,0.02643309347331524,0,0,-999,10,0,26,-5,1,-153,18201.0
14:19:28.179,AUTO,-35.3632624,149.1652366,27979,0.009482239373028278,0.001994972350075841,-0.2415754199028015,-0.005558338947594166,-0.0007559537189081311,0.025422127917408943,1,0,-999,-4,0,25,-3,7,-153,18201.0
14:19:28.381,AUTO,-35.3632624,149.1652367,28375,0.007628798950463533,0.0018107823561877012,-0.23568518459796906,-0.007376381196081638,0.0013857496669515967,0.02410958893597126,1,0,-1000,-6,2,23,-2,8,-153,18201.0
14:19:28.582,AUTO,-35.3632624,149.1652369,28762,0.005480142310261726,0.001930972677655518,-0.23008230328559875,-0.007020384538918734,-0.0008682889165356755,0.02236359938979149,1,-1,-1000,-5,0,22,-1,8,-153,18201.0
14:19:28.784,AUTO,-35.3632624,149.1652371,29149,0.003581362310796976,0.002007711911574006,-0.2247125506401062,-0.0077401939779520035,0.00012020766735076904,0.02297123894095421,1,-1,-1000,-6,0,23,-1,9,-153,18201.0
14:19:28.985,AUTO,-35.3632624,149.1652371,29149,0.003581362310796976,0.002007711911574006,-0.2247125506401062,-0.0077401939779520035,0.00012020766735076904,0.02297123894095421,1,-1,-1000,-6,0,23,-1,9,-153,18201.0
14:19:29.187,AUTO,-35.3632624,149.1652373,29537,0.0018656954634934664,0.0016148402355611324,-0.21942020952701569,-0.006081344559788704,-0.00038659118581563234,0.02204834297299385,1,-1,-1000,-4,0,21,0,8,-153,18201.0
14:19:29.389,AUTO,-35.3632624,149.1652374,29925,0.0006937059224583209,0.00145452911965549,-0.21429961919784546,-0.0015713343163952231,0.0003732588957063854,0.020837165415287018,0,-1,-1001,0,1,20,0,8,-153,18201.0
14:19:29.591,AUTO,-35.3632624,149.1652374,29925,0.0006937059224583209,0.00145452911965549,-0.21429961919784546,-0.0015713343163952231,0.0003732588957063854,0.020837165415287018,0,-1,-1001,0,1,20,0,8,-153,18201.0
14:19:29.799,AUTO,-35.3632624,149.1652374,29925,0.0006937059224583209,0.00145452911965549,-0.21429961919784546,-0.0015713343163952231,0.0003732588957063854,0.020837165415287018,0,-1,-1001,0,1,20,0,8,-153,228229.0
14:19:30.002,AUTO,-35.3632624,149.1652374,29925,0.0006937059224583209,0.00145452911965549,-0.21429961919784546,-0.0015713343163952231,0.0003732588957063854,0.020837165415287018,0,-1,-1001,0,1,20,0,8,-153,228229.0
14:19:30.204,AUTO,-35.3632624,149.1652378,31080,-0.0008635728154331446,0.0011044172570109367,-0.20043520629405975,0.0033676312305033207,0.0009758442756719887,0.019512252882122993,0,0,-1000,4,2,19,0,5,-153,228229.0
14:19:30.405,AUTO,-35.3632624,149.1652379,31469,-0.000880827778019011,0.0011993411462754011,-0.19618119299411774,-0.001882343553006649,0.00035875412868335843,0.017407618463039398,0,0,-1000,0,1,17,0,4,-153,228229.0
14:19:30.607,AUTO,-35.3632624,149.1652379,31856,-0.0007354193949140608,0.001115785795263946,-0.19207239151000977,0.001388165750540793,-0.0013910558773204684,0.015327440574765205,0,0,-1001,2,0,15,0,3,-153,228229.0
14:19:30.808,AUTO,-35.3632624,149.165238,32244,-0.00034777959808707237,0.0009838634869083762,-0.1879802793264389,0.005012848414480686,-0.0009182232897728682,0.016168812289834023,0,0,-1001,5,0,16,0,2,-153,228229.0
14:19:31.010,AUTO,-35.3632624,149.165238,32633,-6.229646533029154e-05,0.0008907229639589787,-0.1841641366481781,0.0009129769168794155,0.001521848957054317,0.016520826146006584,0,0,-999,2,2,16,0,1,-153,228229.0
14:19:31.212,AUTO,-35.3632624,149.165238,32633,-6.229646533029154e-05,0.0008907229639589787,-0.1841641366481781,0.0009129769168794155,0.001521848957054317,0.016520826146006584,0,0,-999,2,2,16,0,1,-153,228229.0
14:19:31.413,AUTO,-35.3632624,149.165238,33030,0.00029926688876003027,0.0009438703418709338,-0.18039168417453766,0.0018003531731665134,0.002075562020763755,0.015425624325871468,0,0,-1000,3,3,15,0,1,-153,228229.0
14:19:31.615,AUTO,-35.3632624,149.165238,33030,0.00029926688876003027,0.0009438703418709338,-0.18039168417453766,0.0018003531731665134,0.002075562020763755,0.015425624325871468,0,0,-1000,3,3,15,0,1,-153,228229.0
14:19:31.817,AUTO,-35.3632624,149.165238,33030,0.00029926688876003027,0.0009438703418709338,-0.18039168417453766,0.0018003531731665134,0.002075562020763755,0.015425624325871468,0,0,-1000,3,3,15,0,1,-153,228229.0
14:19:32.019,AUTO,-35.3632623,149.165238,34187,0.0013965019024908543,0.0008421671227551997,-0.17009998857975006,0.0017209920333698392,0.000887041911482811,0.013074427843093872,0,0,-1000,2,1,13,0,0,-153,228229.0
14:19:32.220,AUTO,-35.3632623,149.165238,34187,0.0013965019024908543,0.0008421671227551997,-0.17009998857975006,0.0017209920333698392,0.000887041911482811,0.013074427843093872,0,0,-1000,2,1,13,0,0,-153,228229.0
14:19:32.421,AUTO,-35.3632623,149.165238,34576,0.001599069801159203,0.0007651566411368549,-0.1667664349079132,0.002040914725512266,0.0010234778746962547,0.014463301748037338,0,0,-1000,3,2,14,0,0,-153,228229.0
14:19:32.623,AUTO,-35.3632623,149.1652379,34964,0.0014685365604236722,0.00115419109351933,-0.1634938269853592,-0.004232634790241718,0.001181072904728353,0.01229444332420826,0,0,-999,-2,2,12,0,0,-153,228229.0
14:19:32.824,AUTO,-35.3632623,149.1652379,35351,0.001583368401043117,0.0011644590413197875,-0.16057339310646057,0.004665049724280834,0.0010074721649289131,0.013003828935325146,0,0,-1000,5,2,12,0,0,-153,15892.0
14:19:33.026,AUTO,-35.3632623,149.1652378,35739,0.0018813482020050287,0.0012683680979534984,-0.15767064690589905,0.0028106290847063065,0.0012159504694864154,0.01246627140790224,0,0,-1000,3,2,12,0,0,-153,15892.0
14:19:33.228,AUTO,-35.3632623,149.1652378,35739,0.0018813482020050287,0.0012683680979534984,-0.15767064690589905,0.0028106290847063065,0.0012159504694864154,0.01246627140790224,0,0,-1000,3,2,12,0,0,-153,15892.0
14:19:33.429,AUTO,-35.3632622,149.1652378,36127,0.0019170739687979221,0.0013044369406998158,-0.154841348528862,-0.0035626725293695927,-0.00040692626498639584,0.010398870334029198,0,0,-1000,-2,0,10,0,0,-153,15892.0
14:19:33.631,AUTO,-35.3632622,149.1652378,36127,0.0019170739687979221,0.0013044369406998158,-0.154841348528862,-0.0035626725293695927,-0.00040692626498639584,0.010398870334029198,0,0,-1000,-2,0,10,0,0,-153,15892.0
14:19:33.833,AUTO,-35.3632622,149.1652378,36127,0.0019170739687979221,0.0013044369406998158,-0.154841348528862,-0.0035626725293695927,-0.00040692626498639584,0.010398870334029198,0,0,-1000,-2,0,10,0,0,-153,15892.0
14:19:34.035,AUTO,-35.3632622,149.1652377,37292,0.0026083323173224926,0.0010824886849150062,-0.14712248742580414,0.0018261494114995003,0.00037770147901028395,0.01008970569819212,0,0,-1000,2,1,10,0,0,-153,15892.0
14:19:34.238,AUTO,-35.3632622,149.1652377,37292,0.0026083323173224926,0.0010824886849150062,-0.14712248742580414,0.0018261494114995003,0.00037770147901028395,0.01008970569819212,0,0,-1000,2,1,10,0,0,-153,15892.0
14:19:34.439,AUTO,-35.3632622,149.1652376,37688,0.002728370949625969,0.001081890077330172,-0.14461469650268555,0.0031632245518267155,0.0007385188946500421,0.011843261308968067,0,0,-1000,4,1,11,0,0,-153,15892.0
14:19:34.641,AUTO,-35.3632622,149.1652376,38076,0.0026484273839741945,0.0015386093873530626,-0.14212849736213684,-0.005467657465487719,0.0012976978905498981,0.009765858761966228,0,0,-999,-4,2,9,0,0,-153,15892.0
14:19:34.842,AUTO,-35.3632622,149.1652375,38464,0.002538326196372509,0.0014720248291268945,-0.13995413482189178,0.0038613001815974712,0.0003536453004926443,0.010900311172008514,0,0,-1000,5,1,10,0,0,-153,15892.0
14:19:35.044,AUTO,-35.3632621,149.1652375,38853,0.0024107315111905336,0.0014874814078211784,-0.13801409304141998,0.001710455515421927,0.0014609883073717356,0.008470754139125347,0,0,-1000,2,2,8,0,0,-153,15892.0
14:19:35.246,AUTO,-35.3632621,149.1652375,38853,0.0024107315111905336,0.0014874814078211784,-0.13801409304141998,0.001710455515421927,0.0014609883073717356,0.008470754139125347,0,0,-1000,2,2,8,0,0,-153,15892.0
14:19:35.447,AUTO,-35.3632621,149.1652375,39241,0.002237076638266444,0.0017967377789318562,-0.1359788179397583,-0.001310962252318859,0.0009346894221380353,0.00913679227232933,0,0,-1000,0,1,9,0,0,-153,15892.0
14:19:35.649,AUTO,-35.3632621,149.1652375,39241,0.002237076638266444,0.0017967377789318562,-0.1359788179397583,-0.001310962252318859,0.0009346894221380353,0.00913679227232933,0,0,-1000,0,1,9,0,0,-153,15892.0
14:19:35.851,AUTO,-35.3632621,149.1652375,39241,0.002237076638266444,0.0017967377789318562,-0.1359788179397583,-0.001310962252318859,0.0009346894221380353,0.00913679227232933,0,0,-1000,0,1,9,0,0,-153,108998.0
14:19:36.052,AUTO,-35.3632621,149.1652374,40405,0.0020927763544023037,0.0018485173350200057,-0.12936612963676453,-0.007497789803892374,0.003392089158296585,0.022311149165034294,0,0,-996,-6,4,22,0,0,-153,108998.0
14:19:36.254,AUTO,-35.3632621,149.1652374,40781,-0.024858709424734116,0.028645161539316177,-0.0703442245721817,-0.17608840763568878,0.16531574726104736,0.41695478558540344,0,-1,-952,-175,166,417,-3,-1,-142,108998.0
14:19:36.455,AUTO,-35.3632621,149.1652374,40781,-0.024858709424734116,0.028645161539316177,-0.0703442245721817,-0.17608840763568878,0.16531574726104736,0.41695478558540344,0,-1,-952,-175,166,417,-3,-1,-142,108998.0
14:19:36.657,AUTO,-35.3632622,149.1652372,41129,-0.06390992552042007,0.07586251944303513,0.07318882644176483,-0.1455894559621811,0.08712039142847061,0.5903648138046265,1,1,-933,-144,88,590,-15,-12,-129,108998.0
14:19:36.858,AUTO,-35.3632626,149.1652366,41432,-0.0568072646856308,0.0592067614197731,0.17943216860294342,0.08530064672231674,-0.20362307131290436,0.2954806983470917,4,7,-922,86,-202,295,-29,-28,-109,108998.0
14:19:37.060,AUTO,-35.3632633,149.1652356,41686,-0.02689177356660366,0.007304301019757986,0.2302042692899704,0.12917248904705048,-0.20685997605323792,0.12861302495002747,4,8,-933,130,-205,128,-33,-37,-91,108998.0
14:19:37.263,AUTO,-35.363264,149.1652346,41901,0.001192440977320075,-0.03170253336429596,0.24848869442939758,0.08194632083177567,-0.11250966787338257,0.03868765011429787,3,9,-945,83,-111,38,-29,-36,-76,108998.0
14:19:37.465,AUTO,-35.363264,149.1652346,41901,0.001192440977320075,-0.03170253336429596,0.24848869442939758,0.08194632083177567,-0.11250966787338257,0.03868765011429787,3,9,-945,83,-111,38,-29,-36,-76,108998.0
14:19:37.666,AUTO,-35.363264,149.1652346,41901,0.001192440977320075,-0.03170253336429596,0.24848869442939758,0.08194632083177567,-0.11250966787338257,0.03868765011429787,3,9,-945,83,-111,38,-29,-36,-76,108998.0
14:19:37.868,AUTO,-35.363264,149.1652346,41901,0.001192440977320075,-0.03170253336429596,0.24848869442939758,0.08194632083177567,-0.11250966787338257,0.03868765011429787,3,9,-945,83,-111,38,-29,-36,-76,108998.0
14:19:38.070,AUTO,-35.3632649,149.1652326,42358,0.037717223167419434,-0.05027909204363823,0.2350875288248062,-0.26450034976005554,0.021262578666210175,-0.034986015409231186,0,-8,-974,-263,22,-34,0,-6,-47,108998.0
14:19:38.272,AUTO,-35.3632649,149.1652325,42469,0.04037055745720863,-0.04217284917831421,0.22602012753486633,0.2924630641937256,0.03789622709155083,-0.031568918377161026,-1,23,-974,294,39,-31,8,6,-41,108998.0
14:19:38.473,AUTO,-35.3632649,149.1652325,42469,0.04037055745720863,-0.04217284917831421,0.22602012753486633,0.2924630641937256,0.03789622709155083,-0.031568918377161026,-1,23,-974,294,39,-31,8,6,-41,108998.0
14:19:38.675,AUTO,-35.3632646,149.1652327,42563,0.04339069873094559,-0.031545937061309814,0.21770770847797394,0.5633192658424377,0.03851616755127907,-0.03454548120498657,-1,18,-999,564,39,-34,15,15,-35,108998.0
14:19:38.877,AUTO,-35.3632642,149.1652331,42651,0.03620386868715286,-0.019813431426882744,0.20912311971187592,0.15775616466999054,0.04864859953522682,-0.03381606563925743,-3,-13,-992,157,50,-33,19,22,-35,17321.0
14:19:39.078,AUTO,-35.3632638,149.1652338,42738,0.023809345439076424,-0.009369316510856152,0.20139072835445404,-0.4758688807487488,0.039153486490249634,-0.028660720214247704,-2,-35,-984,-475,40,-28,21,26,-35,17321.0
14:19:39.280,AUTO,-35.3632633,149.1652345,42822,0.010631982237100601,-0.001026645302772522,0.19515161216259003,-0.359596312046051,0.02981005236506462,-0.02013200707733631,-2,-13,-989,-358,30,-19,21,30,-33,17321.0
14:19:39.482,AUTO,-35.3632633,149.1652345,42822,0.010631982237100601,-0.001026645302772522,0.19515161216259003,-0.359596312046051,0.02981005236506462,-0.02013200707733631,-2,-13,-989,-358,30,-19,21,30,-33,17321.0
14:19:39.684,AUTO,-35.3632633,149.1652345,42822,0.010631982237100601,-0.001026645302772522,0.19515161216259003,-0.359596312046051,0.02981005236506462,-0.02013200707733631,-2,-13,-989,-358,30,-19,21,30,-33,17321.0
14:19:39.886,AUTO,-35.3632633,149.1652345,42822,0.010631982237100601,-0.001026645302772522,0.19515161216259003,-0.359596312046051,0.02981005236506462,-0.02013200707733631,-2,-13,-989,-358,30,-19,21,30,-33,17321.0
14:19:40.088,AUTO,-35.3632619,149.1652369,42989,-0.0019222440896555781,0.023754294961690903,0.18383219838142395,-0.09759126603603363,0.2619079053401947,-0.010348531417548656,-5,-13,-985,-97,262,-10,15,25,-11,17321.0
14:19:40.289,AUTO,-35.3632616,149.1652376,43000,-0.035086411982774734,0.04775829613208771,0.17371000349521637,-0.8199310302734375,0.014421764761209488,-0.017609672620892525,0,-42,-957,-819,15,-17,8,16,0,17321.0
14:19:40.492,AUTO,-35.3632616,149.1652376,43000,-0.035086411982774734,0.04775829613208771,0.17371000349521637,-0.8199310302734375,0.014421764761209488,-0.017609672620892525,0,-42,-957,-819,15,-17,8,16,0,17321.0
14:19:40.693,AUTO,-35.3632615,149.165238,42986,-0.04711129516363144,0.03931787237524986,0.16796457767486572,-0.7647523283958435,-0.048126816749572754,-0.018598053604364395,0,-28,-1000,-763,-46,-18,0,6,5,17321.0
14:19:40.895,AUTO,-35.3632616,149.1652381,42971,-0.04768805950880051,0.028282206505537033,0.1634647250175476,-0.15829166769981384,-0.03242967277765274,-0.0213652141392231,0,4,-1010,-155,-31,-21,-6,-3,2,17321.0
14:19:41.097,AUTO,-35.3632618,149.165238,42961,-0.046928856521844864,0.021889276802539825,0.1583351194858551,0.33122602105140686,-0.013113346882164478,-0.01135876402258873,2,34,-1010,334,-11,-10,-10,-13,0,17321.0
14:19:41.298,AUTO,-35.3632621,149.1652378,42960,-0.04340614005923271,0.016905402764678,0.15256038308143616,0.6032206416130066,-0.021675478667020798,-0.014453456737101078,2,36,-1014,604,-20,-14,-13,-24,-4,17321.0
14:19:41.508,AUTO,-35.3632621,149.1652378,42960,-0.04340614005923271,0.016905402764678,0.15256038308143616,0.6032206416130066,-0.021675478667020798,-0.014453456737101078,2,36,-1014,604,-20,-14,-13,-24,-4,17321.0
14:19:41.710,AUTO,-35.3632621,149.1652378,42960,-0.04340614005923271,0.016905402764678,0.15256038308143616,0.6032206416130066,-0.021675478667020798,-0.014453456737101078,2,36,-1014,604,-20,-14,-13,-24,-4,17321.0
14:19:41.911,AUTO,-35.3632621,149.1652378,42960,-0.04340614005923271,0.016905402764678,0.15256038308143616,0.6032206416130066,-0.021675478667020798,-0.014453456737101078,2,36,-1014,604,-20,-14,-13,-24,-4,98251.0
14:19:42.114,AUTO,-35.3632634,149.1652351,42971,-0.07733408361673355,0.010472516529262066,0.13661836087703705,-0.7091065645217896,0.003914192318916321,-0.036446474492549896,-1,-21,-995,-708,5,-36,-17,-58,-3,98251.0
14:19:42.316,AUTO,-35.3632639,149.1652335,42975,-0.08088123798370361,0.004787395242601633,0.06939198076725006,-0.2957960367202759,0.0059680454432964325,-0.5038856267929077,-2,20,-983,-293,6,-503,-19,-71,-3,98251.0
14:19:42.518,AUTO,-35.3632644,149.1652315,42978,-0.08271282911300659,-0.009007528424263,-0.10855192691087723,0.33909615874290466,-0.007623579353094101,-0.8027253746986389,-6,51,-996,341,-6,-802,-21,-84,-4,98251.0
14:19:42.721,AUTO,-35.3632644,149.1652315,42978,-0.08271282911300659,-0.009007528424263,-0.10855192691087723,0.33909615874290466,-0.007623579353094101,-0.8027253746986389,-6,51,-996,341,-6,-802,-21,-84,-4,98251.0
14:19:42.922,AUTO,-35.363265,149.1652291,42981,-0.07304825633764267,-0.026799611747264862,-0.32021424174308777,0.5923166871070862,-0.024542082101106644,-0.8596587777137756,-13,42,-1009,593,-23,-859,-23,-99,-3,98251.0
14:19:43.124,AUTO,-35.3632657,149.1652263,42984,-0.07451756298542023,-0.04666329547762871,-0.5349161624908447,-0.09420738369226456,-0.017273951321840286,-0.822133481502533,-19,-1,-1001,-94,-16,-821,-26,-116,-3,98251.0
14:19:43.326,AUTO,-35.3632665,149.1652229,42988,-0.0780838280916214,-0.06724488735198975,-0.7377514243125916,-0.577648401260376,-0.013752755708992481,-0.7775099873542786,-31,-19,-997,-577,-12,-777,-30,-132,-4,98251.0
14:19:43.528,AUTO,-35.3632665,149.1652229,42988,-0.0780838280916214,-0.06724488735198975,-0.7377514243125916,-0.577648401260376,-0.013752755708992481,-0.7775099873542786,-31,-19,-997,-577,-12,-777,-30,-132,-4,98251.0
14:19:43.730,AUTO,-35.3632665,149.1652229,42988,-0.0780838280916214,-0.06724488735198975,-0.7377514243125916,-0.577648401260376,-0.013752755708992481,-0.7775099873542786,-31,-19,-997,-577,-12,-777,-30,-132,-4,98251.0
14:19:43.932,AUTO,-35.3632665,149.1652229,42988,-0.0780838280916214,-0.06724488735198975,-0.7377514243125916,-0.577648401260376,-0.013752755708992481,-0.7775099873542786,-31,-19,-997,-577,-12,-777,-30,-132,-4,98251.0
14:19:44.134,AUTO,-35.3632693,149.1652098,43005,-0.041170794516801834,-0.12577058374881744,-1.2964446544647217,-0.06536012142896652,-0.04377436637878418,-0.7361541390419006,-56,1,-1033,-63,-42,-735,-45,-190,-6,98251.0
14:19:44.337,AUTO,-35.3632704,149.1652042,43017,-0.012876543216407299,-0.14368493854999542,-1.4762051105499268,0.4059196412563324,-0.06215112283825874,-0.7308920621871948,-48,12,-1006,407,-60,-730,-50,-213,-7,98251.0
14:19:44.540,AUTO,-35.3632716,149.165198,43029,0.011067570187151432,-0.15613627433776855,-1.65083909034729,0.18061670660972595,-0.051287438720464706,-0.6119926571846008,-55,-23,-1004,181,-49,-611,-56,-237,-6,98251.0
14:19:44.742,AUTO,-35.3632716,149.165198,43029,0.011067570187151432,-0.15613627433776855,-1.65083909034729,0.18061670660972595,-0.051287438720464706,-0.6119926571846008,-55,-23,-1004,181,-49,-611,-56,-237,-6,133274.0
14:19:44.943,AUTO,-35.3632729,149.165191,43041,0.017430828884243965,-0.16235634684562683,-1.7503172159194946,-0.3789997398853302,-0.031165342777967453,-0.1934591829776764,-57,-51,-1008,-378,-30,-193,-64,-263,-6,133274.0
14:19:45.145,AUTO,-35.3632743,149.1651834,43054,0.019676662981510162,-0.1655661016702652,-1.76444673538208,-0.038073163479566574,-0.003918720409274101,0.010207022540271282,-56,-29,-1003,-36,-2,10,-71,-288,-6,133274.0
14:19:45.348,AUTO,-35.3632758,149.1651752,43068,0.02510509081184864,-0.16881369054317474,-1.7436680793762207,0.35211512446403503,-0.013499315828084946,0.09028305858373642,-65,-20,-1005,353,-12,90,-77,-313,-7,133274.0
14:19:45.550,AUTO,-35.3632758,149.1651752,43068,0.02510509081184864,-0.16881369054317474,-1.7436680793762207,0.35211512446403503,-0.013499315828084946,0.09028305858373642,-65,-20,-1005,353,-12,90,-77,-313,-7,133274.0
14:19:45.752,AUTO,-35.3632758,149.1651752,43068,0.02510509081184864,-0.16881369054317474,-1.7436680793762207,0.35211512446403503,-0.013499315828084946,0.09028305858373642,-65,-20,-1005,353,-12,90,-77,-313,-7,133274.0
14:19:45.954,AUTO,-35.3632758,149.1651752,43068,0.02510509081184864,-0.16881369054317474,-1.7436680793762207,0.35211512446403503,-0.013499315828084946,0.09028305858373642,-65,-20,-1005,353,-12,90,-77,-313,-7,133274.0
14:19:46.156,AUTO,-35.3632811,149.1651466,43131,0.01567288674414158,-0.15036995708942413,-1.7067852020263672,-0.02214197628200054,0.005740785971283913,-0.02659062296152115,-75,-43,-1002,-20,6,-26,-97,-375,-12,133274.0
14:19:46.358,AUTO,-35.3632831,149.1651361,43159,0.026840142905712128,-0.15089508891105652,-1.7095167636871338,0.28520283102989197,-0.010323338210582733,-0.020610788837075233,-81,-31,-998,286,-9,-20,-102,-390,-11,133274.0
14:19:46.559,AUTO,-35.3632852,149.1651252,43186,0.026587583124637604,-0.1508968621492386,-1.7138242721557617,-0.1421799212694168,0.007691008038818836,-0.004342761822044849,-88,-55,-996,-141,8,-4,-108,-405,-11,133274.0
14:19:46.761,AUTO,-35.3632875,149.1651138,43213,0.02755782939493656,-0.14619016647338867,-1.7177435159683228,-0.15296706557273865,0.0213575791567564,-0.02188875898718834,-87,-54,-1000,-151,22,-21,-112,-419,-11,133274.0
14:19:46.963,AUTO,-35.3632875,149.1651138,43213,0.02755782939493656,-0.14619016647338867,-1.7177435159683228,-0.15296706557273865,0.0213575791567564,-0.02188875898718834,-87,-54,-1000,-151,22,-21,-112,-419,-11,133274.0
14:19:47.165,AUTO,-35.3632899,149.1651021,43239,0.03646929934620857,-0.14181582629680634,-1.7209094762802124,0.3139157295227051,0.008305534720420837,-0.03336740657687187,-92,-32,-996,315,9,-32,-115,-431,-11,133274.0
14:19:47.367,AUTO,-35.3632923,149.1650902,43266,0.03733548894524574,-0.1432284712791443,-1.7232996225357056,-0.09796974062919617,-6.443168967962265e-05,0.00809900090098381,-88,-51,-989,-97,1,8,-118,-442,-11,133274.0
14:19:47.569,AUTO,-35.3632923,149.1650902,43266,0.03733548894524574,-0.1432284712791443,-1.7232996225357056,-0.09796974062919617,-6.443168967962265e-05,0.00809900090098381,-88,-51,-989,-97,1,8,-118,-442,-11,133274.0
14:19:47.771,AUTO,-35.3632923,149.1650902,43266,0.03733548894524574,-0.1432284712791443,-1.7232996225357056,-0.09796974062919617,-6.443168967962265e-05,0.00809900090098381,-88,-51,-989,-97,1,8,-118,-442,-11,218252.0
14:19:47.974,AUTO,-35.3632923,149.1650902,43266,0.03733548894524574,-0.1432284712791443,-1.7232996225357056,-0.09796974062919617,-6.443168967962265e-05,0.00809900090098381,-88,-51,-989,-97,1,8,-118,-442,-11,218252.0
14:19:48.176,AUTO,-35.3633001,149.1650525,43350,0.04862610623240471,-0.13472487032413483,-1.7289127111434937,0.1743328720331192,0.007458985783159733,-0.00010159122757613659,-105,-52,-997,175,8,0,-124,-467,-13,218252.0
