time_stamp,RTL_ALT,MODE,xacc,yacc,zacc,xgyro,ygyro,zgyro,roll,pitch,yaw,rollspeed,pitchspeed,yawspeed,lat,lon,relative_alt,vx,vy,vz
06:48:36,1500.0,STABILIZE,0.0,1.5,-1000.0,0.0,0.5,0.0,-0.0011163841700181365,0.0009676172339823097,0.02326651383191347,0.00019269550102762878,0.00016813035472296178,0.0017526526935398579,-35.3632622,149.1652375,0.0,-1.0,1.0,1.0
06:48:40,1500.0,AUTO,0.0,1.3333333333333333,-1000.0,0.3333333333333333,0.6666666666666666,0.0,-0.0009725438236879805,0.0009789570273521047,0.02237519435584545,0.00025420445793618757,0.00027252107004945475,0.0015986082532132666,-35.3632622,149.1652375,1.3333333333333333,-1.0,0.3333333333333333,0.0
06:48:42,1500.0,AUTO,0.0,1.3333333333333333,-1000.0,0.0,0.3333333333333333,0.0,-0.0006823589598449568,0.0013496316969394684,0.02187814563512802,0.0002540342005280157,0.0003054657912192245,0.0015198191395029426,-35.3632621,149.1652375,3.3333333333333335,0.0,0.0,0.0
06:48:43,62161.0,AUTO,0.0,0.6666666666666666,-1028.0,3.3333333333333335,-3.0,0.3333333333333333,-2.533166358868281e-05,0.0014984805214529235,0.02155793954928716,0.0031715282044994333,-0.0032428232370875776,0.0011465997473957639,-35.3632621,149.1652375,5.0,0.0,0.0,-1.6666666666666667
06:48:44,62161.0,AUTO,0.0,0.0,-1126.6666666666667,0.6666666666666666,2.6666666666666665,0.3333333333333333,0.00258409456970791,0.00019904912915080786,0.021287968382239342,-9.035645052790642e-05,0.0020286402044196925,0.0012897231111613412,-35.3632621,149.1652375,227.33333333333334,0.0,0.3333333333333333,-70.0
06:48:46,62161.0,AUTO,1.3333333333333333,-7.333333333333333,-994.0,-37.333333333333336,36.666666666666664,-47.333333333333336,0.05289981886744499,-0.001502780554195245,-0.0054018076819678145,-0.0379842109978199,0.03634403987477223,-0.046929490054026246,-35.363261599999994,149.16523983333335,2937.6666666666665,7.333333333333333,42.333333333333336,-147.33333333333334
06:48:48,62161.0,AUTO,2.6666666666666665,4.666666666666667,-1003.6666666666666,34.333333333333336,-46.0,26.0,-0.06320099035898845,-0.012517770441869894,-0.11237785220146179,0.03387564824273189,-0.04724845693757137,0.027066561703880627,-35.36326283333333,149.16524590000003,5986.333333333333,-23.333333333333332,-20.0,-149.33333333333334
06:48:49,9524.0,AUTO,-5.0,9.333333333333334,-1002.0,58.333333333333336,3.0,15.0,0.011137273938705524,-0.020491302013397217,-0.09562238305807114,0.05801629275083542,0.0026543765949706235,0.015964517680307228,-35.36326446666667,149.16524013333333,7917.0,-2.6666666666666665,-47.666666666666664,-151.66666666666666
06:48:50,9524.0,AUTO,-5.0,4.666666666666667,-999.3333333333334,21.666666666666668,-25.333333333333332,52.333333333333336,0.039663887272278466,-0.030084043741226196,-0.07293431212504704,0.02153797789166371,-0.026516813784837723,0.053504267086585365,-35.363264300000004,149.16523686666667,9088.0,12.666666666666666,-25.0,-151.66666666666666
06:48:52,9524.0,AUTO,-5.666666666666667,-1.6666666666666667,-1002.0,16.0,12.666666666666666,-38.333333333333336,-0.004593979610945098,0.03825447584191958,-0.12699776887893677,0.01618342474102974,0.012067996508752307,-0.03843046724796295,-35.36325853333333,149.16523529999998,12180.333333333334,17.333333333333332,-6.0,-152.0
06:48:54,9524.0,AUTO,4.666666666666667,1.0,-1000.3333333333334,-7.666666666666667,-17.666666666666668,3.3333333333333335,0.0077264912736912566,0.004674879299273016,-0.12344803661108017,-0.008521453477442265,-0.019032783806324005,0.004092644512032469,-35.3632601,149.16523500000002,15292.666666666666,-23.0,10.666666666666666,-151.33333333333334
06:48:55,19541.0,AUTO,2.6666666666666665,0.0,-997.6666666666666,-51.666666666666664,1.0,-27.666666666666668,-0.013369136257097125,-0.0073295872037609415,-0.1377907395362854,-0.052861230447888374,0.0005120119700829188,-0.02754359506070614,-35.363262,149.16523613333334,17236.666666666668,-10.333333333333334,6.0,-151.0
06:48:56,19541.0,AUTO,-0.6666666666666666,3.3333333333333335,-977.6666666666666,-5.333333333333333,56.666666666666664,233.33333333333334,-0.05506159986058871,0.020433987335612375,-0.09378367972870667,-0.005801190234099825,0.05625804141163826,0.2341030060003201,-35.3632625,149.16523553333334,18383.333333333332,-11.666666666666666,-22.0,-143.66666666666666
06:48:58,19541.0,AUTO,0.0,-5.0,-973.0,-41.666666666666664,32.333333333333336,-5.0,0.050293942292531334,-0.023546171685059864,0.06123342737555504,-0.042926608274380364,0.03220234625041485,-0.004876921884715557,-35.363264699999995,149.16523136666666,20546.333333333332,8.0,26.666666666666668,-69.33333333333333
06:49:00,19541.0,AUTO,0.3333333333333333,-6.0,-973.6666666666666,5.333333333333333,2.0,-2.3333333333333335,-0.012041231927772364,0.015261098742485046,0.05631148194273313,0.004397549976905187,0.0014984071798001726,-0.002772951265797019,-35.36326193333334,149.1652387,21471.0,8.666666666666666,24.0,-21.666666666666668
06:49:01,99220.0,AUTO,-0.3333333333333333,-10.0,-987.0,-137.0,10.666666666666666,-6.666666666666667,-0.034217298651734986,0.029056964442133904,0.05165615305304527,-0.13748719791571298,0.01024185608063514,-0.006645030652483304,-35.363261466666664,149.16523986666667,21470.0,-8.666666666666666,-11.0,18.333333333333332
06:49:02,99220.0,AUTO,3.3333333333333335,23.666666666666668,-1019.3333333333334,250.66666666666666,24.0,-6.333333333333333,-0.010030712777127823,0.04206623633702596,0.050098891059557595,0.2498122031490008,0.023698443546891212,-0.006148830444241564,-35.3632626,149.16523830000003,21336.0,-31.666666666666668,-23.0,9.333333333333334
06:49:04,99220.0,AUTO,10.333333333333334,38.0,-1001.3333333333334,-52.0,21.0,-302.3333333333333,-0.10000719130039215,0.07178099701801936,-0.40711767474810284,-0.05253830552101135,0.020629306013385456,-0.30255167682965595,-35.363276866666666,149.16523243333333,21263.0,-143.33333333333334,-48.666666666666664,-0.6666666666666666
06:49:06,99220.0,AUTO,-26.0,86.33333333333333,-1000.0,26.0,-5.0,-307.3333333333333,-0.18713257710138956,-0.014054811384994537,-1.021667758623759,0.025431522478659947,-0.0064046379023542,-0.30787227551142377,-35.36332006666667,149.16521643333334,21179.0,-341.6666666666667,-123.0,3.6666666666666665
06:49:07,3420.0,AUTO,-80.66666666666667,81.0,-1002.6666666666666,19.0,0.6666666666666666,-958.3333333333334,-0.16976965963840485,-0.11952103426059087,-1.5557517608006795,0.01856118122426172,2.9493433733781178e-05,-0.9585438867410024,-35.363365466666664,149.16519746666665,21087.333333333332,-467.0,-166.33333333333334,6.666666666666667
06:49:08,3420.0,AUTO,-122.0,-29.0,-1001.3333333333334,16.0,25.0,-1197.3333333333333,0.012249705692132315,-0.1851369341214498,-2.5475070476531982,0.015465587843209505,0.024196583777666092,-1.1976689100265503,-35.3633996,149.16518293333334,21040.0,-533.0,-185.33333333333334,1.6666666666666667
06:49:10,3420.0,AUTO,-133.33333333333334,-75.33333333333333,-988.3333333333334,-6.666666666666667,42.666666666666664,-10.333333333333334,0.07924124350150426,-0.1488084743420283,-2.8007808526357016,-0.007260846594969432,0.0424523800611496,-0.010585510016729435,-35.36350626666667,149.16513746666666,20974.666666666668,-627.3333333333334,-215.33333333333334,1.3333333333333333
06:49:12,3420.0,AUTO,-132.66666666666666,-81.33333333333333,-982.6666666666666,-8.333333333333334,-13.333333333333334,3.3333333333333335,0.07500577469666798,-0.13372615973154703,-2.8074899514516196,-0.008948452537879348,-0.014826746036609014,0.003603048622608185,-35.3636215,149.16508816666666,20878.666666666668,-632.6666666666666,-214.0,11.333333333333334
06:49:13,85029.0,AUTO,-142.66666666666666,-75.66666666666667,-1002.6666666666666,12.0,39.0,-5.0,0.080733522772789,-0.1339525580406189,-2.8087265491485596,0.011800493579357862,0.0388743927081426,-0.005284349822128813,-35.36369373333333,149.1650582,20737.333333333332,-642.6666666666666,-216.33333333333334,9.0
06:49:14,85029.0,AUTO,-135.66666666666666,-81.66666666666667,-995.0,5.333333333333333,64.33333333333333,-6.0,0.08374002327521642,-0.09710111965735753,-2.8074215253194175,0.004780939256306738,0.06392421945929527,-0.006040809714856247,-35.36373736666667,149.1650403,20704.666666666668,-632.6666666666666,-213.66666666666666,1.3333333333333333
06:49:16,85029.0,AUTO,-107.0,-72.0,-985.6666666666666,61.0,36.666666666666664,-0.6666666666666666,0.07908834765354793,-0.0007393446285277605,-2.805697043736776,0.0604654997587204,0.03611880416671435,-0.0003911334400375684,-35.36384163333333,149.16499706666664,20658.333333333332,-495.3333333333333,-172.33333333333334,7.666666666666667
06:49:18,85029.0,AUTO,-62.666666666666664,-65.33333333333333,-1009.6666666666666,-483.6666666666667,17.0,11.666666666666666,0.04318250591556231,0.053469471633434296,-2.8068038622538247,-0.4843782459696134,0.016549156784700852,0.012428762953883657,-35.363912,149.16496676666668,20446.333333333332,-278.0,-102.0,6.333333333333333
06:49:19,80278.0,AUTO,-33.333333333333336,-42.333333333333336,-1005.0,-283.6666666666667,2.0,6.0,0.02061247391005357,0.08133601397275925,-2.806607405344645,-0.2837167978286743,0.0007799305021762848,0.006602157993863027,-35.363936233333334,149.16495573333333,20390.666666666668,-150.0,-53.666666666666664,1.6666666666666667
06:49:20,80278.0,AUTO,-18.666666666666668,0.3333333333333333,-1002.6666666666666,262.6666666666667,-23.666666666666668,-7.0,0.023713955655694008,0.06442352135976155,-2.8065834840138755,0.2622620612382889,-0.025288117428620655,-0.006590631091967225,-35.363944233333335,149.16495263333334,20375.333333333332,-83.0,-30.666666666666668,1.3333333333333333
06:49:22,80278.0,AUTO,-0.6666666666666666,0.3333333333333333,-999.0,162.66666666666666,-23.0,0.0,0.004503284697420895,0.024548529957731564,-2.808447996775309,0.16242148478825888,-0.0250269565731287,0.000780617818236351,-35.363950466666665,149.16495023333331,20380.333333333332,5.333333333333333,0.0,0.3333333333333333
06:49:24,80278.0,RTL,-1.6666666666666667,-1.6666666666666667,-1002.6666666666666,-156.66666666666666,40.0,2.0,0.005534907104447484,-0.00037423552324374515,-2.80872909228007,-0.15845138827959696,0.03899671137332916,0.00304451456759125,-35.36395050000001,149.1649509,20384.0,1.0,-1.6666666666666667,-1.0
06:49:25,104825.0,RTL,-0.3333333333333333,4.666666666666667,-1040.0,42.666666666666664,0.0,2.6666666666666665,0.008498051669448614,0.010771054464081923,-2.809990644454956,0.04171767830848694,-0.00119285568750153,0.003758806657666961,-35.363951066666665,149.16495103333332,20535.0,6.666666666666667,-2.6666666666666665,-30.666666666666668
06:49:26,104825.0,RTL,0.0,-1.6666666666666667,-1044.3333333333333,-35.666666666666664,1.0,3.0,0.008315664095183214,0.008955995552241802,-2.8095432122548423,-0.0367646391193072,-0.0002848580091570814,0.0038608702210088572,-35.3639512,149.1649511,20889.333333333332,9.666666666666666,-2.6666666666666665,-63.0
06:49:28,104825.0,RTL,1.0,0.0,-1023.0,32.0,-7.0,-0.6666666666666666,0.011012730576718846,0.0040326360225056606,-2.810152292251587,0.03164164939274391,-0.009257876624663671,-0.0007534274967232099,-35.3639508,149.1649507,23038.333333333332,10.0,-2.6666666666666665,-142.66666666666666
06:49:30,104825.0,RTL,5.0,-9.333333333333334,-1008.0,-115.0,-21.333333333333332,-53.666666666666664,-0.04523931071162224,0.02115091433127721,-2.8783514499664307,-0.11633455877502759,-0.023275599504510563,-0.054089015970627465,-35.363949633333334,149.16494423333333,26066.666666666668,12.666666666666666,-35.666666666666664,-146.0
06:49:31,10427.0,RTL,-2.6666666666666665,7.0,-1000.3333333333334,59.0,1.0,-7.666666666666667,-0.04178976578017076,-0.0023418631947909794,-2.906121810277303,0.058501931528250374,-0.0004411007200057308,-0.007941869087517262,-35.36394926666667,149.16494473333333,27985.666666666668,-4.666666666666667,39.666666666666664,-149.0
06:49:32,10427.0,RTL,-5.0,11.666666666666666,-1002.6666666666666,66.33333333333333,8.333333333333334,0.3333333333333333,0.00536741828545928,0.0007909556152299047,-2.9087769985198975,0.06566972782214482,0.00699750737597545,0.0006535835758162042,-35.363949600000005,149.16494876666664,29146.0,-5.0,49.0,-151.0
06:49:34,10427.0,RTL,-1.0,0.0,-1000.0,-14.0,13.0,-21.333333333333332,0.011834480489293734,-0.00428943638689816,-2.892726182937622,-0.0156241732959946,0.011510097111264864,-0.021551088119546574,-35.36395003333334,149.164954,32253.333333333332,-4.666666666666667,-3.6666666666666665,-150.0
06:49:37,146434.0,RTL,0.0,0.0,-1000.0,-2.0,0.0,-17.0,0.0072281628381460905,0.003794243442825973,-2.957811117172241,-0.0035273502580821514,-0.0020530029432848096,-0.01736167911440134,-35.36395095,149.16495335000002,37271.5,3.0,-8.0,-152.0
06:49:39,146434.0,RTL,0.0,0.0,-1000.0,1.0,0.5,-20.5,0.004542903508991003,0.0010399261955171824,-2.998937964439392,-0.0004907738766632974,-0.0007184416172094643,-0.02141001634299755,-35.3639504,149.16495245,40387.0,2.5,-6.5,-152.0
06:49:41,155102.0,RTL,0.0,0.0,-1000.0,0.5,1.0,-19.0,0.00575520982965827,0.0018467851914465427,-3.0442272424697876,-0.00044239312410354614,-3.1556468456983566e-05,-0.01999715995043516,-35.363950149999994,149.16495205,43504.5,1.0,-5.0,-152.0
06:49:43,163770.0,RTL,0.0,0.0,-998.5,4.0,7.0,-3.0,0.006418946897611022,0.0028672238113358617,-3.082802414894104,0.003210617112927139,0.005714131752029061,-0.003499651560559869,-35.36395,149.1649517,46623.5,1.0,-4.0,-152.0
06:49:45,163770.0,RTL,0.5,0.0,-1000.0,-2.0,0.0,28.0,0.004185499739833176,0.0020785010419785976,-3.0419020652770996,-0.0038646188331767917,-0.0011924778227694333,0.028048927895724773,-35.363949649999995,149.16495105,49726.5,3.0,-6.0,-152.0
06:49:46,2585.0,RTL,0.0,0.0,-1000.0,1.0,-0.25,27.0,0.0030455589294433594,0.0009588480461388826,-3.022034227848053,-0.00036655922303907573,-0.0019465275399852544,0.026914278976619244,-35.3639495,149.16495085000003,50890.0,2.25,-4.5,-152.0
06:49:47,2585.0,RTL,0.0,0.0,-999.5,0.0,0.5,20.0,0.004153993912041187,-0.00031719957769382745,-2.9951417446136475,-0.0011003401887137443,-0.0009045826736837626,0.01963250245898962,-35.3639494,149.1649508,52831.0,0.0,-2.5,-152.0
06:49:49,2585.0,RTL,0.0,0.0,-1000.0,1.5,2.0,15.5,0.004917025798931718,0.0008652769611217082,-2.9631335735321045,-0.00022607133723795414,0.0009821493877097964,0.015083372592926025,-35.36394945,149.1649509,55936.0,0.0,-2.0,-152.0
06:49:51,2585.0,RTL,0.0,0.0,-1000.0,1.0,1.0,13.0,0.00575648620724678,0.001568057807162404,-2.9390281438827515,9.727076394483447e-05,-0.000574361125472933,0.012781884521245956,-35.3639497,149.16495105,59051.0,0.0,-2.0,-152.0
06:49:52,268356.0,RTL,0.0,0.0,-1000.0,2.25,1.0,12.0,0.005654684384353459,0.001680687622865662,-2.931586444377899,0.0013214123318903148,-0.0001417776511516422,0.011685929028317332,-35.3639498,149.1649511,60214.75,0.0,-2.0,-152.0
06:49:53,268356.0,RTL,0.0,0.0,-1000.0,0.5,0.5,9.5,0.005316837690770626,0.0012089700321666896,-2.9209511280059814,-0.0006204019882716238,-0.0005484658759087324,0.008962297346442938,-35.3639498,149.1649511,62155.5,0.0,-3.0,-152.0
06:49:55,268356.0,RTL,0.0,0.0,-1000.0,0.5,1.5,9.5,0.0050780694000422955,0.001431517070159316,-2.907105326652527,-0.0009668271522969007,-0.0004455087473616004,0.008712724316865206,-35.3639498,149.1649512,65261.0,0.0,-2.0,-152.0
06:49:57,268356.0,RTL,0.0,0.0,-1000.0,1.5,1.0,9.0,0.004596534883603454,0.0017873704200610518,-2.8948711156845093,0.00032325671054422855,-0.0005326014361344278,0.008293632883578539,-35.3639499,149.1649512,68367.0,1.0,-2.0,-152.0
06:49:58,223227.0,RTL,0.0,0.0,-1000.0,1.5,1.25,7.25,0.005121521302498877,0.0025281899725086987,-2.890739142894745,0.00017814754392020404,-0.0003561394405551255,0.006458348361775279,-35.363949975000004,149.1649512,69532.25,1.0,-2.0,-152.0
06:49:59,223227.0,RTL,0.0,0.0,-1000.0,0.0,1.0,6.0,0.005046942969784141,0.002142984652891755,-2.884572386741638,-0.0016930055571720004,-0.00044024543603882194,0.005571267334744334,-35.36395,149.1649512,71471.0,1.0,-2.0,-152.0
06:50:01,223227.0,RTL,0.0,0.0,-999.5,1.0,1.0,4.5,0.00402422621846199,0.0012960938038304448,-2.8754199743270874,0.0002345740795135498,6.441579898819327e-05,0.0036234332947060466,-35.36395,149.1649512,74577.5,1.0,-2.0,-152.0
06:50:03,223227.0,RTL,0.0,0.0,-1000.0,0.0,1.0,5.5,0.0050878981128335,0.0014791463036090136,-2.8669546842575073,-0.0011398263159208,-0.0001553341862745583,0.004794427426531911,-35.36395,149.1649512,77683.0,1.0,-1.0,-152.0
06:50:04,20224.0,RTL,0.0,0.0,-999.75,2.0,2.0,5.75,0.005506220506504178,0.001500497746746987,-2.8642255067825317,0.0007218490645755082,0.0005875619244761765,0.005072086059954017,-35.36395,149.1649512,78850.0,1.0,-1.5,-152.0
06:50:05,20224.0,RTL,0.0,0.0,-1000.0,2.0,2.0,6.5,0.0053159689996391535,0.0027336498023942113,-2.8600903749465942,-0.00015072489622980356,0.0007947171106934547,0.0056190581526607275,-35.36395,149.1649512,80796.0,1.0,-2.0,-152.0
06:50:07,20224.0,RTL,0.0,0.0,-1000.0,1.5,2.0,3.5,0.004778131376951933,0.002280759741552174,-2.8541029691696167,0.0002967584878206253,0.0004892522119916975,0.002630978124216199,-35.36395,149.1649512,83898.0,2.0,-2.0,-152.0
06:50:09,20224.0,RTL,0.0,0.0,-1000.5,0.0,0.5,5.0,0.004002510453574359,0.002339788363315165,-2.8484312295913696,-0.0013309846399351954,-0.0010083403903990984,0.00383190019056201,-35.36395,149.16495114999998,87002.5,1.0,-1.5,-152.0
06:50:10,183595.0,RTL,0.0,0.0,-1000.0,1.5,1.0,4.25,0.004079258185811341,0.0022995112813077867,-2.846898138523102,8.524881559424102e-05,-0.0003321404510643333,0.0031171460868790746,-35.36395,149.1649511,88167.75,1.5,-1.0,-152.0
06:50:11,183595.0,RTL,0.0,0.0,-1000.0,1.0,1.0,4.0,0.004415400326251984,0.0018332994659431279,-2.844401478767395,-0.0006132624112069607,-0.0012131081311963499,0.0030221821507439017,-35.36395,149.1649511,90117.0,2.0,-1.0,-152.0
06:50:13,183595.0,RTL,0.0,0.0,-1000.5,3.0,1.5,4.0,0.004633253673091531,0.0017280445899814367,-2.8404568433761597,0.0014994253870099783,-0.00029473990434780717,0.0033022912684828043,-35.36395,149.1649511,93225.0,1.0,-1.0,-152.0
06:50:15,183595.0,RTL,0.0,0.0,-1000.0,0.5,1.5,3.5,0.005176733946427703,0.002501172013580799,-2.8365808725357056,-0.0016480972990393639,-0.0008958696271292865,0.0027580417227,-35.36395,149.1649512,96480.5,1.5,-2.0,-152.0
06:50:16,304.0,RTL,0.0,0.0,-1000.0,1.75,1.75,3.25,0.0048229817766696215,0.0023981397971510887,-2.835501730442047,-0.00011285286745987833,-0.00010952158481813967,0.0020837970660068095,-35.36395,149.1649512,97645.25,2.0,-2.0,-152.0
06:50:17,304.0,RTL,0.0,0.0,-1000.0,1.5,1.5,5.5,0.004342368803918362,0.002381421742029488,-2.8334954977035522,-9.253609459847212e-05,-7.646385347470641e-05,0.004253616789355874,-35.36395,149.1649512,99590.0,2.0,-1.0,-152.0
06:50:19,304.0,RTL,0.0,0.0,-999.5,3.0,1.5,3.5,0.0045112925581634045,0.0020022972021251917,-2.8301167488098145,0.0009900637669488788,0.0002344184322282672,0.002835078164935112,-35.36395,149.1649511,102700.5,2.0,-1.0,-152.0
06:50:21,304.0,RTL,0.0,0.0,-1000.0,1.5,2.5,2.0,0.004339267499744892,0.0022380929440259933,-2.8283071517944336,-0.0006010980578139424,0.0005161368753761053,0.0006509858067147434,-35.36395,149.1649511,105807.5,1.0,-1.0,-152.0
06:50:22,92287.0,RTL,0.0,0.0,-1000.25,2.0,0.75,2.25,0.004343505133874714,0.0018964226183015853,-2.8275031447410583,0.00012684002285823226,-0.0013254741206765175,0.00121042673708871,-35.36395,149.1649511,106971.75,1.75,-1.0,-152.0
06:50:23,92287.0,RTL,0.0,0.0,-999.5,3.0,4.5,4.0,0.004256614949554205,0.001390513265505433,-2.826155424118042,0.001315773231908679,0.002779360394924879,0.002475482993759215,-35.36395,149.1649511,108913.5,1.0,-1.0,-152.0
06:50:25,92287.0,RTL,0.0,0.0,-1000.0,3.0,3.0,5.0,0.004568357253447175,0.0024853587383404374,-2.8247116804122925,0.0014589152997359633,0.0013095661415718496,0.00365930626867339,-35.36395,149.1649511,112020.5,1.0,-1.0,-152.0
06:50:27,92287.0,RTL,0.0,0.0,-1000.0,2.0,1.5,3.5,0.004447590094059706,0.002215775428339839,-2.82315993309021,-1.324014738202095e-05,-0.00010657921666279435,0.001877599861472845,-35.36395,149.1649511,115127.0,2.0,-1.0,-152.0
06:50:28,149683.0,RTL,0.0,0.0,-1000.0,2.25,1.75,2.75,0.004647901514545083,0.0021177668822929263,-2.8225507140159607,0.0003169555275235325,-7.17773218639195e-06,0.0014505063591059297,-35.36395,149.1649511,116293.25,2.0,-1.0,-152.0
06:50:29,149683.0,RTL,0.0,0.0,-999.5,2.0,1.5,3.0,0.0049661798402667046,0.002072339877486229,-2.821951746940613,-0.0007290367502719164,-0.0006106070941314101,0.0017195760156027973,-35.36395,149.1649511,118233.0,2.0,-1.0,-152.0
06:50:31,149683.0,RTL,0.0,0.0,-1000.0,2.0,1.0,3.0,0.0037066410295665264,0.0024474444799125195,-2.820781707763672,0.0007002977654337883,-0.0009619361953809857,0.0018122149631381035,-35.36395,149.1649511,121344.0,2.0,-1.0,-152.0
06:50:33,149683.0,RTL,0.0,0.0,-1000.0,0.5,0.0,1.5,0.004349265247583389,0.0021129269734956324,-2.819744348526001,-0.001436866179574281,-0.001957461587153375,0.0005224570631980896,-35.36395,149.1649511,124451.5,2.0,-1.0,-152.0
06:50:34,112704.0,RTL,0.0,0.0,-1000.25,2.5,2.25,3.5,0.004045376437716186,0.0015644315571989864,-2.8191407918930054,0.0008146204345393926,0.0006508062360808253,0.0020113347563892603,-35.36395,149.1649511,125616.75,1.25,-1.0,-152.0
06:50:35,112704.0,RTL,0.0,0.0,-1000.0,2.5,2.0,2.0,0.004602981964126229,0.0017354734591208398,-2.818232297897339,0.0007858877070248127,-0.00015002896543592215,0.0006224659155122936,-35.36395,149.1649511,127558.5,1.0,-1.0,-152.0
06:50:37,112704.0,RTL,0.0,0.0,-1000.0,3.0,2.5,2.0,0.004692678805440664,0.002864283393137157,-2.8174853324890137,0.0012767001753672957,0.0006457436829805374,0.000604365486651659,-35.36395,149.1649511,130665.0,2.0,-1.0,-152.0
06:50:39,112704.0,RTL,0.0,0.0,-1000.0,4.0,2.5,4.0,0.00452455272898078,0.0021933969110250473,-2.8171054124832153,0.0025193813489750028,0.00040371192153543234,0.002761606825515628,-35.36395,149.1649511,133780.0,2.0,-1.0,-152.0
06:50:40,88649.0,RTL,0.0,0.0,-1000.25,2.5,1.75,2.5,0.004492702311836183,0.002325198263861239,-2.816780984401703,0.0006227060221135616,-5.066976882517338e-08,0.0009071631357073784,-35.36395,149.1649511,134946.25,2.0,-1.0,-152.0
06:50:41,88649.0,RTL,0.0,0.0,-1000.0,2.5,2.5,2.5,0.0053454863373190165,0.001999758474994451,-2.816489338874817,0.0004917922196909785,0.0004090280272066593,0.0010397920850664377,-35.36395,149.1649511,136886.5,2.0,-1.0,-152.0
06:50:43,88649.0,RTL,0.0,0.0,-1000.0,2.0,2.0,3.5,0.004624860128387809,0.002372818998992443,-2.816205143928528,-0.0004349801456555724,0.00023428467102348804,0.0016426077345386147,-35.36395,149.1649512,139993.0,2.0,-1.0,-152.0
06:50:45,88649.0,RTL,0.0,0.0,-1000.0,4.0,2.0,4.0,0.004357242025434971,0.0022990028373897076,-2.8156949281692505,0.0023023082176223397,0.0001896638423204422,0.002508986508473754,-35.36395,149.1649511,143099.5,2.0,-1.0,-152.0
06:50:46,150164.0,RTL,0.0,0.0,-999.75,1.5,1.0,2.75,0.004265064722858369,0.0018631209677550942,-2.815676748752594,-0.0004915261233691126,-0.0011819129285868257,0.0011779189226217568,-35.36395,149.1649511,144267.75,2.0,-1.0,-152.0
06:50:47,150164.0,RTL,0.0,0.0,-1000.0,2.5,2.5,1.5,0.004318733233958483,0.0015672897570766509,-2.8153202533721924,0.00043763330904766917,0.0006912165554240346,0.00027479452546685934,-35.36395,149.1649511,146206.5,1.0,-1.0,-152.0
06:50:49,150164.0,RTL,0.0,0.0,-1000.0,2.5,1.0,3.0,0.004765035584568977,0.003133389283902943,-2.8152575492858887,0.00042653363198041916,-0.0010479757329449058,0.0012331930920481682,-35.36395,149.1649511,149311.5,1.0,-1.0,-152.0
06:50:51,150164.0,RTL,0.0,0.0,-999.5,4.5,2.0,3.5,0.004523506388068199,0.002091794100124389,-2.814085006713867,0.0019528080010786653,-0.0001983672846108675,0.0018334409687668085,-35.36395,149.1649511,152420.5,2.0,-1.0,-152.0
06:50:52,89119.0,RTL,0.0,0.0,-1000.25,3.25,2.75,1.5,0.004382386221550405,0.002205497643444687,-2.8141000270843506,0.001006829203106463,0.0008078721002675593,-7.278710836544633e-05,-35.36395,149.1649511,153586.0,2.0,-1.0,-152.0
06:50:53,89119.0,RTL,0.0,0.0,-1000.0,4.0,5.0,2.0,0.0044610328041017056,0.002336004748940468,-2.8139877319335938,0.0022110750433057547,0.003431909251958132,0.0004890365526080132,-35.36395,149.1649511,155490.0,2.0,-1.0,-152.0
06:50:55,89119.0,RTL,0.0,0.0,-1000.0,2.6666666666666665,2.3333333333333335,3.6666666666666665,0.004427307130148013,0.002303516569857796,-2.8136730194091797,0.00047483396095534164,0.00040848452287415665,0.002304375171661377,-35.36395,149.1649511,158237.33333333334,2.0,-1.0,-152.0
06:50:57,89119.0,RTL,0.0,0.0,-1000.0,6.0,4.0,4.0,0.0042035761289298534,0.0015274256002157927,-2.813541889190674,0.003720500273630023,0.0013609698507934809,0.0025647077709436417,-35.36395,149.1649511,161703.0,1.0,-1.0,-152.0
06:50:58,50458.0,RTL,0.0,0.0,-1000.0,1.25,2.5,1.75,0.004334393888711929,0.0018453465891070664,-2.813691794872284,-0.0011228137882426381,0.000472883228212595,-1.5387427993118763e-05,-35.36395,149.1649511,162675.0,1.0,-1.0,-152.0
06:50:59,50458.0,RTL,0.0,0.0,-1000.0,5.5,5.0,3.0,0.004577128449454904,0.00236441264860332,-2.813632845878601,0.0034592582378536463,0.0032422898802906275,0.0011018214281648397,-35.36395,149.1649511,164231.0,1.0,-1.0,-152.0
06:51:01,50458.0,RTL,0.0,0.0,-999.5,3.0,2.5,2.5,0.00459969462826848,0.0022512002615258098,-2.8137362003326416,0.0011031985050067306,0.00019062845967710018,0.0002963343868032098,-35.36395,149.1649511,167341.5,2.0,-1.0,-152.0
06:51:03,50458.0,RTL,0.0,0.0,-1000.0,3.5,4.0,3.5,0.0046388141345232725,0.0022175117628648877,-2.813767910003662,0.0010615180945023894,0.0015686149708926678,0.0019637675723060966,-35.36395,149.1649511,170448.5,2.0,-1.0,-152.0
06:51:04,101775.0,RTL,0.0,0.0,-999.75,1.5,2.75,2.25,0.004095336713362485,0.0024350248277187347,-2.813582956790924,-0.0010653024655766785,0.0009930898377206177,0.00044857634929940104,-35.36395,149.1649511,171996.75,2.0,-1.0,-152.0
06:51:05,101775.0,RTL,0.0,0.0,-1001.0,5.5,2.5,1.5,0.004172582877799869,0.0025132352020591497,-2.8135509490966797,0.0031484999926760793,0.0004355800338089466,-0.0004198889946565032,-35.36395,149.1649511,173553.5,2.0,-1.0,-152.0
06:51:07,101775.0,RTL,0.0,0.0,-1000.0,2.0,3.0,3.0,0.004164081532508135,0.001885158708319068,-2.8130719661712646,-0.00020688149379566312,0.0007681628922000527,0.0011662347242236137,-35.36395,149.1649511,176663.5,1.5,-1.0,-152.0
06:51:09,101775.0,RTL,0.0,0.0,-999.5,2.5,3.5,3.5,0.004379936959594488,0.0018094000406563282,-2.8129146099090576,0.00020012352615594864,0.0011352906003594398,0.0017964270664379,-35.36395,149.1649511,179773.0,1.0,-1.0,-152.0
06:51:10,8698.0,RTL,0.0,0.0,-1000.0,4.0,3.75,2.75,0.004499656497500837,0.002220832626335323,-2.812945306301117,0.0017741172341629863,0.0015650191926397383,0.0009806321759242564,-35.36395,149.1649511,181324.5,1.0,-1.0,-152.0
06:51:11,8698.0,RTL,0.0,0.0,-999.5,3.0,2.5,2.5,0.00468807783909142,0.002801265101879835,-2.8128408193588257,0.0006418264238163829,0.00020250247325748205,0.0005503179272636771,-35.36395,149.1649511,182879.5,1.5,-1.0,-152.0
06:51:13,8698.0,RTL,0.0,0.0,-999.5,4.0,3.0,4.0,0.005109596066176891,0.002191693289205432,-2.8127328157424927,0.001733278506435454,0.0009326963918283582,0.001969090662896633,-35.36395,149.1649511,185985.5,2.0,-1.0,-152.0
06:51:15,8698.0,RTL,0.0,0.0,-999.5,1.5,2.5,4.0,0.003851278801448643,0.0025928805116564035,-2.812823176383972,-0.0007470304844900966,-7.073651067912579e-05,0.0015141107141971588,-35.36395,149.1649511,189091.5,2.0,-1.0,-152.0
06:51:16,36386.0,RTL,0.0,0.0,-999.75,3.0,2.5,2.75,0.00419115147087723,0.002375465235672891,-2.813023090362549,0.0008197549614124,0.00022554054157808423,0.0007202209380920976,-35.36395,149.1649511,190648.25,2.0,-1.0,-152.0
06:51:17,36386.0,RTL,0.0,0.0,-1000.0,1.5,2.5,3.0,0.004309990210458636,0.002126128994859755,-2.8128057718276978,-0.0010457608150318265,2.0526465959846973e-05,0.0007106482516974211,-35.36395,149.1649511,192200.0,2.0,-1.0,-152.0
06:51:19,36386.0,RTL,0.0,0.0,-999.5,2.5,3.5,2.0,0.004131006542593241,0.0015723343240097165,-2.8128304481506348,-1.142697874456644e-05,0.0009173480793833733,-5.681300535798073e-05,-35.36395,149.1649511,195309.0,1.0,-1.0,-152.0
06:51:21,36386.0,RTL,0.0,0.0,-1000.0,2.5,3.5,3.0,0.00467243161983788,0.0025957582984119654,-2.8128689527511597,0.00016032950952649117,0.000910353846848011,0.0007951122242957354,-35.36395,149.1649511,198420.5,1.0,-1.0,-152.0
06:51:22,6572.0,RTL,0.0,0.0,-999.75,3.0,3.0,1.0,0.004684386891312897,0.0028123402153141797,-2.8131114840507507,0.0002326072717551142,0.0002453318447805941,-0.000951898779021576,-35.36395,149.1649511,199969.75,1.75,-1.0,-152.0
06:51:23,6572.0,RTL,0.0,0.0,-999.5,4.5,3.0,1.5,0.0050014532171189785,0.002141879638656974,-2.812782406806946,0.0020755832083523273,0.00036376609932631254,4.7969515435397625e-06,-35.36395,149.16495114999998,201527.5,2.0,-1.0,-152.0
06:51:25,6572.0,RTL,0.0,0.0,-999.0,4.0,5.0,3.5,0.0045712648425251245,0.0023505695862695575,-2.812395691871643,0.0013023850042372942,0.00239980174228549,0.00154500815551728,-35.36395,149.1649512,204634.5,2.0,-1.0,-152.0
06:51:27,6572.0,RTL,0.0,0.0,-999.5,3.5,3.5,4.0,0.0041434557642787695,0.0023540009278804064,-2.8126513957977295,0.0009147959062829614,0.0007581275422126055,0.0013182361144572496,-35.36395,149.1649511,207745.0,2.0,-1.0,-152.0
06:51:28,212405.0,RTL,0.0,0.0,-999.75,2.0,1.5,3.0,0.004211066174320877,0.001405868912115693,-2.8124672770500183,-0.00042451085755601525,-0.0007729234639555216,0.000871670403284952,-35.36395,149.1649512,209300.75,1.5,-1.0,-152.0
06:51:29,212405.0,RTL,0.0,0.0,-1000.0,2.5,3.5,3.5,0.004197548376396298,0.001696911349426955,-2.8126715421676636,-6.440747529268265e-05,0.0011420828523114324,0.00126994913443923,-35.36395,149.1649512,210853.5,1.0,-1.0,-152.0
06:51:31,212405.0,RTL,0.0,0.0,-1000.0,2.0,2.0,3.5,0.004602940985932946,0.0024191736592911184,-2.8125367164611816,-0.0007344192126765847,-0.0008884951239451766,0.0009774710051715374,-35.36395,149.1649512,213958.0,1.0,-1.0,-152.0
06:51:33,212405.0,RTL,0.0,0.0,-1000.0,4.0,2.0,3.0,0.004659061320126057,0.0021922460291534662,-2.812663197517395,0.0014450091402977705,-0.000370520050637424,0.0011197766289114952,-35.36395,149.1649512,217144.0,2.0,-1.0,-152.0
06:51:34,147313.0,RTL,0.0,0.0,-1000.0,2.75,3.25,3.0,0.004984044469892979,0.0021096345444675535,-2.8126680850982666,5.529832560569048e-05,0.0004028335097245872,0.0005867814761586487,-35.36395,149.1649512,218776.25,2.0,-1.0,-152.0
06:51:35,147313.0,RTL,0.0,0.0,-999.5,2.5,4.0,2.5,0.004443800076842308,0.0023279451997950673,-2.8130186796188354,-0.00026163237635046244,0.0016388272633776069,0.00016296282410621643,-35.36395,149.1649512,220329.5,2.0,-1.0,-152.0
06:51:37,147313.0,RTL,0.0,0.0,-1000.0,1.5,2.5,3.5,0.0037842782912775874,0.0019037704914808273,-2.812854766845703,-0.0009840971324592829,-0.00043479353189468384,0.0010515660978853703,-35.36395,149.1649511,223434.5,1.5,-0.5,-152.0
06:51:39,147313.0,RTL,0.0,0.0,-1000.0,3.0,2.5,1.5,0.0042123012244701385,0.002030562376603484,-2.8126509189605713,0.00054189283400774,-0.00019111076835542917,-0.0010064078960567713,-35.36395,149.1649511,226543.0,1.0,-0.5,-152.0
06:51:40,246467.0,RTL,0.0,0.0,-1000.0,3.0,1.75,3.5,0.0045080340933054686,0.0019075445597991347,-2.812096059322357,0.00024806620785966516,-0.0009217830956913531,0.000841435685288161,-35.36395,149.1649511,228095.5,1.0,-0.25,-152.0
06:51:41,246467.0,RTL,0.0,0.0,-1000.0,3.0,4.0,2.5,0.004529329249635339,0.00243206019513309,-2.812162160873413,9.81504563242197e-05,0.0011154382955282927,7.00830714777112e-05,-35.36395,149.1649511,229649.0,1.0,-1.0,-152.0
06:51:43,246467.0,RTL,0.0,0.0,-999.5,2.0,3.0,2.5,0.0042072928044945,0.0021666386746801436,-2.8122984170913696,-0.0007261026185005903,0.000633048708550632,9.600818157196045e-05,-35.36395,149.1649511,232754.5,2.0,-1.0,-152.0
06:51:45,246467.0,RTL,0.0,0.0,-1000.0,1.5,2.5,1.5,0.004816309316083789,0.002124664722941816,-2.8123130798339844,-0.0011173078091815114,-9.82001656666398e-05,-0.0010872260900214314,-35.36395,149.1649511,235861.0,2.0,-1.0,-152.0
06:51:46,34041.0,RTL,0.0,0.0,-998.5,2.0,33.75,3.25,0.004795419983565807,0.011479911336209625,-2.812177896499634,-0.0007936029287520796,0.03115923871519044,0.0010080207139253616,-35.363949975000004,149.164951125,237417.25,3.5,-0.75,-151.5
06:51:47,34041.0,RTL,4.0,1.0,-998.5,2.5,42.5,3.5,0.002595871686935425,0.053242310881614685,-2.8123520612716675,-0.000638684956356883,0.039641113951802254,0.0009136531734839082,-35.36394875,149.16495155,238955.5,30.5,7.5,-149.5
06:51:49,34041.0,RTL,32.5,14.0,-961.5,-62.5,95.0,297.0,-0.027917017694562674,0.16905351728200912,-2.7065415382385254,-0.06643725791946054,0.09232294373214245,0.294079847750254,-35.3639331,149.16495774999999,241838.0,164.5,60.5,-118.0
06:51:51,34041.0,RTL,86.0,7.5,-956.5,208.5,61.5,55.0,0.09428443014621735,0.13754844665527344,-2.2576619386672974,0.20555362850427628,0.05885976180434227,0.05259063746780157,-35.36388615,149.16498174999998,242928.5,355.0,117.5,7.0
06:51:52,51904.0,RTL,109.75,-11.0,-1003.25,-88.5,55.75,-24.0,0.08266644179821014,0.20148849859833717,-2.2442110180854797,-0.09217859292402864,0.052657620748504996,-0.02717571915127337,-35.363850275,149.1649945,242703.0,457.5,117.5,28.75
06:51:53,51904.0,RTL,127.5,-9.0,-1017.5,-138.0,-25.5,-52.5,0.0370574165135622,0.21443437039852142,-2.283524513244629,-0.14191396534442902,-0.02944357879459858,-0.056323837488889694,-35.363804200000004,149.1650099,242482.5,554.5,157.5,10.0
06:51:55,51904.0,RTL,151.0,10.5,-988.0,18.5,-29.0,-29.0,-0.006614963029278442,0.1705782487988472,-2.3689024448394775,0.014827568316832185,-0.03264389652758837,-0.03258248697966337,-35.3636955,149.16505335,242487.5,638.5,217.5,-6.0
06:51:57,51904.0,RTL,160.0,20.0,-989.5,94.0,3.5,-20.5,-0.017238830216228962,0.16435106843709946,-2.4424471855163574,0.090823695063591,0.00010754214599728584,-0.023950787261128426,-35.36358055,149.165103,242542.0,645.5,221.0,2.0
06:51:58,83796.0,RTL,158.25,27.25,-991.0,-10.0,-11.0,-20.5,-0.019742253236472607,0.15710875764489174,-2.4703458547592163,-0.014072692021727562,-0.014552523847669363,-0.02430047933012247,-35.36352265,149.16512795,242519.5,652.0,221.25,0.25
06:51:59,83796.0,RTL,155.5,25.5,-994.0,-279.0,-59.0,-31.5,-0.043126305565238,0.11519264057278633,-2.4948145151138306,-0.2830607630312443,-0.06271132081747055,-0.035521604120731354,-35.36346475,149.1651526,242548.0,635.5,213.0,-5.5
06:52:01,83796.0,RTL,120.0,49.5,-1002.5,274.0,-51.5,10.5,-0.0565645806491375,0.01733502361457795,-2.530258059501648,0.2705841138958931,-0.054905759170651436,0.007236937060952187,-35.3633619,149.1651962,242587.0,489.5,166.0,2.0
06:52:03,100711.5,RTL,63.0,43.0,-1019.5,400.5,-15.5,8.0,-0.03402157686650753,-0.03920017462223768,-2.5583865642547607,0.3966529220342636,-0.018929565092548728,0.004667201079428196,-35.3632943,149.16522600000002,242505.5,275.5,92.0,1.0
06:52:05,117627.0,RTL,17.5,6.5,-1012.5,33.0,32.0,-1.5,0.0033394471975043416,-0.0500092301517725,-2.5796279907226562,0.028813809156417847,0.02866134326905012,-0.005002517253160477,-35.36326495,149.16524085,242477.5,93.0,15.5,-1.0
06:52:07,117627.0,RTL,0.5,0.5,-1002.5,-13.5,27.0,0.5,0.009962680167518556,-0.006732538808137178,-2.5936118364334106,-0.018673241138458252,0.02363921981304884,-0.003250128240324557,-35.3632597,149.1652426,242489.0,17.5,-18.5,-1.0
06:52:08,39595.0,RTL,0.25,-17.0,-1001.25,-230.0,0.0,-3.5,0.010924067843006924,0.01060603657970205,-2.5992419719696045,-0.23433693498373032,-0.003705360519234091,-0.007602861034683883,-35.363259625,149.165241525,242499.5,13.0,-16.5,-1.25
06:52:09,39595.0,RTL,-0.5,-9.0,-990.5,-142.0,1.5,-10.0,0.0002051395713351667,-0.0008130439528031275,-2.6055843830108643,-0.14752748794853687,-0.0024976003915071487,-0.013898900244385004,-35.3632595,149.16524040000002,242506.5,7.5,-12.5,-1.0
06:52:11,39595.0,RTL,-2.0,2.0,-991.0,91.5,9.5,-2.5,0.009472722886130214,0.003291737986728549,-2.616951823234558,0.08645449578762054,0.005909060942940414,-0.006200714968144894,-35.36326055,149.16523899999999,242514.5,-2.0,-6.5,-0.5
06:52:13,39595.0,RTL,-0.5,3.5,-972.0,171.5,8.0,-2.0,0.010389132658019662,0.005485672503709793,-2.626288056373596,0.1658543199300766,0.004664769861847162,-0.005370984727051109,-35.3632619,149.1652386,242488.5,2.5,-6.0,11.5
06:52:14,62885.0,RTL,-0.25,-52.5,-940.5,-626.5,3.25,-1.5,0.015779285226017237,0.0061402859864756465,-2.6303828954696655,-0.6302401077700779,-0.00011470704339444637,-0.004881887463852763,-35.363262375000005,149.165238625,242158.25,3.75,-4.25,64.5
06:52:15,62885.0,RTL,0.0,-67.0,-932.0,-1020.5,1.5,-10.5,0.013738606590777636,0.005047038896009326,-2.634381413459778,-1.024551510810852,-0.0019750786013901234,-0.014300385490059853,-35.3632627,149.16523865,241220.0,7.0,-6.5,109.5
06:52:17,62885.0,RTL,-0.5,-15.5,-994.0,469.5,4.5,0.5,0.021578403189778328,0.004251788021065295,-2.6417285203933716,0.4660135470330715,0.0009376591769978404,-0.0030869997572153807,-35.36326285,149.1652383,239021.5,7.5,-7.0,97.0
06:52:19,62885.0,RTL,0.0,57.5,-974.5,1460.5,6.0,4.0,0.03747335821390152,0.0038934104377403855,-2.6475876569747925,1.4551634192466736,0.0020688921213150024,0.001186218811199069,-35.3632633,149.1652393,236984.5,10.0,-10.5,103.0
06:52:20,5696.0,RTL,2.0,50.5,-1017.0,1338.25,7.75,8.0,0.027189139276742935,0.0071924428921192884,-2.6507328152656555,1.3324749171733856,0.004326795926317573,0.00500606291461736,-35.36326335,149.16523915,235974.75,11.75,-14.75,98.5
06:52:21,5696.0,RTL,2.5,56.5,-956.0,1383.5,9.5,12.5,0.010261809919029474,0.008950238581746817,-2.6532609462738037,1.377530574798584,0.005783764878287911,0.009666330646723509,-35.36326285,149.16523769999998,234973.5,9.0,-10.0,99.5
06:52:23,5696.0,RTL,0.0,69.5,-980.5,1499.0,1.0,3.0,0.004534843377768993,0.0029151111375540495,-2.657464385032654,1.4925554990768433,-0.003359541529789567,-0.0006018476560711861,-35.3632617,149.1652355,232945.0,-1.0,12.0,103.0
06:52:25,5696.0,RTL,-2.0,69.0,-1048.0,786.0,7.5,1.0,0.0036727997940033674,-8.955167140811682e-05,-2.661576747894287,0.7787259221076965,0.0035386969102546573,-0.002498915302567184,-35.36326185,149.16523665,230888.0,-1.5,9.0,100.5
06:52:26,21191.0,RTL,-2.75,70.75,-971.25,729.5,9.0,1.25,0.009885053150355816,0.0003965020308669409,-2.664039194583893,0.7223417982459068,0.005265900632366538,-0.0023583375732414424,-35.363262275,149.16523762499997,229859.75,-0.25,4.25,100.75
06:52:27,21191.0,RTL,-0.5,56.5,-1053.0,625.5,10.5,3.5,0.01055205799639225,0.0037109425757080317,-2.666227698326111,0.6179562509059906,0.006600877735763788,0.00045518099796026945,-35.3632626,149.1652382,228827.0,2.5,-3.0,96.0
06:52:29,21191.0,RTL,-1.0,51.5,-960.5,254.0,3.0,-4.0,-0.003324182122014463,0.0034837307757698,-2.669026732444763,0.24643737520091236,-0.0016247613821178675,-0.007925494806841016,-35.3632626,149.16523755,226785.0,4.0,-1.5,98.5
06:52:31,21191.0,RTL,0.0,2.0,-939.0,-846.5,10.0,10.5,-0.0064421082206536084,0.001763336651492864,-2.672584891319275,-0.8543559610843658,0.005813783733174205,0.007277398486621678,-35.3632627,149.1652384,224754.5,5.0,-6.0,102.5
06:52:32,26558.0,RTL,-0.25,1.0,-994.5,-740.0,5.25,12.0,-0.009634336456656456,0.0033655567094683647,-2.6727774143218994,-0.7480630874633789,0.0005414547631517053,0.008611515397205949,-35.3632628,149.16523845,223739.0,6.0,-8.0,99.0
06:52:33,26558.0,RTL,-1.0,16.0,-950.5,-454.5,6.0,-1.5,-0.009042849764227867,0.004543328424915671,-2.674728274345398,-0.46291185915470123,0.0020392846781760454,-0.005083616590127349,-35.3632628,149.16523825000002,222729.0,5.5,-7.0,101.0
06:52:35,26558.0,RTL,0.0,32.5,-1006.5,-38.5,7.5,0.5,-0.015910945367068052,0.005048877792432904,-2.6768460273742676,-0.0468653179705143,0.0030128243379294872,-0.00348166236653924,-35.36326245,149.16523715,220674.5,4.0,-2.0,103.0
06:52:37,26558.0,RTL,-3.0,74.0,-948.0,715.0,4.0,13.0,-0.014383770525455475,0.0031327195465564728,-2.677274227142334,0.7075650691986084,-0.0004390622489154339,0.009945809841156006,-35.363262,149.1652362,219006.0,1.0,5.0,102.0
06:52:38,62026.0,RTL,-4.25,86.25,-1000.25,1374.0,0.0,-3.5,0.028847134672105312,-0.0034933924325741827,-2.678371489048004,1.366772711277008,-0.004719642223790288,-0.007317017996683717,-35.363262475,149.16523807500002,217745.75,1.75,3.75,98.25
06:52:39,62026.0,RTL,-3.5,78.5,-1015.0,981.5,9.0,6.5,0.03973317891359329,-0.003398975357413292,-2.680369734764099,0.9742681384086609,0.004732645116746426,0.0030176492873579264,-35.3632631,149.16523990000002,216969.5,7.0,-9.5,96.0
06:52:41,62026.0,RTL,-1.5,73.0,-1001.5,1018.5,10.0,13.0,0.03480073995888233,0.0032323332270607352,-2.6808180809020996,1.0105910003185272,0.005682692397385836,0.00985134718939662,-35.363264150000006,149.16524185,214940.5,17.5,-35.5,96.0
06:52:43,62026.0,RTL,2.0,74.5,-975.5,1187.0,6.5,3.0,0.02479933761060238,0.0068689503241330385,-2.681717276573181,1.178367018699646,0.0025301482528448105,-0.0002853299956768751,-35.363263849999996,149.16524065,212904.5,18.0,-32.5,98.5
06:52:44,84852.0,RTL,1.25,66.5,-1016.0,1099.75,6.0,5.25,0.017889702459797263,0.006128319771960378,-2.683037221431732,1.0912864208221436,0.0015948431100696325,0.0013912420254200697,-35.363263475,149.16523949999998,211642.5,14.5,-22.5,97.75
06:52:45,84852.0,RTL,2.5,68.5,-983.0,1362.0,3.5,9.0,0.02050709817558527,0.006214050110429525,-2.682779312133789,1.3541995286941528,-0.0010372726246714592,0.0052309404127299786,-35.3632632,149.16523885,210889.5,13.0,-19.0,102.5
06:52:47,84852.0,RTL,3.0,-41.5,-945.5,26.5,4.5,2.0,0.0091969333589077,0.005099478643387556,-2.684999942779541,0.020565882325172424,-9.142863564193249e-05,-0.002395672956481576,-35.36326235,149.16523705,208842.0,3.0,-1.0,101.5
06:52:49,84852.0,RTL,3.0,-58.5,-985.5,-321.5,2.5,-3.0,-0.004576921695843339,0.004177924478426576,-2.6847482919692993,-0.32798030972480774,-0.002553021302446723,-0.006792240077629685,-35.3632615,149.1652353,206797.5,-4.0,14.0,104.5
06:52:50,51244.0,RTL,1.75,-64.0,-972.0,-546.25,2.25,-2.5,-0.02046783920377493,0.004031230055261403,-2.68488085269928,-0.5519072413444519,-0.0025170547305606306,-0.006434154056478292,-35.363260975,149.16523417500002,205537.5,-9.5,23.0,101.25
06:52:51,51244.0,RTL,1.0,-77.5,-944.0,-706.0,0.0,-1.0,-0.021961789578199387,0.0031423548934981227,-2.685617208480835,-0.7117090225219727,-0.004349472234025598,-0.004991955938749015,-35.363260749999995,149.1652337,204780.0,-12.5,30.0,102.5
06:52:53,51244.0,RTL,1.0,-66.0,-1025.5,-1396.5,10.5,8.5,-0.036521611735224724,0.0031530294800177217,-2.686337471008301,-1.402718722820282,0.0060541145503520966,0.0043916767463088036,-35.3632605,149.1652331,202734.0,-16.0,36.0,104.5
06:52:55,51244.0,RTL,-3.0,-61.0,-1010.5,-1367.0,3.5,-0.5,-0.025142477825284004,-0.0013313119998201728,-2.6853044033050537,-1.3719253540039062,-0.0006677578203380108,-0.004650472896173596,-35.3632608,149.16523395,200687.0,-15.5,37.5,102.0
06:52:56,77432.0,RTL,-2.0,-70.25,-1001.5,-1196.0,6.0,-2.5,-0.004079006728716195,-0.000762620073146536,-2.6871578693389893,-1.2007295489311218,0.0011010020971298218,-0.0066526224836707115,-35.3632615,149.1652358,199410.5,-10.5,24.5,100.0
06:52:57,77432.0,RTL,0.5,-71.0,-1000.0,-1289.0,6.0,3.0,-0.008378833066672087,0.0015846739406697452,-2.687389373779297,-1.2937155365943909,0.0016748496564105153,-0.0004954900359734893,-35.36326175,149.16523635,198637.0,-8.0,18.0,101.5
06:52:59,77432.0,RTL,0.0,-35.5,-1015.5,-1182.0,3.5,2.0,-0.04308017157018185,0.0053403235506266356,-2.686603546142578,-1.1881468892097473,-0.0008433328475803137,-0.0016147417481988668,-35.3632615,149.16523495,196600.0,-6.5,17.5,104.0
06:53:01,77432.0,RTL,-2.5,-12.0,-985.0,-991.0,1.5,2.5,-0.019148030318319798,-0.0034597686026245356,-2.686627507209778,-0.9972041249275208,-0.003529949695803225,-0.00133502297103405,-35.36326135,149.16523569999998,194559.5,-8.0,22.0,104.0
06:53:02,14047.0,RTL,-3.75,8.0,-1009.5,-768.5,5.5,2.5,-0.0016914035368245095,-0.005111346836201847,-2.6874906420707703,-0.7751540392637253,0.00044311012607067823,-0.0013734964886680245,-35.363262025,149.16523790000002,193280.75,-4.0,7.0,100.5
06:53:03,14047.0,RTL,-3.0,-38.5,-1003.0,-1472.5,10.5,2.5,0.008660144172608852,-0.004311325028538704,-2.6863842010498047,-1.4783794283866882,0.005816288758069277,-0.0007498873164877295,-35.363262649999996,149.16523945,192501.5,-0.5,-2.0,104.0
06:53:05,14047.0,RTL,0.5,-61.5,-995.0,-1332.5,5.5,3.5,0.008444548351690173,0.002565312839578837,-2.688961625099182,-1.3381780982017517,0.0011956465896219015,-0.00018311094027012587,-35.3632635,149.16524084999998,190464.0,8.5,-24.0,100.0
06:53:07,24421.0,RTL,4.5,-52.0,-1000.5,-1312.0,2.5,4.0,-0.022041129879653454,0.006904831854626536,-2.688660740852356,-1.3176682591438293,-0.00194665533490479,0.0006047170609235764,-35.3632627,149.16523805,188432.0,5.5,-12.5,97.0
06:53:09,34795.0,RTL,2.0,-63.5,-1032.0,-1346.0,2.0,5.5,-0.0327564412727952,0.0007775717822369188,-2.687788724899292,-1.3509535193443298,-0.0029992605559527874,0.001828973414376378,-35.3632612,149.16523515,186400.0,-6.0,13.5,99.0
06:53:11,34795.0,RTL,-2.5,-31.5,-1007.5,-1278.0,9.0,-5.5,-0.031636714935302734,-0.002004335925448686,-2.6884783506393433,-1.2835793495178223,0.004693664726801217,-0.009712814120575786,-35.36326085,149.16523525000002,184367.5,-11.0,18.0,102.0
06:53:13,97656.0,RTL,-1.0,-65.0,-1020.0,-1325.0,2.0,-2.5,-0.01919884793460369,-0.0016497955075465143,-2.688310146331787,-1.3287072777748108,-0.0027393167838454247,-0.006957841105759144,-35.363261,149.16523565,182315.5,-12.0,18.0,99.0
06:53:15,97656.0,RTL,-0.5,-48.5,-1042.5,-1352.0,11.5,1.5,-0.014983946457505226,0.0013739296700805426,-2.688657522201538,-1.356590986251831,0.006994884228333831,-0.0025330327916890383,-35.363261550000004,149.16523645,180259.5,-8.5,12.0,101.0
06:53:17,146243.0,RTL,-0.5,-76.0,-1006.5,-1091.0,1.5,8.0,-0.009240968400263228,0.0010734751413110644,-2.6882117986679077,-1.0947106182575226,-0.003400639398023486,0.004093677271157503,-35.3632616,149.1652361,178203.0,-8.0,14.0,98.5
06:53:19,194830.0,RTL,0.0,-71.5,-1001.5,-906.0,8.5,2.5,-0.009508797200396657,0.0027493865927681327,-2.6873116493225098,-0.9085772037506104,0.0046976415906101465,-0.0016101864166557789,-35.3632616,149.1652363,176160.5,-6.5,11.5,101.0
06:53:21,194830.0,RTL,1.0,-30.0,-1009.0,-1233.5,4.5,0.5,-0.031957284547388554,0.00220234168227762,-2.6884071826934814,-1.2382341623306274,0.0004815954016521573,-0.0036760279908776283,-35.3632614,149.16523554999998,174135.5,-8.0,14.0,99.0
06:53:22,94339.0,RTL,1.75,-44.0,-1025.75,-1290.5,3.25,6.0,-0.03353009605780244,0.0015100441814865917,-2.6890358924865723,-1.2941493690013885,-0.0012916652485728264,0.0022098079789429903,-35.36326115,149.165235025,172852.5,-10.5,19.75,100.25
06:53:23,94339.0,RTL,0.0,-43.0,-1001.5,-1293.5,-0.5,7.0,-0.03652765974402428,0.001636381959542632,-2.688975691795349,-1.2969244122505188,-0.005252145929262042,0.003601700416766107,-35.363261,149.16523475000002,172086.5,-11.0,21.0,98.5
06:53:25,94339.0,RTL,-5.5,-19.0,-1042.0,-1206.0,3.5,-5.0,-0.02042305562645197,-0.0041908969869837165,-2.6886922121047974,-1.2097968459129333,-0.0008510866900905967,-0.009815762285143137,-35.36326115,149.16523565,170044.5,-10.5,21.5,98.0
06:53:27,94339.0,RTL,-5.0,6.5,-1007.5,-677.0,6.5,-4.5,0.011446224059909582,-0.005426751682534814,-2.688044786453247,-0.6814973652362823,0.0020275923889130354,-0.009435828309506178,-35.3632626,149.16523945,168026.0,0.0,-2.5,101.0
06:53:28,117986.0,RTL,-0.5,-42.0,-1012.0,-1256.0,6.5,4.75,0.017240820918232203,-0.0008385547262150794,-2.6891543865203857,-1.2595363855361938,0.0017803122755140066,0.0010132862953469157,-35.36326345,149.165241075,166750.25,6.25,-20.25,101.25
06:53:29,117986.0,RTL,1.0,-11.5,-997.5,-1012.5,6.0,11.0,0.004676683223806322,0.0021930888760834932,-2.6895915269851685,-1.017282634973526,0.001874255482107401,0.007230294169858098,-35.36326355,149.16524099999998,165992.0,10.0,-28.5,100.0
06:53:31,117986.0,RTL,-1.0,39.0,-999.5,29.5,0.5,-1.0,-0.01399566838517785,0.003645831486210227,-2.6880605220794678,0.02385692670941353,-0.0040129185654222965,-0.005049536237493157,-35.36326255,149.1652382,163930.5,6.0,-14.0,101.0
06:53:33,117986.0,RTL,-3.5,-19.5,-996.0,-1218.0,3.0,1.0,-0.0033617530280025676,-0.003109546727500856,-2.688295841217041,-1.2232535481452942,-0.0017334020230919123,-0.002905563684180379,-35.3632626,149.16523915,161876.5,4.0,-10.5,97.5
06:53:34,177723.0,RTL,3.0,-28.5,-1001.0,-1035.0,7.75,7.5,-0.0017039147205650806,0.0022851516632727,-2.6891669034957886,-1.0403019040822983,0.0038387958775274456,0.004083060193806887,-35.363262750000004,149.165239525,160609.25,4.0,-16.25,99.5
06:53:35,177723.0,RTL,5.0,7.0,-990.0,-504.0,9.5,8.0,-0.013391972053796053,0.006460603326559067,-2.6897183656692505,-0.5096434503793716,0.005498873069882393,0.0042363612446933985,-35.363262500000005,149.1652385,159841.0,2.5,-15.0,99.5
06:53:37,177723.0,RTL,2.5,31.0,-951.5,-257.5,4.5,-14.0,-0.061264390125870705,0.006496276706457138,-2.688522458076477,-0.2630869820713997,-5.1158363930881023e-05,-0.018357934430241585,-35.3632604,149.16523285,157802.0,-11.0,21.0,104.5
06:53:39,177723.0,RTL,-4.5,27.5,-994.0,-338.0,1.0,3.5,-0.02253485145047307,-0.005793731659650803,-2.6878381967544556,-0.3424430228769779,-0.003143617883324623,-0.0001496899640187621,-35.3632603,149.16523389999998,155761.0,-18.5,38.0,98.5
06:53:40,77773.0,RTL,-4.5,43.25,-989.25,-72.25,5.75,-9.0,-0.0005368702550185844,-0.005272197420708835,-2.6873207688331604,-0.07591399789089337,0.0019597134669311345,-0.013395048445090652,-35.363261375,149.16523662499998,154490.25,-11.25,18.25,99.0
06:53:41,77773.0,RTL,-7.5,43.5,-968.5,-213.0,5.5,-6.5,0.004946456057950854,-0.0047527949791401625,-2.6886123418807983,-0.21781740756705403,0.0015326959546655416,-0.010913831181824207,-35.363262,149.16523805,153724.5,-6.0,7.0,102.5
06:53:43,77773.0,RTL,-3.0,70.0,-1039.0,920.0,6.0,0.5,0.039007240906357765,-0.0008052456105360761,-2.688238263130188,0.9159192144870758,0.001186239067465067,-0.003229051479138434,-35.36326355,149.16524105000002,151696.0,8.5,-21.0,100.5
06:53:45,84093.5,RTL,0.0,62.5,-961.5,505.5,11.5,12.0,0.03358466178178787,0.004165029851719737,-2.6876258850097656,0.5000383406877518,0.007695132866501808,0.00831247796304524,-35.36326445,149.1652423,149657.5,18.5,-37.0,101.0
06:53:47,90414.0,RTL,0.0,31.5,-1012.0,1138.5,2.0,6.0,0.047028159722685814,0.0035461026709526777,-2.686163067817688,1.1356239318847656,-0.0024988686200231314,0.002870294963940978,-35.3632642,149.16524145,147517.0,20.0,-35.5,100.5
06:53:49,90414.0,RTL,4.0,34.0,-1012.0,1202.5,8.5,8.0,0.02510368637740612,0.004223155090585351,-2.6898133754730225,1.1987143754959106,0.004333533113822341,0.004229458048939705,-35.3632634,149.16524035,145479.0,16.0,-34.0,102.5
06:53:50,43871.0,RTL,4.0,47.0,-992.0,1431.25,4.5,8.5,0.008097949204966426,0.004812757833860815,-2.687692642211914,1.4267720878124237,0.0006387088797055185,0.005197706515900791,-35.363262375000005,149.16523800000002,144191.75,7.0,-17.25,101.75
06:53:51,43871.0,RTL,4.5,74.5,-999.0,1138.5,5.0,16.0,-0.013050780165940523,0.003742676111869514,-2.6878392696380615,1.1324781775474548,0.0012810183688998222,0.01239019725471735,-35.363261800000004,149.1652368,143418.0,1.0,-5.0,99.5
06:53:53,43871.0,RTL,2.0,71.0,-1021.5,1272.5,4.5,17.5,-0.040570637211203575,0.004906033398583531,-2.687338709831238,1.2676392197608948,0.0006595085142180324,0.014151247218251228,-35.363260049999994,149.16523245,141399.5,-14.5,26.0,100.0
06:53:55,43871.0,RTL,-0.5,68.0,-1036.5,954.5,1.5,-3.0,-0.03622347395867109,-0.000645851279841736,-2.6869395971298218,0.9500439167022705,-0.002873352961614728,-0.006984682288020849,-35.3632593,149.1652311,139366.0,-25.5,51.0,99.0
06:53:56,98115.0,RTL,-3.25,75.75,-1003.75,1325.5,1.75,-4.0,-0.01300998977967538,-0.004541188827715814,-2.6872439980506897,1.3219514787197113,-0.0023222891613841057,-0.008214311033952981,-35.3632597,149.1652325,138085.75,-24.75,48.0,101.25
06:53:57,98115.0,RTL,-4.5,80.5,-1038.0,1154.0,3.5,-3.0,-0.0025971397408284247,-0.004970448790118098,-2.6866527795791626,1.1505644917488098,-0.0007030682172626257,-0.007413737243041396,-35.3632602,149.1652338,137296.5,-21.5,40.5,101.5
06:53:59,98115.0,RTL,-5.0,75.0,-1004.0,1444.5,1.0,-4.0,0.0269380584359169,-0.0043330995831638575,-2.6866238117218018,1.4420032501220703,-0.0028764234157279134,-0.008059664629399776,-35.3632619,149.16523755,135253.5,-7.5,11.5,99.0
06:54:01,98115.0,RTL,0.0,70.0,-997.0,1341.0,8.5,8.0,0.031551080755889416,0.002340407110750675,-2.687960147857666,1.337588369846344,0.004646496381610632,0.004570381715893745,-35.3632631,149.16523984999998,133203.0,4.0,-15.5,100.5
06:54:02,180773.0,RTL,0.25,50.25,-1034.25,1322.0,2.25,2.75,0.02057592896744609,0.002458774280967191,-2.68624085187912,1.3196558356285095,-0.001588979095686227,-0.0003451734082773328,-35.363262825,149.16523882500002,131937.0,5.5,-14.75,98.75
06:54:03,180773.0,RTL,-1.0,26.0,-1013.5,1159.5,-4.0,4.5,0.02958004828542471,-0.001315559260547161,-2.6854180097579956,1.1577033400535583,-0.009268905268982053,0.001000515534542501,-35.3632628,149.16523895,131176.5,5.0,-10.0,99.5
06:54:05,180773.0,RTL,1.0,45.0,-1039.5,1377.0,11.5,6.5,0.048706961795687675,0.0007352460306719877,-2.6869685649871826,1.3741744756698608,0.007675728993490338,0.0036260548513382673,-35.3632634,149.16524114999999,129123.0,9.5,-27.0,96.5
06:54:07,180773.0,RTL,1.0,71.0,-992.0,1416.0,1.0,5.5,0.013063439168035984,0.003919142764061689,-2.686789035797119,1.4117217063903809,-0.0030399051029235125,0.0026998581597581506,-35.363262649999996,149.1652385,127070.0,6.5,-17.0,97.5
06:54:08,58324.0,RTL,-0.5,50.5,-1016.0,1359.5,0.5,0.5,0.026640342082828283,-0.00047348720909212716,-2.6866655349731445,1.3564258217811584,-0.0035773645504377782,-0.003250894311349839,-35.36326245,149.16523835,125802.5,4.0,-9.0,97.75
06:54:09,58324.0,RTL,-3.5,61.5,-1046.0,1304.5,0.0,4.5,0.026730830781161785,-0.0012745600834023207,-2.685118556022644,1.3010668754577637,-0.004241683753207326,0.0008984599262475967,-35.3632625,149.1652386,125036.0,4.5,-10.5,97.5
06:54:11,58324.0,RTL,-4.5,-4.0,-1064.5,612.5,14.5,1.5,0.0639912448823452,-0.0022195136989466846,-2.6869336366653442,0.6100282371044159,0.010592266917228699,-0.0013917268952354789,-35.3632638,149.16524220000002,123014.0,12.0,-28.0,98.5
06:54:12,85591.0,RTL,2.5,-15.0,-1031.25,597.5,6.0,1.5,0.06444387510418892,0.002466262681991793,-2.6871241331100464,0.5940090343356133,0.0024412641650997102,-0.001435199927072972,-35.3632645,149.16524320000002,121756.0,19.0,-44.0,101.5
06:54:13,85591.0,RTL,2.0,-16.0,-977.0,523.5,3.0,5.5,0.042530905455350876,0.005870311986654997,-2.686087131500244,0.5202277302742004,-0.0008063827408477664,0.0021094833500683308,-35.3632643,149.16524235,120992.5,20.0,-46.5,102.5
06:54:15,85591.0,RTL,5.5,-9.0,-976.0,771.5,-2.5,-2.0,0.008050563978031278,0.007798618637025356,-2.6866469383239746,0.7679730653762817,-0.006826015189290047,-0.005936384666711092,-35.363262750000004,149.1652383,118943.5,9.0,-19.5,102.5
06:54:17,85591.0,RTL,3.0,-61.0,-946.5,-341.0,2.5,4.0,-0.021558864042162895,0.00584550341591239,-2.685479760169983,-0.34419776499271393,-0.0011075913207605481,0.0011755703017115593,-35.363260749999995,149.16523354999998,116891.5,-9.0,20.5,106.0
06:54:18,27264.0,RTL,0.25,-5.25,-1021.5,592.75,1.25,-0.5,-0.017656871350482106,0.0013959835214336636,-2.685330808162689,0.5898591056466103,-0.002820918569341302,-0.004166017402894795,-35.363260075,149.1652325,115609.0,-16.0,35.25,98.5
06:54:19,27264.0,RTL,0.0,-27.5,-948.5,201.0,-1.5,-6.5,-0.01431971462443471,-0.0014542675053235143,-2.6853187084198,0.19899464026093483,-0.006625950103625655,-0.009662601281888783,-35.36326,149.16523265,114861.5,-19.0,40.0,100.5
06:54:21,27264.0,RTL,2.0,-11.0,-1054.5,343.0,-4.0,-5.5,-0.015164113137871027,0.00180762296076864,-2.6858025789260864,0.34098876640200615,-0.008568103425204754,-0.00960669107735157,-35.3632601,149.16523304999998,112824.5,-20.0,35.5,100.0
06:54:23,27264.0,RTL,-3.5,-43.0,-992.5,-485.5,-8.0,6.5,-0.012535561807453632,-0.006126347230747342,-2.685038208961487,-0.4874601364135742,-0.012458302080631256,0.003874871414154768,-35.3632603,149.16523389999998,110783.5,-20.0,38.5,99.5
06:54:24,50236.0,RTL,-4.75,-67.75,-983.25,-1141.5,5.75,-2.25,0.015896630007773638,-0.006945847067981958,-2.685529053211212,-1.1440590173006058,0.0019457282614894211,-0.0054336662869900465,-35.363261574999996,149.16523732500002,109509.5,-12.5,19.75,102.5
06:54:25,50236.0,RTL,-2.5,-66.0,-1006.5,-1337.5,7.0,3.5,0.015536918304860592,-0.0034925994696095586,-2.6862246990203857,-1.3399977087974548,0.0030186912044882774,0.0005768545670434833,-35.363262250000005,149.16523885,108737.0,-6.5,3.0,100.0
06:54:27,50236.0,RTL,1.0,-55.5,-1033.0,-1247.0,3.5,3.0,-0.014647014439105988,0.0033225296065211296,-2.6849695444107056,-1.2508015632629395,-0.00029194424860179424,0.00020702375331893563,-35.3632624,149.16523815,106708.5,0.0,-7.0,104.0
06:54:29,50236.0,RTL,-1.5,-7.5,-1018.5,-906.0,0.5,-3.5,-0.011327169369906187,-0.0011771621648222208,-2.6860294342041016,-0.9105254709720612,-0.0032253818353638053,-0.007059547584503889,-35.3632622,149.1652377,104676.5,-0.5,0.0,100.5
06:54:30,24254.0,RTL,-1.0,16.25,-1023.5,-259.5,2.25,5.25,-1.1513475328683853e-07,-0.0025233273045159876,-2.686430871486664,-0.2643490263726562,-0.0016574449837207794,0.0026169756310991943,-35.3632622,149.165238375,103391.25,-0.25,-4.5,100.75
06:54:31,24254.0,RTL,-1.5,69.5,-988.5,705.5,6.5,-3.0,0.00415474665351212,-0.0015238301712088287,-2.6856777667999268,0.700753778219223,0.0027332030003890395,-0.006107856403104961,-35.3632622,149.1652386,102618.5,0.0,-7.5,106.0
06:54:33,24254.0,RTL,-2.0,76.0,-982.0,1153.0,2.5,0.5,0.0021353926858864725,3.525358624756336e-05,-2.6852704286575317,1.148161381483078,-0.0011009096633642912,-0.0023577233077958226,-35.363262,149.16523775000002,100560.0,0.0,-6.0,102.5
06:54:35,24254.0,RTL,0.0,35.0,-962.5,-150.5,8.0,2.0,0.005915663088671863,0.00045518474507844076,-2.6858463287353516,-0.15635742247104645,0.004632786498405039,-0.0012957865837961435,-35.3632626,149.16523905000003,98537.5,1.5,-9.5,99.0
06:54:36,131017.0,RTL,2.6666666666666665,36.0,-1016.3333333333334,1210.6666666666667,5.0,6.0,0.01883058932920297,0.006177319213747978,-2.6860456466674805,1.2080272436141968,0.0017590698941300313,0.0028901073771218457,-35.36326259999999,149.16523833333335,97286.0,2.6666666666666665,-11.333333333333334,98.0
06:54:37,131017.0,RTL,2.0,14.666666666666666,-1019.0,1029.0,4.0,8.333333333333334,0.001905269765605529,0.007744187178711097,-2.685059070587158,1.027012785275777,0.0006274813786149025,0.00536538171581924,-35.3632621,149.16523683333335,96513.66666666667,0.6666666666666666,-4.333333333333333,102.66666666666667
06:54:39,131017.0,RTL,2.0,71.0,-1008.0,1090.5,2.5,11.5,-0.024166316725313663,0.003944751224480569,-2.6855645179748535,1.085986614227295,-0.0005918808747082949,0.00913172448053956,-35.3632608,149.16523375,94441.0,-9.5,22.0,100.5
06:54:41,131017.0,RTL,2.0,0.0,-991.6666666666666,791.3333333333334,-2.0,-3.6666666666666665,-0.013596557391186556,0.001947334889943401,-2.685157616933187,0.7912714083989462,-0.0056156497448682785,-0.006954140728339553,-35.363260033333326,149.16523243333333,92439.33333333333,-19.333333333333332,39.666666666666664,101.0
06:54:42,19622.0,RTL,-1.3333333333333333,-27.333333333333332,-977.6666666666666,196.33333333333334,-2.0,7.0,-0.014806270288924376,-0.0014202580156658466,-2.685092051823934,0.1964953988790512,-0.00618345042069753,0.003773936458552877,-35.363260033333326,149.16523273333334,91163.33333333333,-21.333333333333332,43.333333333333336,102.33333333333333
06:54:43,19622.0,RTL,-1.6666666666666667,-49.0,-954.6666666666666,-269.3333333333333,2.0,4.333333333333333,-0.002892950394501289,-0.004394355773304899,-2.684728463490804,-0.26904378334681195,-0.0015632739911476772,0.0009892276333024104,-35.363260200000006,149.16523366666667,90390.33333333333,-20.666666666666668,40.333333333333336,100.66666666666667
06:54:45,19622.0,RTL,-1.0,-49.333333333333336,-1006.0,-531.3333333333334,2.6666666666666665,-7.0,0.008963566739112139,-0.002888127307717999,-2.685532728830973,-0.5309505810340246,-0.00034874421544373035,-0.01037626170242826,-35.363261200000004,149.16523633333335,88345.33333333333,-14.0,19.666666666666668,99.33333333333333
06:54:47,19622.0,RTL,-1.3333333333333333,-70.0,-984.6666666666666,-874.0,5.0,-0.3333333333333333,0.003663288429379463,-0.0018694190463672082,-2.6844394207000732,-0.8737538854281107,0.0022505139155934253,-0.004191847673306863,-35.36326176666667,149.1652374,86289.0,-7.666666666666667,8.333333333333334,97.66666666666667
