time_stamp,MODE,lat,lon,relative_alt,roll,pitch,yaw,rollspeed,pitchspeed,yawspeed,xacc,yacc,zacc,xgyro,ygyro,zgyro,vx,vy,vz,chan4_raw,RTL_ALT
14:20:31.151,STABILIZE,-35.3632621,149.1652374,0,-0.00013257801765576005,0.001618988811969757,0.027889061719179153,0.0002627227222546935,0.00037637894274666905,0.002365183550864458,0,1,-1000,0,0,0,0,0,0,1500,1500.0
14:20:31.353,STABILIZE,-35.3632621,149.1652374,0,-0.00013257801765576005,0.001618988811969757,0.027889061719179153,0.0002627227222546935,0.00037637894274666905,0.002365183550864458,0,1,-1000,0,0,0,0,0,0,1500,1500.0
14:20:31.555,STABILIZE,-35.3632621,149.1652374,0,-0.00013257801765576005,0.001618988811969757,0.027889061719179153,0.0002627227222546935,0.00037637894274666905,0.002365183550864458,0,1,-1000,0,0,0,0,0,0,1500,1500.0
14:20:31.756,STABILIZE,-35.3632621,149.1652374,0,-0.00018939533038064837,0.0016072433209046721,0.02746432274580002,0.00031900356407277286,0.00027015749947167933,0.0024232857394963503,0,1,-1000,0,0,0,-1,1,0,1500,1500.0
14:20:31.956,STABILIZE,-35.3632621,149.1652374,0,-0.00018939533038064837,0.0016072433209046721,0.02746432274580002,0.00031900356407277286,0.00027015749947167933,0.0024232857394963503,0,1,-1000,0,0,0,-1,1,0,1500,1500.0
14:20:32.158,STABILIZE,-35.3632621,149.1652374,0,-0.00018939533038064837,0.0016072433209046721,0.02746432274580002,0.00031900356407277286,0.00027015749947167933,0.0024232857394963503,0,1,-1000,0,0,0,-1,1,0,1500,1500.0
14:20:32.359,STABILIZE,-35.3632622,149.1652375,0,-0.0003433333768043667,0.0014985111774876714,0.026999762281775475,0.00016877689631655812,0.00024393165949732065,0.002259856555610895,0,1,-1000,0,0,0,-2,1,0,1500,1500.0
14:20:32.560,STABILIZE,-35.3632622,149.1652375,0,-0.00040912325493991375,0.0014500119723379612,0.026873471215367317,0.00021326338173821568,0.00032251543598249555,0.0022259890101850033,0,1,-1000,0,0,0,-2,1,0,1500,1500.0
14:20:32.762,STABILIZE,-35.3632622,149.1652375,0,-0.00040912325493991375,0.0014500119723379612,0.026873471215367317,0.00021326338173821568,0.00032251543598249555,0.0022259890101850033,0,1,-1000,0,0,0,-2,1,0,1500,1500.0
14:20:32.963,STABILIZE,-35.3632622,149.1652375,0,-0.00046960540930740535,0.001403913483954966,0.026720695197582245,0.00022260312107391655,0.000296071550110355,0.002278514439240098,0,1,-1000,0,0,0,-2,1,0,1500,1500.0
14:20:33.165,STABILIZE,-35.3632622,149.1652375,0,-0.00046960540930740535,0.001403913483954966,0.026720695197582245,0.00022260312107391655,0.000296071550110355,0.002278514439240098,0,1,-1000,0,0,0,-2,1,0,1500,1500.0
14:20:33.366,STABILIZE,-35.3632622,149.1652375,0,-0.00046960540930740535,0.001403913483954966,0.026720695197582245,0.00022260312107391655,0.000296071550110355,0.002278514439240098,0,1,-1000,0,0,0,-2,1,0,1500,1500.0
14:20:33.567,STABILIZE,-35.3632622,149.1652375,0,-0.00046960540930740535,0.001403913483954966,0.026720695197582245,0.00022260312107391655,0.000296071550110355,0.002278514439240098,0,1,-1000,0,0,0,-2,1,0,1500,1500.0
14:20:33.769,STABILIZE,-35.3632622,149.1652375,0,-0.0006473605753853917,0.0012382478453218937,0.026325516402721405,0.00022744163288734853,0.0002201053430326283,0.002169056562706828,0,1,-1000,0,0,0,-1,1,0,1500,1500.0
14:20:33.970,STABILIZE,-35.3632622,149.1652375,0,-0.0006473605753853917,0.0012382478453218937,0.026325516402721405,0.00022744163288734853,0.0002201053430326283,0.002169056562706828,0,1,-1000,0,0,0,-1,1,0,1500,1500.0
14:20:34.171,STABILIZE,-35.3632622,149.1652375,0,-0.0007524822722189128,0.0011482019908726215,0.02608628198504448,0.00031071732519194484,0.00024071813095360994,0.0021133716218173504,0,1,-1000,0,0,1,-1,1,0,1500,1500.0
14:20:34.372,STABILIZE,-35.3632622,149.1652375,0,-0.0007524822722189128,0.0011482019908726215,0.02608628198504448,0.00031071732519194484,0.00024071813095360994,0.0021133716218173504,0,1,-1000,0,0,1,-1,1,0,1500,1500.0
14:20:34.572,STABILIZE,-35.3632622,149.1652375,0,-0.0006909670191816986,0.0010767242638394237,0.025835299864411354,0.0002556378021836281,0.0002891947515308857,0.001959744142368436,0,1,-1000,0,0,1,-1,1,0,1500,1500.0
14:20:34.774,STABILIZE,-35.3632622,149.1652375,0,-0.0006909670191816986,0.0010767242638394237,0.025835299864411354,0.0002556378021836281,0.0002891947515308857,0.001959744142368436,0,1,-1000,0,0,1,-1,1,0,1500,1500.0
14:20:34.975,STABILIZE,-35.3632622,149.1652375,0,-0.0006909670191816986,0.0010767242638394237,0.025835299864411354,0.0002556378021836281,0.0002891947515308857,0.001959744142368436,0,1,-1000,0,0,1,-1,1,0,1500,1500.0
14:20:35.175,STABILIZE,-35.3632622,149.1652375,0,-0.0006909670191816986,0.0010767242638394237,0.025835299864411354,0.0002556378021836281,0.0002891947515308857,0.001959744142368436,0,1,-1000,0,0,1,-1,1,0,1500,1500.0
14:20:35.377,STABILIZE,-35.3632622,149.1652375,0,-0.0006909670191816986,0.0010767242638394237,0.025835299864411354,0.0002556378021836281,0.0002891947515308857,0.001959744142368436,0,1,-1000,0,0,1,-1,1,0,1500,1500.0
14:20:35.580,STABILIZE,-35.3632622,149.1652375,0,-0.0006909670191816986,0.0010767242638394237,0.025835299864411354,0.0002556378021836281,0.0002891947515308857,0.001959744142368436,0,1,-1000,0,0,1,-1,1,0,1500,1500.0
14:20:35.782,STABILIZE,-35.3632622,149.1652375,0,-0.0006909670191816986,0.0010767242638394237,0.025835299864411354,0.0002556378021836281,0.0002891947515308857,0.001959744142368436,0,1,-1000,0,0,1,-1,1,0,1500,1500.0
14:20:35.983,STABILIZE,-35.3632621,149.1652375,0,-0.0006909670191816986,0.0010767242638394237,0.025835299864411354,0.0002556378021836281,0.0002891947515308857,0.001959744142368436,0,1,-1000,0,0,1,-1,1,0,1500,1500.0
14:20:36.184,STABILIZE,-35.3632621,149.1652375,0,-0.000964804959949106,0.0009772612247616053,0.025231340900063515,0.00017467013094574213,0.0003712619363795966,0.001964879222214222,0,1,-1000,0,0,1,-1,1,0,1500,1500.0
14:20:36.385,STABILIZE,-35.3632621,149.1652375,0,-0.0009835208766162395,0.0009601914789527655,0.025130070745944977,0.00025249714963138103,0.00020939717069268227,0.001755865290760994,0,1,-1000,0,0,1,-1,1,0,1500,1500.0
14:20:36.586,STABILIZE,-35.3632621,149.1652375,0,-0.0010078409686684608,0.0009513904224149883,0.025066735222935677,0.0001959127257578075,0.00022940256167203188,0.0020594627130776644,0,1,-1000,0,0,1,-1,1,0,1500,1500.0
14:20:36.787,STABILIZE,-35.3632621,149.1652375,0,-0.0010078409686684608,0.0009513904224149883,0.025066735222935677,0.0001959127257578075,0.00022940256167203188,0.0020594627130776644,0,1,-1000,0,0,1,-1,1,0,1500,1500.0
14:20:36.988,STABILIZE,-35.3632621,149.1652375,0,-0.0010370941599830985,0.0009483477333560586,0.024978000670671463,0.00021401705453172326,0.00023149658227339387,0.0019683472346514463,0,2,-1000,0,0,0,-1,1,0,1500,1500.0
14:20:37.190,STABILIZE,-35.3632621,149.1652375,0,-0.0010370941599830985,0.0009483477333560586,0.024978000670671463,0.00021401705453172326,0.00023149658227339387,0.0019683472346514463,0,2,-1000,0,0,0,-1,1,0,1500,1500.0
14:20:37.390,STABILIZE,-35.3632621,149.1652375,0,-0.0010370941599830985,0.0009483477333560586,0.024978000670671463,0.00021401705453172326,0.00023149658227339387,0.0019683472346514463,0,2,-1000,0,0,0,-1,1,0,1500,1500.0
14:20:37.594,STABILIZE,-35.3632621,149.1652375,0,-0.0010370941599830985,0.0009483477333560586,0.024978000670671463,0.00021401705453172326,0.00023149658227339387,0.0019683472346514463,0,2,-1000,0,0,0,-1,1,0,1500,1500.0
14:20:37.796,STABILIZE,-35.3632621,149.1652374,0,-0.0010370941599830985,0.0009483477333560586,0.024978000670671463,0.00021401705453172326,0.00023149658227339387,0.0019683472346514463,0,2,-1000,0,0,0,-1,1,0,1500,1500.0
14:20:37.997,STABILIZE,-35.3632621,149.1652374,0,-0.0010370941599830985,0.0009483477333560586,0.024978000670671463,0.00021401705453172326,0.00023149658227339387,0.0019683472346514463,0,2,-1000,0,0,0,-1,1,0,1500,1500.0
14:20:38.198,STABILIZE,-35.3632621,149.1652374,0,-0.0010991079034283757,0.0009256798075512052,0.024527858942747116,0.00026827125111594796,0.00023403688101097941,0.00178623478859663,0,2,-1000,0,0,0,-1,1,0,1500,1500.0
14:20:38.398,STABILIZE,-35.3632621,149.1652374,0,-0.0010991079034283757,0.0009256798075512052,0.024527858942747116,0.00026827125111594796,0.00023403688101097941,0.00178623478859663,0,2,-1000,0,0,0,-1,0,-2,1500,1500.0
14:20:38.599,STABILIZE,-35.3632621,149.1652374,0,-0.0010991079034283757,0.0009256798075512052,0.024527858942747116,0.00026827125111594796,0.00023403688101097941,0.00178623478859663,0,2,-1000,0,0,0,-1,0,-2,1500,1500.0
14:20:38.800,STABILIZE,-35.3632621,149.1652374,0,-0.0010991079034283757,0.0009256798075512052,0.024527858942747116,0.00026827125111594796,0.00023403688101097941,0.00178623478859663,0,2,-1000,0,0,0,-1,0,-2,1500,1500.0
14:20:39.001,STABILIZE,-35.3632621,149.1652374,0,-0.0010991079034283757,0.0009256798075512052,0.024527858942747116,0.00026827125111594796,0.00023403688101097941,0.00178623478859663,0,1,-1000,0,0,0,-1,0,-2,1500,1500.0
14:20:39.202,STABILIZE,-35.3632621,149.1652374,0,-0.0010991079034283757,0.0009256798075512052,0.024527858942747116,0.00026827125111594796,0.00023403688101097941,0.00178623478859663,0,1,-1000,0,0,0,-1,0,-2,1500,1500.0
14:20:39.403,STABILIZE,-35.3632621,149.1652374,0,-0.0010991079034283757,0.0009256798075512052,0.024527858942747116,0.00026827125111594796,0.00023403688101097941,0.00178623478859663,0,1,-1000,0,0,0,-1,0,-2,1500,1500.0
14:20:39.605,STABILIZE,-35.3632621,149.1652374,0,-0.0010991079034283757,0.0009256798075512052,0.024527858942747116,0.00026827125111594796,0.00023403688101097941,0.00178623478859663,0,1,-1000,0,0,0,-1,0,-2,1500,1500.0
14:20:39.807,STABILIZE,-35.3632621,149.1652374,0,-0.0006927651702426374,0.0009374323999509215,0.023964250460267067,0.00031757826218381524,0.00027790700551122427,0.001762131229043007,0,2,-1000,0,0,0,-1,0,-1,1500,1500.0
14:20:40.008,STABILIZE,-35.3632621,149.1652374,0,-0.0006927651702426374,0.0009374323999509215,0.023964250460267067,0.00031757826218381524,0.00027790700551122427,0.001762131229043007,0,2,-1000,0,0,0,-1,0,-1,1500,1500.0
14:20:40.209,STABILIZE,-35.3632621,149.1652374,0,-0.0006927651702426374,0.0009374323999509215,0.023964250460267067,0.00031757826218381524,0.00027790700551122427,0.001762131229043007,0,1,-1000,0,0,0,-1,0,-1,1500,1500.0
14:20:40.410,STABILIZE,-35.3632621,149.1652374,0,-0.0006927651702426374,0.0009374323999509215,0.023964250460267067,0.00031757826218381524,0.00027790700551122427,0.001762131229043007,0,1,-1000,0,0,0,-1,1,-1,1500,1500.0
14:20:40.611,STABILIZE,-35.3632621,149.1652374,0,-0.0006927651702426374,0.0009374323999509215,0.023964250460267067,0.00031757826218381524,0.00027790700551122427,0.001762131229043007,0,1,-1000,0,0,0,-1,1,-1,1500,1500.0
14:20:40.813,STABILIZE,-35.3632622,149.1652374,0,-0.0006084248307161033,0.0009435090469196439,0.02361639216542244,0.000244155409745872,9.859161218628287e-05,0.0017012429889291525,0,2,-1000,0,0,0,-1,1,-1,1500,1500.0
14:20:41.015,STABILIZE,-35.3632622,149.1652374,0,-0.0006084248307161033,0.0009435090469196439,0.02361639216542244,0.000244155409745872,9.859161218628287e-05,0.0017012429889291525,0,2,-1000,0,0,0,-1,1,-1,1500,1500.0
14:20:41.216,STABILIZE,-35.3632622,149.1652374,0,-0.0006084248307161033,0.0009435090469196439,0.02361639216542244,0.000244155409745872,9.859161218628287e-05,0.0017012429889291525,0,2,-1000,0,0,0,-1,1,-1,1500,1500.0
14:20:41.418,STABILIZE,-35.3632622,149.1652374,0,-0.0006084248307161033,0.0009435090469196439,0.02361639216542244,0.000244155409745872,9.859161218628287e-05,0.0017012429889291525,0,2,-1000,0,0,0,-1,1,-1,1500,1500.0
14:20:41.620,STABILIZE,-35.3632622,149.1652374,0,-0.0006084248307161033,0.0009435090469196439,0.02361639216542244,0.000244155409745872,9.859161218628287e-05,0.0017012429889291525,0,2,-1000,0,0,0,-1,1,-1,1500,1500.0
14:20:41.824,STABILIZE,-35.3632622,149.1652374,0,-0.0006084248307161033,0.0009435090469196439,0.02361639216542244,0.000244155409745872,9.859161218628287e-05,0.0017012429889291525,0,1,-1000,1,0,0,-1,1,-1,1500,1500.0
14:20:42.026,STABILIZE,-35.3632622,149.1652374,0,-0.0006084248307161033,0.0009435090469196439,0.02361639216542244,0.000244155409745872,9.859161218628287e-05,0.0017012429889291525,0,1,-1000,1,0,0,-1,1,-1,1500,1500.0
14:20:42.227,STABILIZE,-35.3632622,149.1652375,0,-0.0004625524452421814,0.0009480087319388986,0.023162519559264183,0.0003119605826213956,0.0001692388323135674,0.001678577740676701,0,1,-1000,1,0,0,-1,1,0,1500,1500.0
14:20:42.428,STABILIZE,-35.3632622,149.1652375,0,-0.0004625524452421814,0.0009480087319388986,0.023162519559264183,0.0003119605826213956,0.0001692388323135674,0.001678577740676701,0,1,-1000,1,0,0,-1,1,0,1500,1500.0
14:20:42.629,STABILIZE,-35.3632622,149.1652375,0,-0.0004625524452421814,0.0009480087319388986,0.023162519559264183,0.0003119605826213956,0.0001692388323135674,0.001678577740676701,0,1,-1000,1,0,0,-1,1,0,1500,1500.0
14:20:42.830,STABILIZE,-35.3632622,149.1652375,0,-0.0005131270154379308,0.000959480123128742,0.02291770838201046,0.0003509833477437496,0.0002799329231493175,0.0016796477138996124,0,1,-1000,1,0,1,-1,2,0,1500,1500.0
14:20:43.031,STABILIZE,-35.3632622,149.1652375,0,-0.0005131270154379308,0.000959480123128742,0.02291770838201046,0.0003509833477437496,0.0002799329231493175,0.0016796477138996124,0,1,-1000,1,0,1,-1,2,0,1500,1500.0
14:20:43.232,STABILIZE,-35.3632622,149.1652375,0,-0.0005131270154379308,0.000959480123128742,0.02291770838201046,0.0003509833477437496,0.0002799329231493175,0.0016796477138996124,0,1,-1000,1,0,1,-1,2,0,1500,1500.0
14:20:43.435,STABILIZE,-35.3632622,149.1652375,0,-0.0005131270154379308,0.000959480123128742,0.02291770838201046,0.0003509833477437496,0.0002799329231493175,0.0016796477138996124,0,1,-1000,1,0,1,-1,2,0,1500,1500.0
14:20:43.636,STABILIZE,-35.3632622,149.1652375,0,-0.0005131270154379308,0.000959480123128742,0.02291770838201046,0.0003509833477437496,0.0002799329231493175,0.0016796477138996124,0,1,-1000,1,0,1,-1,2,0,1500,1500.0
14:20:43.838,STABILIZE,-35.3632622,149.1652375,0,-0.000584794266615063,0.0009569099056534469,0.022678490728139877,0.0003001167206093669,0.0002413896145299077,0.001646809047088027,0,1,-1000,1,0,1,-1,2,0,1500,1500.0
14:20:44.042,STABILIZE,-35.3632622,149.1652375,0,-0.000584794266615063,0.0009569099056534469,0.022678490728139877,0.0003001167206093669,0.0002413896145299077,0.001646809047088027,0,1,-1000,1,0,1,-1,2,0,1500,1500.0
14:20:44.246,STABILIZE,-35.3632622,149.1652375,0,-0.000584794266615063,0.0009569099056534469,0.022678490728139877,0.0003001167206093669,0.0002413896145299077,0.001646809047088027,0,1,-1000,1,0,1,-1,1,0,1500,1500.0
14:20:44.447,STABILIZE,-35.3632622,149.1652375,0,-0.0006496667047031224,0.0009573854622431099,0.022453326731920242,0.0003286110586486757,0.00022570753935724497,0.001651271479204297,0,1,-1000,1,0,1,-1,1,0,1500,1500.0
14:20:44.648,STABILIZE,-35.3632622,149.1652375,0,-0.0006733703776262701,0.0009627299732528627,0.022366413846611977,0.0003225082182325423,0.0002926780725829303,0.0015643535880371928,0,1,-1000,1,0,1,-1,1,0,1500,1500.0
14:20:44.849,STABILIZE,-35.3632622,149.1652375,0,-0.0003683602553792298,0.0009701543021947145,0.022289523854851723,0.00024402706185355783,0.0003532268456183374,0.0016018282622098923,0,1,-1000,1,0,1,-1,1,0,1500,1500.0
14:20:45.051,STABILIZE,-35.3632622,149.1652375,0,-0.0003683602553792298,0.0009701543021947145,0.022289523854851723,0.00024402706185355783,0.0003532268456183374,0.0016018282622098923,0,1,-1000,1,0,1,-1,1,0,1500,1500.0
14:20:45.252,STABILIZE,-35.3632622,149.1652375,0,-0.0003683602553792298,0.0009701543021947145,0.022289523854851723,0.00024402706185355783,0.0003532268456183374,0.0016018282622098923,0,1,-1000,1,0,1,-1,1,0,1500,1500.0
14:20:45.456,STABILIZE,-35.3632622,149.1652375,0,-0.0003683602553792298,0.0009701543021947145,0.022289523854851723,0.00024402706185355783,0.0003532268456183374,0.0016018282622098923,0,1,-1000,1,0,1,-1,1,0,1500,1500.0
14:20:45.659,STABILIZE,-35.3632622,149.1652375,0,-0.0003683602553792298,0.0009701543021947145,0.022289523854851723,0.00024402706185355783,0.0003532268456183374,0.0016018282622098923,0,1,-1000,1,0,1,-1,1,0,1500,1500.0
14:20:45.862,STABILIZE,-35.3632622,149.1652375,0,-0.0003683602553792298,0.0009701543021947145,0.022289523854851723,0.00024402706185355783,0.0003532268456183374,0.0016018282622098923,0,1,-1000,0,0,0,-1,2,1,1500,1500.0
14:20:46.063,STABILIZE,-35.3632622,149.1652375,0,-0.000657752447295934,0.0009840787388384342,0.021924499422311783,0.00024310644948855042,0.00031817093258723617,0.0014782063663005829,0,1,-1000,0,0,0,-1,2,1,1500,1500.0
14:20:46.265,STABILIZE,-35.3632622,149.1652375,0,-0.000657752447295934,0.0009840787388384342,0.021924499422311783,0.00024310644948855042,0.00031817093258723617,0.0014782063663005829,0,2,-1000,0,1,0,-1,2,1,1500,1500.0
14:20:46.466,AUTO,-35.3632622,149.1652375,0,-0.0007038726471364498,0.0009796097874641418,0.021857988089323044,0.000274494057521224,0.0002008624724112451,0.0016366674099117517,0,2,-1000,1,1,0,-1,2,1,1500,1500.0
14:20:46.666,AUTO,-35.3632622,149.1652375,7,-0.0007419903995469213,0.0009809961775317788,0.021825270727276802,0.0003573717549443245,0.0002466015866957605,0.001599170034751296,0,1,-1000,0,0,1,-1,2,1,1500,1500.0
14:20:46.868,AUTO,-35.3632622,149.1652375,6,-0.0007803067564964294,0.0009871195070445538,0.02177623100578785,0.0003796444507315755,0.00026827421970665455,0.001415961654856801,0,2,-1000,0,0,1,-1,1,1,1500,1500.0
14:20:47.068,AUTO,-35.3632622,149.1652375,6,-0.0007803067564964294,0.0009871195070445538,0.02177623100578785,0.0003796444507315755,0.00026827421970665455,0.001415961654856801,0,2,-1000,0,0,1,-1,1,1,1500,1500.0
14:20:47.271,AUTO,-35.3632622,149.1652375,6,-0.0007803067564964294,0.0009871195070445538,0.02177623100578785,0.0003796444507315755,0.00026827421970665455,0.001415961654856801,0,2,-1000,0,0,1,-1,1,1,1500,1500.0
14:20:47.474,AUTO,-35.3632622,149.1652375,6,-0.0007803067564964294,0.0009871195070445538,0.02177623100578785,0.0003796444507315755,0.00026827421970665455,0.001415961654856801,0,2,-1000,0,0,1,-1,1,1,1500,1500.0
14:20:47.674,AUTO,-35.3632622,149.1652375,6,-0.0007803067564964294,0.0009871195070445538,0.02177623100578785,0.0003796444507315755,0.00026827421970665455,0.001415961654856801,0,2,-1000,0,0,1,-1,1,1,1500,1500.0
14:20:47.876,AUTO,-35.3632621,149.1652375,3,-0.0007728873752057552,0.0011124490993097425,0.021550253033638,0.00022744853049516678,0.0002784167299978435,0.0013578780926764011,0,1,-1000,0,1,0,0,0,0,1500,1500.0
14:20:48.077,AUTO,-35.3632621,149.1652375,3,-0.0007320432923734188,0.0011679506860673428,0.02148989960551262,0.00021267723059281707,0.0003407187759876251,0.0014198157005012035,0,1,-1000,0,0,0,0,0,0,1500,1500.0
14:20:48.278,AUTO,-35.3632621,149.1652375,3,-0.0007320432923734188,0.0011679506860673428,0.02148989960551262,0.00021267723059281707,0.0003407187759876251,0.0014198157005012035,0,1,-1000,0,0,0,0,0,0,1500,1500.0
14:20:48.479,AUTO,-35.3632621,149.1652375,5,-0.0005209408118389547,0.0012354727368801832,0.021439962089061737,0.00022393331164494157,0.0003630074206739664,0.0014168076450005174,0,2,-999,0,1,0,0,-1,-1,1500,1500.0
14:20:48.680,AUTO,-35.3632621,149.1652374,9,-0.00046991920680738986,0.0012981484178453684,0.021366773173213005,0.00023711734684184194,0.00021829543402418494,0.0014594423118978739,0,1,-1000,1,0,1,0,-1,-1,1500,1500.0
14:20:48.881,AUTO,-35.3632621,149.1652374,11,-0.00042109761852771044,0.0013550542062148452,0.02129145711660385,0.00020985386800020933,0.00014471093891188502,0.0013453532010316849,0,1,-1000,0,1,1,0,-1,-1,1500,1500.0
14:20:49.082,AUTO,-35.3632621,149.1652374,11,-0.00042109761852771044,0.0013550542062148452,0.02129145711660385,0.00020985386800020933,0.00014471093891188502,0.0013453532010316849,0,1,-1000,0,1,1,0,-1,-1,1500,1500.0
14:20:49.284,AUTO,-35.3632621,149.1652374,11,-0.00042109761852771044,0.0013550542062148452,0.02129145711660385,0.00020985386800020933,0.00014471093891188502,0.0013453532010316849,0,1,-1000,0,1,1,0,-1,-1,1500,1500.0
14:20:49.485,AUTO,-35.3632621,149.1652374,11,-0.00042109761852771044,0.0013550542062148452,0.02129145711660385,0.00020985386800020933,0.00014471093891188502,0.0013453532010316849,0,1,-1000,0,1,1,0,-1,-1,1500,1500.0
14:20:49.687,AUTO,-35.3632621,149.1652374,11,-0.00042109761852771044,0.0013550542062148452,0.02129145711660385,0.00020985386800020933,0.00014471093891188502,0.0013453532010316849,0,1,-1000,0,1,1,0,-1,-1,1500,1500.0
14:20:49.889,AUTO,-35.3632621,149.1652374,12,-0.0001905876415548846,0.0016435750294476748,0.021049628034234047,0.0003466653870418668,0.0002101808786392212,0.0014738488243892789,0,1,-1000,0,0,1,0,0,0,1500,1500.0
14:20:50.090,AUTO,-35.3632621,149.1652374,12,-0.0001230023190146312,0.0017199332360178232,0.020976770669221878,0.00028038182063028216,0.00028966000536456704,0.0013983668759465218,0,1,-1000,1,1,1,0,0,0,1500,1500.0
14:20:50.291,AUTO,-35.3632621,149.1652374,12,-0.0001230023190146312,0.0017199332360178232,0.020976770669221878,0.00028038182063028216,0.00028966000536456704,0.0013983668759465218,0,1,-1000,1,1,1,0,0,0,1500,1500.0
14:20:50.492,AUTO,-35.3632621,149.1652375,13,0.00041266591870225966,0.0010816180147230625,0.020932316780090332,0.005115179345011711,-0.01082104817032814,0.0019126832485198975,0,0,-1076,5,-10,1,0,0,-5,1500,1500.0
14:20:50.693,AUTO,-35.3632621,149.1652375,67,0.0020611239597201347,-0.0005775539902970195,0.020935604348778725,0.0062807779759168625,-0.0010328650241717696,0.0019312759395688772,0,0,-1142,6,0,1,0,0,-38,1500,1500.0
14:20:50.894,AUTO,-35.3632621,149.1652375,204,0.0018387449672445655,5.5691725719952956e-05,0.02092752233147621,0.0031436271965503693,0.00458636274561286,0.0016605211421847343,0,0,-1130,3,5,1,0,0,-72,1500,1500.0
14:20:51.095,AUTO,-35.3632621,149.1652375,204,0.0018387449672445655,5.5691725719952956e-05,0.02092752233147621,0.0031436271965503693,0.00458636274561286,0.0016605211421847343,0,0,-1130,3,5,1,0,0,-72,1500,1500.0
14:20:51.297,AUTO,-35.3632621,149.1652375,204,0.0018387449672445655,5.5691725719952956e-05,0.02092752233147621,0.0031436271965503693,0.00458636274561286,0.0016605211421847343,0,0,-1130,3,5,1,0,0,-72,1500,1500.0
14:20:51.498,AUTO,-35.3632621,149.1652375,204,0.0018387449672445655,5.5691725719952956e-05,0.02092752233147621,0.0031436271965503693,0.00458636274561286,0.0016605211421847343,0,0,-1130,3,5,1,0,0,-72,1500,1500.0
14:20:51.700,AUTO,-35.3632621,149.1652375,204,0.0018387449672445655,5.5691725719952956e-05,0.02092752233147621,0.0031436271965503693,0.00458636274561286,0.0016605211421847343,0,0,-1130,3,5,1,0,0,-72,1500,1500.0
14:20:51.901,AUTO,-35.3632621,149.1652374,1401,0.022419385612010956,-0.0008557523833587766,0.02026847004890442,0.04751499369740486,-0.007097428198903799,0.0019562318921089172,0,0,-1017,48,-6,1,0,4,-145,1500,1500.0
14:20:52.102,AUTO,-35.363262,149.1652376,1779,0.03394348919391632,-0.002659016055986285,0.020341657102108,0.04537125676870346,-0.007809034548699856,0.002591246273368597,0,-1,-1007,45,-7,1,1,11,-147,1500,1500.0
14:20:52.303,AUTO,-35.363262,149.1652376,1779,0.03394348919391632,-0.002659016055986285,0.020341657102108,0.04537125676870346,-0.007809034548699856,0.002591246273368597,0,-1,-1007,45,-7,1,1,11,-147,1500,1500.0
14:20:52.504,AUTO,-35.3632619,149.165238,2162,0.044896457344293594,-0.004802755545824766,0.020518841221928596,0.04290531203150749,-0.009656863287091255,0.003106295596808195,0,-2,-1002,43,-8,2,3,19,-148,1500,1500.0
14:20:52.705,AUTO,-35.3632618,149.1652386,2547,0.05512005463242531,-0.007334087509661913,0.02074381336569786,0.039405934512615204,-0.010775054804980755,0.00335791427642107,0,-4,-1000,40,-10,2,5,30,-148,1500,1500.0
14:20:52.905,AUTO,-35.3632616,149.1652396,2932,0.06301987916231155,-0.00936136581003666,-0.007711631711572409,-0.0017381686484441161,0.012479579076170921,-0.03965499624609947,2,-8,-993,0,12,-40,8,43,-148,1500,1500.0
14:20:53.108,AUTO,-35.3632616,149.1652396,2932,0.06301987916231155,-0.00936136581003666,-0.007711631711572409,-0.0017381686484441161,0.012479579076170921,-0.03965499624609947,2,-8,-993,0,12,-40,8,43,-148,1500,1500.0
14:20:53.310,AUTO,-35.3632616,149.1652396,2932,0.06301987916231155,-0.00936136581003666,-0.007711631711572409,-0.0017381686484441161,0.012479579076170921,-0.03965499624609947,2,-8,-993,0,12,-40,8,43,-148,1500,1500.0
14:20:53.511,AUTO,-35.3632616,149.1652396,2932,0.06301987916231155,-0.00936136581003666,-0.007711631711572409,-0.0017381686484441161,0.012479579076170921,-0.03965499624609947,2,-8,-993,0,12,-40,8,43,-148,1500,1500.0
14:20:53.712,AUTO,-35.3632616,149.1652396,2932,0.06301987916231155,-0.00936136581003666,-0.007711631711572409,-0.0017381686484441161,0.012479579076170921,-0.03965499624609947,2,-8,-993,0,12,-40,8,43,-148,1500,1500.0
14:20:53.913,AUTO,-35.3632609,149.1652448,4446,-0.0316581130027771,0.014589509926736355,-0.07380252331495285,-0.028233546763658524,-0.016286248341202736,-0.04437905550003052,4,-9,-1005,-27,-15,-44,0,38,-149,1500,1500.0
14:20:54.114,AUTO,-35.3632609,149.1652457,4831,-0.043490003794431686,0.009176340885460377,-0.08145173639059067,-0.06424503028392792,-0.021720245480537415,-0.028008172288537025,5,-9,-1000,-63,-21,-28,-1,26,-149,1500,1500.0
14:20:54.316,AUTO,-35.3632609,149.1652462,5216,-0.06299224495887756,0.0021394602954387665,-0.08507242053747177,-0.0865689367055893,-0.030985021963715553,-0.008564366959035397,5,-9,-1000,-63,-21,-28,-2,11,-148,1500,1500.0
14:20:54.518,AUTO,-35.3632609,149.1652462,5216,-0.06299224495887756,0.0021394602954387665,-0.08507242053747177,-0.0865689367055893,-0.030985021963715553,-0.008564366959035397,3,-5,-999,-85,-30,-9,-2,11,-148,1500,1500.0
14:20:54.719,AUTO,-35.363261,149.1652463,5600,-0.07833283394575119,-0.004759238101541996,-0.08688916265964508,-0.008701200596988201,-0.013852303847670555,-0.016409778967499733,1,0,-1005,-8,-13,-16,-2,-7,-148,1500,1500.0
14:20:54.920,AUTO,-35.363261,149.1652459,5984,-0.0703994631767273,-0.0062886555679142475,-0.0907159298658371,0.048091091215610504,-0.0027096611447632313,-0.010155348107218742,-1,3,-1002,49,-2,-10,-2,-25,-149,1500,1500.0
14:20:55.121,AUTO,-35.363261,149.1652459,5984,-0.0703994631767273,-0.0062886555679142475,-0.0907159298658371,0.048091091215610504,-0.0027096611447632313,-0.010155348107218742,-1,3,-1002,49,-2,-10,-2,-25,-149,1500,1500.0
14:20:55.322,AUTO,-35.363261,149.1652459,5984,-0.0703994631767273,-0.0062886555679142475,-0.0907159298658371,0.048091091215610504,-0.0027096611447632313,-0.010155348107218742,-1,3,-1002,49,-2,-10,-2,-25,-149,1500,1500.0
14:20:55.523,AUTO,-35.363261,149.1652459,5984,-0.0703994631767273,-0.0062886555679142475,-0.0907159298658371,0.048091091215610504,-0.0027096611447632313,-0.010155348107218742,-1,3,-1002,49,-2,-10,-2,-25,-149,1500,1500.0
14:20:55.725,AUTO,-35.363261,149.1652459,5984,-0.0703994631767273,-0.0062886555679142475,-0.0907159298658371,0.048091091215610504,-0.0027096611447632313,-0.010155348107218742,-1,3,-1002,49,-2,-10,-2,-25,-149,1500,1500.0
14:20:55.927,AUTO,-35.3632613,149.1652405,7522,-0.010487672872841358,-0.00041776723810471594,-0.09682942926883698,0.06552994251251221,0.01267779991030693,0.0012985741486772895,-7,12,-1003,66,13,0,-4,-59,-150,1500,1500.0
14:20:56.128,AUTO,-35.3632614,149.1652388,7909,0.005962145049124956,0.0028615035116672516,-0.09637993574142456,0.06612091511487961,0.013080236501991749,0.00294286641292274,-8,16,-1004,66,13,2,-6,-57,-151,1500,1500.0
14:20:56.330,AUTO,-35.3632615,149.1652373,8303,0.022580575197935104,0.006004540249705315,-0.09547615796327591,0.06692816317081451,0.011841150000691414,0.003440544940531254,-6,11,-1004,67,12,3,-8,-51,-152,1500,1500.0
14:20:56.533,AUTO,-35.3632615,149.1652373,8303,0.022580575197935104,0.006004540249705315,-0.09547615796327591,0.06692816317081451,0.011841150000691414,0.003440544940531254,-6,11,-1004,67,12,3,-8,-51,-152,1500,1500.0
14:20:56.734,AUTO,-35.3632617,149.1652359,8693,0.011545785702764988,-0.012794739566743374,-0.0690455511212349,-0.18366725742816925,-0.20641233026981354,0.24963948130607605,-2,8,-979,-183,-205,249,-8,-44,-149,1761,1500.0
14:20:56.935,AUTO,-35.3632619,149.1652346,9064,-0.01407525036484003,-0.04524068161845207,0.07714354246854782,0.016722146421670914,-0.04426014423370361,0.7308170199394226,-3,11,-974,17,-43,730,0,-43,-139,1761,1500.0
14:20:57.136,AUTO,-35.3632619,149.1652346,9064,-0.01407525036484003,-0.04524068161845207,0.07714354246854782,0.016722146421670914,-0.04426014423370361,0.7308170199394226,-3,11,-974,17,-43,730,0,-43,-139,1761,1500.0
14:20:57.337,AUTO,-35.3632619,149.1652346,9064,-0.01407525036484003,-0.04524068161845207,0.07714354246854782,0.016722146421670914,-0.04426014423370361,0.7308170199394226,-3,11,-974,17,-43,730,0,-43,-139,1761,1500.0
14:20:57.538,AUTO,-35.3632619,149.1652346,9064,-0.01407525036484003,-0.04524068161845207,0.07714354246854782,0.016722146421670914,-0.04426014423370361,0.7308170199394226,-3,11,-974,17,-43,730,0,-43,-139,1761,1500.0
14:20:57.740,AUTO,-35.3632619,149.1652346,9064,-0.01407525036484003,-0.04524068161845207,0.07714354246854782,0.016722146421670914,-0.04426014423370361,0.7308170199394226,-3,11,-974,17,-43,730,0,-43,-139,1761,1500.0
14:20:57.942,AUTO,-35.3632609,149.1652304,10525,0.023651843890547752,-0.03277168795466423,0.7978597283363342,0.030789660289883614,-0.014647282660007477,0.7095670700073242,-2,9,-1002,31,-13,709,17,-20,-144,1761,1500.0
14:20:58.143,AUTO,-35.3632606,149.1652299,10897,0.024091139435768127,-0.041658513247966766,0.975445568561554,0.025704270228743553,-0.021031731739640236,0.7216816544532776,-3,6,-1000,26,-20,721,17,-10,-144,1761,1500.0
14:20:58.344,AUTO,-35.3632602,149.1652297,11268,0.022639397531747818,-0.05029477924108505,1.1574255228042603,0.03320558741688728,-0.01159275509417057,0.7452325820922852,-1,4,-999,33,-10,744,17,2,-144,1761,1500.0
14:20:58.546,AUTO,-35.3632602,149.1652297,11268,0.022639397531747818,-0.05029477924108505,1.1574255228042603,0.03320558741688728,-0.01159275509417057,0.7452325820922852,-1,4,-999,33,-10,744,17,2,-144,1761,1500.0
14:20:58.747,AUTO,-35.3632598,149.1652298,11638,0.021427210420370102,-0.055421825498342514,1.3465290069580078,0.0381806306540966,0.001912181731313467,0.7716788649559021,-4,1,-998,38,2,771,15,15,-143,1761,1500.0
14:20:58.947,AUTO,-35.3632595,149.1652303,12007,0.02108425833284855,-0.056908413767814636,1.5390195846557617,0.04425382241606712,0.01582525484263897,0.7673793435096741,-5,2,-1000,45,16,766,12,28,-143,1761,1500.0
14:20:59.148,AUTO,-35.3632595,149.1652303,12007,0.02108425833284855,-0.056908413767814636,1.5390195846557617,0.04425382241606712,0.01582525484263897,0.7673793435096741,-5,2,-1000,45,16,766,12,28,-143,1761,1500.0
14:20:59.349,AUTO,-35.3632595,149.1652303,12007,0.02108425833284855,-0.056908413767814636,1.5390195846557617,0.04425382241606712,0.01582525484263897,0.7673793435096741,-5,2,-1000,45,16,766,12,28,-143,1761,1500.0
14:20:59.551,AUTO,-35.3632595,149.1652303,12007,0.02108425833284855,-0.056908413767814636,1.5390195846557617,0.04425382241606712,0.01582525484263897,0.7673793435096741,-5,2,-1000,45,16,766,12,28,-143,1761,1500.0
14:20:59.752,AUTO,-35.3632595,149.1652303,12007,0.02108425833284855,-0.056908413767814636,1.5390195846557617,0.04425382241606712,0.01582525484263897,0.7673793435096741,-5,2,-1000,45,16,766,12,28,-143,1761,1500.0
14:20:59.954,AUTO,-35.3632595,149.165235,13490,0.03911188989877701,-0.040027547627687454,2.203383207321167,0.045941002666950226,0.02800740674138069,0.39353978633880615,-11,-3,-1009,46,28,393,-21,54,-149,1500,1500.0
14:21:00.154,AUTO,-35.3632601,149.1652364,13874,0.04262617230415344,-0.03235214576125145,2.282043933868408,-0.03802664205431938,0.09537988901138306,0.2118125855922699,-13,-3,-995,-37,96,211,-31,53,-149,1500,1500.0
14:21:00.355,AUTO,-35.3632608,149.1652377,14258,0.02493165247142315,0.0029409481212496758,2.317173480987549,-0.06055871397256851,0.15257814526557922,0.08872725069522858,-13,-5,-1004,-59,153,88,-36,48,-149,1500,1500.0
14:21:00.557,AUTO,-35.3632608,149.1652377,14258,0.02493165247142315,0.0029409481212496758,2.317173480987549,-0.06055871397256851,0.15257814526557922,0.08872725069522858,-13,-5,-1004,-59,153,88,-36,48,-149,1500,1500.0
14:21:00.757,AUTO,-35.3632616,149.1652388,14643,0.017451047897338867,0.03349895775318146,2.3331944942474365,-0.008857686072587967,0.09614795446395874,0.042352382093667984,-13,-3,-1009,-8,96,42,-33,39,-151,1500,1500.0
14:21:00.959,AUTO,-35.3632622,149.1652397,15034,0.020758213475346565,0.050222788006067276,2.3421313762664795,0.023730972781777382,0.047703616321086884,0.025933360680937767,-9,-5,-1007,24,48,25,-26,27,-153,1500,1500.0
14:21:01.160,AUTO,-35.3632622,149.1652397,15034,0.020758213475346565,0.050222788006067276,2.3421313762664795,0.023730972781777382,0.047703616321086884,0.025933360680937767,-9,-5,-1007,24,48,25,-26,27,-153,1500,1500.0
14:21:01.361,AUTO,-35.3632622,149.1652397,15034,0.020758213475346565,0.050222788006067276,2.3421313762664795,0.023730972781777382,0.047703616321086884,0.025933360680937767,-9,-5,-1007,24,48,25,-26,27,-153,1500,1500.0
14:21:01.563,AUTO,-35.3632622,149.1652397,15034,0.020758213475346565,0.050222788006067276,2.3421313762664795,0.023730972781777382,0.047703616321086884,0.025933360680937767,-9,-5,-1007,24,48,25,-26,27,-153,1500,1500.0
14:21:01.764,AUTO,-35.3632632,149.1652399,16208,0.03893577679991722,0.07285171747207642,2.3058106899261475,0.056730739772319794,-0.016278881579637527,-0.13508805632591248,1,-2,-995,57,-15,-135,-3,-21,-150,1500,1500.0
14:21:01.965,AUTO,-35.3632633,149.1652392,16592,0.04958109185099602,0.06901845335960388,2.267160415649414,0.05243778973817825,-0.026819515973329544,-0.17003197968006134,6,-1,-996,53,-26,-170,0,-40,-148,1500,1500.0
14:21:02.166,AUTO,-35.3632633,149.1652378,16975,0.05090536177158356,0.05726570263504982,2.230618476867676,-0.020946424454450607,-0.07552085071802139,-0.10156873613595963,10,-1,-1001,-20,-74,-102,-1,-58,-147,1500,1500.0
14:21:02.367,AUTO,-35.3632633,149.165236,17352,0.04031069949269295,0.038855861872434616,2.2121973037719727,-0.04953370243310928,-0.08322110772132874,-0.04995028302073479,13,-1,-1001,-48,-82,-50,-4,-71,-147,1500,1500.0
14:21:02.568,AUTO,-35.3632635,149.1652339,17729,0.029147932305932045,0.012962025590240955,2.208660364151001,-0.03316164389252663,-0.12723702192306519,0.01734432391822338,19,-2,-1006,-32,-126,16,-8,-78,-148,1500,1500.0
14:21:02.770,AUTO,-35.3632635,149.1652339,17729,0.029147932305932045,0.012962025590240955,2.208660364151001,-0.03316164389252663,-0.12723702192306519,0.01734432391822338,19,-2,-1006,-32,-126,16,-8,-78,-148,1500,1500.0
14:21:02.971,AUTO,-35.3632637,149.1652318,18110,0.02153937891125679,-0.020766809582710266,2.218841552734375,-0.02731863223016262,-0.13464047014713287,0.059051264077425,18,-5,-1008,-26,-133,58,-15,-76,-149,1500,1500.0
14:21:03.171,AUTO,-35.3632637,149.1652318,18110,0.02153937891125679,-0.020766809582710266,2.218841552734375,-0.02731863223016262,-0.13464047014713287,0.059051264077425,18,-5,-1008,-26,-133,58,-15,-76,-149,1500,1500.0
14:21:03.373,AUTO,-35.3632637,149.1652318,18110,0.02153937891125679,-0.020766809582710266,2.218841552734375,-0.02731863223016262,-0.13464047014713287,0.059051264077425,18,-5,-1008,-26,-133,58,-15,-76,-149,1500,1500.0
14:21:03.575,AUTO,-35.3632637,149.1652318,18110,0.02153937891125679,-0.020766809582710266,2.218841552734375,-0.02731863223016262,-0.13464047014713287,0.059051264077425,18,-5,-1008,-26,-133,58,-15,-76,-149,1500,1500.0
14:21:03.776,AUTO,-35.3632655,149.1652268,19268,-0.03981049358844757,-0.0462125763297081,2.2121083736419678,-0.09408940374851227,0.012413221411406994,-0.05527179688215256,9,-9,-1005,-93,13,-55,-34,-36,-151,1500,1500.0
14:21:03.977,AUTO,-35.3632662,149.165226,19658,-0.05919633060693741,-0.045064013451337814,2.19791579246521,-0.07141655683517456,0.0032090293243527412,-0.05576033890247345,5,-9,-1004,-70,3,-56,-30,-17,-152,1500,1500.0
14:21:04.179,AUTO,-35.3632668,149.1652258,20047,-0.07345300912857056,-0.045054420828819275,2.184457302093506,-0.05262155085802078,0.004816346801817417,-0.05120941624045372,2,-6,-1002,-51,5,-51,-21,3,-152,1500,1500.0
14:21:04.380,AUTO,-35.3632672,149.1652262,20435,-0.08341941982507706,-0.04349342733621597,2.1715564727783203,-0.03645085543394089,0.01623719558119774,-0.050023529678583145,-3,-4,-999,-35,17,-50,-10,23,-151,1500,1500.0
14:21:04.581,AUTO,-35.3632672,149.1652271,20820,-0.08361410349607468,-0.039249468594789505,2.1596767902374268,0.036805205047130585,0.017842795699834824,-0.036456406116485596,-7,-2,-1002,37,18,-36,2,42,-150,1500,1500.0
14:21:04.781,AUTO,-35.3632672,149.1652271,20820,-0.08361410349607468,-0.039249468594789505,2.1596767902374268,0.036805205047130585,0.017842795699834824,-0.036456406116485596,-7,-2,-1002,37,18,-36,2,42,-150,1500,1500.0
14:21:04.982,AUTO,-35.3632671,149.1652284,21204,-0.07164985686540604,-0.035020384937524796,2.1513516902923584,0.049942463636398315,0.023148996755480766,-0.026785023510456085,-11,2,-1000,50,23,-27,14,58,-149,1500,1500.0
14:21:05.184,AUTO,-35.3632671,149.1652284,21204,-0.07164985686540604,-0.035020384937524796,2.1513516902923584,0.049942463636398315,0.023148996755480766,-0.026785023510456085,-11,2,-1000,50,23,-27,14,58,-149,1500,1500.0
14:21:05.385,AUTO,-35.3632671,149.1652284,21204,-0.07164985686540604,-0.035020384937524796,2.1513516902923584,0.049942463636398315,0.023148996755480766,-0.026785023510456085,-11,2,-1000,50,23,-27,14,58,-149,1500,1500.0
14:21:05.587,AUTO,-35.3632671,149.1652284,21204,-0.07164985686540604,-0.035020384937524796,2.1513516902923584,0.049942463636398315,0.023148996755480766,-0.026785023510456085,-11,2,-1000,50,23,-27,14,58,-149,1500,1500.0
14:21:05.788,AUTO,-35.3632671,149.1652284,21204,-0.07164985686540604,-0.035020384937524796,2.1513516902923584,0.049942463636398315,0.023148996755480766,-0.026785023510456085,-11,2,-1000,50,23,-27,14,58,-149,1500,1500.0
14:21:05.991,AUTO,-35.3632641,149.1652369,22733,-0.013390014879405499,0.003916715271770954,2.13485050201416,0.06318918615579605,0.04883123189210892,-0.006538264453411102,-20,11,-1006,64,49,-6,45,80,-151,1500,1500.0
14:21:06.192,AUTO,-35.3632631,149.1652391,23121,0.0028367191553115845,0.016071448102593422,2.133197784423828,0.06689281761646271,0.048567112535238266,-0.006551811005920172,-19,13,-1007,67,49,-7,48,73,-153,1500,1500.0
14:21:06.393,AUTO,-35.3632619,149.1652411,23514,0.019181422889232635,0.02750178799033165,2.13261342048645,0.06619826704263687,0.04370878264307976,-0.0015232572332024574,-17,11,-1007,67,44,-1,48,63,-154,1500,1500.0
14:21:06.594,AUTO,-35.3632608,149.1652428,23918,0.03613356500864029,0.03773602098226547,2.13252854347229,0.06724033504724503,0.037210602313280106,-0.0019073644652962685,-12,12,-1006,68,38,-2,47,48,-156,1500,1500.0
14:21:06.796,AUTO,-35.3632608,149.1652428,23918,0.03613356500864029,0.03773602098226547,2.13252854347229,0.06724033504724503,0.037210602313280106,-0.0019073644652962685,-12,12,-1006,68,38,-2,47,48,-156,1500,1500.0
14:21:06.997,AUTO,-35.3632598,149.1652441,24317,0.052387043833732605,0.04558444395661354,2.1329572200775146,0.06480290740728378,0.027023958042263985,0.0009214987512677908,-10,10,-1005,65,27,0,43,31,-156,1500,1500.0
14:21:07.198,AUTO,-35.3632598,149.1652441,24317,0.052387043833732605,0.04558444395661354,2.1329572200775146,0.06480290740728378,0.027023958042263985,0.0009214987512677908,-10,10,-1005,65,27,0,43,31,-156,1500,1500.0
14:21:07.400,AUTO,-35.3632598,149.1652441,24317,0.052387043833732605,0.04558444395661354,2.1329572200775146,0.06480290740728378,0.027023958042263985,0.0009214987512677908,-10,10,-1005,65,27,0,43,31,-156,1500,1500.0
14:21:07.601,AUTO,-35.3632598,149.1652441,24317,0.052387043833732605,0.04558444395661354,2.1329572200775146,0.06480290740728378,0.027023958042263985,0.0009214987512677908,-10,10,-1005,65,27,0,43,31,-156,1500,1500.0
14:21:07.805,AUTO,-35.3632598,149.1652441,24317,0.052387043833732605,0.04558444395661354,2.1329572200775146,0.06480290740728378,0.027023958042263985,0.0009214987512677908,-10,10,-1005,65,27,0,43,31,-156,1500,1500.0
14:21:08.006,AUTO,-35.3632575,149.1652436,25887,0.1078663021326065,0.05161740630865097,2.098186492919922,0.04919371381402016,-0.010069342330098152,-0.4489831030368805,7,1,-947,49,-9,-449,-2,-53,-146,1253,1500.0
14:21:08.207,AUTO,-35.3632577,149.165242,26239,0.10380373150110245,0.05402408912777901,1.9085086584091187,-0.025299176573753357,-0.16013337671756744,-0.8347471952438354,14,0,-963,-24,-159,-834,-20,-72,-131,1253,1500.0
14:21:08.407,AUTO,-35.3632583,149.16524,26569,0.07201658934354782,0.01929377019405365,1.708234429359436,-0.12906189262866974,-0.22677643597126007,-0.7446817755699158,19,2,-1007,-128,-225,-745,-39,-80,-128,1253,1500.0
14:21:08.609,AUTO,-35.3632594,149.165238,26902,0.04110623523592949,-0.022858794778585434,1.5200684070587158,-0.12034156918525696,-0.18260347843170166,-0.7475887537002563,21,0,-1021,-119,-181,-747,-53,-74,-132,1253,1500.0
14:21:08.810,AUTO,-35.3632594,149.165238,26902,0.04110623523592949,-0.022858794778585434,1.5200684070587158,-0.12034156918525696,-0.18260347843170166,-0.7475887537002563,21,0,-1021,-119,-181,-747,-53,-74,-132,1253,1500.0
14:21:09.011,AUTO,-35.3632606,149.1652363,27248,0.021973727270960808,-0.05284228175878525,1.3352338075637817,-0.09142354875802994,-0.09997102618217468,-0.7255979180335999,17,1,-1026,-90,-99,-725,-57,-58,-138,1253,1500.0
14:21:09.212,AUTO,-35.3632606,149.1652363,27248,0.021973727270960808,-0.05284228175878525,1.3352338075637817,-0.09142354875802994,-0.09997102618217468,-0.7255979180335999,17,1,-1026,-90,-99,-725,-57,-58,-138,1253,1500.0
14:21:09.413,AUTO,-35.3632606,149.1652363,27248,0.021973727270960808,-0.05284228175878525,1.3352338075637817,-0.09142354875802994,-0.09997102618217468,-0.7255979180335999,17,1,-1026,-90,-99,-725,-57,-58,-138,1253,1500.0
14:21:09.615,AUTO,-35.3632606,149.1652363,27248,0.021973727270960808,-0.05284228175878525,1.3352338075637817,-0.09142354875802994,-0.09997102618217468,-0.7255979180335999,17,1,-1026,-90,-99,-725,-57,-58,-138,1253,1500.0
14:21:09.817,AUTO,-35.3632639,149.1652343,28351,0.0033644987270236015,-0.06505800783634186,0.7865363359451294,-0.04806007444858551,0.021361757069826126,-0.7225600481033325,9,0,-1004,-47,22,-722,-34,-2,-145,1253,1500.0
14:21:10.018,AUTO,-35.3632646,149.1652343,28723,0.003512756433337927,-0.05723419785499573,0.606188178062439,-0.0475151464343071,0.035239700227975845,-0.7173499464988708,6,-2,-1001,-46,36,-717,-21,9,-146,1253,1500.0
14:21:10.219,AUTO,-35.363265,149.1652348,29094,0.0034478988964110613,-0.04664875194430351,0.42600423097610474,-0.03172565624117851,0.04133275896310806,-0.7179031372070312,3,-2,-1001,-30,42,-718,-9,17,-145,1253,1500.0
14:21:10.420,AUTO,-35.3632651,149.1652354,29465,0.00237261108122766,-0.035790059715509415,0.24608634412288666,-0.03044610284268856,0.04230955243110657,-0.7187193036079407,2,-5,-1000,-29,43,-719,1,20,-145,1253,1500.0
14:21:10.621,AUTO,-35.363265,149.1652361,29835,0.00027937241247855127,-0.02593439631164074,0.06666210293769836,-0.034476809203624725,0.034063536673784256,-0.71745765209198,1,-4,-999,-33,34,-717,9,21,-145,1253,1500.0
14:21:10.822,AUTO,-35.3632648,149.1652368,30207,-0.0019190255552530289,-0.019658640027046204,-0.09177989512681961,-0.0033672600984573364,-0.0005446006543934345,-0.5048452019691467,1,-4,-999,-33,34,-717,14,20,-147,1253,1500.0
14:21:11.023,AUTO,-35.3632648,149.1652368,30207,-0.0019190255552530289,-0.019658640027046204,-0.09177989512681961,-0.0033672600984573364,-0.0005446006543934345,-0.5048452019691467,0,-6,-1021,-2,0,-505,14,20,-147,1500,1500.0
14:21:11.224,AUTO,-35.3632648,149.1652368,30207,-0.0019190255552530289,-0.019658640027046204,-0.09177989512681961,-0.0033672600984573364,-0.0005446006543934345,-0.5048452019691467,0,-6,-1021,-2,0,-505,14,20,-147,1500,1500.0
14:21:11.426,AUTO,-35.3632648,149.1652368,30207,-0.0019190255552530289,-0.019658640027046204,-0.09177989512681961,-0.0033672600984573364,-0.0005446006543934345,-0.5048452019691467,0,-6,-1021,-2,0,-505,14,20,-147,1500,1500.0
14:21:11.628,AUTO,-35.3632648,149.1652368,30207,-0.0019190255552530289,-0.019658640027046204,-0.09177989512681961,-0.0033672600984573364,-0.0005446006543934345,-0.5048452019691467,0,-6,-1021,-2,0,-505,14,20,-147,1500,1500.0
14:21:11.830,AUTO,-35.363262,149.1652384,31731,-0.04529956728219986,-0.1020365059375763,-0.22807107865810394,0.019258424639701843,-0.0011696546571329236,0.5280844569206238,-9,-6,-906,20,0,526,58,-10,-141,1500,1500.0
14:21:12.031,AUTO,-35.363262,149.1652384,31731,-0.04529956728219986,-0.1020365059375763,-0.22807107865810394,0.019258424639701843,-0.0011696546571329236,0.5280844569206238,-9,-6,-906,20,0,526,58,-10,-141,1500,1500.0
14:21:12.232,AUTO,-35.3632605,149.1652381,32093,-0.04162970185279846,-0.09434876590967178,-0.17235852777957916,0.037326835095882416,0.02844204381108284,0.1697978526353836,-13,-5,-1014,38,29,169,77,-26,-143,1500,1500.0
14:21:12.433,AUTO,-35.3632586,149.1652372,32459,-0.03571195527911186,-0.08371518552303314,-0.13694730401039124,0.037509698420763016,0.04423155263066292,0.12364267557859421,-19,-13,-1005,38,45,123,93,-40,-144,1500,1500.0
14:21:12.635,AUTO,-35.3632564,149.165236,32831,-0.028057290241122246,-0.06957576423883438,-0.11122135818004608,0.03544017672538757,0.059058308601379395,0.08993382006883621,-25,1,-1004,36,60,89,105,-49,-145,1500,1500.0
14:21:12.836,AUTO,-35.3632539,149.1652346,33202,-0.01918911188840866,-0.052705321460962296,-0.09306300431489944,0.043839629739522934,0.07132653146982193,0.06460264325141907,-27,-4,-1005,44,72,64,113,-58,-146,1500,1500.0
14:21:13.038,AUTO,-35.3632539,149.1652346,33202,-0.01918911188840866,-0.052705321460962296,-0.09306300431489944,0.043839629739522934,0.07132653146982193,0.06460264325141907,-27,-4,-1005,44,72,64,113,-58,-146,1500,1500.0
14:21:13.239,AUTO,-35.3632539,149.1652346,33202,-0.01918911188840866,-0.052705321460962296,-0.09306300431489944,0.043839629739522934,0.07132653146982193,0.06460264325141907,-27,-4,-1005,44,72,64,113,-58,-146,1500,1500.0
14:21:13.440,AUTO,-35.3632539,149.1652346,33202,-0.01918911188840866,-0.052705321460962296,-0.09306300431489944,0.043839629739522934,0.07132653146982193,0.06460264325141907,-27,-4,-1005,44,72,64,113,-58,-146,1500,1500.0
14:21:13.641,AUTO,-35.3632539,149.1652346,33202,-0.01918911188840866,-0.052705321460962296,-0.09306300431489944,0.043839629739522934,0.07132653146982193,0.06460264325141907,-27,-4,-1005,44,72,64,113,-58,-146,1500,1500.0
14:21:13.843,AUTO,-35.3632438,149.1652277,34728,0.02172074280679226,0.026729369536042213,-0.05984964221715927,0.04335379973053932,0.07829616218805313,0.01498376950621605,-29,1,-1011,44,79,14,97,-59,-155,1500,1500.0
14:21:14.044,AUTO,-35.3632438,149.1652277,34728,0.02172074280679226,0.026729369536042213,-0.05984964221715927,0.04335379973053932,0.07829616218805313,0.01498376950621605,-29,1,-1011,44,79,14,97,-59,-155,1500,1500.0
14:21:14.245,AUTO,-35.3632418,149.1652262,35126,0.032694011926651,0.04508119821548462,-0.056529700756073,0.04677247256040573,0.07100828737020493,0.009618285112082958,-25,-1,-1010,47,72,9,82,-52,-157,1500,1500.0
14:21:14.446,AUTO,-35.3632401,149.1652249,35527,0.0442369319498539,0.06114119663834572,-0.05429212003946304,0.044168539345264435,0.05898376926779747,0.006644747219979763,-21,-2,-1007,44,59,6,64,-41,-158,1500,1500.0
14:21:14.647,AUTO,-35.3632388,149.1652239,35932,0.05594281107187271,0.07403171807527542,-0.05280968174338341,0.04712151363492012,0.045955248177051544,0.003056028624996543,-17,4,-1004,48,47,3,44,-28,-158,1500,1500.0
14:21:14.848,AUTO,-35.3632379,149.1652234,36335,0.06637655198574066,0.08388209342956543,-0.05291404575109482,0.03291061148047447,0.04020420089364052,-0.00981905497610569,-10,-1,-999,34,40,-9,23,-12,-157,1500,1500.0
14:21:15.049,AUTO,-35.3632379,149.1652234,36335,0.06637655198574066,0.08388209342956543,-0.05291404575109482,0.03291061148047447,0.04020420089364052,-0.00981905497610569,-10,-1,-999,34,40,-9,23,-12,-157,1500,1500.0
14:21:15.250,AUTO,-35.3632379,149.1652234,36335,0.06637655198574066,0.08388209342956543,-0.05291404575109482,0.03291061148047447,0.04020420089364052,-0.00981905497610569,-10,-1,-999,34,40,-9,23,-12,-157,1500,1500.0
14:21:15.451,AUTO,-35.3632379,149.1652234,36335,0.06637655198574066,0.08388209342956543,-0.05291404575109482,0.03291061148047447,0.04020420089364052,-0.00981905497610569,-10,-1,-999,34,40,-9,23,-12,-157,1500,1500.0
14:21:15.652,AUTO,-35.3632379,149.1652234,36335,0.06637655198574066,0.08388209342956543,-0.05291404575109482,0.03291061148047447,0.04020420089364052,-0.00981905497610569,-10,-1,-999,34,40,-9,23,-12,-157,1500,1500.0
14:21:15.854,AUTO,-35.3632397,149.1652259,37869,0.06785250455141068,0.16744808852672577,-0.09647811949253082,-0.03220086917281151,0.11595728248357773,-0.002667295280843973,16,-2,-976,-31,116,-2,-78,59,-138,1500,1500.0
14:21:16.055,AUTO,-35.3632397,149.1652259,37869,0.06785250455141068,0.16744808852672577,-0.09647811949253082,-0.03220086917281151,0.11595728248357773,-0.002667295280843973,16,-2,-976,-31,116,-2,-78,59,-138,1500,1500.0
14:21:16.256,AUTO,-35.3632417,149.1652278,38212,0.03882049024105072,0.17417000234127045,-0.09127767384052277,-0.12941953539848328,-0.10265791416168213,0.06699711829423904,26,-1,-992,-128,-101,67,-113,75,-130,1500,1500.0
14:21:16.457,AUTO,-35.3632445,149.16523,38545,0.024610942229628563,0.13065172731876373,-0.07105875015258789,-0.04290264844894409,-0.18169841170310974,0.0979263111948967,34,3,-1009,-41,-180,97,-141,85,-129,1500,1500.0
14:21:16.658,AUTO,-35.3632478,149.1652325,38880,0.020858662202954292,0.08728449791669846,-0.051403746008872986,-0.0025566057302057743,-0.15217088162899017,0.07174772769212723,41,-2,-1019,-1,-151,71,-157,92,-133,1500,1500.0
14:21:16.859,AUTO,-35.3632514,149.1652352,39226,0.02584695816040039,0.057006631046533585,-0.04192236810922623,0.007191348355263472,-0.09890498220920563,0.01788449101150036,42,0,-1016,8,-97,17,-164,99,-137,1500,1500.0
14:21:17.060,AUTO,-35.3632514,149.1652352,39226,0.02584695816040039,0.057006631046533585,-0.04192236810922623,0.007191348355263472,-0.09890498220920563,0.01788449101150036,42,0,-1016,8,-97,17,-164,99,-137,1500,1500.0
14:21:17.261,AUTO,-35.3632514,149.1652352,39226,0.02584695816040039,0.057006631046533585,-0.04192236810922623,0.007191348355263472,-0.09890498220920563,0.01788449101150036,42,0,-1016,8,-97,17,-164,99,-137,1500,1500.0
14:21:17.463,AUTO,-35.3632514,149.1652352,39226,0.02584695816040039,0.057006631046533585,-0.04192236810922623,0.007191348355263472,-0.09890498220920563,0.01788449101150036,42,0,-1016,8,-97,17,-164,99,-137,1500,1500.0
14:21:17.665,AUTO,-35.3632514,149.1652352,39226,0.02584695816040039,0.057006631046533585,-0.04192236810922623,0.007191348355263472,-0.09890498220920563,0.01788449101150036,42,0,-1016,8,-97,17,-164,99,-137,1500,1500.0
14:21:17.866,AUTO,-35.3632651,149.1652472,40702,-0.046876948326826096,-0.0571572408080101,-0.04778051748871803,-0.12082002311944962,-0.12311451882123947,-0.009666375815868378,46,-1,-1028,-119,-122,-9,-125,100,-154,1500,1500.0
14:21:18.067,AUTO,-35.3632651,149.1652472,40702,-0.046876948326826096,-0.0571572408080101,-0.04778051748871803,-0.12082002311944962,-0.12311451882123947,-0.009666375815868378,46,-1,-1028,-119,-122,-9,-125,100,-154,1500,1500.0
14:21:18.269,AUTO,-35.3632676,149.1652497,41103,-0.06680591404438019,-0.07691134512424469,-0.059199728071689606,-0.07826609164476395,-0.057020362466573715,-0.051959164440631866,34,-3,-1019,-77,-55,-51,-99,83,-159,1500,1500.0
14:21:18.470,AUTO,-35.3632696,149.1652517,41510,-0.08990312367677689,-0.09591807425022125,-0.06843695789575577,-0.10980315506458282,-0.08356563746929169,-0.03288216143846512,31,-4,-1011,-108,-82,-32,-72,61,-160,1500,1500.0
14:21:18.670,AUTO,-35.363271,149.1652531,41921,-0.11551553755998611,-0.11695556342601776,-0.07288675755262375,-0.09113088250160217,-0.07798899710178375,-0.0172310508787632,16,-2,-1007,-90,-77,-17,-43,33,-159,1500,1500.0
14:21:18.871,AUTO,-35.3632716,149.1652535,42324,-0.1367485523223877,-0.1337452381849289,-0.07415642589330673,-0.07309217751026154,-0.054418906569480896,-0.0047666276805102825,9,0,-998,-72,-53,-4,-11,0,-155,1500,1500.0
14:21:19.072,AUTO,-35.3632716,149.1652535,42324,-0.1367485523223877,-0.1337452381849289,-0.07415642589330673,-0.07309217751026154,-0.054418906569480896,-0.0047666276805102825,9,0,-998,-72,-53,-4,-11,0,-155,1500,1500.0
14:21:19.274,AUTO,-35.3632716,149.1652535,42324,-0.1367485523223877,-0.1337452381849289,-0.07415642589330673,-0.07309217751026154,-0.054418906569480896,-0.0047666276805102825,9,0,-998,-72,-53,-4,-11,0,-155,1500,1500.0
14:21:19.475,AUTO,-35.3632716,149.1652535,42324,-0.1367485523223877,-0.1337452381849289,-0.07415642589330673,-0.07309217751026154,-0.054418906569480896,-0.0047666276805102825,9,0,-998,-72,-53,-4,-11,0,-155,1500,1500.0
14:21:19.677,AUTO,-35.3632716,149.1652535,42324,-0.1367485523223877,-0.1337452381849289,-0.07415642589330673,-0.07309217751026154,-0.054418906569480896,-0.0047666276805102825,9,0,-998,-72,-53,-4,-11,0,-155,1500,1500.0
14:21:19.878,AUTO,-35.3632678,149.1652457,43770,-0.12871582806110382,-0.08935508877038956,-0.09888855367898941,-0.2705552279949188,0.3277401924133301,-0.29596367478370667,-34,8,-963,-269,328,-295,92,-134,-127,1047,1500.0
14:21:20.079,AUTO,-35.3632658,149.1652414,44079,-0.19625400006771088,-0.004757644142955542,-0.25213316082954407,-0.17949099838733673,0.38982734084129333,-0.6554960608482361,-40,12,-977,-178,391,-655,86,-171,-115,1047,1500.0
14:21:20.281,AUTO,-35.3632658,149.1652414,44079,-0.19625400006771088,-0.004757644142955542,-0.25213316082954407,-0.17949099838733673,0.38982734084129333,-0.6554960608482361,-40,12,-977,-178,391,-655,86,-171,-115,1047,1500.0
14:21:20.483,AUTO,-35.3632642,149.1652361,44366,-0.20965395867824554,0.04023497551679611,-0.43795356154441833,0.05573967844247818,0.29025495052337646,-0.7046636939048767,-45,11,-1009,56,291,-704,54,-210,-109,1047,1500.0
14:21:20.684,AUTO,-35.3632635,149.1652299,44643,-0.19274599850177765,0.06860432773828506,-0.6261107325553894,0.14888787269592285,0.2495361864566803,-0.7144370079040527,-52,13,-1028,150,250,-714,8,-238,-109,1047,1500.0
14:21:20.886,AUTO,-35.3632637,149.1652231,44925,-0.16259300708770752,0.09127174317836761,-0.8120515942573547,0.1897500902414322,0.1973116099834442,-0.7164576649665833,-55,26,-1043,190,198,-716,-42,-246,-113,1047,1500.0
14:21:21.087,AUTO,-35.3632637,149.1652231,44925,-0.16259300708770752,0.09127174317836761,-0.8120515942573547,0.1897500902414322,0.1973116099834442,-0.7164576649665833,-55,26,-1043,190,198,-716,-42,-246,-113,1047,1500.0
14:21:21.290,AUTO,-35.3632637,149.1652231,44925,-0.16259300708770752,0.09127174317836761,-0.8120515942573547,0.1897500902414322,0.1973116099834442,-0.7164576649665833,-55,26,-1043,190,198,-716,-42,-246,-113,1047,1500.0
14:21:21.491,AUTO,-35.3632637,149.1652231,44925,-0.16259300708770752,0.09127174317836761,-0.8120515942573547,0.1897500902414322,0.1973116099834442,-0.7164576649665833,-55,26,-1043,190,198,-716,-42,-246,-113,1047,1500.0
14:21:21.693,AUTO,-35.3632637,149.1652231,44925,-0.16259300708770752,0.09127174317836761,-0.8120515942573547,0.1897500902414322,0.1973116099834442,-0.7164576649665833,-55,26,-1043,190,198,-716,-42,-246,-113,1047,1500.0
14:21:21.894,AUTO,-35.3632722,149.1652031,46014,-0.0556345209479332,0.14229972660541534,-1.4414901733398438,0.20270556211471558,0.09593197703361511,-0.735140860080719,-55,26,-1043,190,198,-716,-168,-150,-141,1047,1500.0
14:21:22.097,AUTO,-35.363276,149.1651996,46380,-0.03692970424890518,0.15247602760791779,-1.6261228322982788,0.17501093447208405,0.06148020550608635,-0.7264960408210754,-46,21,-1041,176,62,-726,-176,-101,-147,1047,1500.0
14:21:22.298,AUTO,-35.3632799,149.1651974,46758,-0.02292073890566826,0.1601702719926834,-1.8104091882705688,0.16828781366348267,0.050799306482076645,-0.7267933487892151,-42,16,-1030,169,51,-726,-172,-51,-150,1047,1500.0
14:21:22.499,AUTO,-35.3632835,149.1651965,47143,-0.013930730521678925,0.16743241250514984,-1.9942435026168823,0.14823602139949799,0.0390377976000309,-0.7217163443565369,-35,20,-1022,149,40,-721,-156,-4,-152,1047,1500.0
14:21:22.700,AUTO,-35.3632867,149.1651969,47529,-0.009464635513722897,0.1734062284231186,-2.1714935302734375,0.1205679178237915,0.03433545306324959,-0.5949886441230774,-23,22,-1029,121,35,-594,-129,37,-152,1500,1500.0
14:21:22.901,AUTO,-35.3632867,149.1651969,47529,-0.009464635513722897,0.1734062284231186,-2.1714935302734375,0.1205679178237915,0.03433545306324959,-0.5949886441230774,-23,22,-1029,121,35,-594,-129,37,-152,1500,1500.0
14:21:23.101,AUTO,-35.3632893,149.1651982,47917,-0.0057737999595701694,0.18878108263015747,-2.2898714542388916,0.1858416348695755,0.1343352347612381,-0.278306782245636,-25,20,-998,187,135,-277,-96,76,-151,1500,1500.0
14:21:23.303,AUTO,-35.3632893,149.1651982,47917,-0.0057737999595701694,0.18878108263015747,-2.2898714542388916,0.1858416348695755,0.1343352347612381,-0.278306782245636,-25,20,-998,187,135,-277,-96,76,-151,1500,1500.0
14:21:23.505,AUTO,-35.3632893,149.1651982,47917,-0.0057737999595701694,0.18878108263015747,-2.2898714542388916,0.1858416348695755,0.1343352347612381,-0.278306782245636,-25,20,-998,187,135,-277,-96,76,-151,1500,1500.0
14:21:23.706,AUTO,-35.3632893,149.1651982,47917,-0.0057737999595701694,0.18878108263015747,-2.2898714542388916,0.1858416348695755,0.1343352347612381,-0.278306782245636,-25,20,-998,187,135,-277,-96,76,-151,1500,1500.0
14:21:23.907,AUTO,-35.3632877,149.1652109,49098,0.257152795791626,0.3188134729862213,-2.1670970916748047,-0.014393818564713001,-0.15998347103595734,0.20750746130943298,43,16,-945,-13,-158,207,173,172,-88,1500,1500.0
14:21:24.108,AUTO,-35.363283,149.1652157,49288,0.213420569896698,0.22885508835315704,-2.135197162628174,-0.3806857466697693,-0.45733457803726196,0.12195894122123718,57,9,-935,-379,-456,122,249,180,-58,1500,1500.0
14:21:24.309,AUTO,-35.363283,149.1652157,49288,0.213420569896698,0.22885508835315704,-2.135197162628174,-0.3806857466697693,-0.45733457803726196,0.12195894122123718,57,9,-935,-379,-456,122,249,180,-58,1500,1500.0
14:21:24.510,AUTO,-35.3632769,149.1652206,49432,0.0839979350566864,0.08440957963466644,-2.1417315006256104,-0.5689637064933777,-0.6153035163879395,0.03316294774413109,80,3,-1083,-567,-614,33,292,175,-59,1500,1500.0
14:21:24.711,AUTO,-35.3632704,149.1652251,49632,-0.05630045756697655,-0.07097957283258438,-2.160191774368286,-0.6630568504333496,-0.7122456431388855,-0.2566100060939789,94,6,-1138,-661,-711,-256,286,155,-93,1500,1500.0
14:21:24.912,AUTO,-35.3632647,149.1652289,49895,-0.19323621690273285,-0.22542858123779297,-2.181598663330078,-0.3121480345726013,-0.3386635482311249,-0.05223296582698822,67,16,-1011,-311,-337,-51,225,124,-104,1500,1500.0
14:21:25.114,AUTO,-35.3632647,149.1652289,49895,-0.19323621690273285,-0.22542858123779297,-2.181598663330078,-0.3121480345726013,-0.3386635482311249,-0.05223296582698822,67,16,-1011,-311,-337,-51,225,124,-104,1500,1500.0
14:21:25.316,AUTO,-35.3632647,149.1652289,49895,-0.19323621690273285,-0.22542858123779297,-2.181598663330078,-0.3121480345726013,-0.3386635482311249,-0.05223296582698822,67,16,-1011,-311,-337,-51,225,124,-104,1500,1500.0
14:21:25.517,AUTO,-35.3632647,149.1652289,49895,-0.19323621690273285,-0.22542858123779297,-2.181598663330078,-0.3121480345726013,-0.3386635482311249,-0.05223296582698822,67,16,-1011,-311,-337,-51,225,124,-104,1500,1500.0
14:21:25.721,AUTO,-35.3632647,149.1652289,49895,-0.19323621690273285,-0.22542858123779297,-2.181598663330078,-0.3121480345726013,-0.3386635482311249,-0.05223296582698822,67,16,-1011,-311,-337,-51,225,124,-104,1500,1500.0
14:21:25.923,AUTO,-35.3632566,149.1652367,50401,-0.12252926081418991,-0.16197025775909424,-2.187114715576172,-0.07357726991176605,0.16490519046783447,0.043354250490665436,6,15,-923,-70,166,43,6,44,-13,1500,1500.0
14:21:26.125,AUTO,-35.3632567,149.165238,50409,-0.0628497377038002,-0.12265990674495697,-2.1895663738250732,0.7863692045211792,0.1515103131532669,0.007637683767825365,-3,50,-971,790,152,7,-26,29,4,1500,1500.0
14:21:26.326,AUTO,-35.3632576,149.1652388,50387,-0.014510375447571278,-0.08427079766988754,-2.1901233196258545,1.0038604736328125,0.14411501586437225,-0.0036393816117197275,-9,50,-976,1006,145,-3,-46,16,13,1500,1500.0
14:21:26.528,AUTO,-35.3632588,149.1652394,50347,0.020729098469018936,-0.05441223829984665,-2.1891260147094727,0.6013928055763245,0.10233155637979507,-0.006589307449758053,-13,9,-974,599,103,-6,-55,7,17,1500,1500.0
