time_stamp,roll,pitch,yaw,rollspeed,pitchspeed,yawspeed,lat,lon,relative_alt,vx,vy,vz,xacc,yacc,zacc,xgyro,ygyro,zgyro,MODE,RTL_ALT
03:45:36,-0.00053588388254866,0.0009341889526695013,0.022949712350964546,0.0003305223654024303,0.0002889933530241251,0.001701083150692284,-35.3632621,149.1652375,0.0,-1.0,1.0,0.0,0.0,1.0,-1000.0,0.0,1.0,0.0,STABILIZE,1500.0
03:45:46,-0.00104764592833817,0.0010116961784660816,0.02046382986009121,0.0002786828554235399,0.00032000942155718803,0.0013592455070465803,-35.3632622,149.1652375,0.0,-1.0,1.0,0.0,0.0,2.0,-1000.0,0.0,0.0,0.0,STABILIZE,1500.0
03:45:48,-0.001092968974262476,0.0010066854883916676,0.020209485664963722,0.0002818047069013119,0.00025828543584793806,0.0014188298373483121,-35.3632622,149.1652375,2.0,-1.0,0.5,0.0,0.0,1.5,-1000.0,1.0,0.5,0.0,AUTO,1500.0
03:45:50,-0.0007367796206381172,0.001419761625584215,0.019925485365092754,0.00022612808970734477,0.0002980131539516151,0.0012955916463397443,-35.3632621,149.1652375,1.0,0.0,0.0,0.0,0.0,2.0,-1000.0,0.0,1.0,1.0,AUTO,21687.0
03:45:52,0.0020856380579061806,0.0009791053598746657,0.019525962881743908,-0.0030654924921691418,0.0035303671611472964,0.0010840165778063238,-35.3632621,149.1652375,377.0,0.0,1.0,-95.5,0.0,0.0,-1113.0,-2.5,4.0,0.5,AUTO,41874.0
03:45:54,0.0406273091211915,0.008765444974415004,-0.026892818044871092,-0.1219916008412838,0.06824634224176407,-0.08992613106966019,-35.3632614,149.16524095,3246.5,9.0,51.0,-146.0,2.0,-9.5,-992.0,-120.5,68.5,-90.0,AUTO,41874.0
03:45:55,-0.042295857798308134,0.03801162540912628,-0.10502070374786854,-0.0679762801155448,-0.005686524789780378,-0.07525154668837786,-35.363261200000004,149.165244725,4384.25,-10.0,35.25,-147.25,5.0,-7.0,-1006.5,-66.5,-4.75,-75.25,AUTO,174582.0
03:45:56,-0.0440372359007597,-0.024819057434797287,-0.08905455097556114,0.05899844132363796,-0.01001998595893383,0.021704602986574173,-35.363263200000006,149.1652448,6304.0,-14.5,-36.5,-149.5,-1.0,8.0,-1001.0,59.5,-8.5,21.5,AUTO,174582.0
03:45:58,0.023283586837351322,-0.023197388742119074,-0.053606681525707245,-0.03746592998504639,0.06099531799554825,-0.02427030587568879,-35.363262500000005,149.16523625,9412.5,27.5,-15.5,-149.5,-7.5,0.5,-998.0,-36.0,61.5,-24.0,AUTO,174582.0
03:46:00,0.010184530168771744,0.02149774506688118,-0.11410470679402351,0.0037933565326966345,-0.013161662966012955,0.0028171344310976565,-35.3632595,149.1652344,12508.5,-6.0,0.0,-151.0,0.0,0.0,-999.5,4.0,-12.0,2.0,AUTO,174582.0
03:46:01,0.008822161122225225,0.010360785759985447,-0.112345976755023,-0.005292207177262753,-0.014015759574249387,0.001113416365114972,-35.363260149999995,149.16523455,13676.0,-13.0,6.75,-151.0,2.25,0.0,-999.5,-4.0,-12.75,0.5,AUTO,32390.0
03:46:02,0.0001685840470599942,-0.002200127695687115,-0.12191281840205193,-0.004526795004494488,-0.004537188680842519,-0.016730478033423424,-35.3632615,149.1652355,15623.5,-10.0,8.5,-151.5,2.5,0.0,-1000.0,-3.0,-3.0,-16.5,AUTO,32390.0
03:46:04,0.0031814068788662553,0.0018581270123831928,-0.17448171973228455,0.003091790131293237,0.0036655247677117586,-0.025235378183424473,-35.363262,149.16523604999998,18740.5,0.0,2.0,-152.0,0.0,0.0,-1000.0,3.5,3.5,-25.0,AUTO,32390.0
03:46:06,-0.027921132743358612,0.029145247147729,-0.035461655197044216,0.012766847386956215,-0.07624512705175827,0.21081134180227915,-35.363262533333334,149.16523503333335,21342.0,-19.333333333333332,-19.666666666666668,-137.0,1.0,5.0,-970.0,13.333333333333334,-75.33333333333333,210.33333333333334,AUTO,32390.0
03:46:07,0.038410159992054105,-0.035770358517766,0.10158993117511272,0.05618523107841611,-0.0448093949817121,-0.025458289310336113,-35.3632645,149.165232225,22634.0,-19.25,-15.25,-99.0,1.25,6.25,-961.5,56.5,-43.5,-25.25,AUTO,136224.0
03:46:08,0.02806287817656994,-0.012931063305586576,0.07746269553899765,-0.04485859349370003,0.037030674517154694,0.0019170732703059912,-35.36326445,149.16523335,23639.5,16.5,34.0,-60.0,0.0,-8.5,-975.5,-43.5,37.5,1.5,AUTO,136224.0
03:46:10,-0.010974526405334473,0.014522009063512087,0.07047570124268532,0.052071701269596815,-0.005347412312403321,-0.004161136341281235,-35.36326135,149.1652396,24376.5,5.5,14.0,-11.0,0.0,-0.5,-969.5,53.0,-4.0,-3.5,AUTO,136224.0
03:46:12,0.04996979981660843,0.05907577648758888,0.06633614748716354,-0.1558903604745865,0.038267720490694046,-0.018081137910485268,-35.3632638,149.1652392,24129.0,-51.0,14.0,4.0,10.0,-17.0,-1018.0,-156.0,39.0,-18.0,AUTO,70626.0
03:46:14,0.1322087049484253,0.09177938103675842,0.43840378522872925,0.09392087161540985,0.046232787892222404,0.20371881872415543,-35.36327885,149.16524795,24019.0,-165.5,113.0,8.5,40.0,-13.5,-1001.5,95.0,46.5,203.0,AUTO,5028.0
03:46:16,0.18371020257472992,0.0967082642018795,0.8852945268154144,0.2134018111974001,0.02090859552845359,0.24489787966012955,-35.36332605,149.16528555,23655.5,-365.5,234.0,22.0,68.5,-63.5,-1000.0,214.5,21.5,244.5,AUTO,5028.0
03:46:17,0.19919126108288765,0.07081087958067656,1.112767904996872,0.014994872501119971,0.018839766969904304,0.28012529015541077,-35.36336325,149.16531425,23389.5,-459.5,276.5,25.5,64.0,-107.75,-995.75,16.75,19.0,279.75,AUTO,61487.0
03:46:18,0.16333527863025665,-0.03217450808733702,1.7779438495635986,-0.028476975858211517,0.0070726448320783675,0.9952914714813232,-35.363408899999996,149.165348,23115.0,-524.5,304.5,23.0,-18.5,-129.0,-990.5,-27.0,7.5,995.0,AUTO,61487.0
03:46:20,0.08020837232470512,-0.14173243939876556,2.6673895120620728,0.016312045976519585,0.008736609946936369,-0.08684365823864937,-35.36351055,149.1654214,22489.5,-575.0,333.5,33.5,-141.5,-71.0,-988.5,17.0,9.5,-86.5,AUTO,61487.0
03:46:22,0.09213938936591148,-0.09000131487846375,2.640029549598694,-0.0724850744009018,0.053487855941057205,-0.008283180184662342,-35.3636157,149.16549809999998,21795.0,-577.5,333.0,28.0,-136.0,-84.0,-999.0,-70.5,54.0,-8.0,AUTO,179719.0
03:46:24,0.06278952211141586,0.006970112677663565,2.637093186378479,-0.0511603057384491,0.04944360814988613,-0.013077677402179688,-35.36371055,149.16556475,21208.0,-449.0,262.5,28.0,-106.0,-71.5,-996.5,-50.0,49.5,-13.0,AUTO,297951.0
03:46:26,0.051882144063711166,0.06223704107105732,2.635567545890808,0.8924180865287781,0.020521748811006546,-0.019085597712546587,-35.36377415,149.16560935,20738.0,-244.5,149.5,17.5,-60.0,-7.5,-1005.0,893.5,20.5,-19.0,AUTO,297951.0
03:46:27,0.03822097647935152,0.0842471681535244,2.6359617710113525,-0.15860648453235626,0.010925886686891317,-0.005071370396763086,-35.363792275,149.1656233,20604.75,-147.75,91.5,8.75,-40.75,-31.5,-1015.5,-157.25,11.75,-5.0,AUTO,257016.0
03:46:28,0.03232451528310776,0.06951173208653927,2.6343342065811157,0.012102335691452026,-0.024831335060298443,-0.007631342625245452,-35.3638016,149.16563155,20547.5,-71.0,35.5,4.5,-21.0,-8.0,-1009.5,13.5,-24.0,-7.5,AUTO,257016.0
03:46:30,0.013519179541617632,0.029995660297572613,2.6278226375579834,-0.4487977921962738,-0.02053945977240801,0.0015390478074550629,-35.3638062,149.1656367,20544.0,-0.5,-19.5,0.5,0.0,-18.0,-998.5,-446.5,-19.0,1.0,AUTO,257016.0
03:46:32,0.01791973877698183,0.005982211325317621,2.623746156692505,0.03730413317680359,-0.017604060471057892,0.006649508606642485,-35.36380615,149.16563695,20574.0,-7.0,-17.5,0.5,0.0,-6.0,-1006.5,39.5,-16.5,6.0,RTL,217658.5
03:46:34,0.008501407690346241,0.018904012627899647,2.6219815015792847,0.13740022107958794,-0.0059311240911483765,0.003854686103295535,-35.36380735,149.16563675,21041.0,-0.5,-18.5,-58.0,0.5,0.5,-1048.5,139.5,-3.5,4.0,RTL,178301.0
03:46:36,0.014907885808497667,0.009284753585234284,2.6202259063720703,0.022408266901038587,-0.0056220946134999394,0.0014867662393953651,-35.36380735,149.1656356,23160.0,2.5,-13.5,-140.0,0.5,0.0,-1024.5,24.5,-4.5,1.5,RTL,178301.0
03:46:37,0.04880217369645834,-0.0007017860771156847,2.6177850365638733,0.0016737505793571472,0.01733207725919783,-0.0314883395913057,-35.363807924999996,149.16563425,24671.0,-17.5,-29.25,-148.25,2.5,-5.25,-996.75,4.5,19.25,-31.0,RTL,15728.0
03:46:38,-0.025260074995458126,0.02044106600806117,2.555295944213867,-0.09588225884363055,0.0164350513368845,-0.06855848850682378,-35.36381015,149.1656307,26192.0,-19.0,-31.5,-147.5,4.0,-8.5,-1001.0,-93.0,18.0,-67.5,RTL,15728.0
03:46:40,-0.009132897481322289,0.005580799654126167,2.50519859790802,0.04398149065673351,-0.005475433077663183,0.001591426320374012,-35.3638088,149.16563215000002,29278.0,29.0,33.5,-150.5,-3.0,7.5,-1000.5,46.5,-4.0,2.0,RTL,15728.0
03:46:42,0.007630900363437831,0.004637501202523708,2.504597783088684,-0.011231883428990841,0.001874781504739076,-0.01042162999510765,-35.36380575,149.16563605,32394.0,6.5,8.5,-151.0,-0.5,1.0,-999.5,-8.0,3.0,-9.0,RTL,29696.0
03:46:44,-0.0012797515955753624,0.008835377637296915,2.4679877758026123,-0.002781715360470116,0.0011308587272651494,-0.020412213169038296,-35.36380585,149.16563615,35510.0,0.0,3.5,-152.0,0.0,-1.0,-1000.0,0.0,2.5,-19.5,RTL,43664.0
03:46:46,-0.002521503483876586,0.009162241593003273,2.425840735435486,-0.002988494699820876,-0.0009093364351429045,-0.018929745070636272,-35.363806249999996,149.16563575,38630.5,1.5,1.0,-152.0,0.0,0.0,-999.5,-0.5,0.5,-17.5,RTL,43664.0
03:46:47,-0.0033647538512013853,0.008451371919363737,2.405171573162079,-0.0015267753042280674,-0.00040604619425721467,-0.01976582780480385,-35.363806425,149.16563535,40192.5,2.0,1.0,-152.25,0.0,0.0,-999.75,0.5,1.0,-18.5,RTL,282681.0
03:46:48,-0.0028543564258143306,0.00805456517264247,2.3843417167663574,-0.0017773830331861973,-0.0008032579789869487,-0.019338550977408886,-35.3638065,149.1656351,41755.5,2.5,1.5,-152.5,0.0,0.0,-1000.0,0.5,0.5,-18.0,RTL,282681.0
03:46:50,-0.0006894076213939115,0.008675148710608482,2.347448468208313,0.0014849097933620214,0.0027008549659512937,-0.006896337494254112,-35.3638065,149.16563474999998,44869.0,2.0,1.5,-152.5,0.0,0.0,-999.5,3.0,4.0,-6.0,RTL,282681.0
03:46:52,-0.0011204387556063011,0.00865221582353115,2.379900097846985,-0.0027587917866185308,-0.0021664921659976244,0.026498910039663315,-35.3638066,149.16563415000002,47978.0,2.0,-1.5,-152.0,0.0,0.0,-999.5,-0.5,0.0,27.5,RTL,168877.0
03:46:54,-0.0014923927083145827,0.0072393876034766436,2.425138831138611,0.0005825652624480426,0.0005638835136778653,0.020953568629920483,-35.3638066,149.1656338,51085.5,2.0,0.5,-152.0,0.0,0.0,-1000.0,2.0,2.0,21.5,RTL,55073.0
03:46:56,0.0009684718679636717,0.007463324815034866,2.457436203956604,0.0003769549075514078,0.00016389868687838316,0.013853210490196943,-35.3638066,149.1656341,54191.5,0.5,1.5,-152.0,0.0,0.0,-1000.0,2.0,1.5,14.5,RTL,55073.0
03:46:57,0.001693056634394452,0.007772233686409891,2.4702658653259277,8.493813220411539e-05,-0.0006567970267497003,0.01291203685104847,-35.3638066,149.16563429999997,55744.5,0.0,1.0,-152.0,0.0,0.0,-1000.0,1.75,0.75,13.5,RTL,145757.0
03:46:58,0.0018891539657488465,0.007771562784910202,2.481513818105062,-0.00020844532021631798,0.001252544306529065,0.012638161579767862,-35.3638066,149.16563443333334,57283.333333333336,0.0,0.0,-152.0,0.0,0.0,-999.6666666666666,1.3333333333333333,2.3333333333333335,13.333333333333334,RTL,145757.0
03:47:00,0.0011170145007781684,0.00892775459215045,2.500029683113098,-0.0004960616352036595,0.0013956897892057896,0.009476288221776485,-35.3638066,149.16563465000002,60559.5,0.0,0.0,-152.0,0.0,0.0,-999.5,1.0,2.5,10.0,RTL,145757.0
03:47:02,0.0010223939316347241,0.00831163302063942,2.513803005218506,-0.0010525578982196748,-0.0010142068495042622,0.007412340957671404,-35.3638066,149.1656347,63664.5,0.5,0.0,-152.0,0.0,0.0,-1000.0,0.5,1.0,8.5,RTL,145757.0
03:47:03,0.0012873141677118838,0.00839825184084475,2.520023465156555,0.0003152038552798331,-0.00028929008112754673,0.006467736908234656,-35.3638066,149.1656347,65214.75,0.0,0.0,-152.0,0.0,0.0,-1000.25,2.0,1.25,7.0,RTL,91863.0
03:47:04,0.0012674713507294655,0.008221205789595842,2.525733232498169,-0.0013062639627605677,-0.0002846254501491785,0.005888062994927168,-35.3638066,149.1656347,66768.0,0.0,0.0,-152.0,0.0,0.0,-1000.0,1.0,1.0,6.5,RTL,91863.0
03:47:06,0.001441545260604471,0.008330090437084436,2.535829186439514,0.0003628894919529557,-0.00038918241625651717,0.006628286791965365,-35.3638066,149.1656348,69873.5,0.0,-0.5,-152.0,0.0,0.0,-1000.0,2.5,0.5,7.5,RTL,91863.0
03:47:08,0.0024394915672019124,0.008031537290662527,2.5449308156967163,-0.0009566694498062134,4.1871797293424606e-05,0.005193584598600864,-35.3638066,149.1656349,72982.5,0.0,-1.0,-152.0,0.0,0.0,-999.5,1.0,1.5,6.0,RTL,62592.5
03:47:10,0.0011759198096115142,0.008797867689281702,2.55330753326416,0.00019288272596895695,0.0001857298193499446,0.007068132283166051,-35.3638066,149.1656349,76088.5,0.0,-1.0,-152.0,0.0,0.0,-1000.0,2.0,1.5,8.0,RTL,33322.0
03:47:12,0.0013462969800457358,0.0083661749958992,2.560382604598999,-0.000360883423127234,-0.0007121493690647185,0.004195718327537179,-35.3638066,149.1656349,79197.5,1.0,-0.5,-152.0,0.0,0.0,-1000.0,1.5,1.0,5.0,RTL,33322.0
03:47:13,0.0017720252799335867,0.008376495447009802,2.5634820461273193,0.0009727238211780787,9.85578226391226e-05,0.004335541743785143,-35.3638066,149.1656349,80747.25,0.25,-1.0,-152.0,0.0,0.0,-1000.0,2.5,1.25,5.25,RTL,28180.0
03:47:14,0.001537569158244878,0.008460159413516521,2.5661810636520386,-0.0015182941569946706,-0.0008535399101674557,0.004430372500792146,-35.3638066,149.1656349,82305.0,0.0,-1.0,-152.0,0.0,0.0,-1000.0,0.0,0.5,5.5,RTL,28180.0
03:47:16,0.002214938052929938,0.008666022680699825,2.5713627338409424,-0.00012026180047541857,-0.0005809217691421509,0.0020690919482149184,-35.3638066,149.1656349,85414.0,0.0,-1.0,-152.0,0.0,0.0,-1000.0,1.5,1.5,3.0,RTL,28180.0
03:47:18,0.0022082971408963203,0.008304782211780548,2.575836181640625,-0.000278830761089921,0.0002806870033964515,0.003223851090297103,-35.3638066,149.1656349,88520.0,0.0,-1.0,-152.0,0.0,0.0,-1000.5,1.5,1.5,4.0,RTL,96512.5
03:47:20,0.001669269462581724,0.009293649345636368,2.5797417163848877,4.5632070396095514e-05,0.00030361604876816273,0.0019058811594732106,-35.3638066,149.1656349,91626.5,0.0,-1.0,-152.0,0.0,0.0,-1000.0,1.5,2.0,3.0,RTL,164845.0
03:47:22,0.001839876000303775,0.008681057952344418,2.5831398963928223,-0.0006489900406450033,-0.0008631582022644579,0.002090003399644047,-35.3638066,149.1656349,94736.5,0.5,-1.0,-152.0,0.0,0.0,-1000.0,2.0,1.0,3.0,RTL,164845.0
03:47:23,0.001304656732827425,0.008295824518427253,2.584642708301544,-0.001436039776308462,-0.00046380789717659354,0.002703181729884818,-35.3638066,149.1656349,96291.0,0.0,-1.0,-152.0,0.0,0.0,-999.75,1.0,1.5,3.5,RTL,158595.0
03:47:24,0.0014941185945644975,0.00832052482292056,2.5860586166381836,0.0017180904978886247,0.0010812553227879107,0.0035253562964498997,-35.3638066,149.1656349,97844.5,0.0,-1.0,-152.0,0.0,0.0,-999.5,3.5,2.5,5.0,RTL,158595.0
03:47:26,0.002847591764293611,0.008557705208659172,2.588866114616394,0.002166232792660594,0.00048089621122926474,0.0028664961573667824,-35.3638066,149.1656349,100949.5,0.0,-1.5,-152.0,0.0,0.0,-1000.0,4.0,2.0,4.0,RTL,158595.0
03:47:28,0.002482053590938449,0.008552663028240204,2.5915956497192383,0.00099935510661453,-2.8644921258091927e-05,0.002283816342242062,-35.3638066,149.165635,104055.0,0.0,-2.0,-152.0,0.0,0.0,-1000.0,3.0,1.5,3.5,RTL,108881.5
03:47:30,0.0019615492201410234,0.009207664523273706,2.593574643135071,-0.0018580338219180703,0.0009001591242849827,0.0011727065430022776,-35.3638066,149.165635,107164.0,0.0,-2.0,-152.0,0.0,0.0,-1000.0,0.5,2.5,2.5,RTL,59168.0
03:47:32,0.001753828371874988,0.008603536058217287,2.595215082168579,-0.00021553668193519115,-0.0007421697955578566,0.0018431161879561841,-35.3638066,149.165635,110271.5,0.0,-1.5,-152.0,0.0,0.0,-1000.0,1.5,1.0,3.5,RTL,59168.0
03:47:33,0.0020856353221461177,0.00862420629709959,2.596009910106659,0.00025555200409144163,0.00011733136489056051,0.0012432265211828053,-35.3638066,149.165635,111822.25,0.0,-1.0,-152.0,0.0,0.0,-999.75,2.25,1.75,2.75,RTL,46984.0
03:47:34,0.0020760634215548635,0.008678324986249208,2.596602201461792,0.0011708340607583523,0.0017254723934456706,0.0010625520371831954,-35.3638066,149.165635,113377.5,0.0,-1.5,-152.0,0.0,0.0,-999.5,3.0,3.5,2.5,RTL,46984.0
03:47:36,0.002503005089238286,0.007940455805510283,2.5979617834091187,-0.0014371369034051895,7.04275444149971e-05,0.001365017204079777,-35.3638066,149.165635,116490.0,0.0,-2.0,-152.0,0.0,0.0,-999.0,1.0,2.0,2.5,RTL,46984.0
03:47:38,0.0025098760379478335,0.00869248528033495,2.59910249710083,0.00021714007016271353,0.00022932578576728702,0.0004841756308451295,-35.3638066,149.165635,119592.5,0.0,-2.0,-152.0,0.0,0.0,-1000.0,2.5,2.0,2.0,RTL,61949.5
03:47:40,0.0021290909498929977,0.009421790018677711,2.600056529045105,0.0020375209860503674,-0.0010541435331106186,0.0013974349130876362,-35.3638066,149.165635,122699.0,0.0,-2.0,-152.0,0.0,0.0,-1000.0,3.5,1.0,3.0,RTL,76915.0
03:47:42,0.002008784795179963,0.0088764987885952,2.6010698080062866,-0.0024224024382419884,3.525812644511461e-05,0.0007792586693540215,-35.3638066,149.165635,125814.0,0.5,-2.0,-152.0,0.0,0.0,-1000.0,0.0,2.0,2.5,RTL,76915.0
03:47:43,0.0022711336496286094,0.008763415971770883,2.6018720865249634,0.0010443091741763055,0.000356155214831233,0.0011825222172774374,-35.3638066,149.165635,127366.75,0.75,-2.0,-152.0,0.0,0.0,-1000.0,2.75,2.25,2.5,RTL,66848.0
03:47:44,0.0022671165643259883,0.008729749824851751,2.6022226810455322,-0.0003612668951973319,0.0005125458119437099,0.0017843281384557486,-35.3638066,149.165635,128921.0,0.0,-2.0,-152.0,0.0,0.0,-999.5,1.5,2.0,3.5,RTL,66848.0
03:47:46,0.002457234775647521,0.007815987803041935,2.602811098098755,0.002315320074558258,9.416206739842892e-05,0.0027036003302782774,-35.3638066,149.165635,131444.0,0.0,-2.0,-152.0,0.0,0.0,-1000.0,4.0,2.0,4.0,RTL,66848.0
03:47:48,0.002443313132971525,0.008643310982733965,2.603279709815979,0.0006852339720353484,0.0006991680711507797,0.00022109283600002527,-35.3638066,149.165635,134512.0,0.0,-1.5,-152.0,0.0,0.0,-1000.0,2.5,2.5,2.0,RTL,107211.0
03:47:50,0.0022398565197363496,0.00935871247202158,2.603630781173706,0.0010118229547515512,-0.0002578621497377753,0.0009464614558964968,-35.3638066,149.165635,137623.5,0.0,-2.0,-152.0,0.0,0.0,-1000.0,3.0,2.0,2.5,RTL,147574.0
03:47:52,0.002281263703480363,0.008653073571622372,2.603817939758301,0.0006808247417211533,0.0001520243240520358,-5.9066456742584705e-05,-35.3638066,149.165635,140729.0,0.0,-2.0,-152.0,0.0,0.0,-1000.0,2.5,2.0,1.5,RTL,147574.0
03:47:53,0.002304119465406984,0.008906678762286901,2.6042808890342712,-0.000674372655339539,0.0014473041519522667,0.0013761793088633567,-35.3638066,149.165635,142668.0,0.0,-2.0,-152.0,0.0,0.0,-999.5,1.5,3.5,3.0,RTL,72480.0
03:47:54,0.002520124427974224,0.008245243690907955,2.6041100025177,0.0009556296281516552,-0.0013275870587676764,-0.00173159345285967,-35.3638066,149.165635,143833.0,0.0,-2.0,-152.0,0.0,0.0,-1000.0,3.0,1.0,0.0,RTL,72480.0
03:47:56,0.002477273694239557,0.00862059835344553,2.604406714439392,0.00014629040379077196,0.0007416045991703868,-0.0013298345147632062,-35.3638066,149.165635,146946.5,0.0,-2.0,-152.0,0.0,0.0,-1000.0,2.0,3.0,0.0,RTL,72480.0
03:47:58,0.0020685550989583135,0.00941835856065154,2.604874610900879,0.00112367351539433,0.0017943109851330519,-1.1366850230842829e-05,-35.3638066,149.165635,150049.5,0.0,-2.0,-152.0,0.0,0.0,-1000.5,3.5,4.0,1.5,RTL,72480.0
03:47:59,0.002092092647217214,0.009056397015228868,2.6055846214294434,0.0015297204663511366,-2.0132865756750107e-06,0.0008633349789306521,-35.3638066,149.165635,151991.25,1.0,-2.0,-152.0,0.0,0.0,-1000.25,3.75,2.25,2.5,RTL,57538.0
03:48:00,0.0024201676715165377,0.008712878916412592,2.6057850122451782,-0.0007995684863999486,-0.000297196616884321,0.0002513019135221839,-35.3638066,149.165635,153157.5,1.0,-2.0,-152.0,0.0,0.0,-1000.0,1.5,2.0,1.5,RTL,57538.0
03:48:02,0.002457240712828934,0.008672208059579134,2.605919122695923,0.002575473044998944,-0.000800890033133328,-0.0001082702656276524,-35.3638066,149.165635,156270.5,0.0,-2.0,-152.0,0.0,0.0,-1000.5,5.0,1.5,1.5,RTL,57538.0
03:48:04,0.002445044694468379,0.00849928567185998,2.6059998273849487,0.0015057011041790247,0.0009885074105113745,0.00041913194581866264,-35.3638066,149.165635,159378.5,0.0,-2.0,-152.0,0.0,0.0,-1000.0,4.0,3.0,2.5,RTL,57229.0
03:48:06,0.0022960935020819306,0.008712118025869131,2.606066584587097,0.0019104693783447146,0.002558383042924106,0.0017894678749144077,-35.3638066,149.165635,162484.0,0.0,-2.0,-152.0,0.0,0.0,-1000.0,4.5,5.0,3.5,RTL,56920.0
03:48:08,0.0023452852619811893,0.00895070843398571,2.6059902906417847,-0.0012846864992752671,0.0010296948021277785,0.0021481886506080627,-35.3638066,149.165635,165591.0,1.0,-2.0,-152.0,0.0,0.0,-999.0,1.5,3.0,3.5,RTL,56920.0
03:48:09,0.002369685738813132,0.008767763851210475,2.6061031222343445,0.0010910294367931783,0.0011662276810966432,0.002264395821839571,-35.3638066,149.165635,167533.75,0.0,-2.0,-152.0,0.0,0.0,-999.75,3.75,3.5,3.75,RTL,53913.0
03:48:10,0.002326528774574399,0.008844865020364523,2.60596764087677,0.0002996794646605849,0.0015018790727481246,0.00014001817908138037,-35.3638066,149.165635,168702.5,0.0,-2.0,-152.0,0.0,0.0,-999.5,2.5,4.0,2.5,RTL,53913.0
03:48:12,0.0029250698862597346,0.008232834748923779,2.606277823448181,-0.0009464803151786327,0.0004922879161313176,0.0013910300331190228,-35.3638066,149.165635,171805.0,0.0,-2.0,-152.0,0.0,0.0,-999.5,1.5,3.0,3.5,RTL,53913.0
03:48:14,0.002587496768683195,0.008774974849075079,2.6063151359558105,0.0008305238443426788,2.4860375560820103e-05,0.0014441306702792645,-35.3638066,149.165635,174911.5,0.0,-2.0,-152.0,0.0,0.0,-1000.0,3.0,2.5,3.5,RTL,53913.0
03:48:15,0.002115542272804305,0.009281902806833386,2.607023239135742,0.00030356430215761065,0.0012459675781428814,0.000975172792095691,-35.3638066,149.165635,176856.0,0.0,-2.0,-152.0,0.0,0.0,-1000.5,2.5,3.75,3.0,RTL,69313.0
03:48:16,0.0020245195482857525,0.009500302840024233,2.6070977449417114,0.00123790861107409,1.840584445744753e-05,0.0019018501043319702,-35.3638066,149.165635,178021.0,0.0,-2.0,-152.0,0.0,0.0,-999.5,4.0,2.5,4.0,RTL,69313.0
03:48:18,0.0023448074935004115,0.008820874150842428,2.6068050861358643,0.0013240508269518614,0.000705366488546133,0.0018503612373024225,-35.3638066,149.165635,181127.5,0.0,-2.0,-152.0,0.0,0.0,-1000.0,4.0,3.0,4.0,RTL,69313.0
03:48:20,0.0024753027828410268,0.008339714258909225,2.6067944765090942,0.0021785941207781434,-0.0012087830691598356,-0.0001563014229759574,-35.3638066,149.165635,184239.5,0.0,-2.0,-152.0,0.0,0.0,-1000.5,4.5,1.0,2.0,RTL,102028.5
03:48:22,0.00215700245462358,0.00850246474146843,2.6068508625030518,-0.0016336184926331043,0.0012973935808986425,0.0007594027556478977,-35.3638066,149.165635,187346.0,0.0,-2.0,-152.0,0.0,0.0,-999.5,1.0,4.0,3.0,RTL,134744.0
03:48:24,0.002245767507702112,0.009153101593255997,2.606842875480652,-0.0006500004092231393,0.0027787929866462946,0.0021977003198117018,-35.3638066,149.165635,190460.0,0.0,-2.0,-152.0,0.0,0.0,-999.5,1.5,5.5,4.0,RTL,134744.0
03:48:25,0.002246894931886345,0.00920484820380807,2.6066792011260986,-0.0009112234984058887,-0.0007993355102371424,0.00018789389287121594,-35.3638066,149.165635,192393.75,0.5,-2.0,-152.0,0.0,0.0,-999.75,1.75,1.5,2.25,RTL,109880.0
03:48:26,0.0025587829295545816,0.008940230589359999,2.606835126876831,-0.00023177010007202625,0.0007297070696949959,6.742426194250584e-06,-35.3638066,149.165635,193566.5,1.0,-2.0,-152.0,0.0,0.0,-1000.0,2.5,3.5,2.0,RTL,109880.0
03:48:28,0.002364208805374801,0.008756156545132399,2.606569766998291,0.0007439465261995792,-0.0015970536042004824,0.0011541187996044755,-35.3638066,149.165635,196821.5,0.0,-2.0,-152.0,0.0,0.0,-1000.0,3.0,1.0,3.5,RTL,109880.0
03:48:30,0.0026720045134425163,0.008628190495073795,2.6068047285079956,-0.0007288347696885467,0.0009482782334089279,-0.00047992204781621695,-35.3638066,149.165635,199936.0,0.0,-2.0,-152.0,0.0,0.0,-1000.5,2.5,4.0,1.5,RTL,177207.0
03:48:32,0.002678356599062681,0.00857332581654191,2.6071932315826416,-0.0007773676188662648,-0.00016923958901315928,-0.00012370955664664507,-35.3638066,149.165635,203046.5,0.0,-2.0,-152.0,0.0,0.0,-1000.0,2.0,2.0,2.0,RTL,244534.0
03:48:34,0.0019301269203424454,0.011373180896043777,2.6070339679718018,0.00019435561262071133,0.014069186057895422,0.001814008574001491,-35.3638066,149.165635,206151.0,0.5,-2.0,-152.0,0.0,0.0,-998.5,3.0,16.5,4.0,RTL,244534.0
03:48:35,0.0008602230373071507,0.0636453628540039,2.6075457334518433,-0.004015455429907888,0.03466251352801919,0.0015155005967244506,-35.363805475,149.165634125,208072.5,29.5,-20.0,-149.25,4.75,2.5,-998.0,-0.75,37.5,3.75,RTL,242161.0
03:48:36,-0.0031722101848572493,0.0883379690349102,2.6077836751937866,-0.006409199093468487,0.03312400355935097,8.438387885689735e-05,-35.36380255,149.16563185,209205.5,64.5,-42.0,-145.5,13.5,4.5,-995.0,-3.0,36.0,2.5,RTL,242161.0
03:48:38,0.007738413289189339,0.2010396495461464,3.011775016784668,0.09684108942747116,-0.17189309746026993,0.31425119936466217,-35.363777299999995,149.16561485,211665.5,257.5,-111.5,-60.5,58.0,16.0,-932.5,100.0,-168.5,316.5,RTL,242161.0
03:48:40,0.08711837232112885,0.19700802862644196,-3.0962077379226685,-0.19771672785282135,0.06267381459474564,-0.03605942241847515,-35.363720799999996,149.16557555,211748.5,369.5,-263.0,30.5,105.5,-14.5,-998.5,-194.5,65.5,-33.0,RTL,144307.5
03:48:42,0.0040586317190900445,0.21161101013422012,3.1044015884399414,-0.03425550879910588,-0.021862519439309835,-0.033059749752283096,-35.3636381,149.1655075,211422.0,538.5,-337.0,-3.0,137.5,0.0,-997.0,-31.0,-18.0,-30.0,RTL,46454.0
03:48:44,-0.021313954144716263,0.1548706740140915,3.027583599090576,-0.010394454002380371,-0.01725080329924822,-0.05202937684953213,-35.36353415,149.1654317,211508.0,587.5,-337.0,-8.5,151.5,8.5,-982.5,-7.5,-14.0,-49.0,RTL,46454.0
03:48:45,-0.030366207007318735,0.14466402679681778,2.9832183122634888,0.0577569417655468,-0.05827679391950369,-0.03374345728661865,-35.36346842500001,149.165385075,211510.5,583.25,-336.25,-4.5,151.0,35.5,-995.5,61.0,-54.75,-30.25,RTL,70748.0
03:48:46,-0.05183736979961395,0.1055796705186367,2.9608213901519775,-0.2942601107060909,-0.03922173008322716,-0.06160678341984749,-35.36342945,149.16535735,211526.5,562.0,-327.0,-9.0,148.0,17.5,-984.0,-291.0,-35.5,-58.5,RTL,70748.0
03:48:48,-0.05245882831513882,0.008849931473378092,2.916696786880493,0.11166538298130035,-0.06811803765594959,0.03411048371344805,-35.363339350000004,149.16529515000002,211525.0,419.0,-249.5,-2.5,115.5,62.5,-1012.5,116.5,-64.5,37.0,RTL,70748.0
03:48:50,-0.048677776008844376,-0.03655963949859142,2.8843743801116943,-0.18815398216247559,-0.03906744532287121,0.008731020498089492,-35.3632827,149.16525515,211451.0,216.5,-138.0,-4.0,58.0,31.0,-997.0,-183.5,-35.5,11.5,RTL,70440.0
03:48:52,0.012051498284563422,-0.033986909314990044,2.859799027442932,0.23124704509973526,0.0168981091119349,-9.119079913944006e-05,-35.3632601,149.1652413,211428.0,54.0,-50.0,-6.0,9.5,23.5,-1005.0,236.0,19.5,3.0,RTL,70132.0
03:48:54,0.02645209152251482,0.011194609804078937,2.84445321559906,0.26636672765016556,0.03303533140569925,-0.013040879275649786,-35.363257450000006,149.1652405,211453.5,-6.5,-38.0,-5.5,-2.5,22.5,-1003.5,271.5,36.0,-9.5,RTL,70132.0
03:48:55,0.03279538406059146,0.010213280911557376,2.83742356300354,-0.14696532115340233,-0.012503092642873526,-0.014760890509933233,-35.363257975,149.165240675,211480.5,-5.0,-40.5,-4.0,-1.0,-12.25,-995.0,-142.0,-8.25,-11.25,RTL,89759.0
03:48:56,0.041354916989803314,0.0063180336728692055,2.8322319984436035,0.4951822906732559,0.008004773873835802,-0.021150263026356697,-35.36325825,149.1652412,211496.0,-9.0,-41.0,-3.5,-1.0,27.0,-1006.5,501.0,11.5,-18.0,RTL,89759.0
03:48:58,0.025663001462817192,0.019331189803779125,2.8189165592193604,-0.3172959294170141,0.007605808903463185,-0.009886763989925385,-35.36326015,149.16524164999998,211513.5,-12.5,-42.5,-1.5,0.0,-32.0,-998.0,-311.5,11.0,-6.5,RTL,89759.0
03:49:00,-0.0019542035879567266,0.02149039227515459,2.8071746826171875,-0.9222897291183472,0.0021938420832157135,-0.005789689137600362,-35.36326175,149.16523990000002,211464.0,-3.5,-31.0,23.0,3.0,-47.0,-967.5,-915.5,6.0,-2.5,RTL,21272.0
03:49:02,-0.03320726007223129,0.017098726704716682,2.796395778656006,-1.550630807876587,-0.005399829940870404,-0.014956449624150991,-35.3632627,149.16523695,209809.0,4.5,-7.5,114.0,3.0,-67.0,-1023.5,-1543.0,-1.0,-11.5,RTL,21272.0
03:49:04,-0.03709026798605919,0.017363320104777813,2.7898190021514893,-0.7272203862667084,-0.003698061336763203,0.0017061668913811445,-35.3632638,149.16523375,207651.5,15.0,21.0,98.0,3.5,-64.5,-1010.0,-722.0,0.5,4.5,RTL,21272.0
03:49:05,-0.026116911321878433,0.016852174885571003,2.7846201062202454,1.3814476132392883,-0.0020146623719483614,0.0030527138733305037,-35.3632642,149.1652325,206392.0,18.5,32.0,101.75,3.25,55.5,-983.0,1387.5,2.25,5.75,RTL,25524.0
03:49:06,-0.036182235926389694,0.016040023416280746,2.7825393676757812,1.0862451195716858,0.000580171006731689,-0.012063796631991863,-35.3632645,149.16523165,205628.0,21.0,39.0,97.0,1.5,59.0,-1063.5,1092.5,5.0,-8.5,RTL,25524.0
03:49:08,-0.053788309916853905,0.007906342390924692,2.7771713733673096,-1.1846648454666138,-0.0003384500741958618,-0.005508740083314478,-35.36326425,149.16523155,203588.5,25.5,53.0,99.0,-1.5,-26.5,-980.5,-1178.5,4.0,-2.5,RTL,25524.0
03:49:10,-0.01218659384176135,0.00942290760576725,2.7707834243774414,-0.278927244246006,0.001224422361701727,0.0008139531128108501,-35.36326375,149.16523325,201539.5,19.0,42.0,104.5,-1.5,-49.0,-918.5,-276.5,6.0,4.0,RTL,25524.0
03:49:11,-0.012808976384500662,0.007464827814449866,2.7691659927368164,-1.1863881746927898,-0.0072076211993892985,-0.0020307117762664952,-35.363263266666664,149.1652351,200300.33333333334,16.333333333333332,31.666666666666668,100.0,-4.0,-67.0,-997.6666666666666,-1183.6666666666667,-2.3333333333333335,0.6666666666666666,RTL,38429.0
03:49:12,0.004970267877107896,0.005831949412822723,2.7671165466308594,-1.1918792724609375,0.003566205967217684,0.0009127893329908451,-35.3632627,149.1652368,199528.66666666666,12.666666666666666,21.0,101.33333333333333,-5.333333333333333,-64.0,-1006.0,-1189.0,7.666666666666667,3.3333333333333335,RTL,38429.0
03:49:14,0.037043653428554535,0.013193844196697077,2.762289047241211,0.1983410120010376,0.010646722745150328,-0.0031080645664284625,-35.36326183333333,149.16524030000002,197500.66666666666,-0.3333333333333333,-11.0,103.33333333333333,-1.3333333333333333,-29.666666666666668,-985.6666666666666,199.66666666666666,14.666666666666666,-0.3333333333333333,RTL,38429.0
03:49:16,0.01174465473741293,0.018832656865318615,2.7592149575551352,1.2753092447916667,-0.00022842075365285078,0.006988467648625374,-35.3632628,149.1652387,195474.33333333334,1.0,-15.666666666666666,100.66666666666667,2.3333333333333335,47.0,-1035.0,1278.3333333333333,4.0,9.666666666666666,RTL,34669.0
03:49:18,0.00569065516659369,0.012570424315830072,2.756483872731527,1.2733710209528606,0.0015332290592292945,0.0053154897565642996,-35.363263,149.16523726666665,193444.66666666666,7.333333333333333,-0.6666666666666666,105.66666666666667,0.0,74.66666666666667,-1008.6666666666666,1278.3333333333333,6.333333333333333,8.0,RTL,34669.0
03:49:20,-0.02163281850516796,0.013321813195943832,2.7546237309773765,-1.0217597285906475,0.002560968433196346,0.0038044104973475137,-35.3632629,149.16523716666666,191404.33333333334,7.666666666666667,3.0,108.33333333333333,0.3333333333333333,-14.333333333333334,-942.0,-1016.3333333333334,7.0,7.0,RTL,34669.0
03:49:21,-0.00043349736370146275,0.01617579845090707,2.7519301573435464,0.0825196901957194,0.002514065708965063,-0.012629245330269137,-35.363263100000005,149.1652366666667,190124.66666666666,7.333333333333333,4.666666666666667,104.0,2.6666666666666665,-37.333333333333336,-1015.6666666666666,84.0,7.666666666666667,-9.333333333333334,RTL,105595.0
03:49:22,-0.008694966789335012,0.017978226765990257,2.7513299783070884,0.30496013661225635,0.004314577517410119,0.02015225519426167,-35.36326353333334,149.1652356,189370.33333333334,9.0,9.0,103.0,5.0,-27.666666666666668,-991.3333333333334,306.0,9.666666666666666,23.0,RTL,105595.0
03:49:24,-0.021723985982437927,0.010047696841259798,2.7512391408284507,1.3666501839955647,-0.0052002721931785345,-0.0021053218903640905,-35.36326423333333,149.16523293333333,187310.0,20.0,30.333333333333332,101.33333333333333,-1.3333333333333333,70.66666666666667,-1004.3333333333334,1369.6666666666667,0.0,1.6666666666666667,RTL,105595.0
03:49:26,-0.003627351834438741,0.006063761422410607,2.7484978834788003,-0.6745261723796526,0.0102382463713487,-0.0010274998688449462,-35.36326263333333,149.16523633333335,185270.0,11.0,19.666666666666668,104.33333333333333,-4.0,11.666666666666666,-972.6666666666666,-670.0,15.333333333333334,2.3333333333333335,RTL,51980.0
03:49:28,0.0010481358816226323,0.011388256835440794,2.746709108352661,-1.2328993082046509,-0.0007523740641772747,0.0024894876405596733,-35.3632624,149.16523826666665,183237.33333333334,4.666666666666667,2.0,101.33333333333333,-1.0,-66.66666666666667,-993.6666666666666,-1231.3333333333333,4.666666666666667,5.0,RTL,51980.0
03:49:30,-0.00933273664365212,0.013198785483837128,2.7459987004597983,-1.1144086321194966,-0.0006993172379831473,0.0020053545789172253,-35.36326246666667,149.16523823333333,181185.33333333334,2.3333333333333335,-4.0,105.0,1.3333333333333333,-69.0,-1019.6666666666666,-1112.6666666666667,4.666666666666667,5.0,RTL,51980.0
03:49:31,0.011843062626818815,0.014054669998586178,2.744125763575236,1.2394706010818481,0.00015739568819602331,0.0024817191685239473,-35.3632627,149.1652373,179912.33333333334,2.0,-3.3333333333333335,104.0,1.6666666666666667,38.666666666666664,-1007.3333333333334,1240.6666666666667,5.666666666666667,6.0,RTL,11849.0
03:49:32,0.007802476330349843,0.011657182437678179,2.744631210962931,1.066712776819865,-0.0069978570099920034,-0.004122648698588212,-35.3632629,149.1652367,179154.33333333334,5.666666666666667,2.6666666666666665,104.0,0.3333333333333333,13.0,-1014.0,1067.0,-1.3333333333333333,-0.3333333333333333,RTL,11849.0
03:49:34,0.00987162720412016,0.00831267066920797,2.7426579793294272,1.2674192984898884,0.006178689189255238,0.0026684273422385254,-35.36326236666667,149.16523730000003,177094.0,3.0,2.6666666666666665,103.33333333333333,0.3333333333333333,72.33333333333333,-999.6666666666666,1270.3333333333333,11.333333333333334,6.0,RTL,11849.0
03:49:36,-0.03230408144493898,0.012061508993307749,2.743079741795858,-0.8233316813906034,-0.0024744154264529548,-0.006782315981884797,-35.363262533333334,149.16523683333332,175035.66666666666,1.6666666666666667,2.3333333333333335,103.0,1.6666666666666667,-3.3333333333333335,-1008.6666666666666,-820.0,3.3333333333333335,-2.3333333333333335,RTL,11849.0
03:49:37,-0.012470716455330452,0.009671231731772423,2.7415340741475425,-1.129307786623637,-0.0015565797220915556,0.008308448052654663,-35.3632626,149.1652367,173767.0,5.0,7.333333333333333,101.0,-0.6666666666666666,-63.666666666666664,-1017.6666666666666,-1128.3333333333333,4.333333333333333,11.333333333333334,RTL,75249.0
03:49:38,0.006491862858335177,0.0083869236210982,2.7413995265960693,-0.7085864742596945,-0.004920448176562786,0.004021748046701153,-35.3632625,149.1652372,172994.0,4.666666666666667,5.666666666666667,103.0,-2.3333333333333335,-74.33333333333333,-977.3333333333334,-707.6666666666666,0.6666666666666666,7.333333333333333,RTL,75249.0
03:49:40,0.038555787255366646,0.009820556578536829,2.740659793217977,0.21470917450884977,0.008785609466334185,0.007016256762047608,-35.36326163333333,149.16523986666667,170950.0,-1.6666666666666667,-10.0,99.33333333333333,-1.0,-33.0,-987.0,214.33333333333334,14.333333333333334,10.333333333333334,RTL,75249.0
03:49:42,-0.03476870618760586,0.020528344437479973,2.740273396174113,-0.2649014989535014,-0.001061100357522567,0.011668884195387363,-35.36326283333333,149.16523759999998,168898.0,-1.6666666666666667,-10.333333333333334,97.0,5.333333333333333,5.666666666666667,-986.0,-260.6666666666667,4.333333333333333,15.0,RTL,1744.0
03:49:44,-0.0729023739695549,0.015145995343724886,2.7403438886006675,-1.3860530455907185,-0.007803825040658315,-0.005256209289655089,-35.3632647,149.16523173333334,166875.0,19.0,31.0,99.33333333333333,5.0,-56.666666666666664,-1024.3333333333333,-1384.6666666666667,-1.6666666666666667,-1.3333333333333333,RTL,1744.0
03:49:46,-0.019019242531309526,0.0036389322485774755,2.741772413253784,-0.22235352794329324,-0.008080345888932547,0.004522434280564387,-35.3632641,149.1652316,164841.0,25.666666666666668,52.666666666666664,105.66666666666667,-3.6666666666666665,-43.333333333333336,-939.0,-223.33333333333334,-2.0,8.0,RTL,1744.0
03:49:47,0.003176371566951275,-0.0027642760736246905,2.742086172103882,0.4497472097476323,-0.004943158322324355,-0.0010074293240904808,-35.3632627,149.16523496666667,163531.66666666666,15.666666666666666,34.0,96.33333333333333,-11.666666666666666,61.333333333333336,-1012.0,452.0,1.3333333333333333,3.3333333333333335,RTL,206328.0
03:49:48,0.032933101678888,-0.0030667667354767523,2.741260210673014,0.23232903083165488,0.007225638100256522,-0.015172747895121574,-35.36326153333333,149.1652382,162762.0,5.666666666666667,14.666666666666666,96.0,-9.333333333333334,63.0,-991.3333333333334,234.33333333333334,12.666666666666666,-11.0,RTL,206328.0
03:49:50,0.05873499686519305,0.006432438579698403,2.74075714747111,-0.13637750223279,0.011198514762024084,-0.00737840107952555,-35.36325943333333,149.16524553333332,160725.66666666666,-21.0,-46.0,97.0,-5.333333333333333,38.666666666666664,-970.6666666666666,-132.66666666666666,16.666666666666668,-3.0,RTL,206328.0
03:49:52,0.03876742720603943,0.01752514640490214,2.7412243684132895,-1.0073335965474446,0.0008155217704673609,-0.003154961857944727,-35.363260000000004,149.1652457,158697.66666666666,-27.333333333333332,-69.0,98.0,4.0,-76.66666666666667,-984.6666666666666,-1005.6666666666666,6.0,0.3333333333333333,RTL,54819.0
03:49:54,0.013594285274545351,0.017692844072977703,2.7408251762390137,0.9595411419868469,-0.0012838393449783325,0.0017176756324867408,-35.3632617,149.16524036666667,156659.0,-13.666666666666666,-40.333333333333336,101.0,7.0,4.666666666666667,-995.3333333333334,961.0,5.0,5.666666666666667,RTL,54819.0
03:49:56,-0.006080074235796928,0.011187122203409672,2.7420996030171714,0.8959943453470866,-0.0037906880800922713,-6.732732678453128e-05,-35.36326303333333,149.16523516666666,154634.66666666666,3.3333333333333335,3.6666666666666665,97.33333333333333,3.0,17.333333333333332,-1012.0,897.3333333333334,2.0,4.0,RTL,54819.0
03:49:57,-0.007437000788437824,0.00507495878264308,2.7419007619222007,1.2873362302780151,-0.007060411308581631,-0.002196961392958959,-35.36326293333334,149.16523453333335,153358.66666666666,7.333333333333333,16.0,101.33333333333333,-2.3333333333333335,85.66666666666667,-994.0,1290.6666666666667,-1.0,1.6666666666666667,RTL,74177.0
03:49:58,0.012728953811650475,0.001142312811377148,2.7416763305664062,1.2376017570495605,-0.003135579638183117,-0.0032105582455794015,-35.36326233333333,149.16523573333333,152595.0,7.0,16.666666666666668,100.33333333333333,-4.333333333333333,82.33333333333333,-1005.0,1241.3333333333333,2.6666666666666665,0.6666666666666666,RTL,74177.0
03:50:00,0.01579522993415594,0.006270351664473613,2.741347551345825,0.1354455972711245,0.0067352293990552425,-0.003959808576231201,-35.36326106666667,149.1652398,150574.33333333334,-7.666666666666667,-10.666666666666666,104.0,-4.666666666666667,47.0,-981.3333333333334,140.66666666666666,12.0,0.3333333333333333,RTL,74177.0
03:50:02,0.032887047777573265,0.009991101920604706,2.7410831451416016,-0.5590188006560007,-0.0045253378339111805,-0.02213463233783841,-35.363260966666665,149.1652413,148522.0,-11.333333333333334,-25.666666666666668,101.0,0.6666666666666666,-70.33333333333333,-957.3333333333334,-557.0,1.6666666666666667,-18.333333333333332,RTL,74177.0
03:50:03,0.031076662242412567,0.015175100105504194,2.740640640258789,1.3002599875132244,0.003940685652196407,-0.0029005957767367363,-35.3632614,149.16524033333334,147278.33333333334,-12.333333333333334,-28.0,102.66666666666667,4.666666666666667,26.666666666666668,-993.0,1303.3333333333333,9.666666666666666,1.3333333333333333,RTL,47409.0
03:50:04,0.009743654790023962,0.017479513461391132,2.7408335208892822,1.40021812915802,-0.003282655185709397,0.005308910893897216,-35.363262133333336,149.16523863333333,146518.33333333334,-8.666666666666666,-21.333333333333332,103.0,5.333333333333333,38.333333333333336,-1001.3333333333334,1403.6666666666667,2.6666666666666665,8.666666666666666,RTL,47409.0
03:50:06,-0.016508933777610462,0.004037801641970873,2.74257230758667,-0.9550600647926331,-0.007608527783304453,-0.00460277854775389,-35.36326243333334,149.16523673333333,144486.0,5.333333333333333,5.0,104.0,-3.3333333333333335,-9.333333333333334,-999.6666666666666,-949.6666666666666,-1.3333333333333333,0.0,RTL,47409.0
03:50:08,0.06176216651995977,0.003837151608119408,2.7415908177693686,1.082984169324239,0.012493989740808805,0.011252412262062231,-35.3632605,149.1652412666667,142413.66666666666,-10.0,-18.666666666666668,100.66666666666667,-2.3333333333333335,16.666666666666668,-1020.3333333333334,1086.3333333333333,17.666666666666668,15.0,RTL,65183.0
03:50:10,-0.01837078295648098,0.016459340850512188,2.741934378941854,-0.5055734862883886,0.0016236981997887294,0.001887901375691096,-35.3632614,149.1652403,140376.33333333334,-15.0,-30.666666666666668,104.33333333333333,3.3333333333333335,11.0,-1006.6666666666666,-498.3333333333333,7.0,5.333333333333333,RTL,65183.0
03:50:12,0.0004068289223747949,0.01044930269320806,2.7419891357421875,-0.9812088211377462,-0.0010175107357402642,-0.00388922270697852,-35.36326206666667,149.16523816666668,138307.33333333334,-2.0,-7.666666666666667,100.0,2.3333333333333335,-72.66666666666667,-997.6666666666666,-977.0,4.666666666666667,0.0,RTL,65183.0
03:50:13,-0.011980659794062376,0.012695370241999626,2.742451270421346,-0.6137159665425619,-0.0023001039711137614,0.0011311278988917668,-35.363262600000006,149.16523636666668,136936.66666666666,0.0,1.0,102.33333333333333,3.0,-69.0,-971.0,-610.3333333333334,3.6666666666666665,4.666666666666667,RTL,207024.0
03:50:14,-0.006289212343593438,0.010238220915198326,2.7427544593811035,-0.045378138621648155,-0.00450574466958642,-0.013085369020700455,-35.36326283333333,149.16523553333334,136157.66666666666,3.6666666666666665,10.333333333333334,103.0,1.6666666666666667,-48.0,-954.6666666666666,-42.333333333333336,1.3333333333333333,-8.0,RTL,207024.0
03:50:16,-0.022262855743368466,0.010991729175051054,2.7420411109924316,0.5509152437249819,-0.0011453363113105297,0.005472453621526559,-35.36326356666667,149.16523316666667,134114.33333333334,9.666666666666666,26.666666666666668,102.0,1.3333333333333333,-23.333333333333332,-987.0,553.6666666666666,4.333333333333333,9.666666666666666,RTL,207024.0
03:50:18,0.01928530881802241,-0.0013887819562417765,2.743098417917887,1.4760380983352661,0.00011360994540154934,-0.0009966247404615085,-35.3632627,149.16523453333332,132061.66666666666,12.333333333333334,31.333333333333332,98.0,-7.0,63.333333333333336,-1037.0,1479.6666666666667,5.666666666666667,3.0,RTL,146911.5
03:50:20,0.016262426351507504,0.004648561278978984,2.741955121358236,-0.22662667060891786,0.005226483878990014,0.00831300625577569,-35.3632609,149.16523976666667,130031.33333333333,-9.0,-6.666666666666667,101.33333333333333,-2.3333333333333335,34.666666666666664,-984.3333333333334,-220.33333333333334,10.333333333333334,11.666666666666666,RTL,86799.0
03:50:22,0.003614865524771934,0.010472593208154043,2.7425811290740967,-1.192279875278473,-0.006083412716786067,-0.00024649035185575485,-35.363261333333334,149.16523983333332,127990.33333333333,-10.0,-17.0,103.66666666666667,0.6666666666666666,-72.66666666666667,-914.0,-1188.6666666666667,0.0,3.6666666666666665,RTL,86799.0
03:50:23,0.029360470672448475,0.010485519034167131,2.7424187660217285,0.9180855552355448,-0.001374687689046065,0.002662552520632744,-35.36326156666667,149.16523926666665,126712.33333333333,-8.0,-16.333333333333332,101.0,0.3333333333333333,5.0,-995.3333333333334,921.0,4.333333333333333,6.333333333333333,RTL,229930.0
03:50:24,0.026201937968532246,0.008082005505760511,2.7431540489196777,1.4378328323364258,0.0015629845050474007,-0.0019449885003268719,-35.3632616,149.1652389333333,125946.0,-7.0,-14.0,97.66666666666667,0.3333333333333333,46.0,-1007.3333333333334,1442.0,7.0,2.0,RTL,229930.0
03:50:26,0.021440453827381134,0.006671833029637734,2.7429694334665933,1.3127073645591736,-0.001293244616438945,-0.0007189573564877113,-35.3632615,149.1652389666667,123888.66666666667,-7.333333333333333,-13.333333333333334,96.33333333333333,0.0,72.33333333333333,-1018.6666666666666,1318.3333333333333,4.333333333333333,2.6666666666666665,RTL,229930.0
03:50:28,0.009148062284414967,0.006290692059944074,2.7427944342295327,-1.3922529617945354,-0.0016065564317007859,-0.0024938670297463736,-35.36326103333334,149.1652399666667,121845.66666666667,-9.333333333333334,-16.333333333333332,95.66666666666667,-1.0,-57.666666666666664,-1021.6666666666666,-1386.6666666666667,3.6666666666666665,1.3333333333333333,RTL,218183.0
03:50:30,0.021507867922385532,0.009580984401206175,2.742703835169474,-0.8690510789553324,0.0017785020172595978,-0.0036830317694693804,-35.36326093333333,149.16524063333333,119842.66666666667,-12.666666666666666,-23.666666666666668,102.0,1.0,-65.66666666666667,-969.3333333333334,-864.6666666666666,7.0,0.3333333333333333,RTL,218183.0
03:50:32,0.013246883948644003,0.01252952590584755,2.742928663889567,0.14830782016118368,0.006751595375438531,0.007998817212258777,-35.3632617,149.16523883333332,117786.66666666667,-9.333333333333334,-18.0,102.33333333333333,2.0,-24.0,-989.6666666666666,153.0,12.0,11.666666666666666,RTL,218183.0
03:50:33,0.017228910699486732,0.011119219474494457,2.7420283953348794,1.4242349863052368,-0.0017348799544076126,0.0029067015275359154,-35.363262033333335,149.16523776666665,116501.66666666667,-4.0,-7.666666666666667,98.33333333333333,2.3333333333333335,47.0,-1006.6666666666666,1430.3333333333333,3.6666666666666665,6.666666666666667,RTL,22647.0
03:50:34,0.009618541846672693,0.011368270342548689,2.741611878077189,1.1726566950480144,0.0005196963126460711,0.002541954473902782,-35.3632623,149.16523696666664,115740.0,-1.3333333333333333,-1.3333333333333333,99.0,3.3333333333333335,24.666666666666668,-1007.3333333333334,1178.0,5.666666666666667,6.333333333333333,RTL,22647.0
03:50:36,-0.0025946550304070115,0.008504967050005993,2.7442526817321777,1.4471293290456135,0.0005031297914683819,-0.0007990099644909302,-35.3632629,149.16523506666667,113695.66666666667,5.0,14.333333333333334,98.0,0.0,68.66666666666667,-1030.6666666666667,1453.6666666666667,5.333333333333333,2.6666666666666665,RTL,22647.0
03:50:38,0.0029416511145730815,0.0028503871678064265,2.7437915007273355,0.12917479872703552,0.0025620180337379375,-0.008816626854240894,-35.363262033333335,149.165237,111657.0,2.3333333333333335,8.333333333333334,97.66666666666667,-5.0,49.666666666666664,-989.0,137.0,7.333333333333333,-4.666666666666667,RTL,22647.0
03:50:39,0.0335627639045318,0.00017164842332325256,2.744147618611654,-0.8373280962308248,-0.004778988193720579,0.00037809740751981735,-35.363260966666665,149.16524,110365.33333333333,-4.333333333333333,-9.666666666666666,98.66666666666667,-8.666666666666666,-54.333333333333336,-1007.0,-832.3333333333334,1.0,4.0,RTL,102551.0
03:50:40,0.05937909334897995,-0.0032982389287402234,2.7444844245910645,-1.1847036679585774,-0.006248571599523227,-0.00019974828076859316,-35.36325993333333,149.16524303333333,109613.66666666667,-10.0,-24.0,97.33333333333333,-9.666666666666666,-51.333333333333336,-1015.6666666666666,-1178.0,-0.3333333333333333,3.0,RTL,102551.0
03:50:42,0.09616472820440929,0.012708038402100405,2.743882656097412,0.07406356434027354,0.008062885608524084,-0.0040673185139894485,-35.36325836666666,149.16524896666667,107613.66666666667,-39.666666666666664,-85.33333333333333,105.33333333333333,1.6666666666666667,-38.666666666666664,-974.0,80.66666666666667,13.0,0.0,RTL,102551.0
03:50:44,0.0382183576002717,0.016648077716430027,2.745011806488037,0.8782190829515457,-0.007270018725345532,0.008314181041593352,-35.3632597,149.1652461,105562.66666666667,-35.666666666666664,-87.33333333333333,102.66666666666667,5.666666666666667,68.0,-997.6666666666666,889.6666666666666,-1.3333333333333333,12.0,RTL,18491.0
03:50:46,0.023299793402353924,0.010124831770857176,2.7445507049560547,-1.0954077243804932,-0.0015961450214187305,0.0035443700229128203,-35.36326063333333,149.1652421,103484.0,-17.666666666666668,-46.0,99.66666666666667,3.6666666666666665,-80.0,-976.0,-1086.0,3.6666666666666665,7.0,RTL,18491.0
03:50:48,-0.014556499818960825,0.018321678042411804,2.745328664779663,0.6990676671266556,-0.002581000871335467,0.003158278608073791,-35.363262533333334,149.1652366,101417.33333333333,-8.0,-15.666666666666666,100.33333333333333,8.333333333333334,-11.666666666666666,-992.3333333333334,707.6666666666666,3.0,6.666666666666667,RTL,18491.0
03:50:49,-0.031152137865622837,0.01359583716839552,2.7446417013804116,1.3901866674423218,-0.004261022123197715,0.002329171635210514,-35.36326376666667,149.1652326666667,100154.0,7.0,18.0,95.0,4.333333333333333,46.333333333333336,-1011.0,1400.3333333333333,1.0,6.0,RTL,175084.0
03:50:50,-0.02912068801621596,0.009321298139790693,2.745649258295695,1.4323666890462239,-0.004671355554213126,0.002890573348850012,-35.363264,149.1652313666667,99400.0,14.333333333333334,36.666666666666664,97.33333333333333,3.0,36.666666666666664,-1014.3333333333334,1442.0,0.6666666666666666,6.333333333333333,RTL,175084.0
03:50:52,-0.05219993367791176,0.005628733274837335,2.745823701222738,0.5598516762256622,-0.005211503244936466,-0.0018789682847758133,-35.363264166666674,149.16523013333332,97360.33333333333,19.666666666666668,55.0,96.33333333333333,-1.6666666666666667,64.33333333333333,-1015.0,570.6666666666666,0.0,1.6666666666666667,RTL,175084.0
03:50:54,-0.019709375997384388,0.0026180646382272243,2.7458221117655435,-1.3952229022979736,-0.001072987758864959,-0.004708577956383427,-35.36326296666667,149.1652336,95323.66666666667,15.666666666666666,47.0,97.0,-3.3333333333333335,-65.66666666666667,-992.0,-1387.0,3.6666666666666665,-1.3333333333333333,RTL,119085.0
03:50:56,-0.010524927948911985,0.014066084288060665,2.7457576592763266,0.6593736112117767,0.0014245719648897648,0.0012257774360477924,-35.3632633,149.1652342,93304.66666666667,8.0,28.0,100.33333333333333,1.6666666666666667,-12.333333333333334,-1001.6666666666666,665.6666666666666,6.333333333333333,5.0,RTL,119085.0
03:50:58,-0.014842386667927107,0.007036233165611823,2.7451208432515464,1.3240694403648376,-0.007543776494761308,-0.007924062122280398,-35.36326363333333,149.16523306666667,91270.66666666667,15.0,35.666666666666664,102.66666666666667,-3.3333333333333335,68.33333333333333,-1006.6666666666666,1331.6666666666667,-2.0,-4.0,RTL,119085.0
03:50:59,-0.00704564315189297,0.000495900965082304,2.7466569741566977,-0.1557761679093043,-0.002979470416903496,0.0013025645166635513,-35.363262533333334,149.16523556666667,90003.0,11.666666666666666,27.666666666666668,105.0,-6.666666666666667,41.333333333333336,-993.3333333333334,-147.33333333333334,2.3333333333333335,5.0,RTL,14133.0
03:51:00,0.008632669225335121,-0.0006501393121046325,2.7462637424468994,-0.45293845733006793,0.004118769119183223,-0.007228820507104198,-35.36326163333334,149.16523783333335,89224.33333333333,4.0,13.333333333333334,102.0,-6.666666666666667,24.333333333333332,-988.0,-443.3333333333333,9.0,-3.3333333333333335,RTL,14133.0
03:51:02,-0.006531434521699945,0.013769986728827158,2.745525519053141,-1.2375340461730957,0.007799036024759213,-0.0029617924398432174,-35.36326123333333,149.16524016666665,87188.0,-11.0,-15.666666666666666,101.66666666666667,2.3333333333333335,-31.333333333333332,-1015.0,-1228.6666666666667,12.666666666666666,1.0,RTL,14133.0
03:51:04,-0.019981748114029568,0.014201178836325804,2.7450927098592124,-0.6879101395606995,-0.0032308613881468773,0.0026787002570927143,-35.36326293333333,149.16523599999996,85138.66666666667,2.3333333333333335,5.666666666666667,104.66666666666667,4.0,-71.0,-969.3333333333334,-681.6666666666666,2.0,6.333333333333333,RTL,56132.0
03:51:06,-0.04658710832397143,0.01615586628516515,2.7465399901072183,-0.22086786851286888,0.0004713060334324837,-0.000650839414447546,-35.363264300000004,149.1652318,83114.33333333333,15.0,36.0,102.0,5.333333333333333,-55.0,-971.6666666666666,-216.0,5.0,2.6666666666666665,RTL,56132.0
03:51:08,-0.06921991954247157,0.011577912606298923,2.746671438217163,0.387689212958018,0.0001943840179592371,0.005075883896400531,-35.3632653,149.16522833333332,81068.66666666667,28.666666666666668,67.33333333333333,99.33333333333333,2.3333333333333335,39.666666666666664,-1069.0,394.3333333333333,5.333333333333333,8.333333333333334,RTL,56132.0
03:51:09,-0.08149633556604385,0.005283521177868049,2.748233954111735,-1.513461748758952,-0.006658133740226428,-0.0031513085899253688,-35.363265166666665,149.16522799999998,79813.33333333333,34.0,80.33333333333333,103.66666666666667,-2.6666666666666665,-50.333333333333336,-972.3333333333334,-1509.0,-1.3333333333333333,0.0,RTL,103206.0
03:51:10,-0.047126768777767815,0.0026718747491637864,2.747419277826945,-1.2877216339111328,-0.0019649163198967776,-0.002432597257817785,-35.3632646,149.16522913333333,79030.66666666667,31.666666666666668,78.0,102.66666666666667,-3.0,-72.33333333333333,-991.0,-1285.0,2.6666666666666665,1.0,RTL,103206.0
03:51:12,0.010437575673374036,0.00246509094722569,2.747320016225179,1.4113425811131795,-0.0018863569324215252,-0.0035672540155549846,-35.363263233333335,149.16523296666665,76950.66666666667,17.0,52.0,97.66666666666667,-2.6666666666666665,49.666666666666664,-1026.3333333333333,1413.3333333333333,3.0,0.0,RTL,103206.0
03:51:15,-0.04425504803657532,0.013751254417002201,2.7471065521240234,-0.46248099207878113,0.004602591739967465,-0.0004679689882323146,-35.36326325,149.1652344,73625.0,6.0,24.5,93.0,3.5,11.5,-1008.0,-458.5,9.5,3.0,RTL,7295.0
03:51:17,-0.06151606701314449,0.007836084812879562,2.74850857257843,0.17479783482849598,-0.009454043116420507,-0.003229750320315361,-35.3632643,149.16523115,71603.0,19.5,48.0,96.0,-1.0,49.0,-958.0,178.0,-4.0,0.5,RTL,7295.0
03:51:19,-0.0285436837002635,0.007258703233674169,2.7478857040405273,-0.7971082106232643,0.0016495098825544119,-0.0014941405970603228,-35.3632636,149.16523225,69570.5,16.0,48.0,98.0,0.0,-65.0,-980.0,-798.5,6.0,1.5,RTL,40992.5
03:51:21,-0.01212775893509388,0.006979408673942089,2.748742699623108,1.2772268652915955,0.00010774633847177029,0.0009634228190407157,-35.36326365,149.1652324,67528.0,16.5,47.0,95.0,-2.0,30.5,-1009.0,1275.5,5.0,4.5,RTL,74690.0
03:51:23,0.022571046836674213,0.00470460532233119,2.746889591217041,1.391386866569519,-0.001216330798342824,-0.006651751697063446,-35.3632626,149.16523545,65494.5,9.5,29.5,99.0,0.0,67.5,-1044.0,1389.5,3.0,-3.0,RTL,74690.0
03:51:24,0.01961912796832621,0.0029341365152504295,2.7496296167373657,1.3894171118736267,-0.002966419910080731,-0.0060746195376850665,-35.363262175,149.165236575,64731.5,5.25,18.0,96.75,-4.75,69.0,-1024.75,1388.0,1.5,-2.75,RTL,72673.0
03:51:25,0.03111300803720951,0.002181343035772443,2.747929573059082,1.3398814797401428,0.005461269989609718,-0.005671312101185322,-35.3632613,149.16523905,63464.0,-3.0,0.5,97.0,-3.5,86.0,-948.0,1339.5,10.0,-2.0,RTL,72673.0
03:51:27,0.01028345082886517,0.01115651335567236,2.748439908027649,0.5178446918725967,-0.0009294672636315227,-0.0029508067527785897,-35.36326115,149.1652402,61432.0,-12.5,-21.0,100.5,0.0,56.5,-1043.5,518.0,3.5,0.5,RTL,72673.0
03:51:29,0.006702081998810172,0.008164457511156797,2.747650623321533,-1.5421112179756165,0.0029105980647727847,0.0065978169441223145,-35.363261,149.16524075,59390.5,-10.0,-22.5,99.5,-0.5,-69.5,-948.0,-1543.0,7.0,10.0,RTL,72673.0
03:51:30,0.030213498510420322,0.010655736550688744,2.746936857700348,-0.46694109961390495,0.002388850087299943,-0.0021080863662064075,-35.363261025,149.165240925,58618.75,-11.25,-25.0,98.25,1.25,-56.75,-1026.0,-469.0,6.25,1.25,RTL,115360.0
03:51:31,0.025270141661167145,0.012423437088727951,2.747862219810486,1.2905042171478271,0.002071056398563087,-0.0012316989013925195,-35.36326135,149.16523995,57345.5,-11.5,-25.0,97.0,2.5,44.0,-1072.0,1289.5,6.5,1.5,RTL,115360.0
03:51:33,0.01243642414920032,0.01071305712684989,2.7489466667175293,1.2541458010673523,-0.0025762005243450403,0.001904493197798729,-35.36326205,149.1652379,55336.5,-2.0,-7.5,101.0,0.0,71.0,-1029.0,1254.5,1.5,4.5,RTL,115360.0
03:51:35,0.005115600913995877,0.0027942967135459185,2.747427463531494,-0.9553749561309814,-0.006258930545300245,-0.0006577338790521026,-35.3632612,149.16523949999998,53285.5,-5.5,-13.0,99.0,-4.0,-8.5,-970.0,-953.5,-1.0,2.5,RTL,90359.5
03:51:37,0.014642370864748955,0.013194025494158268,2.747689723968506,-1.4028201699256897,-0.004518482135608792,-0.0024546317290514708,-35.363260749999995,149.16524145,51253.0,-15.5,-29.5,102.5,3.0,-73.0,-1004.0,-1402.5,0.0,0.5,RTL,65359.0
03:51:39,-0.0003949500678572804,0.013310994487255812,2.7484445571899414,-0.37914691865444183,-0.011389291379600763,0.0002629682421684265,-35.3632621,149.16523845,49213.5,-5.0,-17.5,106.5,0.5,-59.5,-936.5,-379.5,-6.5,3.0,RTL,65359.0
03:51:40,0.011010434944182634,0.007182323490269482,2.750328838825226,0.8276618346571922,-0.002746156882494688,-0.002263234229758382,-35.363262,149.165238375,48429.25,-1.5,-11.0,105.0,-2.5,50.25,-1009.25,829.0,1.5,0.75,RTL,16123.0
03:51:41,0.015110366977751255,0.004067641799338162,2.7479742765426636,-0.6835285723209381,0.0011432603932917118,-0.004867265350185335,-35.363261050000006,149.16524015,47172.5,-7.0,-18.0,101.0,-2.5,-2.0,-999.0,-679.5,5.0,-2.0,RTL,16123.0
03:51:43,0.006232615793123841,0.011283554136753082,2.747199773788452,-0.06489966996014118,0.005427793134003878,0.0029184605227783322,-35.363261,149.1652406,45110.0,-14.0,-28.0,102.5,1.0,34.0,-987.5,-60.5,9.5,5.5,RTL,16123.0
03:51:45,-0.009095329558476806,0.010023852344602346,2.747450828552246,-1.3081201910972595,-0.008881626417860389,0.0006582140922546387,-35.3632616,149.16523875000001,43053.0,-7.5,-17.0,101.0,0.5,-70.5,-1015.5,-1306.5,-4.0,4.0,RTL,17733.5
03:51:47,0.042291829362511635,0.003066955250687897,2.749929189682007,0.7231877446174622,0.0010647854069247842,-0.0019036014564335346,-35.363261050000006,149.16523965,41025.0,-8.5,-15.5,99.0,-2.0,-5.0,-955.5,724.0,5.0,1.0,RTL,19344.0
03:51:49,0.03008960746228695,0.007562863640487194,2.7479076385498047,1.2245317101478577,-0.003778906539082527,-0.010259312810376287,-35.3632608,149.1652405,38989.5,-15.0,-26.0,98.5,-0.5,67.5,-1034.5,1229.0,0.5,-6.5,RTL,19344.0
03:51:50,0.018915602238848805,0.0076587911462411284,2.748215913772583,0.38957310374826193,-0.0007430921541526914,-0.0010021732305176556,-35.36326075,149.165240575,38215.75,-15.0,-26.25,101.25,-1.0,46.5,-1014.75,395.0,3.75,2.0,RTL,46236.0
03:51:51,0.00435378827387467,0.008253065636381507,2.7481601238250732,-0.8382949531078339,0.008843363495543599,-0.02034964389167726,-35.3632608,149.1652407,36940.0,-15.0,-28.0,101.0,-2.0,6.0,-1004.5,-832.0,13.0,-17.5,RTL,46236.0
03:51:53,0.0031265767756849527,0.009393011685460806,2.7484735250473022,-1.4217469096183777,0.002046116627752781,-0.009480065433308482,-35.363261,149.1652406,34894.5,-13.0,-25.5,100.0,1.5,-61.0,-1003.5,-1416.5,6.5,-6.5,RTL,46236.0
03:51:55,0.00533742131665349,0.01284119114279747,2.7496672868728638,-0.20264213159680367,-0.0034922099439427257,-0.006503250217065215,-35.36326175,149.16523885,32853.0,-9.0,-18.0,97.5,3.0,-46.5,-981.5,-199.5,1.0,-3.0,RTL,31402.5
03:51:57,0.029624772258102894,0.009052246809005737,2.7486683130264282,0.943785697221756,-0.0004969389410689473,-0.0004292023368179798,-35.363262,149.16523795,30829.5,-2.0,-5.0,99.5,0.0,5.5,-1011.0,947.0,3.0,2.5,RTL,16569.0
03:51:59,0.005556602496653795,0.013007540721446276,2.7495704889297485,0.4300335943698883,0.004939465783536434,0.012868532445281744,-35.3632622,149.1652371,28680.0,-3.0,-2.0,98.0,3.5,-16.0,-1040.5,433.0,8.5,15.0,RTL,16569.0
03:52:00,-0.012603743001818657,0.013143515447154641,2.748644709587097,1.2454228848218918,5.199195584282279e-05,0.001423984649591148,-35.3632627,149.16523582499997,27912.25,-0.25,3.25,99.25,2.25,64.25,-1034.75,1250.5,3.75,4.0,RTL,243128.0
