time_stamp,MODE,lat,lon,relative_alt,roll,pitch,yaw,rollspeed,pitchspeed,yawspeed,xacc,yacc,zacc,xgyro,ygyro,zgyro,vx,vy,vz,RTL_ALT,LAND_SPEED
17:03:57.292,GUIDED,-35.3632621,149.1652373,0,-0.0005103371222503483,0.0013668524334207177,0.028903495520353317,0.0003468704817350954,0.00024895748356357217,0.002524101175367832,0,1,-1000,0,0,0,0,-3,-7,1500.0,50.0
17:03:57.494,GUIDED,-35.3632621,149.1652373,0,-0.00018621105118654668,0.0015643691876903176,0.028255267068743706,0.0003853388479910791,0.00035590570769272745,0.0023975686635822058,0,1,-1000,0,0,0,-1,0,-5,1500.0,50.0
17:03:57.695,GUIDED,-35.3632621,149.1652374,0,-0.00013059550838079304,0.001592200598679483,0.028104601427912712,0.00030097091803327203,0.00034514415892772377,0.002356333192437887,0,1,-1000,0,0,0,-1,0,-4,1500.0,50.0
17:03:57.897,GUIDED,-35.3632621,149.1652374,0,-0.00013059550838079304,0.001592200598679483,0.028104601427912712,0.00030097091803327203,0.00034514415892772377,0.002356333192437887,0,1,-1000,0,0,0,-1,0,-4,1500.0,50.0
17:03:58.099,GUIDED,-35.3632621,149.1652374,0,-0.00013059550838079304,0.001592200598679483,0.028104601427912712,0.00030097091803327203,0.00034514415892772377,0.002356333192437887,0,1,-1000,0,0,0,-1,0,-4,1500.0,50.0
17:03:58.301,GUIDED,-35.3632621,149.1652374,0,-0.00013059550838079304,0.001592200598679483,0.028104601427912712,0.00030097091803327203,0.00034514415892772377,0.002356333192437887,0,1,-1000,0,0,0,-1,0,-4,1500.0,50.0
17:03:58.505,GUIDED,-35.3632621,149.1652374,0,-0.00013059550838079304,0.001592200598679483,0.028104601427912712,0.00030097091803327203,0.00034514415892772377,0.002356333192437887,0,1,-1000,0,0,0,-1,0,-4,1500.0,50.0
17:03:58.707,GUIDED,-35.3632621,149.1652374,0,-0.00013059550838079304,0.001592200598679483,0.028104601427912712,0.00030097091803327203,0.00034514415892772377,0.002356333192437887,0,1,-1000,0,0,0,-1,0,-4,1500.0,50.0
17:03:58.911,GUIDED,-35.3632621,149.1652374,0,-0.00013059550838079304,0.001592200598679483,0.028104601427912712,0.00030097091803327203,0.00034514415892772377,0.002356333192437887,0,1,-1000,0,0,0,-1,0,-4,1500.0,50.0
17:03:59.114,GUIDED,-35.3632621,149.1652374,0,-0.00013059550838079304,0.001592200598679483,0.028104601427912712,0.00030097091803327203,0.00034514415892772377,0.002356333192437887,0,1,-1000,0,0,0,-1,0,-4,1500.0,50.0
17:03:59.318,GUIDED,-35.3632621,149.1652374,0,-6.0957543610129505e-05,0.0015210005221888423,0.027284059673547745,0.00022448456729762256,0.00032608589390292764,0.0022952689323574305,0,1,-1000,0,1,0,-2,1,-2,1500.0,50.0
17:03:59.520,GUIDED,-35.3632622,149.1652374,0,-0.00013903142826166004,0.0014349340926855803,0.02696111798286438,0.000248698954237625,0.0003213424643035978,0.0022041285410523415,0,1,-1000,0,0,0,-2,2,-2,1500.0,50.0
17:03:59.722,GUIDED,-35.3632622,149.1652375,8,-0.00018711408483795822,0.001386132906191051,0.026821771636605263,0.00022274415823630989,0.00024407810997217894,0.0023774285800755024,0,1,-1000,0,0,0,-2,2,-2,1500.0,50.0
17:03:59.926,GUIDED,-35.3632622,149.1652375,8,-0.00018711408483795822,0.001386132906191051,0.026821771636605263,0.00022274415823630989,0.00024407810997217894,0.0023774285800755024,0,1,-1000,0,0,0,-2,2,-2,1500.0,50.0
17:04:00.128,GUIDED,-35.3632622,149.1652375,8,-0.00018711408483795822,0.001386132906191051,0.026821771636605263,0.00022274415823630989,0.00024407810997217894,0.0023774285800755024,0,1,-1000,0,0,0,-2,2,-2,1500.0,50.0
17:04:00.330,GUIDED,-35.3632622,149.1652375,8,-0.00018711408483795822,0.001386132906191051,0.026821771636605263,0.00022274415823630989,0.00024407810997217894,0.0023774285800755024,0,1,-1000,0,0,0,-2,2,-2,1500.0,50.0
17:04:00.534,GUIDED,-35.3632622,149.1652375,8,-0.00018711408483795822,0.001386132906191051,0.026821771636605263,0.00022274415823630989,0.00024407810997217894,0.0023774285800755024,0,1,-1000,0,0,0,-2,2,-2,1500.0,50.0
17:04:00.737,GUIDED,-35.3632622,149.1652375,8,-0.00018711408483795822,0.001386132906191051,0.026821771636605263,0.00022274415823630989,0.00024407810997217894,0.0023774285800755024,0,1,-1000,0,0,0,-2,2,-2,1500.0,50.0
17:04:00.940,GUIDED,-35.3632622,149.1652375,8,-0.00018711408483795822,0.001386132906191051,0.026821771636605263,0.00022274415823630989,0.00024407810997217894,0.0023774285800755024,0,1,-1000,0,0,0,-2,2,-2,1500.0,50.0
17:04:01.141,GUIDED,-35.3632622,149.1652375,8,-0.00018711408483795822,0.001386132906191051,0.026821771636605263,0.00022274415823630989,0.00024407810997217894,0.0023774285800755024,0,1,-1000,0,0,0,-2,2,-2,1500.0,50.0
17:04:01.343,GUIDED,-35.3632621,149.1652374,10,-0.00029714469565078616,0.001349654863588512,0.02597292885184288,0.00020465345005504787,0.00024060189025476575,0.0022086286917328835,0,1,-1000,0,0,0,0,0,0,1500.0,50.0
17:04:01.545,GUIDED,-35.3632621,149.1652374,9,-0.0002629133523441851,0.0014069390017539263,0.02580934390425682,0.00030527543276548386,0.0002610642113722861,0.0019776420667767525,0,1,-1000,0,0,0,0,0,0,1500.0,50.0
17:04:01.746,GUIDED,-35.3632621,149.1652374,9,-0.00021797687804792076,0.001474131247960031,0.025685861706733704,0.0002659421879798174,0.00022435587015934289,0.0020997829269617796,0,2,-1000,0,0,0,0,0,0,1500.0,50.0
17:04:01.948,GUIDED,-35.3632621,149.1652374,9,-0.00021797687804792076,0.001474131247960031,0.025685861706733704,0.0002659421879798174,0.00022435587015934289,0.0020997829269617796,0,2,-1000,0,0,0,0,0,0,1500.0,50.0
17:04:02.152,GUIDED,-35.3632621,149.1652374,9,-0.00021797687804792076,0.001474131247960031,0.025685861706733704,0.0002659421879798174,0.00022435587015934289,0.0020997829269617796,0,2,-1000,0,0,0,0,0,0,1500.0,50.0
17:04:02.354,GUIDED,-35.3632621,149.1652374,9,-0.00021797687804792076,0.001474131247960031,0.025685861706733704,0.0002659421879798174,0.00022435587015934289,0.0020997829269617796,0,2,-1000,0,0,0,0,0,0,1500.0,50.0
17:04:02.556,GUIDED,-35.3632621,149.1652374,9,-0.00021797687804792076,0.001474131247960031,0.025685861706733704,0.0002659421879798174,0.00022435587015934289,0.0020997829269617796,0,2,-1000,0,0,0,0,0,0,1500.0,50.0
17:04:02.757,GUIDED,-35.3632621,149.1652374,9,-0.00021797687804792076,0.001474131247960031,0.025685861706733704,0.0002659421879798174,0.00022435587015934289,0.0020997829269617796,0,2,-1000,0,0,0,0,0,0,1500.0,50.0
17:04:02.960,GUIDED,-35.3632621,149.1652374,9,-0.00021797687804792076,0.001474131247960031,0.025685861706733704,0.0002659421879798174,0.00022435587015934289,0.0020997829269617796,0,2,-1000,0,0,0,0,0,0,1500.0,50.0
17:04:03.168,GUIDED,-35.3632621,149.1652374,9,-0.00021797687804792076,0.001474131247960031,0.025685861706733704,0.0002659421879798174,0.00022435587015934289,0.0020997829269617796,0,2,-1000,0,0,0,0,0,0,1500.0,50.0
17:04:03.370,GUIDED,-35.3632621,149.1652374,7,-5.923390563111752e-05,0.0016780794830992818,0.02526555210351944,0.00030877310200594366,0.00024800639948807657,0.0019762003794312477,0,1,-1000,0,0,0,0,0,0,1500.0,50.0
17:04:03.571,GUIDED,-35.3632621,149.1652374,3,0.0007179792737588286,0.0017737981397658587,0.024690113961696625,0.018637588247656822,-0.007383246440440416,0.00282198004424572,0,0,-1028,19,-7,1,0,0,0,1500.0,50.0
17:04:03.773,GUIDED,-35.3632621,149.1652374,45,0.00361074972897768,-0.0003960098547395319,0.024589311331510544,0.0034778830595314503,-0.0041510192677378654,0.0014972793869674206,0,0,-1140,3,-3,0,0,0,-32,1500.0,50.0
17:04:03.975,GUIDED,-35.3632621,149.1652374,45,0.00361074972897768,-0.0003960098547395319,0.024589311331510544,0.0034778830595314503,-0.0041510192677378654,0.0014972793869674206,0,0,-1140,3,-3,0,0,0,-32,1500.0,50.0
17:04:04.177,GUIDED,-35.3632621,149.1652374,45,0.00361074972897768,-0.0003960098547395319,0.024589311331510544,0.0034778830595314503,-0.0041510192677378654,0.0014972793869674206,0,0,-1140,3,-3,0,0,0,-32,1500.0,50.0
17:04:04.378,GUIDED,-35.3632621,149.1652374,45,0.00361074972897768,-0.0003960098547395319,0.024589311331510544,0.0034778830595314503,-0.0041510192677378654,0.0014972793869674206,0,0,-1140,3,-3,0,0,0,-32,1500.0,50.0
17:04:04.580,GUIDED,-35.3632621,149.1652374,45,0.00361074972897768,-0.0003960098547395319,0.024589311331510544,0.0034778830595314503,-0.0041510192677378654,0.0014972793869674206,0,0,-1140,3,-3,0,0,0,-32,1500.0,50.0
17:04:04.782,GUIDED,-35.3632621,149.1652374,45,0.00361074972897768,-0.0003960098547395319,0.024589311331510544,0.0034778830595314503,-0.0041510192677378654,0.0014972793869674206,0,0,-1140,3,-3,0,0,0,-32,1500.0,50.0
17:04:04.984,GUIDED,-35.3632621,149.1652374,45,0.00361074972897768,-0.0003960098547395319,0.024589311331510544,0.0034778830595314503,-0.0041510192677378654,0.0014972793869674206,0,0,-1140,3,-3,0,0,0,-32,1500.0,50.0
17:04:05.187,GUIDED,-35.3632621,149.1652374,45,0.00361074972897768,-0.0003960098547395319,0.024589311331510544,0.0034778830595314503,-0.0041510192677378654,0.0014972793869674206,0,0,-1140,3,-3,0,0,0,-32,1500.0,50.0
17:04:05.392,GUIDED,-35.363262,149.1652376,1706,0.03336651995778084,-0.0026178883854299784,0.02436242625117302,0.04536626487970352,-0.00788325909525156,0.003225124441087246,0,-1,-1008,45,-7,2,1,10,-146,1500.0,50.0
17:04:05.594,GUIDED,-35.3632618,149.1652387,2469,0.05456655099987984,-0.007370601408183575,0.024636100977659225,0.039643459022045135,-0.010950681753456593,0.003973545040935278,1,-5,-1000,39,-10,2,5,29,-147,1500.0,50.0
17:04:05.798,GUIDED,-35.3632618,149.1652387,2469,0.05456655099987984,-0.007370601408183575,0.024636100977659225,0.039643459022045135,-0.010950681753456593,0.003973545040935278,1,-5,-1000,39,-10,2,5,29,-147,1500.0,50.0
17:04:05.999,GUIDED,-35.3632618,149.1652387,2469,0.05456655099987984,-0.007370601408183575,0.024636100977659225,0.039643459022045135,-0.010950681753456593,0.003973545040935278,1,-5,-1000,39,-10,2,5,29,-147,1500.0,50.0
17:04:06.202,GUIDED,-35.3632618,149.1652387,2469,0.05456655099987984,-0.007370601408183575,0.024636100977659225,0.039643459022045135,-0.010950681753456593,0.003973545040935278,1,-5,-1000,39,-10,2,5,29,-147,1500.0,50.0
17:04:06.410,GUIDED,-35.3632618,149.1652387,2469,0.05456655099987984,-0.007370601408183575,0.024636100977659225,0.039643459022045135,-0.010950681753456593,0.003973545040935278,1,-5,-1000,39,-10,2,5,29,-147,1500.0,50.0
17:04:06.611,GUIDED,-35.3632618,149.1652387,2469,0.05456655099987984,-0.007370601408183575,0.024636100977659225,0.039643459022045135,-0.010950681753456593,0.003973545040935278,1,-5,-1000,39,-10,2,5,29,-147,1500.0,50.0
17:04:06.816,GUIDED,-35.3632618,149.1652387,2469,0.05456655099987984,-0.007370601408183575,0.024636100977659225,0.039643459022045135,-0.010950681753456593,0.003973545040935278,1,-5,-1000,39,-10,2,5,29,-147,1500.0,50.0
17:04:07.019,GUIDED,-35.3632618,149.1652387,2469,0.05456655099987984,-0.007370601408183575,0.024636100977659225,0.039643459022045135,-0.010950681753456593,0.003973545040935278,1,-5,-1000,39,-10,2,5,29,-147,1500.0,50.0
17:04:07.224,GUIDED,-35.3632618,149.1652387,2469,0.05456655099987984,-0.007370601408183575,0.024636100977659225,0.039643459022045135,-0.010950681753456593,0.003973545040935278,1,-5,-1000,39,-10,2,5,29,-147,1500.0,50.0
17:04:07.425,GUIDED,-35.3632616,149.1652461,5129,-0.06930924952030182,0.01549097802489996,-0.11819957196712494,-0.06563437730073929,-0.0993184745311737,0.032778508961200714,6,-2,-1002,-65,-98,31,-20,9,-147,1500.0,50.0
17:04:07.626,GUIDED,-35.363262,149.1652462,5512,-0.07363885641098022,-0.006948702037334442,-0.10784833133220673,0.02191159687936306,-0.06621407717466354,0.027272790670394897,4,2,-1005,22,-65,26,-21,-8,-147,1500.0,50.0
17:04:07.827,GUIDED,-35.363262,149.1652462,5512,-0.07363885641098022,-0.006948702037334442,-0.10784833133220673,0.02191159687936306,-0.06621407717466354,0.027272790670394897,4,2,-1005,22,-65,26,-21,-8,-147,1500.0,50.0
17:04:08.029,GUIDED,-35.363262,149.1652462,5512,-0.07363885641098022,-0.006948702037334442,-0.10784833133220673,0.02191159687936306,-0.06621407717466354,0.027272790670394897,4,2,-1005,22,-65,26,-21,-8,-147,1500.0,50.0
17:04:08.234,GUIDED,-35.363262,149.1652462,5512,-0.07363885641098022,-0.006948702037334442,-0.10784833133220673,0.02191159687936306,-0.06621407717466354,0.027272790670394897,4,2,-1005,22,-65,26,-21,-8,-147,1500.0,50.0
17:04:08.436,GUIDED,-35.363262,149.1652462,5512,-0.07363885641098022,-0.006948702037334442,-0.10784833133220673,0.02191159687936306,-0.06621407717466354,0.027272790670394897,4,2,-1005,22,-65,26,-21,-8,-147,1500.0,50.0
17:04:08.642,GUIDED,-35.363262,149.1652462,5512,-0.07363885641098022,-0.006948702037334442,-0.10784833133220673,0.02191159687936306,-0.06621407717466354,0.027272790670394897,4,2,-1005,22,-65,26,-21,-8,-147,1500.0,50.0
17:04:08.845,GUIDED,-35.363262,149.1652462,5512,-0.07363885641098022,-0.006948702037334442,-0.10784833133220673,0.02191159687936306,-0.06621407717466354,0.027272790670394897,4,2,-1005,22,-65,26,-21,-8,-147,1500.0,50.0
17:04:09.046,GUIDED,-35.363262,149.1652462,5512,-0.07363885641098022,-0.006948702037334442,-0.10784833133220673,0.02191159687936306,-0.06621407717466354,0.027272790670394897,4,2,-1005,22,-65,26,-21,-8,-147,1500.0,50.0
17:04:09.248,GUIDED,-35.3632632,149.1652437,6669,-0.03276616334915161,-0.019973067566752434,-0.09670258313417435,0.06274520605802536,-0.001822741120122373,0.014154580421745777,4,2,-1005,22,-65,26,-12,-46,-148,1500.0,50.0
17:04:09.456,GUIDED,-35.3632638,149.1652382,8222,0.03067384660243988,-0.01323638390749693,-0.08915150165557861,0.06177971139550209,0.010538767091929913,0.008952520787715912,-6,10,-1003,62,11,8,1,-41,-151,1500.0,50.0
17:04:09.657,GUIDED,-35.3632638,149.1652371,8613,0.04327039793133736,-0.012633835896849632,-0.0854778066277504,0.029981663450598717,-0.012725181877613068,0.032746993005275726,-5,7,-1000,30,-12,32,4,-31,-151,1500.0,50.0
17:04:09.859,GUIDED,-35.3632638,149.1652371,8613,0.04327039793133736,-0.012633835896849632,-0.0854778066277504,0.029981663450598717,-0.012725181877613068,0.032746993005275726,-5,7,-1000,30,-12,32,4,-31,-151,1500.0,50.0
17:04:10.060,GUIDED,-35.3632638,149.1652371,8613,0.04327039793133736,-0.012633835896849632,-0.0854778066277504,0.029981663450598717,-0.012725181877613068,0.032746993005275726,-5,7,-1000,30,-12,32,4,-31,-151,1500.0,50.0
17:04:10.263,GUIDED,-35.3632638,149.1652371,8613,0.04327039793133736,-0.012633835896849632,-0.0854778066277504,0.029981663450598717,-0.012725181877613068,0.032746993005275726,-5,7,-1000,30,-12,32,4,-31,-151,1500.0,50.0
17:04:10.465,GUIDED,-35.3632638,149.1652371,8613,0.04327039793133736,-0.012633835896849632,-0.0854778066277504,0.029981663450598717,-0.012725181877613068,0.032746993005275726,-5,7,-1000,30,-12,32,4,-31,-151,1500.0,50.0
17:04:10.667,GUIDED,-35.3632638,149.1652371,8613,0.04327039793133736,-0.012633835896849632,-0.0854778066277504,0.029981663450598717,-0.012725181877613068,0.032746993005275726,-5,7,-1000,30,-12,32,4,-31,-151,1500.0,50.0
17:04:10.872,GUIDED,-35.3632638,149.1652371,8613,0.04327039793133736,-0.012633835896849632,-0.0854778066277504,0.029981663450598717,-0.012725181877613068,0.032746993005275726,-5,7,-1000,30,-12,32,4,-31,-151,1500.0,50.0
17:04:11.077,GUIDED,-35.3632638,149.1652371,8613,0.04327039793133736,-0.012633835896849632,-0.0854778066277504,0.029981663450598717,-0.012725181877613068,0.032746993005275726,-5,7,-1000,30,-12,32,4,-31,-151,1500.0,50.0
17:04:11.280,GUIDED,-35.3632611,149.1652355,10776,-0.004125310108065605,0.020759716629981995,-0.09597168862819672,-0.008605428971350193,0.03383950889110565,-0.057830698788166046,-6,-4,-1003,-24,60,-70,33,0,-149,1500.0,50.0
17:04:11.482,GUIDED,-35.3632604,149.1652355,11163,-0.004125310108065605,0.020759716629981995,-0.09597168862819672,-0.008605428971350193,0.03383950889110565,-0.057830698788166046,-6,-4,-1003,-8,34,-58,28,-2,-149,1500.0,50.0
17:04:11.685,GUIDED,-35.3632598,149.1652353,11551,-0.004276385996490717,0.02705758437514305,-0.10943827033042908,0.006745412014424801,0.019084692001342773,-0.04541550576686859,-5,-2,-1002,7,19,-46,21,-4,-150,1500.0,50.0
17:04:11.888,GUIDED,-35.3632598,149.1652353,11551,-0.004276385996490717,0.02705758437514305,-0.10943827033042908,0.006745412014424801,0.019084692001342773,-0.04541550576686859,-5,-2,-1002,7,19,-46,21,-4,-150,1500.0,50.0
17:04:12.097,GUIDED,-35.3632598,149.1652353,11551,-0.004276385996490717,0.02705758437514305,-0.10943827033042908,0.006745412014424801,0.019084692001342773,-0.04541550576686859,-5,-2,-1002,7,19,-46,21,-4,-150,1500.0,50.0
17:04:12.301,GUIDED,-35.3632598,149.1652353,11551,-0.004276385996490717,0.02705758437514305,-0.10943827033042908,0.006745412014424801,0.019084692001342773,-0.04541550576686859,-5,-2,-1002,7,19,-46,21,-4,-150,1500.0,50.0
17:04:12.504,GUIDED,-35.3632598,149.1652353,11551,-0.004276385996490717,0.02705758437514305,-0.10943827033042908,0.006745412014424801,0.019084692001342773,-0.04541550576686859,-5,-2,-1002,7,19,-46,21,-4,-150,1500.0,50.0
17:04:12.706,GUIDED,-35.3632598,149.1652353,11551,-0.004276385996490717,0.02705758437514305,-0.10943827033042908,0.006745412014424801,0.019084692001342773,-0.04541550576686859,-5,-2,-1002,7,19,-46,21,-4,-150,1500.0,50.0
17:04:12.909,GUIDED,-35.3632598,149.1652353,11551,-0.004276385996490717,0.02705758437514305,-0.10943827033042908,0.006745412014424801,0.019084692001342773,-0.04541550576686859,-5,-2,-1002,7,19,-46,21,-4,-150,1500.0,50.0
17:04:13.114,GUIDED,-35.3632598,149.1652353,11551,-0.004276385996490717,0.02705758437514305,-0.10943827033042908,0.006745412014424801,0.019084692001342773,-0.04541550576686859,-5,-2,-1002,7,19,-46,21,-4,-150,1500.0,50.0
17:04:13.316,GUIDED,-35.3632593,149.1652347,13506,0.011368638835847378,0.02139296755194664,-0.12854166328907013,0.0044305878691375256,-0.017369762063026428,0.0057844128459692,1,1,-999,4,-16,4,-11,0,-150,1500.0,50.0
17:04:13.519,GUIDED,-35.3632599,149.1652347,14284,0.011165316216647625,0.012136460281908512,-0.12504138052463531,-0.005827133543789387,-0.01821771264076233,0.004236274398863316,2,1,-999,-5,-17,3,-16,6,-150,1500.0,50.0
17:04:13.721,GUIDED,-35.3632602,149.1652348,14674,0.009436088614165783,0.008185050450265408,-0.12421558797359467,-0.007818968966603279,-0.014635913074016571,-0.0006316305953077972,3,1,-999,-7,-14,-1,-17,8,-150,1500.0,50.0
17:04:13.925,GUIDED,-35.3632602,149.1652348,14674,0.009436088614165783,0.008185050450265408,-0.12421558797359467,-0.007818968966603279,-0.014635913074016571,-0.0006316305953077972,3,1,-999,-7,-14,-1,-17,8,-150,1500.0,50.0
17:04:14.127,GUIDED,-35.3632602,149.1652348,14674,0.009436088614165783,0.008185050450265408,-0.12421558797359467,-0.007818968966603279,-0.014635913074016571,-0.0006316305953077972,3,1,-999,-7,-14,-1,-17,8,-150,1500.0,50.0
17:04:14.329,GUIDED,-35.3632602,149.1652348,14674,0.009436088614165783,0.008185050450265408,-0.12421558797359467,-0.007818968966603279,-0.014635913074016571,-0.0006316305953077972,3,1,-999,-7,-14,-1,-17,8,-150,1500.0,50.0
17:04:14.530,GUIDED,-35.3632602,149.1652348,14674,0.009436088614165783,0.008185050450265408,-0.12421558797359467,-0.007818968966603279,-0.014635913074016571,-0.0006316305953077972,3,1,-999,-7,-14,-1,-17,8,-150,1500.0,50.0
17:04:14.733,GUIDED,-35.3632602,149.1652348,14674,0.009436088614165783,0.008185050450265408,-0.12421558797359467,-0.007818968966603279,-0.014635913074016571,-0.0006316305953077972,3,1,-999,-7,-14,-1,-17,8,-150,1500.0,50.0
17:04:14.935,GUIDED,-35.3632602,149.1652348,14674,0.009436088614165783,0.008185050450265408,-0.12421558797359467,-0.007818968966603279,-0.014635913074016571,-0.0006316305953077972,3,1,-999,-7,-14,-1,-17,8,-150,1500.0,50.0
17:04:15.139,GUIDED,-35.3632602,149.1652348,14674,0.009436088614165783,0.008185050450265408,-0.12421558797359467,-0.007818968966603279,-0.014635913074016571,-0.0006316305953077972,3,1,-999,-7,-14,-1,-17,8,-150,1500.0,50.0
17:04:15.341,GUIDED,-35.3632615,149.1652356,16233,0.0012259266804903746,-0.0026199379935860634,-0.13145238161087036,-0.0020981996785849333,-0.006892813369631767,-0.01558595709502697,2,0,-1001,-1,-6,-16,-12,9,-151,1500.0,50.0
17:04:15.543,GUIDED,-35.363262,149.1652361,17408,-0.0005295378505252302,-0.0039793746545910835,-0.14794623851776123,-0.0002508850593585521,0.002488228725269437,-0.024040311574935913,1,0,-1000,0,3,-24,-6,5,-151,1500.0,50.0
17:04:15.744,GUIDED,-35.3632621,149.1652362,17798,-0.0003545183571986854,-0.00318418862298131,-0.15512698888778687,0.004292292986065149,0.004746392834931612,-0.02946263551712036,1,0,-1000,4,5,-30,-4,4,-151,1500.0,50.0
17:04:15.949,GUIDED,-35.3632621,149.1652362,17798,-0.0003545183571986854,-0.00318418862298131,-0.15512698888778687,0.004292292986065149,0.004746392834931612,-0.02946263551712036,1,0,-1000,4,5,-30,-4,4,-151,1500.0,50.0
17:04:16.151,GUIDED,-35.3632621,149.1652362,17798,-0.0003545183571986854,-0.00318418862298131,-0.15512698888778687,0.004292292986065149,0.004746392834931612,-0.02946263551712036,1,0,-1000,4,5,-30,-4,4,-151,1500.0,50.0
17:04:16.352,GUIDED,-35.3632621,149.1652362,17798,-0.0003545183571986854,-0.00318418862298131,-0.15512698888778687,0.004292292986065149,0.004746392834931612,-0.02946263551712036,1,0,-1000,4,5,-30,-4,4,-151,1500.0,50.0
17:04:16.556,GUIDED,-35.3632621,149.1652362,17798,-0.0003545183571986854,-0.00318418862298131,-0.15512698888778687,0.004292292986065149,0.004746392834931612,-0.02946263551712036,1,0,-1000,4,5,-30,-4,4,-151,1500.0,50.0
17:04:16.758,GUIDED,-35.3632621,149.1652362,17798,-0.0003545183571986854,-0.00318418862298131,-0.15512698888778687,0.004292292986065149,0.004746392834931612,-0.02946263551712036,1,0,-1000,4,5,-30,-4,4,-151,1500.0,50.0
17:04:16.960,GUIDED,-35.3632621,149.1652362,17798,-0.0003545183571986854,-0.00318418862298131,-0.15512698888778687,0.004292292986065149,0.004746392834931612,-0.02946263551712036,1,0,-1000,4,5,-30,-4,4,-151,1500.0,50.0
17:04:17.162,GUIDED,-35.3632621,149.1652362,17798,-0.0003545183571986854,-0.00318418862298131,-0.15512698888778687,0.004292292986065149,0.004746392834931612,-0.02946263551712036,1,0,-1000,4,5,-30,-4,4,-151,1500.0,50.0
17:04:17.365,GUIDED,-35.3632622,149.1652362,18971,0.0029159891419112682,6.271922029554844e-05,-0.17708416283130646,0.003669781843200326,0.0034823105670511723,-0.02788264863193035,1,0,-1000,4,5,-30,-1,1,-152,1500.0,50.0
17:04:17.571,GUIDED,-35.3632622,149.1652362,20536,0.00554727902635932,0.0040536546148359776,-0.20859958231449127,8.335727034136653e-05,0.0013051076093688607,-0.02218424156308174,0,0,-1000,1,3,-23,0,2,-152,1500.0,50.0
17:04:17.773,GUIDED,-35.3632622,149.1652362,20927,0.00554727902635932,0.0040536546148359776,-0.20859958231449127,8.335727034136653e-05,0.0013051076093688607,-0.02218424156308174,0,0,-1000,0,1,-22,0,3,-152,1500.0,50.0
17:04:17.975,GUIDED,-35.3632622,149.1652362,20927,0.00554727902635932,0.0040536546148359776,-0.20859958231449127,8.335727034136653e-05,0.0013051076093688607,-0.02218424156308174,0,0,-1000,0,1,-22,0,3,-152,1500.0,50.0
17:04:18.181,GUIDED,-35.3632622,149.1652362,20927,0.00554727902635932,0.0040536546148359776,-0.20859958231449127,8.335727034136653e-05,0.0013051076093688607,-0.02218424156308174,0,0,-1000,0,1,-22,0,3,-152,1500.0,50.0
17:04:18.383,GUIDED,-35.3632622,149.1652362,20927,0.00554727902635932,0.0040536546148359776,-0.20859958231449127,8.335727034136653e-05,0.0013051076093688607,-0.02218424156308174,0,0,-1000,0,1,-22,0,3,-152,1500.0,50.0
17:04:18.584,GUIDED,-35.3632622,149.1652362,20927,0.00554727902635932,0.0040536546148359776,-0.20859958231449127,8.335727034136653e-05,0.0013051076093688607,-0.02218424156308174,0,0,-1000,0,1,-22,0,3,-152,1500.0,50.0
17:04:18.787,GUIDED,-35.3632622,149.1652362,20927,0.00554727902635932,0.0040536546148359776,-0.20859958231449127,8.335727034136653e-05,0.0013051076093688607,-0.02218424156308174,0,0,-1000,0,1,-22,0,3,-152,1500.0,50.0
17:04:18.989,GUIDED,-35.3632622,149.1652362,20927,0.00554727902635932,0.0040536546148359776,-0.20859958231449127,8.335727034136653e-05,0.0013051076093688607,-0.02218424156308174,0,0,-1000,0,1,-22,0,3,-152,1500.0,50.0
17:04:19.191,GUIDED,-35.3632622,149.1652362,20927,0.00554727902635932,0.0040536546148359776,-0.20859958231449127,8.335727034136653e-05,0.0013051076093688607,-0.02218424156308174,0,0,-1000,0,1,-22,0,3,-152,1500.0,50.0
17:04:19.395,GUIDED,-35.3632621,149.1652364,22492,0.003893467364832759,0.0043446384370327,-0.22913284599781036,-0.002290050033479929,-0.000791298458352685,-0.02182663604617119,0,0,-1000,-1,0,-22,-1,4,-152,1500.0,50.0
17:04:19.596,GUIDED,-35.363262,149.1652367,24063,0.002372441114857793,0.003553414950147271,-0.247432142496109,0.0016556173795834184,-0.0007712766528129578,-0.0178527794778347,0,0,-1000,2,0,-18,-2,4,-152,1500.0,50.0
17:04:19.798,GUIDED,-35.363262,149.1652367,24063,0.002372441114857793,0.003553414950147271,-0.247432142496109,0.0016556173795834184,-0.0007712766528129578,-0.0178527794778347,0,0,-1000,2,0,-18,-2,4,-152,1500.0,50.0
17:04:20.001,GUIDED,-35.363262,149.1652367,24063,0.002372441114857793,0.003553414950147271,-0.247432142496109,0.0016556173795834184,-0.0007712766528129578,-0.0178527794778347,0,0,-1000,2,0,-18,-2,4,-152,1500.0,50.0
17:04:20.202,GUIDED,-35.363262,149.1652367,24063,0.002372441114857793,0.003553414950147271,-0.247432142496109,0.0016556173795834184,-0.0007712766528129578,-0.0178527794778347,0,0,-1000,2,0,-18,-2,4,-152,1500.0,50.0
17:04:20.405,GUIDED,-35.363262,149.1652367,24063,0.002372441114857793,0.003553414950147271,-0.247432142496109,0.0016556173795834184,-0.0007712766528129578,-0.0178527794778347,0,0,-1000,2,0,-18,-2,4,-152,1500.0,50.0
17:04:20.608,GUIDED,-35.363262,149.1652367,24063,0.002372441114857793,0.003553414950147271,-0.247432142496109,0.0016556173795834184,-0.0007712766528129578,-0.0178527794778347,0,0,-1000,2,0,-18,-2,4,-152,1500.0,50.0
17:04:20.810,GUIDED,-35.363262,149.1652367,24063,0.002372441114857793,0.003553414950147271,-0.247432142496109,0.0016556173795834184,-0.0007712766528129578,-0.0178527794778347,0,0,-1000,2,0,-18,-2,4,-152,1500.0,50.0
17:04:21.014,GUIDED,-35.363262,149.1652367,24063,0.002372441114857793,0.003553414950147271,-0.247432142496109,0.0016556173795834184,-0.0007712766528129578,-0.0178527794778347,0,0,-1000,2,0,-18,-2,4,-152,1500.0,50.0
17:04:21.216,GUIDED,-35.363262,149.1652367,24063,0.002372441114857793,0.003553414950147271,-0.247432142496109,0.0016556173795834184,-0.0007712766528129578,-0.0178527794778347,0,0,-1000,2,0,-18,-2,4,-152,1500.0,50.0
17:04:21.417,GUIDED,-35.3632622,149.1652368,26393,0.00487905228510499,0.004708418156951666,-0.22539354860782623,0.017716621980071068,-0.009310947731137276,0.03944271802902222,0,0,-1001,18,-8,38,-6,0,-152,1500.0,50.0
17:04:21.623,GUIDED,-35.3632624,149.1652368,27173,0.009337111376225948,0.0009443738381378353,-0.20861409604549408,0.003472390817478299,-0.004573030397295952,0.029366347938776016,0,0,-999,4,-3,28,-5,3,-152,1500.0,50.0
17:04:21.826,GUIDED,-35.3632624,149.1652368,27173,0.009337111376225948,0.0009443738381378353,-0.20861409604549408,0.003472390817478299,-0.004573030397295952,0.029366347938776016,0,0,-999,4,-3,28,-5,3,-152,1500.0,50.0
17:04:22.028,GUIDED,-35.3632624,149.1652368,27173,0.009337111376225948,0.0009443738381378353,-0.20861409604549408,0.003472390817478299,-0.004573030397295952,0.029366347938776016,0,0,-999,4,-3,28,-5,3,-152,1500.0,50.0
17:04:22.229,GUIDED,-35.3632624,149.1652368,27173,0.009337111376225948,0.0009443738381378353,-0.20861409604549408,0.003472390817478299,-0.004573030397295952,0.029366347938776016,0,0,-999,4,-3,28,-5,3,-152,1500.0,50.0
17:04:22.431,GUIDED,-35.3632624,149.1652368,27173,0.009337111376225948,0.0009443738381378353,-0.20861409604549408,0.003472390817478299,-0.004573030397295952,0.029366347938776016,0,0,-999,4,-3,28,-5,3,-152,1500.0,50.0
17:04:22.633,GUIDED,-35.3632624,149.1652368,27173,0.009337111376225948,0.0009443738381378353,-0.20861409604549408,0.003472390817478299,-0.004573030397295952,0.029366347938776016,0,0,-999,4,-3,28,-5,3,-152,1500.0,50.0
17:04:22.835,GUIDED,-35.3632624,149.1652368,27173,0.009337111376225948,0.0009443738381378353,-0.20861409604549408,0.003472390817478299,-0.004573030397295952,0.029366347938776016,0,0,-999,4,-3,28,-5,3,-152,1500.0,50.0
17:04:23.037,GUIDED,-35.3632624,149.1652368,27173,0.009337111376225948,0.0009443738381378353,-0.20861409604549408,0.003472390817478299,-0.004573030397295952,0.029366347938776016,0,0,-999,4,-3,28,-5,3,-152,1500.0,50.0
17:04:23.240,GUIDED,-35.3632624,149.1652368,27173,0.009337111376225948,0.0009443738381378353,-0.20861409604549408,0.003472390817478299,-0.004573030397295952,0.029366347938776016,0,0,-999,4,-3,28,-5,3,-152,1500.0,50.0
17:04:23.445,GUIDED,-35.3632625,149.1652375,29519,0.002946412656456232,0.00056552974274382,-0.17679303884506226,-0.004468460101634264,0.0022430005483329296,0.01977379433810711,0,-1,-1000,-4,2,17,0,7,-152,1500.0,50.0
17:04:23.647,GUIDED,-35.3632625,149.1652377,30297,0.001113763079047203,0.0012679232750087976,-0.1685655564069748,-0.0019842274487018585,0.000606754794716835,0.015815893188118935,0,-1,-1001,-1,1,15,0,5,-152,1500.0,50.0
17:04:23.848,GUIDED,-35.3632625,149.1652377,30297,0.001113763079047203,0.0012679232750087976,-0.1685655564069748,-0.0019842274487018585,0.000606754794716835,0.015815893188118935,0,-1,-1001,-1,1,15,0,5,-152,1500.0,50.0
17:04:24.050,GUIDED,-35.3632625,149.1652377,30297,0.001113763079047203,0.0012679232750087976,-0.1685655564069748,-0.0019842274487018585,0.000606754794716835,0.015815893188118935,0,-1,-1001,-1,1,15,0,5,-152,1500.0,50.0
17:04:24.251,GUIDED,-35.3632625,149.1652377,30297,0.001113763079047203,0.0012679232750087976,-0.1685655564069748,-0.0019842274487018585,0.000606754794716835,0.015815893188118935,0,-1,-1001,-1,1,15,0,5,-152,1500.0,50.0
17:04:24.453,GUIDED,-35.3632625,149.1652377,30297,0.001113763079047203,0.0012679232750087976,-0.1685655564069748,-0.0019842274487018585,0.000606754794716835,0.015815893188118935,0,-1,-1001,-1,1,15,0,5,-152,1500.0,50.0
17:04:24.654,GUIDED,-35.3632625,149.1652377,30297,0.001113763079047203,0.0012679232750087976,-0.1685655564069748,-0.0019842274487018585,0.000606754794716835,0.015815893188118935,0,-1,-1001,-1,1,15,0,5,-152,1500.0,50.0
17:04:24.856,GUIDED,-35.3632625,149.1652377,30297,0.001113763079047203,0.0012679232750087976,-0.1685655564069748,-0.0019842274487018585,0.000606754794716835,0.015815893188118935,0,-1,-1001,-1,1,15,0,5,-152,1500.0,50.0
17:04:25.058,GUIDED,-35.3632625,149.1652377,30297,0.001113763079047203,0.0012679232750087976,-0.1685655564069748,-0.0019842274487018585,0.000606754794716835,0.015815893188118935,0,-1,-1001,-1,1,15,0,5,-152,1500.0,50.0
17:04:25.260,GUIDED,-35.3632625,149.1652377,30297,0.001113763079047203,0.0012679232750087976,-0.1685655564069748,-0.0019842274487018585,0.000606754794716835,0.015815893188118935,0,-1,-1001,-1,1,15,0,5,-152,1500.0,50.0
17:04:25.464,GUIDED,-35.3632623,149.165238,32636,0.0008743045618757606,0.002162151737138629,-0.14242389798164368,0.00038261531153693795,0.0011867322027683258,0.014578764326870441,0,0,-1000,2,2,12,0,1,-152,1500.0,50.0
17:04:25.667,GUIDED,-35.3632623,149.165238,33419,0.001232089358381927,0.0021737334318459034,-0.1391800045967102,0.0027497517876327038,0.0015393304638564587,0.013912814669311047,0,0,-1000,3,2,13,0,0,-152,1500.0,50.0
17:04:25.870,GUIDED,-35.3632623,149.165238,33419,0.001232089358381927,0.0021737334318459034,-0.1391800045967102,0.0027497517876327038,0.0015393304638564587,0.013912814669311047,0,0,-1000,3,2,13,0,0,-152,1500.0,50.0
17:04:26.072,GUIDED,-35.3632623,149.165238,33419,0.001232089358381927,0.0021737334318459034,-0.1391800045967102,0.0027497517876327038,0.0015393304638564587,0.013912814669311047,0,0,-1000,3,2,13,0,0,-152,1500.0,50.0
17:04:26.274,GUIDED,-35.3632623,149.165238,33419,0.001232089358381927,0.0021737334318459034,-0.1391800045967102,0.0027497517876327038,0.0015393304638564587,0.013912814669311047,0,0,-1000,3,2,13,0,0,-152,1500.0,50.0
17:04:26.478,GUIDED,-35.3632623,149.165238,33419,0.001232089358381927,0.0021737334318459034,-0.1391800045967102,0.0027497517876327038,0.0015393304638564587,0.013912814669311047,0,0,-1000,3,2,13,0,0,-152,1500.0,50.0
17:04:26.680,GUIDED,-35.3632623,149.165238,33419,0.001232089358381927,0.0021737334318459034,-0.1391800045967102,0.0027497517876327038,0.0015393304638564587,0.013912814669311047,0,0,-1000,3,2,13,0,0,-152,1500.0,50.0
17:04:26.882,GUIDED,-35.3632623,149.165238,33419,0.001232089358381927,0.0021737334318459034,-0.1391800045967102,0.0027497517876327038,0.0015393304638564587,0.013912814669311047,0,0,-1000,3,2,13,0,0,-152,1500.0,50.0
17:04:27.084,GUIDED,-35.3632623,149.165238,33419,0.001232089358381927,0.0021737334318459034,-0.1391800045967102,0.0027497517876327038,0.0015393304638564587,0.013912814669311047,0,0,-1000,3,2,13,0,0,-152,1500.0,50.0
17:04:27.286,GUIDED,-35.3632623,149.165238,33419,0.001232089358381927,0.0021737334318459034,-0.1391800045967102,0.0027497517876327038,0.0015393304638564587,0.013912814669311047,0,0,-1000,3,2,13,0,0,-152,1500.0,50.0
17:04:27.488,GUIDED,-35.3632622,149.1652378,36144,0.0020230093505233526,0.001320460345596075,-0.11958940327167511,-0.0035155927762389183,-0.0004382302868179977,0.009381049312651157,0,0,-1000,-2,0,8,0,0,-152,1500.0,50.0
17:04:27.692,GUIDED,-35.3632622,149.1652378,36534,0.002302221255376935,0.0014206182677298784,-0.11716492474079132,0.0031345640309154987,0.00012552679982036352,0.010117784142494202,0,0,-1000,3,0,9,0,0,-152,1500.0,50.0
17:04:27.895,GUIDED,-35.3632622,149.1652378,36534,0.002302221255376935,0.0014206182677298784,-0.11716492474079132,0.0031345640309154987,0.00012552679982036352,0.010117784142494202,0,0,-1000,3,0,9,0,0,-152,1500.0,50.0
17:04:28.097,GUIDED,-35.3632622,149.1652378,36534,0.002302221255376935,0.0014206182677298784,-0.11716492474079132,0.0031345640309154987,0.00012552679982036352,0.010117784142494202,0,0,-1000,3,0,9,0,0,-152,1500.0,50.0
17:04:28.300,GUIDED,-35.3632622,149.1652378,36534,0.002302221255376935,0.0014206182677298784,-0.11716492474079132,0.0031345640309154987,0.00012552679982036352,0.010117784142494202,0,0,-1000,3,0,9,0,0,-152,1500.0,50.0
17:04:28.505,GUIDED,-35.3632622,149.1652378,36534,0.002302221255376935,0.0014206182677298784,-0.11716492474079132,0.0031345640309154987,0.00012552679982036352,0.010117784142494202,0,0,-1000,3,0,9,0,0,-152,1500.0,50.0
17:04:28.708,GUIDED,-35.3632622,149.1652378,36534,0.002302221255376935,0.0014206182677298784,-0.11716492474079132,0.0031345640309154987,0.00012552679982036352,0.010117784142494202,0,0,-1000,3,0,9,0,0,-152,1500.0,50.0
17:04:28.910,GUIDED,-35.3632622,149.1652378,36534,0.002302221255376935,0.0014206182677298784,-0.11716492474079132,0.0031345640309154987,0.00012552679982036352,0.010117784142494202,0,0,-1000,3,0,9,0,0,-152,1500.0,50.0
17:04:29.113,GUIDED,-35.3632622,149.1652378,36534,0.002302221255376935,0.0014206182677298784,-0.11716492474079132,0.0031345640309154987,0.00012552679982036352,0.010117784142494202,0,0,-1000,3,0,9,0,0,-152,1500.0,50.0
17:04:29.315,GUIDED,-35.3632621,149.1652376,38716,0.0024774756748229265,0.0014464925043284893,-0.10518859326839447,-0.0004164735146332532,-0.0013741286238655448,0.011322570964694023,0,0,-1000,0,0,11,0,0,-152,1500.0,50.0
17:04:29.516,GUIDED,-35.3632621,149.1652376,39106,0.0023546761367470026,0.0013294299133121967,-0.10315971076488495,-0.00013412802945822477,0.0013622315600514412,0.008149336092174053,0,0,-999,0,2,7,0,0,-152,1500.0,50.0
17:04:29.718,GUIDED,-35.3632621,149.1652375,39497,0.0022631357423961163,0.0011898850789293647,-0.10119707137346268,-0.001200916594825685,0.0006953824195079505,0.007996599189937115,0,0,-1000,0,1,7,0,0,-152,1500.0,50.0
17:04:29.921,GUIDED,-35.3632621,149.1652375,39497,0.0022631357423961163,0.0011898850789293647,-0.10119707137346268,-0.001200916594825685,0.0006953824195079505,0.007996599189937115,0,0,-1000,0,1,7,0,0,-152,1500.0,50.0
17:04:30.124,GUIDED,-35.3632621,149.1652375,39497,0.0022631357423961163,0.0011898850789293647,-0.10119707137346268,-0.001200916594825685,0.0006953824195079505,0.007996599189937115,0,0,-1000,0,1,7,0,0,-152,1500.0,50.0
17:04:30.327,GUIDED,-35.3632621,149.1652375,39497,0.0022631357423961163,0.0011898850789293647,-0.10119707137346268,-0.001200916594825685,0.0006953824195079505,0.007996599189937115,0,0,-1000,0,1,7,0,0,-152,1500.0,50.0
17:04:30.530,GUIDED,-35.3632621,149.1652375,39497,0.0022631357423961163,0.0011898850789293647,-0.10119707137346268,-0.001200916594825685,0.0006953824195079505,0.007996599189937115,0,0,-1000,0,1,7,0,0,-152,1500.0,50.0
17:04:30.732,GUIDED,-35.3632621,149.1652375,39497,0.0022631357423961163,0.0011898850789293647,-0.10119707137346268,-0.001200916594825685,0.0006953824195079505,0.007996599189937115,0,0,-1000,0,1,7,0,0,-152,1500.0,50.0
17:04:30.933,GUIDED,-35.3632621,149.1652375,39497,0.0022631357423961163,0.0011898850789293647,-0.10119707137346268,-0.001200916594825685,0.0006953824195079505,0.007996599189937115,0,0,-1000,0,1,7,0,0,-152,1500.0,50.0
17:04:31.134,GUIDED,-35.3632621,149.1652375,39497,0.0022631357423961163,0.0011898850789293647,-0.10119707137346268,-0.001200916594825685,0.0006953824195079505,0.007996599189937115,0,0,-1000,0,1,7,0,0,-152,1500.0,50.0
17:04:31.338,GUIDED,-35.3632621,149.1652375,39497,0.0022666226141154766,0.001403333037160337,-0.09636338800191879,5.13713457621634e-05,0.0030800867825746536,0.008121744729578495,0,0,-1000,0,1,7,0,0,-152,1500.0,50.0
17:04:31.541,GUIDED,-35.363262,149.1652374,42228,0.002426924416795373,0.0015743024414405227,-0.08963708579540253,0.0034809336066246033,0.0015319183003157377,0.007470518816262484,0,0,-1000,4,2,7,-1,1,-152,1500.0,50.0
17:04:31.743,GUIDED,-35.363262,149.1652374,42617,0.0020824449602514505,0.0013401394244283438,-0.08820490539073944,-0.000928606663364917,-0.0006595136364921927,0.009140212088823318,0,0,-1000,0,0,9,-1,1,-152,1500.0,50.0
17:04:31.944,GUIDED,-35.363262,149.1652374,42617,0.0020824449602514505,0.0013401394244283438,-0.08820490539073944,-0.000928606663364917,-0.0006595136364921927,0.009140212088823318,0,0,-1000,0,0,9,-1,1,-152,1500.0,50.0
17:04:32.147,GUIDED,-35.363262,149.1652374,42617,0.0020824449602514505,0.0013401394244283438,-0.08820490539073944,-0.000928606663364917,-0.0006595136364921927,0.009140212088823318,0,0,-1000,0,0,9,-1,1,-152,1500.0,50.0
17:04:32.352,GUIDED,-35.363262,149.1652374,42617,0.0020824449602514505,0.0013401394244283438,-0.08820490539073944,-0.000928606663364917,-0.0006595136364921927,0.009140212088823318,0,0,-1000,0,0,9,-1,1,-152,1500.0,50.0
17:04:32.553,GUIDED,-35.363262,149.1652374,42617,0.0020824449602514505,0.0013401394244283438,-0.08820490539073944,-0.000928606663364917,-0.0006595136364921927,0.009140212088823318,0,0,-1000,0,0,9,-1,1,-152,1500.0,50.0
17:04:32.755,GUIDED,-35.363262,149.1652374,42617,0.0020824449602514505,0.0013401394244283438,-0.08820490539073944,-0.000928606663364917,-0.0006595136364921927,0.009140212088823318,0,0,-1000,0,0,9,-1,1,-152,1500.0,50.0
17:04:32.959,GUIDED,-35.363262,149.1652374,42617,0.0020824449602514505,0.0013401394244283438,-0.08820490539073944,-0.000928606663364917,-0.0006595136364921927,0.009140212088823318,0,0,-1000,0,0,9,-1,1,-152,1500.0,50.0
17:04:33.165,GUIDED,-35.363262,149.1652374,42617,0.0020824449602514505,0.0013401394244283438,-0.08820490539073944,-0.000928606663364917,-0.0006595136364921927,0.009140212088823318,0,0,-1000,0,0,9,-1,1,-152,1500.0,50.0
17:04:33.368,GUIDED,-35.363262,149.1652374,45341,0.0020771180279552937,0.0011277104495093226,-0.0779450461268425,-0.0025923331268131733,0.001062599360011518,0.0067089153453707695,0,0,-999,-1,1,6,-1,1,-152,1500.0,50.0
17:04:33.569,GUIDED,-35.363262,149.1652374,45731,0.002065166598185897,0.0011457588989287615,-0.07671899348497391,-0.00029912497848272324,-0.0003099694149568677,0.006471508648246527,0,0,-999,-1,1,6,-1,1,-152,1500.0,50.0
17:04:33.771,GUIDED,-35.363262,149.1652374,45731,0.002065166598185897,0.0011457588989287615,-0.07671899348497391,-0.00029912497848272324,-0.0003099694149568677,0.006471508648246527,0,0,-1000,0,0,6,-1,1,-152,1500.0,50.0
17:04:33.973,GUIDED,-35.363262,149.1652374,45731,0.002065166598185897,0.0011457588989287615,-0.07671899348497391,-0.00029912497848272324,-0.0003099694149568677,0.006471508648246527,0,0,-1000,0,0,6,-1,1,-152,1500.0,50.0
17:04:34.176,GUIDED,-35.363262,149.1652374,45731,0.002065166598185897,0.0011457588989287615,-0.07671899348497391,-0.00029912497848272324,-0.0003099694149568677,0.006471508648246527,0,0,-1000,0,0,6,-1,1,-152,1500.0,50.0
17:04:34.378,GUIDED,-35.363262,149.1652374,45731,0.002065166598185897,0.0011457588989287615,-0.07671899348497391,-0.00029912497848272324,-0.0003099694149568677,0.006471508648246527,0,0,-1000,0,0,6,-1,1,-152,1500.0,50.0
17:04:34.581,GUIDED,-35.363262,149.1652374,45731,0.002065166598185897,0.0011457588989287615,-0.07671899348497391,-0.00029912497848272324,-0.0003099694149568677,0.006471508648246527,0,0,-1000,0,0,6,-1,1,-152,1500.0,50.0
17:04:34.783,GUIDED,-35.363262,149.1652374,45731,0.002065166598185897,0.0011457588989287615,-0.07671899348497391,-0.00029912497848272324,-0.0003099694149568677,0.006471508648246527,0,0,-1000,0,0,6,-1,1,-152,1500.0,50.0
17:04:34.985,GUIDED,-35.363262,149.1652374,45731,0.002065166598185897,0.0011457588989287615,-0.07671899348497391,-0.00029912497848272324,-0.0003099694149568677,0.006471508648246527,0,0,-1000,0,0,6,-1,1,-152,1500.0,50.0
17:04:35.191,GUIDED,-35.363262,149.1652374,45731,0.002065166598185897,0.0011457588989287615,-0.07671899348497391,-0.00029912497848272324,-0.0003099694149568677,0.006471508648246527,0,0,-1000,0,0,6,-1,1,-152,1500.0,50.0
17:04:35.394,GUIDED,-35.363262,149.1652373,48068,0.0019751922227442265,0.0011646130587905645,-0.06904908269643784,6.206711987033486e-05,-0.0001368203666061163,0.005078338086605072,0,0,-1000,1,1,5,-1,1,-152,1500.0,50.0
17:04:35.597,GUIDED,-35.363262,149.1652373,48848,0.001941185793839395,0.0008506994345225394,-0.0663558840751648,-0.00021932146046310663,-0.0014900729293003678,0.006358439102768898,0,0,-1000,0,0,6,-1,1,-152,1500.0,50.0
17:04:35.800,GUIDED,-35.363262,149.1652373,48848,0.001941185793839395,0.0008506994345225394,-0.0663558840751648,-0.00021932146046310663,-0.0014900729293003678,0.006358439102768898,0,0,-1000,0,0,6,-1,1,-152,1500.0,50.0
17:04:36.002,GUIDED,-35.363262,149.1652373,48848,0.001941185793839395,0.0008506994345225394,-0.0663558840751648,-0.00021932146046310663,-0.0014900729293003678,0.006358439102768898,0,0,-1000,0,0,6,-1,1,-152,1500.0,50.0
17:04:36.205,GUIDED,-35.363262,149.1652373,48848,0.001941185793839395,0.0008506994345225394,-0.0663558840751648,-0.00021932146046310663,-0.0014900729293003678,0.006358439102768898,0,0,-1000,0,0,6,-1,1,-152,1500.0,50.0
17:04:36.407,GUIDED,-35.363262,149.1652373,48848,0.001941185793839395,0.0008506994345225394,-0.0663558840751648,-0.00021932146046310663,-0.0014900729293003678,0.006358439102768898,0,0,-1000,0,0,6,-1,1,-152,1500.0,50.0
17:04:36.614,GUIDED,-35.363262,149.1652373,48848,0.001941185793839395,0.0008506994345225394,-0.0663558840751648,-0.00021932146046310663,-0.0014900729293003678,0.006358439102768898,0,0,-1000,0,0,6,-1,1,-152,1500.0,50.0
17:04:36.816,GUIDED,-35.363262,149.1652373,48848,0.001941185793839395,0.0008506994345225394,-0.0663558840751648,-0.00021932146046310663,-0.0014900729293003678,0.006358439102768898,0,0,-1000,0,0,6,-1,1,-152,1500.0,50.0
17:04:37.019,GUIDED,-35.363262,149.1652373,48848,0.001941185793839395,0.0008506994345225394,-0.0663558840751648,-0.00021932146046310663,-0.0014900729293003678,0.006358439102768898,0,0,-1000,0,0,6,-1,1,-152,1500.0,50.0
17:04:37.221,GUIDED,-35.363262,149.1652373,48848,0.001941185793839395,0.0008506994345225394,-0.0663558840751648,-0.00021932146046310663,-0.0014900729293003678,0.006358439102768898,0,0,-1000,0,0,6,-1,1,-152,1500.0,50.0
17:04:37.423,GUIDED,-35.363262,149.1652373,51184,0.0021262208465486765,0.0012968240771442652,-0.05880950391292572,-0.00017146975733339787,-0.0011731709819287062,0.00566017534583807,0,0,-1000,0,0,5,-1,1,-152,1500.0,50.0
17:04:37.626,GUIDED,-35.363262,149.1652373,51968,0.0025181076489388943,0.0009499823790974915,-0.0570552758872509,0.0032788976095616817,-6.71228626742959e-05,0.004823461640626192,0,0,-1000,4,0,5,-1,1,-152,1500.0,50.0
17:04:37.828,LAND,-35.363262,149.1652373,51968,0.0025181076489388943,0.0009499823790974915,-0.0570552758872509,0.0032788976095616817,-6.71228626742959e-05,0.004823461640626192,0,0,-1000,4,0,5,-1,1,-152,1500.0,50.0
17:04:38.031,LAND,-35.363262,149.1652373,51968,0.0025181076489388943,0.0009499823790974915,-0.0570552758872509,0.0032788976095616817,-6.71228626742959e-05,0.004823461640626192,0,0,-1000,4,0,5,-1,1,-152,1500.0,50.0
17:04:38.233,LAND,-35.363262,149.1652373,51968,0.0025181076489388943,0.0009499823790974915,-0.0570552758872509,0.0032788976095616817,-6.71228626742959e-05,0.004823461640626192,0,0,-1000,4,0,5,-1,1,-152,1500.0,50.0
17:04:38.436,LAND,-35.363262,149.1652373,51968,0.0025181076489388943,0.0009499823790974915,-0.0570552758872509,0.0032788976095616817,-6.71228626742959e-05,0.004823461640626192,0,0,-1000,4,0,5,-1,1,-152,1500.0,50.0
17:04:38.637,LAND,-35.363262,149.1652373,51968,0.0025181076489388943,0.0009499823790974915,-0.0570552758872509,0.0032788976095616817,-6.71228626742959e-05,0.004823461640626192,0,0,-1000,4,0,5,-1,1,-152,1500.0,50.0
17:04:38.839,LAND,-35.363262,149.1652373,51968,0.0025181076489388943,0.0009499823790974915,-0.0570552758872509,0.0032788976095616817,-6.71228626742959e-05,0.004823461640626192,0,0,-1000,4,0,5,-1,1,-152,1500.0,50.0
17:04:39.044,LAND,-35.363262,149.1652373,51968,0.0025181076489388943,0.0009499823790974915,-0.0570552758872509,0.0032788976095616817,-6.71228626742959e-05,0.004823461640626192,0,0,-1000,4,0,5,-1,1,-152,1500.0,50.0
17:04:39.248,LAND,-35.363262,149.1652373,51968,0.0025181076489388943,0.0009499823790974915,-0.0570552758872509,0.0032788976095616817,-6.71228626742959e-05,0.004823461640626192,0,0,-1000,4,0,5,-1,1,-152,1500.0,50.0
17:04:39.450,LAND,-35.363262,149.1652372,54286,-0.04344618692994118,0.0504927821457386,0.06364038586616516,-0.2070472091436386,0.1839471012353897,0.5907058715820312,0,-1,-952,-206,185,591,-7,-5,-137,1500.0,50.0
17:04:39.652,LAND,-35.3632628,149.165236,54887,-0.04467243701219559,0.033914804458618164,0.2921719551086426,0.09480849653482437,-0.23647423088550568,0.24965128302574158,4,6,-905,95,-235,250,-29,-34,-93,1500.0,200.0
17:04:39.854,LAND,-35.3632628,149.165236,54887,-0.04467243701219559,0.033914804458618164,0.2921719551086426,0.09480849653482437,-0.23647423088550568,0.24965128302574158,4,6,-905,95,-235,250,-29,-34,-93,1500.0,200.0
17:04:40.056,LAND,-35.3632628,149.165236,54887,-0.04467243701219559,0.033914804458618164,0.2921719551086426,0.09480849653482437,-0.23647423088550568,0.24965128302574158,4,6,-905,95,-235,250,-29,-34,-93,1500.0,200.0
17:04:40.259,LAND,-35.3632628,149.165236,54887,-0.04467243701219559,0.033914804458618164,0.2921719551086426,0.09480849653482437,-0.23647423088550568,0.24965128302574158,4,6,-905,95,-235,250,-29,-34,-93,1500.0,200.0
17:04:40.461,LAND,-35.3632628,149.165236,54887,-0.04467243701219559,0.033914804458618164,0.2921719551086426,0.09480849653482437,-0.23647423088550568,0.24965128302574158,4,6,-905,95,-235,250,-29,-34,-93,1500.0,200.0
17:04:40.663,LAND,-35.3632628,149.165236,54887,-0.04467243701219559,0.033914804458618164,0.2921719551086426,0.09480849653482437,-0.23647423088550568,0.24965128302574158,4,6,-905,95,-235,250,-29,-34,-93,1500.0,200.0
17:04:40.865,LAND,-35.3632628,149.165236,54887,-0.04467243701219559,0.033914804458618164,0.2921719551086426,0.09480849653482437,-0.23647423088550568,0.24965128302574158,4,6,-905,95,-235,250,-29,-34,-93,1500.0,200.0
17:04:41.068,LAND,-35.3632628,149.165236,54887,-0.04467243701219559,0.033914804458618164,0.2921719551086426,0.09480849653482437,-0.23647423088550568,0.24965128302574158,4,6,-905,95,-235,250,-29,-34,-93,1500.0,200.0
17:04:41.271,LAND,-35.3632628,149.165236,54887,-0.04467243701219559,0.033914804458618164,0.2921719551086426,0.09480849653482437,-0.23647423088550568,0.24965128302574158,4,6,-905,95,-235,250,-29,-34,-93,1500.0,200.0
17:04:41.479,LAND,-35.3632644,149.1652324,55423,0.04477306082844734,-0.04081210121512413,0.34021708369255066,0.754858136177063,0.03868243843317032,-0.03764466568827629,-1,43,-961,759,39,-37,11,10,16,1500.0,200.0
17:04:41.685,LAND,-35.3632637,149.1652332,55284,0.04468970373272896,-0.016807207837700844,0.32039836049079895,0.8489440679550171,0.04555816948413849,-0.04051992669701576,-2,20,-978,847,46,-40,18,27,36,1500.0,200.0
17:04:41.894,LAND,-35.3632637,149.1652332,55284,0.04468970373272896,-0.016807207837700844,0.32039836049079895,0.8489440679550171,0.04555816948413849,-0.04051992669701576,-2,20,-978,847,46,-40,18,27,36,1500.0,200.0
17:04:42.106,LAND,-35.3632637,149.1652332,55284,0.04468970373272896,-0.016807207837700844,0.32039836049079895,0.8489440679550171,0.04555816948413849,-0.04051992669701576,-2,20,-978,847,46,-40,18,27,36,1500.0,200.0
17:04:42.338,LAND,-35.3632637,149.1652332,55284,0.04468970373272896,-0.016807207837700844,0.32039836049079895,0.8489440679550171,0.04555816948413849,-0.04051992669701576,-2,20,-978,847,46,-40,18,27,36,1500.0,200.0
17:04:42.542,LAND,-35.3632637,149.1652332,55284,0.04468970373272896,-0.016807207837700844,0.32039836049079895,0.8489440679550171,0.04555816948413849,-0.04051992669701576,-2,20,-978,847,46,-40,18,27,36,1500.0,200.0
17:04:42.744,LAND,-35.3632637,149.1652332,55284,0.04468970373272896,-0.016807207837700844,0.32039836049079895,0.8489440679550171,0.04555816948413849,-0.04051992669701576,-2,20,-978,847,46,-40,18,27,36,1500.0,200.0
17:04:42.948,LAND,-35.3632637,149.1652332,55284,0.04468970373272896,-0.016807207837700844,0.32039836049079895,0.8489440679550171,0.04555816948413849,-0.04051992669701576,-2,20,-978,847,46,-40,18,27,36,1500.0,200.0
17:04:43.151,LAND,-35.3632637,149.1652332,55284,0.04468970373272896,-0.016807207837700844,0.32039836049079895,0.8489440679550171,0.04555816948413849,-0.04051992669701576,-2,20,-978,847,46,-40,18,27,36,1500.0,200.0
17:04:43.354,LAND,-35.363262,149.1652362,54701,0.02653380110859871,0.011711225844919682,0.28287848830223083,1.211349606513977,0.004390669986605644,-0.03544977307319641,-1,19,-1033,1209,5,-35,14,29,73,1500.0,200.0
17:04:43.556,LAND,-35.3632612,149.165238,53979,0.026386916637420654,0.01491727028042078,0.26064518094062805,1.8659381866455078,0.003490209812298417,-0.005958948750048876,2,71,-863,1868,4,-5,6,21,134,1500.0,70.0
17:04:43.758,LAND,-35.363261,149.1652385,53601,0.00587259978055954,0.01530885137617588,0.25381436944007874,1.5039623975753784,0.002008158713579178,0.008454504422843456,-2,94,-1020,1513,3,8,2,20,150,1500.0,70.0
17:04:43.960,LAND,-35.363261,149.1652385,53601,0.00587259978055954,0.01530885137617588,0.25381436944007874,1.5039623975753784,0.002008158713579178,0.008454504422843456,-2,94,-1020,1513,3,8,2,20,150,1500.0,70.0
17:04:44.162,LAND,-35.363261,149.1652385,53601,0.00587259978055954,0.01530885137617588,0.25381436944007874,1.5039623975753784,0.002008158713579178,0.008454504422843456,-2,94,-1020,1513,3,8,2,20,150,1500.0,70.0
17:04:44.365,LAND,-35.363261,149.1652385,53601,0.00587259978055954,0.01530885137617588,0.25381436944007874,1.5039623975753784,0.002008158713579178,0.008454504422843456,-2,94,-1020,1513,3,8,2,20,150,1500.0,70.0
17:04:44.567,LAND,-35.363261,149.1652385,53601,0.00587259978055954,0.01530885137617588,0.25381436944007874,1.5039623975753784,0.002008158713579178,0.008454504422843456,-2,94,-1020,1513,3,8,2,20,150,1500.0,70.0
17:04:44.770,LAND,-35.363261,149.1652385,53601,0.00587259978055954,0.01530885137617588,0.25381436944007874,1.5039623975753784,0.002008158713579178,0.008454504422843456,-2,94,-1020,1513,3,8,2,20,150,1500.0,70.0
17:04:44.973,LAND,-35.363261,149.1652385,53601,0.00587259978055954,0.01530885137617588,0.25381436944007874,1.5039623975753784,0.002008158713579178,0.008454504422843456,-2,94,-1020,1513,3,8,2,20,150,1500.0,70.0
17:04:45.177,LAND,-35.363261,149.1652385,53601,0.00587259978055954,0.01530885137617588,0.25381436944007874,1.5039623975753784,0.002008158713579178,0.008454504422843456,-2,94,-1020,1513,3,8,2,20,150,1500.0,70.0
17:04:45.378,LAND,-35.363261,149.1652385,53601,0.00587259978055954,0.01530885137617588,0.25381436944007874,1.5039623975753784,0.002008158713579178,0.008454504422843456,-2,94,-1020,1513,3,8,2,20,150,1500.0,70.0
17:04:45.584,LAND,-35.363261,149.165239,52631,0.009486966766417027,-0.00039843068225309253,0.22459857165813446,0.07906034588813782,-0.017030445858836174,-0.027221206575632095,1,-27,-968,74,-15,-26,-3,5,49,1500.0,70.0
17:04:45.786,LAND,-35.3632613,149.1652388,52206,-0.0020707447547465563,-0.0020317486487329006,0.2065584510564804,-0.5563159584999084,-0.006689969915896654,-0.02343774400651455,3,-34,-997,-560,-5,-22,-3,3,53,1500.0,70.0
17:04:46.012,LAND,-35.3632613,149.1652388,52206,-0.0020707447547465563,-0.0020317486487329006,0.2065584510564804,-0.5563159584999084,-0.006689969915896654,-0.02343774400651455,3,-34,-997,-560,-5,-22,-3,3,53,1500.0,70.0
17:04:46.218,LAND,-35.3632613,149.1652388,52206,-0.0020707447547465563,-0.0020317486487329006,0.2065584510564804,-0.5563159584999084,-0.006689969915896654,-0.02343774400651455,3,-34,-997,-560,-5,-22,-3,3,53,1500.0,70.0
17:04:46.433,LAND,-35.3632613,149.1652388,52206,-0.0020707447547465563,-0.0020317486487329006,0.2065584510564804,-0.5563159584999084,-0.006689969915896654,-0.02343774400651455,3,-34,-997,-560,-5,-22,-3,3,53,1500.0,70.0
17:04:46.637,LAND,-35.3632613,149.1652388,52206,-0.0020707447547465563,-0.0020317486487329006,0.2065584510564804,-0.5563159584999084,-0.006689969915896654,-0.02343774400651455,3,-34,-997,-560,-5,-22,-3,3,53,1500.0,70.0
17:04:46.844,LAND,-35.3632613,149.1652388,52206,-0.0020707447547465563,-0.0020317486487329006,0.2065584510564804,-0.5563159584999084,-0.006689969915896654,-0.02343774400651455,3,-34,-997,-560,-5,-22,-3,3,53,1500.0,70.0
17:04:47.048,LAND,-35.3632613,149.1652388,52206,-0.0020707447547465563,-0.0020317486487329006,0.2065584510564804,-0.5563159584999084,-0.006689969915896654,-0.02343774400651455,3,-34,-997,-560,-5,-22,-3,3,53,1500.0,70.0
17:04:47.251,LAND,-35.3632617,149.1652388,51604,-0.01243220642209053,-0.003850537119433284,0.18583978712558746,-1.0683457851409912,-0.008843028917908669,-0.029850028455257416,1,-64,-987,-1037,-1,-25,0,-1,57,1500.0,70.0
17:04:47.452,LAND,-35.363262,149.165239,51150,-0.025457974523305893,-0.003972552251070738,0.17371319234371185,-1.2143449783325195,0.0023557485546916723,-0.015228081494569778,0,-39,-959,-1213,2,-14,1,-4,58,1500.0,200.0
17:04:47.654,LAND,-35.363262,149.165239,51150,-0.025457974523305893,-0.003972552251070738,0.17371319234371185,-1.2143449783325195,0.0023557485546916723,-0.015228081494569778,0,-39,-959,-1213,2,-14,1,-4,58,1500.0,200.0
17:04:47.855,LAND,-35.3632621,149.165239,50942,-0.031843818724155426,-0.004820485599339008,0.16946901381015778,-1.6472845077514648,-0.011106237769126892,-0.007418645080178976,-1,-65,-801,-1646,-10,-6,1,-6,101,1500.0,200.0
17:04:48.062,LAND,-35.3632621,149.165239,50942,-0.031843818724155426,-0.004820485599339008,0.16946901381015778,-1.6472845077514648,-0.011106237769126892,-0.007418645080178976,-1,-65,-801,-1646,-10,-6,1,-6,101,1500.0,200.0
17:04:48.263,LAND,-35.3632621,149.165239,50942,-0.031843818724155426,-0.004820485599339008,0.16946901381015778,-1.6472845077514648,-0.011106237769126892,-0.007418645080178976,-1,-65,-801,-1646,-10,-6,1,-6,101,1500.0,200.0
17:04:48.465,LAND,-35.3632621,149.165239,50942,-0.031843818724155426,-0.004820485599339008,0.16946901381015778,-1.6472845077514648,-0.011106237769126892,-0.007418645080178976,-1,-65,-801,-1646,-10,-6,1,-6,101,1500.0,200.0
17:04:48.673,LAND,-35.3632621,149.165239,50942,-0.031843818724155426,-0.004820485599339008,0.16946901381015778,-1.6472845077514648,-0.011106237769126892,-0.007418645080178976,-1,-65,-801,-1646,-10,-6,1,-6,101,1500.0,200.0
17:04:48.875,LAND,-35.3632621,149.165239,50942,-0.031843818724155426,-0.004820485599339008,0.16946901381015778,-1.6472845077514648,-0.011106237769126892,-0.007418645080178976,-1,-65,-801,-1646,-10,-6,1,-6,101,1500.0,200.0
17:04:49.077,LAND,-35.3632621,149.165239,50942,-0.031843818724155426,-0.004820485599339008,0.16946901381015778,-1.6472845077514648,-0.011106237769126892,-0.007418645080178976,-1,-65,-801,-1646,-10,-6,1,-6,101,1500.0,200.0
17:04:49.280,LAND,-35.3632621,149.165239,50942,-0.031843818724155426,-0.004820485599339008,0.16946901381015778,-1.6472845077514648,-0.011106237769126892,-0.007418645080178976,-1,-65,-801,-1646,-10,-6,1,-6,101,1500.0,200.0
17:04:49.482,LAND,-35.3632624,149.1652392,49563,0.0035673994570970535,-0.005362842231988907,0.15827904641628265,1.5807210206985474,0.002152831759303808,0.011633375659584999,2,45,-985,1760,-4,-11,3,-5,154,1500.0,200.0
17:04:49.691,LAND,-35.3632625,149.1652393,48109,-0.030466362833976746,-0.00522190798074007,0.14474298059940338,-0.7064135074615479,0.005680735222995281,-0.011263116262853146,-1,22,-929,-697,6,-11,5,-8,124,1500.0,200.0
17:04:49.908,LAND,-35.3632625,149.1652393,48109,-0.030466362833976746,-0.00522190798074007,0.14474298059940338,-0.7064135074615479,0.005680735222995281,-0.011263116262853146,-1,22,-929,-697,6,-11,5,-8,124,1500.0,200.0
17:04:50.115,LAND,-35.3632625,149.1652393,48109,-0.030466362833976746,-0.00522190798074007,0.14474298059940338,-0.7064135074615479,0.005680735222995281,-0.011263116262853146,-1,22,-929,-697,6,-11,5,-8,124,1500.0,200.0
17:04:50.331,LAND,-35.3632625,149.1652393,48109,-0.030466362833976746,-0.00522190798074007,0.14474298059940338,-0.7064135074615479,0.005680735222995281,-0.011263116262853146,-1,22,-929,-697,6,-11,5,-8,124,1500.0,200.0
17:04:50.537,LAND,-35.3632625,149.1652393,48109,-0.030466362833976746,-0.00522190798074007,0.14474298059940338,-0.7064135074615479,0.005680735222995281,-0.011263116262853146,-1,22,-929,-697,6,-11,5,-8,124,1500.0,200.0
17:04:50.749,LAND,-35.3632625,149.1652393,48109,-0.030466362833976746,-0.00522190798074007,0.14474298059940338,-0.7064135074615479,0.005680735222995281,-0.011263116262853146,-1,22,-929,-697,6,-11,5,-8,124,1500.0,200.0
17:04:50.952,LAND,-35.3632625,149.1652393,48109,-0.030466362833976746,-0.00522190798074007,0.14474298059940338,-0.7064135074615479,0.005680735222995281,-0.011263116262853146,-1,22,-929,-697,6,-11,5,-8,124,1500.0,200.0
17:04:51.154,LAND,-35.3632625,149.1652393,48109,-0.030466362833976746,-0.00522190798074007,0.14474298059940338,-0.7064135074615479,0.005680735222995281,-0.011263116262853146,-1,22,-929,-697,6,-11,5,-8,124,1500.0,200.0
17:04:51.356,LAND,-35.3632627,149.1652392,47107,-0.020721513777971268,-0.009178238920867443,0.13558432459831238,-1.656419038772583,-0.0022706573363393545,-0.026116281747817993,0,-84,-1040,-1660,-1,-25,6,-12,132,1500.0,200.0
17:04:51.558,LAND,-35.3632628,149.1652384,45741,0.02484138309955597,-0.010607530362904072,0.12515224516391754,1.3985872268676758,-0.012395108118653297,-0.014818372204899788,-2,38,-1082,1396,-11,-14,6,-9,128,1500.0,200.0
17:04:51.760,LAND,-35.3632628,149.165238,45407,0.03258504718542099,-0.01014668121933937,0.12294980138540268,1.6424425840377808,-0.003104366362094879,-0.004864937625825405,-3,53,-994,1641,-2,-4,6,-8,130,1500.0,200.0
17:04:51.962,LAND,-35.3632628,149.165238,45407,0.03258504718542099,-0.01014668121933937,0.12294980138540268,1.6424425840377808,-0.003104366362094879,-0.004864937625825405,-3,53,-994,1641,-2,-4,6,-8,130,1500.0,200.0
17:04:52.167,LAND,-35.3632628,149.165238,45407,0.03258504718542099,-0.01014668121933937,0.12294980138540268,1.6424425840377808,-0.003104366362094879,-0.004864937625825405,-3,53,-994,1641,-2,-4,6,-8,130,1500.0,200.0
17:04:52.370,LAND,-35.3632628,149.165238,45407,0.03258504718542099,-0.01014668121933937,0.12294980138540268,1.6424425840377808,-0.003104366362094879,-0.004864937625825405,-3,53,-994,1641,-2,-4,6,-8,130,1500.0,200.0
17:04:52.573,LAND,-35.3632628,149.165238,45407,0.03258504718542099,-0.01014668121933937,0.12294980138540268,1.6424425840377808,-0.003104366362094879,-0.004864937625825405,-3,53,-994,1641,-2,-4,6,-8,130,1500.0,200.0
17:04:52.776,LAND,-35.3632628,149.165238,45407,0.03258504718542099,-0.01014668121933937,0.12294980138540268,1.6424425840377808,-0.003104366362094879,-0.004864937625825405,-3,53,-994,1641,-2,-4,6,-8,130,1500.0,200.0
17:04:52.978,LAND,-35.3632628,149.165238,45407,0.03258504718542099,-0.01014668121933937,0.12294980138540268,1.6424425840377808,-0.003104366362094879,-0.004864937625825405,-3,53,-994,1641,-2,-4,6,-8,130,1500.0,200.0
17:04:53.181,LAND,-35.3632628,149.165238,45407,0.03258504718542099,-0.01014668121933937,0.12294980138540268,1.6424425840377808,-0.003104366362094879,-0.004864937625825405,-3,53,-994,1641,-2,-4,6,-8,130,1500.0,200.0
