time_stamp,RTL_ALT,roll,pitch,yaw,rollspeed,pitchspeed,yawspeed,lat,lon,relative_alt,vx,vy,vz,xacc,yacc,zacc,xgyro,ygyro,zgyro,MODE
12:28:49,1500.0,-0.0008422521059401333,0.0009602601639926434,0.024124021641910076,0.00019593123579397798,0.00026940074167214334,0.0017010854207910597,-35.3632622,149.1652375,41.5,-1.0,1.0,0.0,0.0,1.5,-1000.0,0.0,0.5,0.0,STABILIZE
12:28:51,1500.0,-0.0005914248176850379,0.0009556362056173384,0.02353707142174244,0.0003055937704630196,0.0002641549217514694,0.0017202489543706179,-35.3632622,149.1652375,57.0,-1.0,0.0,-2.0,0.0,2.0,-1000.0,1.0,0.0,1.0,STABILIZE
12:28:53,1500.0,-0.00046041980385780334,0.00098091660765931,0.022817307151854038,0.00028578037745319307,0.000241356116021052,0.0016423830529674888,-35.3632622,149.1652375,8.0,-1.0,1.0,0.0,0.0,1.5,-1000.0,0.0,0.5,0.0,AUTO
12:28:54,200.0,-0.00013967494123789947,0.0010677600803319365,0.02255269093438983,0.0003156460588797927,0.00026486987189855427,0.0014598302659578621,-35.3632621,149.1652375,0.5,0.0,1.5,2.0,0.0,1.5,-1000.0,0.25,0.25,0.0,AUTO
12:28:55,200.0,9.572278577252291e-05,0.001384751929435879,0.02210469450801611,0.00037259067175909877,0.0003357583482284099,0.001522502163425088,-35.3632621,149.16523745,0.0,0.0,0.0,1.5,0.0,1.0,-1000.0,0.5,0.0,0.0,AUTO
12:28:57,200.0,0.003539488068781793,0.0006062446245778119,0.02168335672467947,-0.0017030888702720404,0.005003216210752726,0.0027868993347510695,-35.3632621,149.16523745,273.5,0.0,0.0,-81.5,0.0,0.0,-1119.5,-1.0,5.0,1.5,AUTO
12:28:58,203913.0,0.016680024622473866,-7.022992940619588e-05,0.021325938869267702,0.03397394536295906,-0.0052984766371082515,0.00204618411953561,-35.363262049999996,149.16523755,1177.25,0.25,3.75,-136.25,0.0,-0.25,-1040.5,34.5,-4.5,1.0,AUTO
12:28:59,203913.0,0.05441565252840519,6.064586341381073e-05,-0.018727241549640894,-0.05890849092975259,0.056723861023783684,-0.06306976359337568,-35.3632615,149.16524025,3064.0,8.5,46.5,-145.5,1.0,-9.0,-992.5,-58.5,57.0,-63.0,AUTO
12:29:01,203913.0,-0.06479031033813953,-0.007573640439659357,-0.09326298162341118,0.049999797716736794,-0.001101863570511341,-0.00707827159203589,-35.363261,149.1652456,6114.5,-2.0,-31.5,-148.0,-2.5,5.0,-1002.0,50.0,0.0,-7.0,AUTO
12:29:02,119131.0,-0.019519086927175522,-0.0029134962533134967,-0.0964229628443718,0.0641518970951438,0.010915017453953624,0.00037802691076649353,-35.363261175,149.1652416,7272.5,-3.25,-56.5,-148.75,-6.0,10.0,-1002.25,64.0,11.0,0.25,AUTO
12:29:03,119131.0,0.06071087718009949,0.010025246068835258,-0.09295861050486565,0.06016737408936024,0.0026965285069309175,0.004352432209998369,-35.363261949999995,149.16523465,9216.0,-10.5,-23.0,-152.0,-3.5,8.5,-1001.5,60.5,3.0,3.5,AUTO
12:29:05,119131.0,-0.017756838351488113,-0.0019198778318241239,-0.10755530744791031,0.004654762684367597,0.007450232980772853,-0.033960090950131416,-35.36326235,149.16523665,12311.0,6.5,6.0,-151.0,-0.5,-2.5,-1001.5,5.0,7.5,-34.0,AUTO
12:29:06,116372.0,-0.005139937100466341,0.0034820151195162907,-0.13120479509234428,0.020253022201359272,0.007757294457405806,-0.02550017274916172,-35.363261900000005,149.1652365,13479.5,4.75,-4.75,-151.75,-1.75,0.0,-1000.25,20.5,8.0,-25.5,AUTO
12:29:07,116372.0,0.010853966232389212,0.007693466730415821,-0.15417072176933289,0.00437869771849364,-0.0004964885592926294,-0.010714120231568813,-35.3632615,149.16523554999998,15430.0,-0.5,-2.0,-152.0,-0.5,0.5,-999.5,4.5,0.5,-10.5,AUTO
12:29:09,116372.0,0.004092784714885056,0.00362630991730839,-0.17993969470262527,-0.0024201362393796444,0.00043241691309958696,-0.019645017571747303,-35.3632616,149.16523575000002,18544.5,-3.0,6.0,-152.0,0.5,0.0,-1000.0,-1.0,1.0,-19.5,AUTO
12:29:10,200.0,-0.010826491110492498,0.003337270172778517,-0.1943723000586033,-0.0473656072281301,0.0035720766754820943,-0.011385389603674412,-35.363261725,149.165235975,19710.25,-3.25,2.75,-151.25,0.0,0.0,-996.25,-46.25,4.5,-11.5,AUTO
12:29:11,200.0,-0.015864997258177027,0.02293531404575333,0.05660843290388584,0.11581180617213249,-0.15216437727212906,0.19887548685073853,-35.36326295,149.1652339,21542.5,-32.0,-34.0,-124.5,1.5,10.5,-955.0,116.0,-151.0,198.0,AUTO
12:29:13,200.0,0.024451352655887604,-0.008301429217681289,0.05364372394979,-0.04049719497561455,0.034007683396339417,0.0018362528062425554,-35.36326415,149.1652336,23326.0,18.0,37.0,-57.0,0.0,-8.5,-976.0,-39.0,34.0,1.0,AUTO
12:29:14,300000.0,0.0009391611674800515,0.009526466077659279,0.051340886391699314,-0.020215846598148346,0.015801906236447394,0.00026023612008430064,-35.363262825,149.16523645,23686.5,17.5,34.0,-39.5,0.0,-9.25,-977.0,-19.0,16.25,0.25,AUTO
12:29:15,300000.0,-0.010236699134111404,0.013315871823579073,0.04700643755495548,-0.018493207171559334,-0.0050880692433565855,-0.004625946749001741,-35.3632613,149.16523965,23996.5,4.5,12.5,-7.0,0.0,-5.0,-967.0,-18.0,-4.0,-4.5,AUTO
12:29:17,300000.0,0.011371986474841833,-0.08644750341773033,0.0321767283603549,0.06646741926670074,-0.04752709902822971,-0.03232366731390357,-35.3632591,149.1652373,23741.0,53.0,-18.0,2.5,-13.5,-12.0,-1011.0,67.0,-46.5,-31.5,AUTO
12:29:18,211333.0,0.01880325796082616,-0.11950833536684513,-0.019349013571627438,-0.0018549561500549316,-0.0449172155931592,-0.05204027795116417,-35.36325335,149.16523569999998,23708.0,115.0,-16.0,1.5,-25.75,-14.0,-1005.5,-1.0,-43.25,-51.75,AUTO
12:29:19,211333.0,0.03319414705038071,-0.17676689475774765,-0.043632976710796356,-0.13498181104660034,-0.0491182878613472,0.02178945206105709,-35.36323375,149.16523275,23635.5,248.5,-21.0,5.5,-50.0,-42.0,-999.0,-134.5,-47.5,21.0,AUTO
12:29:21,211333.0,0.055632732808589935,-0.21184182912111282,-0.05153749696910381,0.034362041391432285,-0.020685006864368916,0.00027684326050803065,-35.363168349999995,149.16522565,23421.0,477.5,-37.5,12.0,-90.5,-49.0,-993.5,34.5,-19.0,0.5,AUTO
12:29:22,300000.0,0.060847763903439045,-0.2105797752737999,-0.05293825455009937,0.0030967164784669876,0.016540760872885585,-0.0006861678848508745,-35.36313335,149.165222075,23310.25,555.75,-43.0,12.25,-113.25,-59.0,-998.5,4.0,17.25,-0.25,AUTO
12:29:23,300000.0,0.07135365530848503,-0.18228459358215332,-0.05604168772697449,-0.00632421625778079,-0.003054923261515796,-0.0008899275562725961,-35.36306585,149.1652153,23156.0,643.5,-50.5,9.5,-133.5,-63.0,-982.5,-4.5,-2.0,-1.0,AUTO
12:29:25,300000.0,0.077120091766119,-0.13181225955486298,-0.058193009346723557,-0.014569766819477081,0.026610667817294598,-0.004479601280763745,-35.36294465,149.16520345,22899.5,682.5,-53.0,12.5,-138.0,-66.0,-984.5,-13.0,27.0,-3.5,AUTO
12:29:26,300000.0,0.07782262936234474,-0.13696496933698654,-0.060075290501117706,0.004712272901087999,-0.013829599367454648,-0.004140208940953016,-35.36289865,149.16519895,22763.5,679.75,-54.5,17.25,-141.5,-73.5,-983.75,5.75,-12.5,-4.0,AUTO
12:29:27,300000.0,0.0796869695186615,-0.14448611438274384,-0.06359462067484856,-0.012446913868188858,-0.01604680484160781,0.0023243336472660303,-35.36282165,149.16519125,22501.0,686.0,-56.0,17.5,-141.0,-79.5,-985.5,-11.0,-14.5,2.0,AUTO
12:29:29,300000.0,0.0769008919596672,-0.07715824246406555,-0.0647922120988369,0.008285271003842354,0.05149379372596741,-0.000859813968418166,-35.362698699999996,149.16517915,22204.0,660.5,-56.5,6.0,-126.0,-78.0,-986.5,9.0,52.0,-0.5,AUTO
12:29:30,242561.0,0.07707883603870869,-0.04190725274384022,-0.06425085663795471,-0.020658913999795914,0.03966660320293158,-0.00020248087821528316,-35.362655825000004,149.165174825,22136.25,609.5,-51.25,9.0,-126.25,-66.0,-989.5,-19.75,40.25,0.25,AUTO
12:29:31,242561.0,0.06329630501568317,0.017184866592288017,-0.06281686201691628,-0.3943781051784754,0.04826585575938225,-0.0073804971762001514,-35.362593149999995,149.16516855,21966.5,492.0,-40.0,15.5,-110.0,-80.0,-1008.5,-392.0,48.5,-7.0,AUTO
12:29:33,242561.0,0.038798004388809204,0.06028173863887787,-0.06619266420602798,0.5047681033611298,0.018760773818939924,0.00034251995384693146,-35.36252555,149.165163,21698.5,259.0,-20.5,9.5,-53.5,-23.5,-1008.5,504.5,19.5,1.0,AUTO
12:29:34,21905.0,0.01676258840598166,0.07607954926788807,-0.06673982925713062,-0.1647875029593706,0.008458933793008327,0.001870664767920971,-35.36251105,149.16516205,21643.0,176.25,-16.25,5.75,-37.25,-27.25,-1007.0,-163.5,9.5,2.5,AUTO
12:29:35,21905.0,0.0010391355026513338,0.0531290452927351,-0.06829220429062843,0.1946050152182579,-0.020888826809823513,-0.0015958967851474881,-35.3624977,149.16516124999998,21595.5,64.0,-12.0,1.5,-12.5,12.5,-1006.5,196.5,-19.5,-0.5,AUTO
12:29:37,21905.0,-0.01150014461018145,0.007882924750447273,-0.06755373254418373,0.00979924201965332,-0.029300212860107422,-0.005707484437152743,-35.36249425,149.16516074999998,21596.0,-5.0,-11.0,-0.5,1.0,10.5,-1003.0,11.0,-28.0,-4.5,AUTO
12:29:38,300000.0,-0.011848101974464953,-0.008413612376898527,-0.06757238693535328,0.039484865963459015,-0.021133658796316013,-0.008080520201474428,-35.362494649999995,149.16516085,21607.75,-2.5,-13.5,-0.5,1.25,0.75,-1000.75,40.0,-19.5,-7.25,AUTO
12:29:39,300000.0,-0.012741358950734138,0.0005543953739106655,-0.06796859577298164,0.005535528063774109,0.020039360970258713,-0.010461455211043358,-35.3624944,149.165161,21620.5,11.5,-13.0,-1.5,-1.0,13.0,-1005.5,6.5,20.5,-9.5,RTL
12:29:41,300000.0,-0.00013561826199293137,0.0011106168967671692,-0.07223662361502647,0.042638540267944336,-0.004689600085839629,-0.0031383743043988943,-35.3624939,149.16516035,22290.0,0.5,-11.5,-75.0,0.0,2.5,-1047.0,42.5,-3.5,-2.0,RTL
12:29:42,300000.0,0.0013236356317065656,-0.00021854812075616792,-0.07324940338730812,0.0026307214284315705,-0.0008984415617305785,-0.002258638560306281,-35.3624939,149.165159975,23013.75,0.0,-8.5,-108.5,-0.25,1.25,-1044.5,2.75,0.0,-1.5,RTL
12:29:43,300000.0,0.03158704284578562,-0.002347121946513653,-0.07474102452397346,0.04968913272023201,-0.0048802506644278765,0.0012642223737202585,-35.362494,149.16515944999998,24708.0,0.5,3.0,-147.5,0.0,0.5,-1007.0,49.0,-3.5,1.5,RTL
12:29:45,300000.0,-0.06045144982635975,0.007993114646524191,-0.14039277285337448,-0.019392337126191705,-0.019221332389861345,-0.02919063623994589,-35.36249275,149.16516595,27743.0,1.5,22.5,-148.0,2.0,-6.0,-1008.0,-18.5,-18.0,-28.5,RTL
12:29:46,300000.0,-0.044611077290028334,0.0013057730830041692,-0.15557443350553513,0.04352885764092207,0.0016393785481341183,-0.01381103415042162,-35.362492625,149.16516525,28901.25,-4.5,-21.0,-149.0,-2.5,3.75,-1001.0,43.25,2.25,-12.75,RTL
12:29:47,300000.0,0.02392209693789482,0.0058113496052101254,-0.15885230153799057,0.042118312790989876,-0.012569308164529502,0.021502946969121695,-35.36249345,149.16515955,30838.5,-13.5,-32.5,-151.0,-4.5,9.5,-1001.5,42.0,-11.0,22.0,RTL
12:29:49,300000.0,0.014120889361947775,0.0016992088640108705,-0.14854634553194046,-0.00820688484236598,0.0031094261212274432,-0.014605846721678972,-35.3624943,149.1651557,33954.0,-1.5,7.0,-150.0,0.0,0.0,-1000.5,-7.0,4.0,-13.0,RTL
12:29:50,300000.0,0.009468193864449859,0.00358909007627517,-0.16158169135451317,-0.0011792784061981365,0.0030895445961505175,-0.01769907306879759,-35.362494175,149.16515565,35124.75,0.0,9.0,-151.0,0.0,-0.5,-1000.0,-0.75,3.75,-16.25,RTL
12:29:51,300000.0,0.008819669485092163,0.006880606524646282,-0.18740273267030716,0.0029944750713184476,0.0022814087569713593,-0.020527049899101257,-35.36249385,149.16515585000002,37072.0,-0.5,9.5,-151.0,0.0,-0.5,-1000.5,3.0,3.0,-19.0,RTL
12:29:53,300000.0,0.006678945850580931,0.006621000822633505,-0.22829288989305496,-0.0005450361350085586,-0.0002743280492722988,-0.02195056527853012,-35.3624936,149.16515665,40193.0,-4.0,11.0,-152.0,0.0,0.0,-1000.0,0.5,1.0,-20.5,RTL
12:29:54,146124.0,0.005854915943928063,0.006143542472273111,-0.2446243204176426,0.0010902107605943456,0.0006436398689402267,-0.021854900289326906,-35.362493650000005,149.16515695,41362.0,-4.0,10.5,-152.0,0.25,0.0,-1000.25,1.5,1.25,-20.25,RTL
12:29:55,146124.0,0.005018664989620447,0.005352343898266554,-0.2730838358402252,0.0004818387096747756,-0.0002933240029960871,-0.023308880627155304,-35.36249375,149.16515755,43314.0,-4.0,9.0,-152.0,0.0,0.0,-999.5,1.5,0.5,-21.5,RTL
12:29:57,146124.0,0.004819127963855863,0.004645920125767589,-0.31782710552215576,0.002560649998486042,0.0016495282179675996,-0.023274420760571957,-35.362494,149.16515805,46429.0,-3.0,7.0,-152.0,0.0,0.0,-1000.0,3.0,2.5,-21.5,RTL
12:29:58,180573.0,0.005061140283942223,0.004577195504680276,-0.3342353627085686,0.0012699854269158095,0.00012213559239171445,-0.019608394242823124,-35.362494,149.16515815000002,47599.25,-3.0,6.5,-152.0,0.0,0.0,-1000.0,2.0,1.0,-18.25,RTL
12:29:59,180573.0,0.006306377472355962,0.005117710679769516,-0.35498902201652527,0.006900888169184327,0.005531199160031974,-8.663535118103027e-05,-35.3624941,149.16515835,49545.5,-2.0,6.0,-152.0,0.0,0.0,-999.0,7.5,6.5,1.0,RTL
12:30:01,180573.0,0.00351180718280375,0.0035486037377268076,-0.3103828430175781,-0.0016257583629339933,-0.00016699626576155424,0.026384394615888596,-35.3624943,149.1651591,52614.0,-2.0,9.0,-152.0,0.0,0.0,-1000.0,0.0,1.0,27.0,RTL
12:30:02,225846.0,0.002876277139876038,0.002912269439548254,-0.2951345592737198,0.0008438064833171666,0.0004738345160149038,0.024418659508228302,-35.3624944,149.165159325,53583.75,-1.75,7.0,-152.0,0.0,0.0,-999.5,1.75,1.5,25.0,RTL
12:30:03,225846.0,0.0033645803729693093,0.0028434789273887873,-0.27151525020599365,0.0016698222995425265,-6.831375261147817e-05,0.019592173397541046,-35.3624944,149.1651594,55355.0,-1.0,4.333333333333333,-152.0,0.0,0.0,-1000.0,2.6666666666666665,1.0,20.333333333333332,RTL
12:30:05,225846.0,0.004181251162663102,0.002552348654717207,-0.234552264213562,-0.00046807475155219436,0.0006114297430031002,0.015036947093904018,-35.3624944,149.1651593,58862.0,0.0,3.0,-152.0,0.0,0.0,-1000.0,0.5,1.5,15.5,RTL
12:30:06,112284.0,0.004326451104134321,0.0025835425476543605,-0.2251284271478653,0.001218921912368387,0.00026341291959397495,0.013494103448465466,-35.3624944,149.165159225,60026.0,0.0,2.0,-152.0,0.0,0.0,-1000.25,2.25,1.25,14.5,RTL
12:30:07,112284.0,0.005165219306945801,0.0026075722416862845,-0.21108539402484894,0.0011144752497784793,0.00048062962014228106,0.012105447240173817,-35.3624943,149.1651591,61965.5,0.0,2.5,-152.0,0.0,0.0,-1000.0,2.0,1.5,13.0,RTL
12:30:09,112284.0,0.005076142027974129,0.003460877574980259,-0.1936379075050354,-0.0007968837162479758,0.0003876270493492484,0.007445810828357935,-35.3624943,149.1651589,65032.0,0.0,3.0,-152.0,0.0,0.0,-1000.0,0.0,2.0,8.0,RTL
12:30:10,68160.0,0.004766775062307715,0.0033041625283658504,-0.18871953338384628,-0.000735578709281981,9.793649951461703e-05,0.00802770780865103,-35.3624942,149.1651589,66002.5,-0.25,3.0,-152.0,0.0,0.0,-1000.0,0.5,1.5,8.75,RTL
12:30:11,68160.0,0.004324826567123334,0.003334835326919953,-0.18104177713394165,-0.00019637596172591051,0.00022480683401226997,0.0068609997009237604,-35.3624942,149.1651589,67779.66666666667,-1.0,3.0,-152.0,0.0,0.0,-1000.0,1.0,1.6666666666666667,8.0,RTL
12:30:13,68160.0,0.0036115096881985664,0.002561521017923951,-0.1674874722957611,0.004404624458402395,0.0017823079833760858,0.007114037871360779,-35.3624941,149.1651589,71247.0,-1.0,2.0,-152.0,0.0,0.0,-1000.0,5.0,3.0,8.0,RTL
12:30:14,300000.0,0.0035823496291413903,0.0024792382027953863,-0.1643504612147808,0.0019030461262445897,0.0005475331272464246,0.006239523179829121,-35.3624941,149.1651589,72217.0,-1.0,2.0,-152.0,0.0,0.0,-999.75,3.0,2.0,7.25,RTL
12:30:15,300000.0,0.0037576640024781227,0.0024897311814129353,-0.1590440645813942,-0.001116959610953927,0.0006927685462869704,0.00410762894898653,-35.3624941,149.1651589,73769.5,-1.0,2.0,-152.0,0.0,0.0,-1000.0,0.0,2.5,5.0,RTL
12:30:17,300000.0,0.004058002028614283,0.0024229773553088307,-0.14924289286136627,-0.0012600176851265132,-0.0006160337361507118,0.005155887920409441,-35.3624941,149.1651589,76874.5,-1.0,2.0,-152.0,0.0,0.0,-1000.0,0.5,1.0,6.0,RTL
12:30:18,283652.0,0.004068447160534561,0.002461328753270209,-0.14510057121515274,0.0010210630716755986,0.0007420342008117586,0.0044476830516941845,-35.3624941,149.1651589,78435.0,-1.0,2.0,-152.0,0.0,0.0,-1000.25,2.5,2.25,5.75,RTL
12:30:19,283652.0,0.003803349332883954,0.002479685004800558,-0.14123985171318054,0.0021137611474841833,0.0018276158371008933,0.0044448652770370245,-35.3624941,149.1651589,79988.0,-1.0,2.0,-152.0,0.0,0.0,-1000.0,3.0,3.0,5.5,RTL
12:30:21,283652.0,0.0038892815355211496,0.002612803247757256,-0.13401027768850327,0.0010492204455658793,-5.6777033023536205e-05,0.003909892519004643,-35.3624941,149.1651589,83094.0,-1.0,2.0,-152.0,0.0,0.0,-1001.0,2.0,1.5,5.0,RTL
12:30:22,200.0,0.00367772817844525,0.002524482843000442,-0.1310955472290516,-0.0004358501173555851,7.20619282219559e-05,0.0034603809472173452,-35.3624941,149.1651589,84644.75,-1.0,2.0,-152.0,0.0,0.0,-1000.0,1.25,1.25,4.5,RTL
12:30:23,200.0,0.003502650186419487,0.002103675506077707,-0.12786100059747696,0.0010425864602439106,-0.0005301618366502225,0.004744916455820203,-35.3624941,149.1651589,86198.0,-1.0,2.0,-152.0,0.0,0.0,-1000.0,2.0,1.0,6.0,RTL
12:30:25,200.0,0.0033475394593551755,0.002304236521013081,-0.12269832566380501,-0.0011304798536002636,-0.0006360055995173752,0.0010502301738597453,-35.3624941,149.16515894999998,89304.0,-1.0,2.0,-152.0,0.0,0.0,-1000.0,1.0,0.5,2.5,RTL
12:30:26,109631.0,0.003193181415554136,0.002716456714551896,-0.12017631717026234,-0.00011317961616441607,0.001159267732873559,0.0026213891978841275,-35.3624941,149.165159,90861.0,-1.0,1.0,-152.0,0.0,0.0,-1000.0,1.5,2.5,3.5,RTL
12:30:27,109631.0,0.0034201934468001127,0.002684377250261605,-0.11808513104915619,0.0012297748471610248,0.0012119536404497921,0.002312455093488097,-35.3624941,149.165159,92412.5,-1.0,1.0,-152.0,0.0,0.0,-1000.0,3.0,2.5,3.5,RTL
12:30:29,109631.0,0.0033381350804120302,0.002467287122271955,-0.11397981271147728,-0.0011388218263164163,0.00106711289845407,0.0014172412920743227,-35.3624941,149.165159,95518.5,-1.0,1.0,-152.0,0.0,0.0,-1000.0,1.0,2.5,2.5,RTL
12:30:30,300000.0,0.003331493237055838,0.002362869621720165,-0.11245077662169933,0.0011753524304367602,5.056802183389664e-05,0.002259690430946648,-35.3624941,149.165159,97069.75,-1.0,1.0,-152.0,0.0,0.0,-1000.25,2.75,1.5,3.5,RTL
12:30:31,300000.0,0.0035057264612987638,0.0023469964507967234,-0.11051643639802933,0.0007358811562880874,-2.0214938558638096e-06,0.0029851647559553385,-35.3624941,149.165159,98625.0,-1.0,1.0,-152.0,0.0,0.0,-999.5,2.0,1.5,4.5,RTL
12:30:33,300000.0,0.0033982715103775263,0.0025779136922210455,-0.10653513297438622,0.0009548372472636402,0.001216106116771698,0.002322874031960964,-35.3624941,149.165159,101737.0,-1.0,2.0,-152.0,0.0,0.0,-1000.0,2.5,2.5,4.0,RTL
12:30:34,220381.0,0.003443731984589249,0.0023390971473418176,-0.10539741069078445,0.0007465753005817533,0.00046502621262334287,0.0018897789705079049,-35.3624941,149.165159,103286.25,-1.0,2.0,-152.0,0.0,0.0,-1000.0,2.25,2.25,3.25,RTL
12:30:35,220381.0,0.003135426319204271,0.0023853726452216506,-0.10423411056399345,0.0018537731375545263,0.0008416754426434636,0.0034084636718034744,-35.3624941,149.165159,104839.0,-1.0,2.0,-152.0,0.0,0.0,-1000.0,3.5,2.5,4.5,RTL
12:30:37,220381.0,0.0032039503566920757,0.0023958180099725723,-0.1016441099345684,-0.0003187459078617394,0.0001353271072730422,-9.465659968554974e-05,-35.3624941,149.165159,107946.0,-1.0,1.0,-152.0,0.0,0.0,-1000.0,1.5,2.0,1.5,RTL
12:30:38,300000.0,0.003065994067583233,0.0023205933975987136,-0.10078450851142406,-0.00041519798105582595,0.0005447939911391586,0.0018551067041698843,-35.3624941,149.165159,109505.0,-1.0,1.0,-152.0,0.0,0.0,-1000.0,1.25,2.25,3.25,RTL
12:30:39,300000.0,0.002788684330880642,0.002350348047912121,-0.09969670325517654,0.001672488753683865,0.00018939090659841895,0.0009830778872128576,-35.3624941,149.165159,111060.5,-1.0,1.0,-152.0,0.0,0.0,-1000.5,3.0,1.5,2.0,RTL
12:30:41,300000.0,0.00314572942443192,0.0021022316068410873,-0.09816978126764297,0.0014726165682077408,-0.0004988155560567975,0.0016703102737665176,-35.3624941,149.165159,114168.5,-1.0,1.0,-152.0,0.0,0.0,-1000.0,3.5,1.0,3.5,RTL
12:30:42,222813.0,0.003471972479019314,0.0019058429170399904,-0.09723135828971863,0.0003377264947630465,6.257602944970131e-05,0.000821578869363293,-35.3624941,149.165159,115720.0,-1.0,1.0,-152.0,0.0,0.0,-1000.0,2.25,2.0,2.25,RTL
12:30:43,222813.0,0.003450506250374019,0.0021574522252194583,-0.09676012396812439,0.0027095857076346874,0.0021657008910551667,0.0022131147561594844,-35.3624941,149.165159,117273.5,-1.0,1.0,-152.0,0.0,0.0,-1000.0,4.5,4.0,3.5,RTL
12:30:45,222813.0,0.00329170492477715,0.002578441984951496,-0.09537595137953758,0.0014663321198895574,-0.00023821950890123844,-3.361719427630305e-05,-35.3624941,149.165159,120380.0,-1.0,1.0,-152.0,0.0,0.0,-1000.5,3.0,1.5,1.5,RTL
12:30:46,2606.0,0.0031192395254038274,0.0026599258999340236,-0.09465531446039677,-0.0004130506422370672,-0.00014208152424544096,0.002356666955165565,-35.3624941,149.165159,121934.75,-1.0,1.0,-152.0,0.0,0.0,-1000.0,1.5,1.75,3.75,RTL
12:30:47,2606.0,0.003068665391765535,0.002466811565682292,-0.0941406860947609,0.0003229158464819193,0.001535703893750906,0.002677866956219077,-35.3624941,149.165159,123488.5,-1.0,1.0,-152.0,0.0,0.0,-999.5,2.0,3.5,4.0,RTL
12:30:49,2606.0,0.0030301836086437106,0.0025638245278969407,-0.09235358610749245,-0.00133663194719702,0.0011461236281320453,0.0007448730757459998,-35.3624941,149.165159,126593.5,-1.0,1.0,-152.0,0.0,0.0,-999.5,1.0,3.0,2.0,RTL
12:30:50,210614.0,0.003113207872956991,0.0022274921648204327,-0.09196003712713718,-0.00017098791431635618,0.00033911794889718294,0.0006812973879277706,-35.3624941,149.165159,128146.75,-1.0,1.0,-152.0,0.0,0.0,-1000.0,1.75,2.25,2.0,RTL
12:30:51,210614.0,0.0026830551214516163,0.0024291431764140725,-0.09174685925245285,-0.0009237502817995846,-0.00014926900621503592,0.00028663547709584236,-35.3624941,149.165159,129699.5,-1.0,1.0,-152.0,0.0,0.0,-1000.0,1.0,2.0,2.0,RTL
12:30:53,210614.0,0.0029249852523207664,0.002259310567751527,-0.09091540053486824,0.0026108971796929836,-0.0002843773108907044,0.003031607484444976,-35.3624941,149.165159,132809.5,-1.0,1.0,-152.0,0.0,0.0,-1000.5,5.0,1.5,4.5,RTL
12:30:54,178220.0,0.003068112477194518,0.0022577939671464264,-0.09066485427320004,-0.0005040171963628381,-0.00020251009846106172,0.0008594353857915848,-35.3624941,149.165159,134362.5,-1.0,1.0,-152.0,0.0,0.0,-1000.0,1.25,1.5,2.75,RTL
12:30:55,178220.0,0.002927721827290952,0.002307707676663995,-0.0903589054942131,-0.00030623667407780886,0.001598531729541719,0.001386942807585001,-35.3624941,149.165159,135915.5,-1.0,1.0,-152.0,0.0,0.0,-999.0,1.5,3.5,3.0,RTL
12:30:57,178220.0,0.0034235211787745357,0.00209347577765584,-0.08962560072541237,0.0004234870430082083,-0.00012022920418530703,4.233286017552018e-05,-35.3624941,149.165159,139027.5,-1.0,1.0,-152.0,0.0,0.0,-1000.5,2.0,2.0,1.5,RTL
12:30:58,23693.0,0.0031796631519682705,0.0023822133662179112,-0.08975552953779697,0.001110804034397006,0.0013643165584653616,0.0005160420259926468,-35.3624941,149.165159,140578.75,-1.0,1.0,-152.0,0.0,0.0,-999.75,2.75,3.5,2.25,RTL
12:30:59,23693.0,0.003182958927936852,0.0024231753777712584,-0.08943121135234833,0.0024039908312261105,0.002417966607026756,0.0004661118146032095,-35.3624941,149.165159,142138.0,-1.0,1.0,-152.0,0.0,0.0,-1000.0,4.5,4.5,2.5,RTL
12:31:01,23693.0,0.0029786943923681974,0.002608639537356794,-0.08893634751439095,0.0006604719674214721,-0.00035307672806084156,0.0009535934077575803,-35.3624941,149.165159,145243.5,-1.0,1.0,-152.0,0.0,0.0,-1000.0,2.5,1.5,2.5,RTL
12:31:02,200.0,0.0030563119798898697,0.002445410005748272,-0.08874674327671528,-0.0011376027832739055,-9.043322643265128e-05,-0.0002747949620243162,-35.3624941,149.165159,146797.25,-1.0,1.0,-152.0,0.0,0.0,-1000.0,1.25,2.0,1.25,RTL
12:31:03,200.0,0.002564353053458035,0.0023749222746118903,-0.08874991908669472,-0.0002393624745309353,8.467887528240681e-05,0.0022325756726786494,-35.3624941,149.16515905,148350.0,-1.0,1.0,-152.0,0.0,0.0,-1000.0,1.5,2.5,4.0,RTL
12:31:05,200.0,0.002697379677556455,0.002438732539303601,-0.08775545656681061,0.0004066396504640579,3.413116792216897e-05,0.002192996209487319,-35.3624941,149.165159,151458.5,-1.0,1.0,-152.0,0.0,0.0,-1000.0,2.5,2.0,4.0,RTL
12:31:06,286669.0,0.003014312358573079,0.002129220578353852,-0.0874644685536623,-8.771853754296899e-05,0.00026308384258300066,0.0004555963969323784,-35.3624941,149.165159,153010.75,-1.0,1.0,-152.0,0.0,0.0,-1000.0,2.0,2.25,2.0,RTL
12:31:07,286669.0,0.0029452164890244603,0.0020321140182204545,-0.08743902295827866,0.0013650996843352914,0.0009656779002398252,0.00027259858325123787,-35.3624941,149.165159,154564.5,-1.0,1.0,-152.0,0.0,0.0,-999.5,3.5,3.0,1.5,RTL
12:31:09,286669.0,0.003001219709403813,0.002250807825475931,-0.08730142191052437,-0.00047429947881028056,0.0009224696550518274,0.002466811565682292,-35.3624941,149.165159,157669.5,-1.0,1.0,-152.0,0.0,0.0,-999.5,1.5,3.0,4.0,RTL
12:31:10,293429.0,0.0033502026926726103,0.002348060079384595,-0.0874186810106039,0.0014389354037120938,0.00027471050270833075,0.0008972373907454312,-35.3624941,149.165159,159222.5,-1.0,1.0,-152.0,0.0,0.0,-1000.0,3.25,2.5,2.75,RTL
12:31:11,293429.0,0.0033655748702585697,0.0022223724517971277,-0.0872546136379242,0.0020005328115075827,0.000313129392452538,0.0006986468797549605,-35.3624941,149.165159,160775.5,-1.0,1.0,-152.0,0.0,0.0,-1000.5,4.5,2.5,3.0,RTL
12:31:13,293429.0,0.0030852692434564233,0.0027061268920078874,-0.08711697533726692,0.0006148922257125378,0.0008308080723509192,0.0009753667982295156,-35.3624941,149.165159,163886.5,-1.0,1.0,-152.0,0.0,0.0,-999.5,3.0,3.0,3.0,RTL
12:31:14,216604.0,0.0030513739329762757,0.002408514206763357,-0.08697761781513691,-0.0007461342611350119,-0.0011062021949328482,0.001109031174564734,-35.3624941,149.165159,165439.25,-1.0,1.0,-152.0,0.0,0.0,-1000.0,1.25,1.25,2.75,RTL
12:31:15,216604.0,0.0024608290987089276,0.002381470170803368,-0.08694735914468765,0.0018148256349377334,-0.00040514906868338585,0.0017916790675371885,-35.3624941,149.16515905,166992.0,-1.0,1.0,-152.0,0.0,0.0,-1000.5,4.0,1.5,3.5,RTL
12:31:17,216604.0,0.0028883046470582485,0.0022840946912765503,-0.08689091354608536,-0.0008507182355970144,0.0009083588374778628,-0.0002053942298516631,-35.3624941,149.165159,170103.0,-1.0,1.0,-152.0,0.0,0.0,-999.5,1.0,3.0,1.5,RTL
12:31:18,150829.0,0.0030739716603420675,0.0024090870283544064,-0.08678246289491653,3.666552947834134e-05,0.000373713206499815,0.0001959815272130072,-35.3624941,149.165159,171652.5,-1.0,1.0,-152.0,0.0,0.0,-1000.0,2.25,2.75,2.0,RTL
12:31:19,150829.0,0.002832134487107396,0.002055989229120314,-0.08697435259819031,9.436567779630423e-05,0.0013940345379523933,0.001140541397035122,-35.3624941,149.165159,173214.0,-1.0,1.0,-152.0,0.0,0.0,-999.5,2.5,3.5,3.0,RTL
12:31:21,150829.0,0.00298631947953254,0.0022579061333090067,-0.08639469370245934,0.0006549161626026034,0.0003150863340124488,0.0031475424766540527,-35.3624941,149.165159,176319.5,-1.0,1.0,-152.0,0.0,0.0,-1000.0,3.0,2.5,5.5,RTL
12:31:22,300000.0,0.0032183037837967277,0.0020634502288885415,-0.08601771108806133,0.0017860796651802957,0.0006183467339724302,0.0011648982181213796,-35.3624941,149.165159,177873.25,-1.0,1.0,-152.0,0.0,0.0,-1000.0,4.25,2.75,3.0,RTL
12:31:23,300000.0,0.0033880661940202117,0.002222011098638177,-0.08606205880641937,0.0003523811465129256,0.0003385125892236829,0.002233380451798439,-35.3624941,149.165159,179426.5,-1.0,1.0,-152.0,0.0,0.0,-999.5,2.5,3.0,4.0,RTL
12:31:25,300000.0,0.0030427785823121667,0.0023577421670779586,-0.08610909804701805,0.0016196268843486905,-0.00045091891661286354,0.00014332542195916176,-35.3624941,149.165159,182535.0,-1.0,1.0,-152.0,0.0,0.0,-1001.0,4.0,1.5,2.5,RTL
12:31:26,300000.0,0.0031407990027219057,0.002770790772046894,-0.08610519394278526,-8.468149462714791e-05,0.0006134706200100482,0.0012480205623432994,-35.3624941,149.165159,184085.75,-1.0,1.0,-152.0,0.0,0.0,-1000.25,2.25,3.0,3.25,RTL
12:31:27,300000.0,0.0026643919991329312,0.0024910476058721542,-0.08603882044553757,0.00026415695901960135,-0.0005163265159353614,-0.0013674193760380149,-35.3624941,149.16515905,185639.5,-1.0,1.0,-152.0,0.0,0.0,-1000.5,3.0,2.0,1.0,RTL
12:31:29,300000.0,0.0029339913744479418,0.002410076791420579,-0.08609150722622871,0.002039728802628815,0.0012444050516933203,0.001505368622019887,-35.3624941,149.1651591,188746.5,-1.0,1.0,-152.0,0.0,0.0,-999.5,4.5,3.5,3.5,RTL
12:31:30,249954.0,0.0029303860501386225,0.002232592785730958,-0.08619257062673569,0.0009159664332401007,0.000267385330516845,-0.00018873982480727136,-35.3624941,149.1651591,190302.75,-1.0,1.0,-152.0,0.0,0.0,-1000.5,3.25,2.75,1.5,RTL
12:31:31,249954.0,0.0029587316093966365,0.0022911442210897803,-0.0859597697854042,0.0014376980252563953,0.0005160936852917075,0.0008852160535752773,-35.3624941,149.1651591,191853.5,-1.0,1.0,-152.0,0.0,0.0,-1000.0,4.0,3.0,3.0,RTL
12:31:33,249954.0,0.003019687836058438,0.0018948466167785227,-0.0860845148563385,0.0022575712064281106,0.0006203470984473825,0.0006100267637521029,-35.3624941,149.1651591,194963.5,-1.0,1.0,-152.0,0.0,0.0,-1000.0,4.5,3.0,3.0,RTL
12:31:34,28946.0,0.003014228423126042,0.0021275868639349937,-0.08626299723982811,-0.0010653586650732905,0.0002346379915252328,-3.72060458175838e-05,-35.3624941,149.1651591,196524.25,-1.0,1.0,-152.0,0.0,0.0,-1000.0,1.25,2.5,2.25,RTL
12:31:35,28946.0,0.0030697016045451164,0.002156594069674611,-0.08614889532327652,-0.00017031963216140866,0.0003089545061811805,0.0022384674521163106,-35.3624941,149.1651591,198074.0,-1.0,1.0,-152.0,0.0,0.0,-999.5,2.0,3.0,4.5,RTL
12:31:37,28946.0,0.0033443503780290484,0.002382876700721681,-0.08567620068788528,0.001759352977387607,-0.00019755610264837742,0.0012713982723653316,-35.3624941,149.1651591,201180.5,-1.0,1.0,-152.0,0.0,0.0,-1000.5,4.0,2.5,3.5,RTL
12:31:38,18530.0,0.0032184820156544447,0.002175619825720787,-0.0854200217872858,0.00014488137094303966,-0.0002922951243817806,0.0012633310980163515,-35.3624941,149.1651591,202729.25,-1.0,1.0,-152.0,0.0,0.0,-999.75,2.75,2.25,3.25,RTL
12:31:39,18530.0,0.003081723116338253,0.0027473601512610912,-0.0855543464422226,-0.001418441068381071,0.0004839405883103609,-0.0001095301122404635,-35.3624941,149.1651591,204287.0,-1.0,1.0,-152.0,0.0,0.0,-1000.0,1.0,3.0,2.0,RTL
12:31:41,18530.0,0.0026481106178835034,0.0023642571177333593,-0.08573542535305023,-0.0014789135893806815,-0.000117127550765872,3.7012272514402866e-05,-35.3624941,149.1651591,207397.0,-1.0,1.0,-152.0,0.0,0.0,-999.5,1.0,2.5,2.5,RTL
12:31:42,200.0,0.0027486420585773885,0.0024441309506073594,-0.0856020376086235,0.0012486330815590918,0.0006138929165899754,0.00158731359988451,-35.3624941,149.1651591,208953.0,-1.0,1.0,-152.0,0.0,0.0,-999.75,3.5,3.0,3.75,RTL
12:31:43,200.0,0.002846083603799343,0.002233074512332678,-0.08565841615200043,-0.00010548927821218967,-0.00036263978108763695,0.0009618523763492703,-35.3624941,149.1651591,210504.5,-1.0,1.0,-152.0,0.0,0.0,-999.5,2.5,2.5,3.0,RTL
12:31:45,200.0,0.0028309731278568506,0.002091258531436324,-0.08577403798699379,0.0004601128166541457,-0.0010321394074708223,0.0011769715929403901,-35.3624941,149.1651591,213611.0,-1.0,1.0,-152.0,0.0,0.0,-1000.0,3.0,2.0,3.5,RTL
12:31:46,272791.0,0.0029187550535425544,0.0018743335676845163,-0.08598527684807777,0.0003883890458382666,0.00026305357459932566,-0.00037586758844554424,-35.3624941,149.1651591,215162.25,-1.0,1.0,-152.0,0.0,0.0,-1000.0,2.75,2.75,2.0,RTL
12:31:47,272791.0,0.0030415449291467667,0.0021241653012111783,-0.08577189221978188,0.0011294265277683735,0.0007910463027656078,0.0009254879551008344,-35.3624941,149.1651591,216716.5,-1.0,1.0,-152.0,0.0,0.0,-1000.0,3.5,3.0,3.0,RTL
12:31:49,272791.0,0.002923319465480745,0.0021701641380786896,-0.08609823882579803,0.0021423804573714733,7.725309114903212e-05,7.485365495085716e-05,-35.3624941,149.1651591,219823.0,-1.0,1.0,-152.0,0.0,0.0,-1000.0,5.0,3.0,2.5,RTL
12:31:50,37316.0,0.0031062402995303273,0.0022441784385591745,-0.08602575957775116,0.00010884104995056987,0.0003106351650785655,0.0014649403165094554,-35.3624941,149.1651591,221378.5,-1.0,1.0,-152.0,0.0,0.0,-999.75,2.75,3.0,4.0,RTL
12:31:51,37316.0,0.0029926818097010255,0.002166879829019308,-0.08588857203722,-8.431996684521437e-05,6.65674451738596e-05,0.0010786856291815639,-35.3624941,149.1651591,222930.5,-1.0,1.0,-152.0,0.0,0.0,-1000.0,2.5,3.0,3.5,RTL
12:31:53,37316.0,0.002833473728969693,0.0026763046626001596,-0.08577170595526695,0.0006043852772563696,-0.0017130535561591387,0.0008347881957888603,-35.3624941,149.1651591,226038.5,-1.0,1.0,-152.0,0.0,0.0,-1000.0,3.5,1.0,3.0,RTL
12:31:54,24886.0,0.0029411878203973174,0.0023361858911812305,-0.08536254055798054,0.0007337560527957976,-0.0003708744770847261,0.000739525246899575,-35.3624941,149.1651591,227596.0,-1.0,1.0,-152.0,0.0,0.0,-1000.0,3.5,2.5,3.0,RTL
12:31:55,24886.0,0.0029901412781327963,0.002281759981997311,-0.08545780554413795,-0.0013691867934539914,-8.548574987798929e-05,0.0006064389599487185,-35.3624941,149.1651591,229149.5,-1.0,1.0,-152.0,0.0,0.0,-1000.0,1.5,2.5,3.0,RTL
12:31:57,24886.0,0.0029435980832204223,0.0021528509678319097,-0.08571406453847885,0.0008084360742941499,-0.0008650889503769577,0.0002510693157091737,-35.3624941,149.1651591,232256.0,-1.0,1.0,-152.0,0.0,0.0,-1000.0,3.5,2.0,3.0,RTL
12:31:58,57948.0,0.003028284409083426,0.0018146486254408956,-0.08548752218484879,-0.00044211256317794323,-0.00018001231364905834,-0.0007829066598787904,-35.3624941,149.1651591,233804.75,-1.0,1.0,-152.0,0.0,0.0,-1000.25,2.25,2.5,1.5,RTL
12:31:59,57948.0,0.003036994021385908,0.002120600896887481,-0.08553311973810196,0.0003909908700734377,-1.519499346613884e-05,0.0005940450355410576,-35.3624941,149.1651591,235362.5,-1.0,1.0,-152.0,0.0,0.0,-1000.0,3.0,2.5,3.0,RTL
12:32:01,57948.0,0.0030285773100331426,0.0023725751088932157,-0.08574830740690231,-0.00019468495156615973,-0.00018692354205995798,0.001736163510940969,-35.3624941,149.1651591,238473.0,-1.0,1.0,-152.0,0.0,0.0,-1000.0,2.5,3.0,4.0,RTL
12:32:02,200.0,0.003267710446380079,0.0020806536776944995,-0.08568324893712997,0.0016567689017392695,0.00018318864749744534,0.0013851760886609554,-35.3624941,149.1651591,240028.75,-1.0,1.0,-152.0,0.0,0.0,-1000.0,4.25,3.25,4.0,RTL
12:32:03,200.0,0.003387676435522735,0.0023114491486921906,-0.08563274145126343,-0.0006352311465889215,0.001096166204661131,-0.00022072589490562677,-35.3624941,149.1651591,241582.0,-1.0,1.0,-152.0,0.0,0.0,-999.5,2.5,4.0,2.5,RTL
12:32:05,200.0,0.0030133301625028253,0.002677293377928436,-0.0857541486620903,0.000283658504486084,0.00010222010314464569,-0.0007196436636149883,-35.3624941,149.1651591,244686.0,-1.0,1.0,-152.0,0.0,0.0,-1000.5,3.0,3.0,2.0,RTL
12:32:06,204149.0,0.002746288781054318,0.0024504479952156544,-0.08567870780825615,-0.0006827620672993362,0.0007851347327232361,-0.00043487746734172106,-35.3624941,149.1651591,246238.5,-1.0,1.0,-152.0,0.0,0.0,-999.75,2.0,4.0,2.25,RTL
12:32:07,204149.0,0.0026919073425233364,0.0023332349956035614,-0.08588569611310959,7.905066013336182e-05,0.00045217154547572136,0.0003334928769618273,-35.3624941,149.1651591,247791.0,-1.0,1.0,-152.0,0.0,0.0,-1000.0,3.0,3.5,3.0,RTL
12:32:09,204149.0,0.002813486848026514,0.002534869941882789,-0.08559383824467659,0.0010826236102730036,1.4990102499723434e-05,0.0005951920174993575,-35.3624941,149.1651591,250899.5,-1.0,1.0,-152.0,0.0,0.0,-1000.0,4.0,3.0,3.0,RTL
12:32:10,211683.0,0.0028659325325861573,0.0020059545640833676,-0.08507988415658474,0.001157696999143809,-0.0007684818701818585,0.0012543131597340107,-35.3624941,149.1651591,252453.0,-1.0,1.0,-152.0,0.0,0.0,-1000.0,4.25,2.25,4.0,RTL
12:32:11,211683.0,0.003045086283236742,0.001969849574379623,-0.08530215919017792,0.001999787404201925,0.00047789420932531357,-0.0002520625712350011,-35.3624941,149.1651591,254006.5,-1.0,1.0,-152.0,0.0,0.0,-1000.5,5.0,3.5,2.5,RTL
12:32:13,211683.0,0.00298039591871202,0.0022096678148955107,-0.08555318787693977,-0.00045099714770913124,-0.00016945053357630968,0.0018574000569060445,-35.3624941,149.1651591,257112.5,-1.0,1.0,-152.0,0.0,0.0,-1000.0,2.5,3.0,4.5,RTL
12:32:14,89369.0,0.003037598042283207,0.002226703509222716,-0.08554502762854099,0.00023323786444962025,0.00012411962961778045,0.0012922807945869863,-35.3624941,149.1651591,258672.25,-1.0,1.0,-152.0,0.0,0.0,-999.75,3.25,3.0,4.0,RTL
12:32:15,89369.0,0.0031360266730189323,0.002236667787656188,-0.08544480428099632,0.00017087336163967848,0.001001786789856851,9.282270912081003e-05,-35.3624941,149.1651591,260226.0,-1.0,1.0,-152.0,0.0,0.0,-1000.0,3.0,4.5,3.0,RTL
12:32:17,89369.0,0.003094026818871498,0.0026381852803751826,-0.08551005274057388,0.00024806871078908443,0.000733128865249455,-0.00042784918332472444,-35.3624941,149.1651591,263331.0,-1.0,1.0,-152.0,0.0,0.0,-1000.5,3.5,4.0,2.5,RTL
12:32:18,89305.0,0.002876106067560613,0.002587518363725394,-0.08572086691856384,-0.001135613361839205,-0.0005981425056234002,0.0005310120759531856,-35.3624941,149.1651591,264880.25,-1.0,1.0,-152.0,0.0,0.0,-1000.0,1.75,2.75,3.25,RTL
12:32:19,89305.0,0.0029512131586670876,0.0023836514446884394,-0.0857541412115097,0.0011860969243571162,0.0005124167073518038,0.0022152109304443,-35.3624941,149.1651591,266437.5,-1.0,1.0,-152.0,0.0,0.0,-1000.0,4.5,4.0,5.0,RTL
12:32:21,89305.0,0.0028902285266667604,0.0023928863229230046,-0.0858943983912468,0.0009518524166196585,-0.00030497333500534296,0.0006473721005022526,-35.3624941,149.1651591,269547.5,-1.0,1.0,-152.0,0.0,0.0,-1000.0,4.0,3.0,3.5,RTL
12:32:22,258743.0,0.0029148239409551024,0.002158884541131556,-0.08583676256239414,0.0006379008991643786,-0.00012205971870571375,0.0008465852006338537,-35.3624941,149.1651591,271103.75,-1.0,1.0,-152.0,0.0,0.0,-1000.0,3.75,3.0,3.5,RTL
12:32:23,258743.0,0.0029853445012122393,0.00191491813166067,-0.08585522323846817,-0.0007050228305160999,-0.00028501427732408047,0.001298638992011547,-35.3624941,149.1651591,272656.0,-1.0,1.0,-152.0,0.0,0.0,-1000.0,2.0,3.0,4.0,RTL
12:32:25,258743.0,0.0028840965824201703,0.002392212161794305,-0.08597919717431068,6.95912167429924e-05,0.0006972964620217681,0.0025286973686888814,-35.3624941,149.1651591,275762.5,-1.0,1.0,-152.0,0.0,0.0,-1000.0,3.0,3.5,6.0,RTL
12:32:26,134806.0,0.002921174338553101,0.0022894006688147783,-0.08515989407896996,0.0009626523242332041,1.7404789105057716e-05,0.000579271640162915,-35.3624941,149.1651591,277313.25,-1.0,1.0,-152.0,0.0,0.0,-1000.0,4.25,3.25,3.25,RTL
12:32:27,134806.0,0.0034960920456796885,0.0022046443773433566,-0.08531807363033295,0.0011590442154556513,-7.107737474143505e-06,-0.0004741661250591278,-35.3624941,149.1651591,278866.5,-1.0,1.0,-152.0,0.0,0.0,-1000.0,4.0,3.5,2.5,RTL
12:32:29,134806.0,0.003017161739990115,0.0023606378817930818,-0.08532830700278282,-0.0016290167113766074,0.00017249968368560076,3.370072226971388e-05,-35.3624941,149.1651591,281974.5,-1.0,1.0,-152.0,0.0,0.0,-1000.0,1.5,3.5,3.0,RTL
12:32:30,36021.0,0.0025843220646493137,0.0027280449867248535,-0.08556307666003704,-0.000889335002284497,5.300558404996991e-05,0.0008244437631219625,-35.3624941,149.1651591,283531.0,-1.0,1.0,-152.0,0.0,0.0,-999.75,2.5,3.5,4.0,RTL
12:32:31,36021.0,0.0028819404542446136,0.002680463483557105,-0.0853538028895855,0.0013222969137132168,0.0010488394182175398,0.0011946195736527443,-35.3624941,149.1651591,285082.5,-1.0,1.0,-152.0,0.0,0.0,-1000.0,4.5,4.5,4.0,RTL
12:32:33,36021.0,0.002821199130266905,0.002389165689237416,-0.08567121624946594,-8.146383333951235e-05,-0.0003002177691087127,-0.0011929584434255958,-35.3624941,149.1651591,288191.0,-1.0,1.0,-152.0,0.0,0.0,-1000.5,3.0,3.5,2.0,RTL
12:32:34,92512.0,0.002868299081455916,0.0023758268216624856,-0.08580167964100838,-2.776551991701126e-05,0.0005428968579508364,0.0005899420939385891,-35.3624941,149.1651591,289751.75,-1.0,1.0,-152.0,0.0,0.0,-999.75,3.5,4.0,3.5,RTL
12:32:35,92512.0,0.0029818754410371184,0.0019452171982266009,-0.0859205424785614,-0.0004063418600708246,-0.0006511776009574533,-0.000320883234962821,-35.3624941,149.1651591,291301.5,-1.0,1.0,-152.0,0.0,0.0,-999.5,3.0,2.5,2.5,RTL
12:32:37,92512.0,0.0028681348776444793,0.0022272540954872966,-0.08593035861849785,-0.0004711843794211745,-9.875837713479996e-05,6.573845166713e-05,-35.3624941,149.1651591,294406.0,-1.0,1.0,-152.0,0.0,0.0,-1000.0,3.0,3.0,3.0,RTL
12:32:38,300000.0,0.0030769933364354074,0.002243897062726319,-0.08587249182164669,0.00012577237794175744,0.00018079241272062063,0.0010338756837882102,-35.3624941,149.1651591,295956.0,-1.0,1.0,-152.0,0.0,0.0,-999.75,3.5,3.75,4.0,RTL
12:32:39,300000.0,0.003059658338315785,0.0022257466334849596,-0.08597669750452042,-0.0024243153166025877,7.659418042749166e-05,-0.0004178181989118457,-35.3624941,149.1651591,297513.5,-1.0,1.0,-152.0,0.0,0.0,-1000.0,1.0,3.5,2.5,RTL
12:32:41,300000.0,0.0030774775659665465,0.002346418797969818,-0.08591858670115471,-0.0008811705047264695,0.0001934422180056572,-0.001133637735620141,-35.3624941,149.1651591,300624.0,-1.0,1.0,-152.0,0.0,0.0,-1000.0,2.5,3.5,2.0,RTL
12:32:42,255566.0,0.002837825973983854,0.0023329578107222915,-0.08529823459684849,-0.0005073852953501046,0.0006267294520512223,0.0018506556516513228,-35.3624941,149.1651591,302176.5,-1.0,1.0,-152.0,0.0,0.0,-999.5,2.75,4.25,5.0,RTL
12:32:43,255566.0,0.0031562441727146506,0.002133506699465215,-0.08520892634987831,0.0011625448241829872,0.001509809517301619,-0.00018710934091359377,-35.3624941,149.1651591,303729.5,-1.0,1.0,-152.0,0.0,0.0,-999.5,4.5,5.0,3.0,RTL
12:32:45,255566.0,0.0029863842064514756,0.00261430605314672,-0.08530125394463539,-0.00032230757642537355,-0.0005092117935419083,-0.0002788053825497627,-35.3624941,149.1651591,306838.5,-1.0,1.0,-152.0,0.0,0.0,-1000.0,3.5,3.0,3.0,RTL
12:32:46,241089.0,0.0029573370702564716,0.0023994161165319383,-0.08528467267751694,0.00027720548678189516,0.0013283266453072429,0.0004791360115632415,-35.3624941,149.1651591,308389.5,-1.0,1.0,-152.0,0.0,0.0,-1000.0,3.75,5.25,3.75,RTL
12:32:47,241089.0,0.002946160384453833,0.00248154706787318,-0.08556507527828217,0.0013445292133837938,0.0006022315938025713,-0.0006685807602480054,-35.3624941,149.1651591,309944.5,-1.0,1.0,-152.0,0.0,0.0,-1000.0,5.0,4.5,2.5,RTL
12:32:49,241089.0,0.002983453101478517,0.0019259335822425783,-0.08555330336093903,0.0010768927168101072,0.000587651738896966,0.0005813410971313715,-35.3624941,149.1651591,313049.5,-1.0,1.0,-152.0,0.0,0.0,-1000.0,4.5,4.0,3.5,RTL
12:32:50,134733.0,0.003030689083971083,0.0021377973607741296,-0.08568517491221428,-0.00046796287642791867,0.0005394809413701296,-9.170040721073747e-05,-35.3624941,149.1651591,314602.75,-1.0,1.0,-152.0,0.0,0.0,-999.75,3.0,4.25,3.25,RTL
12:32:51,134733.0,0.002993066213093698,0.002285090391524136,-0.08563100546598434,-0.00037392054218798876,-0.00041445973329246044,-0.00011810578871518373,-35.3624941,149.1651591,316156.5,-1.0,1.0,-152.0,0.0,0.0,-1000.0,3.0,3.0,3.0,RTL
12:32:53,134733.0,0.003072656923905015,0.002323536202311516,-0.08585269376635551,0.0011472501792013645,0.0015071381349116564,0.0008008989971131086,-35.3624941,149.1651591,319267.0,-1.0,1.0,-152.0,0.0,0.0,-999.5,5.0,5.0,4.0,RTL
12:32:54,151393.0,0.002938490768428892,0.002155433816369623,-0.08592953160405159,0.0005820262595079839,0.0005890082102268934,-9.775767102837563e-05,-35.3624941,149.1651591,320820.5,-1.0,1.0,-152.0,0.0,0.0,-999.75,4.25,4.25,3.5,RTL
12:32:55,151393.0,0.0025066669331863523,0.0021798586240038276,-0.08588294684886932,0.0011738513130694628,0.0006780589465051889,-2.1808897145092487e-05,-35.3624941,149.1651591,322372.5,-1.0,1.0,-152.0,0.0,0.0,-999.5,5.0,4.5,3.5,RTL
12:32:57,151393.0,0.0023970389738678932,0.0020668645156547427,-0.08606544882059097,-0.002498696674592793,-0.00010969885624945164,8.050561882555485e-05,-35.3624941,149.1651592,325482.5,-1.0,0.0,-152.0,0.0,0.0,-999.5,1.0,3.5,3.5,RTL
12:32:58,135802.0,0.002486759622115642,0.002106675034156069,-0.08547771535813808,0.0004944205284118652,0.000543024274520576,0.0017670009401626885,-35.3624941,149.1651592,327034.0,-1.0,0.0,-152.0,0.0,0.0,-1000.0,4.0,4.25,5.0,RTL
12:32:59,135802.0,0.002718340139836073,0.0018381093977950513,-0.08518525213003159,-0.0005059042014181614,-6.37533375993371e-05,0.0001075860345736146,-35.3624942,149.1651592,328593.0,-1.0,0.0,-152.0,0.0,0.0,-1000.0,3.0,3.5,3.5,RTL
12:33:01,135802.0,0.0023324491921812296,0.0015770482132211328,-0.08545197173953056,-0.002383116167038679,-0.0009122241754084826,0.00023115647491067648,-35.3624942,149.1651592,331773.5,0.0,1.0,-152.0,0.0,0.0,-1000.0,1.0,3.0,3.5,RTL
12:33:02,200.0,0.001625266158953309,0.001440479391021654,-0.0855187475681305,0.000446793797891587,0.0011106536840088665,0.0009167631505988538,-35.3624942,149.1651592,333405.75,0.0,0.0,-152.0,0.0,0.0,-999.75,4.25,4.75,4.5,RTL
12:33:03,200.0,0.0015826707240194082,0.0012725653359666467,-0.08552907407283783,-0.0017373580485582352,-0.001074247295036912,0.0003035605186596513,-35.3624942,149.16515925,334959.5,0.0,0.0,-152.0,0.0,0.0,-1000.0,2.0,2.5,3.5,RTL
12:33:05,200.0,0.0021478021517395973,0.0012013475643470883,-0.08562073111534119,0.0009817946702241898,1.3172975741326809e-05,0.0007017895113676786,-35.3624943,149.1651593,338070.0,0.0,0.0,-152.0,0.0,0.0,-1000.0,4.5,4.0,4.5,RTL
12:33:06,218183.0,0.001728168484987691,0.0012251913431100547,-0.08553440496325493,-0.0013338848948478699,0.0005347486585378647,0.0014332446735352278,-35.3624943,149.1651593,339623.25,0.0,0.0,-152.0,0.0,0.0,-999.5,2.25,4.5,4.75,RTL
12:33:07,218183.0,0.0014211494126357138,0.0012447249027900398,-0.08559524267911911,-0.0023201799485832453,-0.0008014533668756485,0.0008538016118109226,-35.3624943,149.1651593,341176.0,0.0,0.0,-152.0,0.0,0.0,-1000.0,1.0,3.0,4.5,RTL
12:33:09,218183.0,0.0016559947980567813,0.0010031446581706405,-0.08581961691379547,0.0002751483116298914,8.713733404874802e-05,-0.0010200375691056252,-35.3624943,149.1651593,344283.5,0.0,0.0,-152.0,0.0,0.0,-1000.0,4.0,3.5,3.0,RTL
12:33:10,189600.0,0.0015505946357734501,0.0010441223857924342,-0.0858150739222765,-0.0007076965412124991,4.7819106839597225e-05,0.00047018349869176745,-35.3624943,149.1651593,345838.75,0.0,0.0,-152.0,0.0,0.0,-999.75,3.0,4.0,4.25,RTL
12:33:11,189600.0,0.001439474755898118,0.0010947498376481235,-0.08582570403814316,0.0015255683101713657,-0.0009038192220032215,0.00031734746880829334,-35.3624943,149.1651593,347391.0,0.0,0.0,-152.0,0.0,0.0,-1000.0,5.0,2.5,3.5,RTL
12:33:13,189600.0,0.0013789607328362763,0.0004998539516236633,-0.08615047484636307,0.0003943259362131357,0.0001827895175665617,-0.0008127172477543354,-35.3624943,149.1651593,350497.5,0.0,0.0,-152.0,0.0,0.0,-1000.0,4.0,4.0,2.5,RTL
12:33:14,200.0,0.0010985182889271528,0.0008958514372352511,-0.08540618419647217,-0.0013505267561413348,-0.00012697395868599415,0.0009458043496124446,-35.3624943,149.165159375,352048.5,0.0,-0.25,-152.0,0.0,0.0,-999.75,2.25,3.5,4.75,RTL
12:33:15,200.0,0.0012172188144177198,0.0006705357227474451,-0.08533066138625145,0.0023601334542036057,-0.0013350523076951504,-0.0004323510220274329,-35.3624943,149.1651594,353602.0,0.0,-1.0,-152.0,0.0,0.0,-1000.5,5.5,2.5,3.0,RTL
12:33:17,200.0,0.0012651130091398954,8.609401993453503e-05,-0.08538050949573517,0.0013250105548650026,-0.0001755595440044999,0.00019944156520068645,-35.362494350000006,149.1651594,356708.5,0.5,-1.0,-152.0,0.0,0.0,-1000.0,5.0,3.5,4.0,RTL
12:33:18,144496.0,0.0014719819591846317,-1.8786928194458596e-05,-0.0855237115174532,-0.00034253241028636694,0.0010021833004429936,0.001158940198365599,-35.3624944,149.1651594,358264.75,1.0,-1.0,-152.0,0.0,0.0,-999.25,3.0,4.5,4.5,RTL
12:33:19,144496.0,0.0013962912489660084,0.0007413563143927604,-0.08549339324235916,1.9055325537919998e-05,0.0015320142265409231,-0.00017043901607394218,-35.3624944,149.1651594,359819.0,1.0,-1.0,-152.0,0.0,0.0,-1000.0,3.5,5.0,3.0,RTL
12:33:21,144496.0,0.001307379046920687,0.001065240881871432,-0.0853986069560051,-0.00047584541607648134,-0.0010216566734015942,0.0014136224053800106,-35.3624944,149.1651594,362925.0,0.0,-0.5,-152.0,0.0,0.0,-1000.0,3.0,3.0,4.5,RTL
12:33:22,25280.0,0.0012359433167148381,0.000919177255127579,-0.08554315380752087,0.0007079740171320736,-0.0005321802455000579,0.000909350928850472,-35.3624944,149.1651594,364485.75,0.0,-1.0,-152.0,0.0,0.0,-1000.0,4.25,3.25,4.25,RTL
12:33:23,25280.0,0.0011962762218900025,0.00045677871094085276,-0.0855020321905613,0.0014990938361734152,0.0005088325124233961,0.00012882845476269722,-35.3624944,149.1651594,366035.0,0.0,-1.0,-152.0,0.0,0.0,-1000.0,5.0,4.0,4.0,RTL
12:33:25,25280.0,0.0006233355816220865,-0.00037825852632522583,-0.08560628443956375,-0.002123597078025341,-0.00047106831334531307,-0.0006028434727340937,-35.3624944,149.1651594,369145.0,1.0,-1.0,-152.0,0.0,0.0,-1000.0,1.5,3.0,2.5,RTL
12:33:26,1053.0,0.0007821741310181096,-0.00012588401295943186,-0.0855669416487217,-0.00011622073361650109,-0.0008971529314294457,-0.0006569541874341667,-35.3624944,149.16515944999998,370697.5,1.0,-1.0,-152.0,0.0,0.0,-1000.0,3.5,2.75,3.0,RTL
12:33:27,1053.0,0.0013218089588917792,0.00021084995387354866,-0.08576703816652298,0.0007034671725705266,2.747355028986931e-05,-0.0007327677449211478,-35.3624944,149.1651595,372251.0,1.0,-1.0,-152.0,0.0,0.0,-1000.0,4.0,3.5,3.0,RTL
12:33:29,1053.0,0.00129584880778566,0.0009582208294887096,-0.0858909823000431,0.00021880981512367725,-0.000166206038556993,0.001123466296121478,-35.3624944,149.16515944999998,375358.0,0.5,-1.0,-152.0,0.0,0.0,-999.5,3.5,3.5,5.0,RTL
12:33:30,129283.0,0.0009256810299120843,0.0006112501068855636,-0.0853194035589695,-0.0007890997221693397,-0.001329527993220836,0.0011946994345635176,-35.3624944,149.1651595,376910.75,0.0,-1.0,-152.0,0.0,0.0,-1000.25,2.75,2.25,5.0,RTL
12:33:31,129283.0,0.0009910904918797314,0.0004076077602803707,-0.08515309914946556,0.0012283865362405777,-0.0006581122288480401,-0.0009687718702480197,-35.3624944,149.1651595,378463.5,0.0,-1.0,-152.0,0.0,0.0,-1000.5,4.5,3.0,2.5,RTL
12:33:33,129283.0,0.0008666068897582591,-0.0001874228910310194,-0.08517912402749062,-0.002043273998424411,-0.0007148876320570707,0.0005662778858095407,-35.3624944,149.1651595,381572.5,1.0,-1.0,-152.0,0.0,0.0,-999.5,1.5,3.0,4.5,RTL
12:33:34,300000.0,0.0005342290023691021,-0.00023678386060055345,-0.0853192824870348,0.0003646178520284593,0.0006360560655593872,0.0006308830343186855,-35.3624944,149.1651595,383123.5,1.0,-1.0,-152.0,0.0,0.0,-999.75,4.0,4.0,4.0,RTL
12:33:35,300000.0,0.0008074657525867224,7.374037522822618e-05,-0.08529166504740715,0.001214542891830206,-0.0002877854276448488,0.0010829698294401169,-35.3624944,149.1651595,384679.0,1.0,-1.0,-152.0,0.0,0.0,-1000.0,4.5,3.5,5.0,RTL
12:33:37,300000.0,0.0014723623171448708,0.0010597846121527255,-0.08530271798372269,0.0003962430637329817,8.252146653831005e-05,-0.001040565432049334,-35.3624944,149.1651595,387785.0,0.5,-1.0,-152.0,0.0,0.0,-1000.5,4.0,3.0,3.0,RTL
12:33:38,54040.0,0.0013919702905695885,0.000662534759612754,-0.08559304289519787,-0.0007415979634970427,-0.0010033253347501159,-0.00021115178242325783,-35.3624944,149.1651595,389341.0,0.0,-1.0,-152.0,0.0,0.0,-1000.0,2.5,2.5,3.5,RTL
12:33:39,54040.0,0.0012497834395617247,0.000436540343798697,-0.08551990985870361,-2.4656765162944794e-05,0.0006844686577096581,-0.00038493680767714977,-35.3624944,149.1651595,390898.0,0.0,-1.0,-152.0,0.0,0.0,-999.5,3.5,4.5,3.0,RTL
12:33:41,54040.0,0.001055693079251796,0.000481644383398816,-0.08562147989869118,0.00044309860095381737,-0.00034757202956825495,-0.00045761174988001585,-35.3624944,149.1651595,393999.0,0.0,-1.0,-152.0,0.0,0.0,-1000.5,4.0,3.0,3.0,RTL
12:33:42,200.0,0.001098949258448556,-0.00036298477061791345,-0.08579620718955994,-0.0004016324528492987,-0.0005717197782360017,7.149716839194298e-05,-35.3624944,149.1651595,395552.25,0.5,-1.0,-152.0,0.0,0.0,-999.75,3.0,2.5,3.75,RTL
12:33:43,200.0,0.0005179629515623674,-0.0002514056046720725,-0.08555883914232254,-0.0030943030724301934,-0.0009981279727071524,-0.0004496052861213684,-35.3624944,149.1651595,397105.0,1.0,-1.0,-152.0,0.0,0.0,-999.5,1.0,2.5,3.0,RTL
12:33:45,200.0,0.0010492501314729452,-2.0679587890981566e-06,-0.08555641397833824,-0.001109153381548822,0.0006394492229446769,-0.0008478402160108089,-35.3624944,149.1651595,400219.5,1.0,-1.0,-152.0,0.0,0.0,-1000.0,2.0,4.0,2.5,RTL
12:33:46,300000.0,0.0013419886236079037,0.0009909079890348949,-0.08556215278804302,0.0012203947990201414,0.0011559372069314122,0.00020370836136862636,-35.3624944,149.1651595,401773.5,1.0,-1.0,-152.0,0.0,0.0,-1000.0,4.25,4.5,3.75,RTL
12:33:47,300000.0,0.001425186695996672,0.0007496285252273083,-0.0850737914443016,-0.0022733304649591446,-0.0026817000471055508,-0.00012049288488924503,-35.3624944,149.1651595,403328.0,0.0,-1.0,-152.0,0.0,0.0,-1000.0,1.0,1.0,3.5,RTL
12:33:49,300000.0,0.0009786736336536705,0.0003039220900973305,-0.08508449047803879,-0.002271132660098374,-0.0004472276195883751,-0.0012158108875155449,-35.3624944,149.1651595,406432.0,0.5,-1.0,-152.0,0.0,0.0,-999.5,1.0,2.5,2.0,RTL
12:33:50,1050.0,0.0012204466911498457,0.00025845480922725983,-0.08516711369156837,0.0007149104494601488,-0.0007126117125153542,0.00047796795843169093,-35.3624944,149.1651595,407985.0,0.5,-1.0,-152.0,0.0,0.0,-1000.0,3.75,2.5,4.0,RTL
12:33:51,1050.0,0.0008952241914812475,-0.0004061715881107375,-0.08522012829780579,-0.002847316558472812,-0.0008197459392249584,-0.0009126225486397743,-35.3624944,149.1651595,409539.0,1.0,-1.0,-152.0,0.0,0.0,-1000.0,0.0,2.5,2.5,RTL
12:33:53,1050.0,0.0008162444282788783,4.396075019030832e-05,-0.08529454842209816,0.0017105125589296222,-0.0013910590205341578,-0.0010899523040279746,-35.3624944,149.1651595,412646.5,1.0,-1.0,-152.0,0.0,0.0,-1001.0,5.0,2.0,2.5,RTL
12:33:54,201265.0,0.0009408349578734487,3.720745553437155e-05,-0.08555354177951813,0.0007815840071998537,0.00029791134875267744,0.000419195624999702,-35.3624944,149.1651595,414199.75,1.0,-1.0,-152.0,0.0,0.0,-999.75,3.75,3.75,4.0,RTL
12:33:55,201265.0,0.001284751866478473,0.000759122907766141,-0.0853801928460598,0.00023322226479649544,-0.00020663498435169458,2.7249683625996113e-05,-35.3624944,149.1651595,415753.5,1.0,-1.0,-152.0,0.0,0.0,-1000.0,3.0,3.5,3.0,RTL
12:33:57,201265.0,0.0013317397679202259,0.00045384091208688915,-0.08565131202340126,0.00039280077908188105,-0.0007761875167489052,-0.0013882277999073267,-35.3624944,149.1651595,418860.0,0.0,-1.0,-152.0,0.0,0.0,-1000.5,3.5,2.5,2.0,RTL
12:33:58,181610.0,0.0010198520321864635,0.00042095597746083513,-0.08563497103750706,-0.0012542998301796615,-0.00015596451703459024,-0.0003854291280731559,-35.3624944,149.1651595,420418.5,0.25,-1.0,-152.0,0.0,0.0,-1000.0,2.0,3.0,3.0,RTL
12:33:59,181610.0,0.0009683631069492549,5.3464449592866004e-05,-0.08563431352376938,-0.000764939934015274,-9.510800009593368e-05,-0.0004490978317335248,-35.3624944,149.1651595,421971.5,1.0,-1.0,-152.0,0.0,0.0,-999.5,2.0,3.0,3.0,RTL
12:34:01,181610.0,0.0008373411255888641,-8.246471406891942e-05,-0.08561038598418236,-0.0012798055540770292,-0.0009205881506204605,-0.0007374242413789034,-35.3624944,149.1651595,425076.5,1.0,-1.0,-152.0,0.0,0.0,-1000.0,2.0,2.5,2.5,RTL
12:34:02,300000.0,0.0003980838810093701,0.0002537459076847881,-0.0856048483401537,-0.0001839054748415947,-0.0003702582325786352,-0.0014522578567266464,-35.3624944,149.1651595,426625.5,1.0,-1.0,-152.0,0.0,0.0,-1000.5,2.75,3.0,2.0,RTL
12:34:03,300000.0,0.0005152655648998916,0.0002613014657981694,-0.08509238064289093,-0.0008626908529549837,-0.0016625492135062814,0.001152966171503067,-35.3624944,149.1651595,427596.0,1.0,-1.0,-152.0,0.0,0.0,-1000.0,2.0,1.0,4.0,RTL
12:34:05,300000.0,0.0015152361011132598,0.001043524593114853,-0.08516370505094528,-0.0011252386029809713,-0.0007537319324910641,-0.00043548038229346275,-35.3624944,149.1651595,430711.0,1.0,-1.0,-152.0,0.0,0.0,-1000.0,2.0,2.0,3.0,RTL
12:34:06,178169.0,0.0011880945414304734,0.018546456773765384,-0.08498850464820862,-0.0001527331303805113,0.036170546989887954,-0.0007884257473051548,-35.362494479999995,149.1651595,432650.8,-4.6,-0.4,-151.0,0.2,0.2,-998.8,2.8,39.2,2.4,RTL
12:34:07,178169.0,-0.00013228216266725212,0.051453620195388794,-0.0853506326675415,-0.00604763301089406,0.035834137350320816,-0.0010507919359952211,-35.3624952,149.1651595,433806.0,-25.0,1.0,-150.0,3.0,1.0,-998.0,-2.0,39.0,2.0,RTL
12:34:09,178169.0,-0.029616648331284523,0.1466207355260849,-0.04322914779186249,-0.14222614467144012,0.18203002214431763,0.28940585255622864,-35.3625107,149.1651614,436735.0,-160.0,12.0,-124.0,26.0,15.0,-943.0,-138.0,185.0,293.0,RTL
12:34:10,239558.0,0.051355252321081936,0.1432657554745674,0.3846175730228424,0.06617398485541344,-0.06686087120324373,0.15080718025565149,-35.3625383,149.16516115999997,437713.4,-306.0,-3.2,-36.6,66.4,12.4,-938.6,69.4,-63.0,153.8,RTL
12:34:11,239558.0,0.08563327044248581,0.13643299043178558,0.443775475025177,-0.11089371889829636,0.08376111090183258,0.011407379060983658,-35.3625606,149.1651619,437864.0,-360.0,33.0,6.0,85.0,-7.0,-946.0,-107.0,87.0,15.0,RTL
12:34:13,239558.0,0.03923770785331726,0.2497541755437851,0.38904231786727905,0.05272615700960159,0.028180815279483795,-0.03430411219596863,-35.3626443,149.1651766,437371.0,-582.0,74.0,13.0,123.0,12.0,-1010.0,56.0,31.0,-30.0,RTL
12:34:14,216165.0,0.0061975105752935635,0.22763749957084656,0.32279635071754453,-0.014552494091913105,-0.023673173785209656,-0.06561704948544503,-35.36271806,149.16518639999998,437305.2,-702.4,62.0,-4.6,168.4,8.0,-1002.4,-11.2,-20.0,-61.4,RTL
12:34:15,216165.0,-0.007485007401555777,0.20915232598781586,0.2674906849861145,-0.040124427527189255,-0.11323099583387375,-0.11366117745637894,-35.3627669,149.1651917,437333.0,-750.0,60.0,-6.0,174.0,42.0,-1015.0,-36.0,-109.0,-110.0,RTL
12:34:17,216165.0,-0.030245859175920486,0.1547708511352539,0.2508804500102997,0.012684937566518784,0.00507326889783144,0.0007672742940485477,-35.3629076,149.165204,437485.0,-793.0,48.0,-11.0,170.0,29.0,-973.0,16.0,8.0,4.0,RTL
12:34:18,173410.0,-0.04268305897712708,0.12706592828035354,0.2186361938714981,-0.007304278202354908,-0.05513415262103081,-0.030361996218562125,-35.36299527999999,149.16521115999998,437527.8,-761.8,57.6,-4.2,173.8,41.2,-991.4,-3.6,-51.6,-26.2,RTL
12:34:19,173410.0,-0.06255044788122177,0.0919155403971672,0.1978038251399994,-0.06585962325334549,-0.059004299342632294,-0.04187885671854019,-35.3630458,149.165216,437555.0,-721.0,58.0,-4.0,158.0,14.0,-980.0,-63.0,-55.0,-38.0,RTL
12:34:21,173410.0,-0.06830032914876938,-0.008280488662421703,0.16302438080310822,0.7719292044639587,-0.04544411599636078,0.0022048947867006063,-35.3631589,149.1652274,437516.0,-514.0,37.0,3.0,121.0,59.0,-1018.0,774.0,-41.0,5.0,RTL
12:34:22,110407.0,-0.06474490687251092,-0.024390712939202787,0.14392148554325104,0.0013340622186660766,-0.025053037144243718,-0.00981145240366459,-35.36320808000001,149.16523207999998,437456.4,-370.0,20.2,2.0,86.6,33.8,-1009.6,4.4,-21.4,-6.2,RTL
12:34:23,110407.0,-0.0563213936984539,-0.048731349408626556,0.13595230877399445,-0.5113652944564819,-0.04323197156190872,-0.05738389492034912,-35.3632312,149.1652342,437439.0,-287.0,11.0,1.0,70.0,-21.0,-979.0,-509.0,-40.0,-54.0,RTL
12:34:25,110407.0,-0.03136221971362829,-0.06386537477374077,0.11613471806049347,-0.4282049462199211,0.025198211893439293,-0.011383573873899877,-35.3632626,149.1652365,437430.5,-82.0,-3.0,0.0,20.0,-1.5,-1001.0,-424.0,28.0,-8.0,RTL
12:34:26,64595.0,-0.006135534291388467,-0.04063831549137831,0.10513992235064507,-0.24471408128738403,0.019581391010433435,-0.007212348631583154,-35.363268,149.165236575,437436.0,-10.75,-3.25,0.0,3.5,-11.75,-1000.75,-242.0,22.25,-3.5,RTL
12:34:27,64595.0,0.009781556436792016,-0.024264680221676826,0.10043927282094955,0.5082166790962219,0.023938506841659546,-0.007792732212692499,-35.36326855,149.1652363,437443.5,10.5,-1.0,0.0,-1.0,21.0,-999.0,511.0,26.5,-3.5,RTL
12:34:29,64595.0,0.002047875663265586,-0.011851840652525425,0.08816292881965637,-0.7107901573181152,0.003409469500184059,-0.009799119085073471,-35.3632672,149.1652359,437454.0,15.0,10.0,0.0,0.0,-35.0,-995.0,-708.0,6.0,-6.0,RTL
12:34:30,268086.0,0.006759559648344293,-0.006009454722516239,0.08173803798854351,-0.13858867064118385,0.007503392465878278,-0.007224452216178179,-35.36326615,149.1652363,437453.75,19.0,8.75,0.25,-1.75,-13.75,-1001.0,-135.25,9.75,-3.25,RTL
12:34:31,268086.0,0.008081732783466578,-0.0025678097154013813,0.0773267038166523,0.5464515089988708,0.0034303428838029504,-0.006209362996742129,-35.36326535,149.1652368,437455.0,18.0,8.0,0.0,-0.5,19.0,-999.5,549.5,5.5,-2.0,RTL
12:34:33,268086.0,-0.007743497146293521,-0.0010803960904013366,0.06770341843366623,-0.4439494386315346,-0.002650095149874687,-0.003874802147038281,-35.363263849999996,149.1652378,437450.0,10.5,0.0,0.5,-1.0,-10.5,-993.0,-440.0,0.0,-0.5,RTL
