time_stamp,MODE,lat,lon,relative_alt,roll,pitch,yaw,rollspeed,pitchspeed,yawspeed,xacc,yacc,zacc,xgyro,ygyro,zgyro,vx,vy,vz,RTL_ALT
12:28:40.270,STABILIZE,-35.3632621,149.1652375,66,-0.00017625861801207066,0.0015011312207207084,0.028618281707167625,0.0002232188417110592,0.0003600660420488566,0.0023027858696877956,0,1,-1000,0,0,1,-2,1,-1,1500.0
12:28:40.472,STABILIZE,-35.3632621,149.1652375,66,-0.00017625861801207066,0.0015011312207207084,0.028618281707167625,0.0002232188417110592,0.0003600660420488566,0.0023027858696877956,0,1,-1000,0,0,1,-2,1,-1,1500.0
12:28:40.673,STABILIZE,-35.3632621,149.1652375,66,-0.00017625861801207066,0.0015011312207207084,0.028618281707167625,0.0002232188417110592,0.0003600660420488566,0.0023027858696877956,0,1,-1000,0,0,0,-2,1,-1,1500.0
12:28:40.874,STABILIZE,-35.3632621,149.1652375,66,-0.00017625861801207066,0.0015011312207207084,0.028618281707167625,0.0002232188417110592,0.0003600660420488566,0.0023027858696877956,0,1,-1000,0,0,0,-2,1,-1,1500.0
12:28:41.077,STABILIZE,-35.3632621,149.1652375,66,-0.00017625861801207066,0.0015011312207207084,0.028618281707167625,0.0002232188417110592,0.0003600660420488566,0.0023027858696877956,0,1,-1000,0,0,0,-2,1,-1,1500.0
12:28:41.279,STABILIZE,-35.3632621,149.1652375,66,-0.00017625861801207066,0.0015011312207207084,0.028618281707167625,0.0002232188417110592,0.0003600660420488566,0.0023027858696877956,0,1,-1000,0,0,0,-2,1,-1,1500.0
12:28:41.480,STABILIZE,-35.3632621,149.1652375,66,-0.00017625861801207066,0.0015011312207207084,0.028618281707167625,0.0002232188417110592,0.0003600660420488566,0.0023027858696877956,0,1,-1000,0,0,0,-2,1,-1,1500.0
12:28:41.682,STABILIZE,-35.3632621,149.1652375,66,-0.00017625861801207066,0.0015011312207207084,0.028618281707167625,0.0002232188417110592,0.0003600660420488566,0.0023027858696877956,0,1,-1000,0,0,0,-2,1,-1,1500.0
12:28:41.883,STABILIZE,-35.3632621,149.1652375,66,-0.00017625861801207066,0.0015011312207207084,0.028618281707167625,0.0002232188417110592,0.0003600660420488566,0.0023027858696877956,0,1,-1000,0,0,0,-2,1,-1,1500.0
12:28:42.085,STABILIZE,-35.3632621,149.1652375,66,-0.0006152841378934681,0.0011534241493791342,0.027573782950639725,0.00023069523740559816,0.00024259166093543172,0.0021454805973917246,0,1,-1000,0,0,0,-2,1,-1,1500.0
12:28:42.286,STABILIZE,-35.3632622,149.1652375,59,-0.000665268104057759,0.0011105072917416692,0.02743684872984886,0.00023823254741728306,0.0002203085459768772,0.00208505941554904,0,1,-1000,0,0,0,-1,1,0,1500.0
12:28:42.487,STABILIZE,-35.3632622,149.1652375,58,-0.0007021070341579616,0.0010798603761941195,0.027328697964549065,0.0002499983529560268,0.0002809588622767478,0.0021214226726442575,0,1,-1000,0,0,0,-1,1,0,1500.0
12:28:42.689,STABILIZE,-35.3632622,149.1652375,58,-0.0007021070341579616,0.0010798603761941195,0.027328697964549065,0.0002499983529560268,0.0002809588622767478,0.0021214226726442575,0,1,-1000,0,0,0,-1,1,0,1500.0
12:28:42.890,STABILIZE,-35.3632622,149.1652375,58,-0.0007021070341579616,0.0010798603761941195,0.027328697964549065,0.0002499983529560268,0.0002809588622767478,0.0021214226726442575,0,1,-1000,0,0,0,-1,1,0,1500.0
12:28:43.092,STABILIZE,-35.3632622,149.1652375,58,-0.0007021070341579616,0.0010798603761941195,0.027328697964549065,0.0002499983529560268,0.0002809588622767478,0.0021214226726442575,0,1,-1000,0,0,0,-1,1,0,1500.0
12:28:43.294,STABILIZE,-35.3632622,149.1652375,58,-0.0007021070341579616,0.0010798603761941195,0.027328697964549065,0.0002499983529560268,0.0002809588622767478,0.0021214226726442575,0,1,-1000,0,0,0,-1,1,0,1500.0
12:28:43.495,STABILIZE,-35.3632622,149.1652375,58,-0.0007021070341579616,0.0010798603761941195,0.027328697964549065,0.0002499983529560268,0.0002809588622767478,0.0021214226726442575,0,1,-1000,0,0,0,-1,1,0,1500.0
12:28:43.697,STABILIZE,-35.3632621,149.1652374,59,-0.0008779758936725557,0.0009814357617869973,0.026706568896770477,7.554935291409492e-05,0.00026241023442707956,0.0021219465415924788,0,1,-1000,0,0,0,-1,0,-3,1500.0
12:28:43.898,STABILIZE,-35.3632621,149.1652374,59,-0.0008779758936725557,0.0009814357617869973,0.026706568896770477,7.554935291409492e-05,0.00026241023442707956,0.0021219465415924788,0,1,-1000,0,0,0,-1,0,-3,1500.0
12:28:44.100,STABILIZE,-35.3632621,149.1652374,63,-0.0008779758936725557,0.0009814357617869973,0.026706568896770477,7.554935291409492e-05,0.00026241023442707956,0.0021219465415924788,0,1,-1000,0,0,0,-1,0,-3,1500.0
12:28:44.301,STABILIZE,-35.3632621,149.1652374,66,-0.0008779758936725557,0.0009814357617869973,0.026706568896770477,7.554935291409492e-05,0.00026241023442707956,0.0021219465415924788,0,1,-1000,0,0,0,-1,0,-2,1500.0
12:28:44.503,STABILIZE,-35.3632621,149.1652374,66,-0.0008779758936725557,0.0009814357617869973,0.026706568896770477,7.554935291409492e-05,0.00026241023442707956,0.0021219465415924788,0,1,-1000,0,1,0,-1,0,-2,1500.0
12:28:44.704,STABILIZE,-35.3632621,149.1652374,68,-0.0006932083633728325,0.000957200420089066,0.02629975788295269,0.00030095543479546905,0.0001365204225294292,0.0020229944493621588,0,1,-1000,0,0,0,-1,0,-2,1500.0
12:28:44.909,STABILIZE,-35.3632621,149.1652374,68,-0.0006932083633728325,0.000957200420089066,0.02629975788295269,0.00030095543479546905,0.0001365204225294292,0.0020229944493621588,0,1,-1000,0,0,0,-1,0,-2,1500.0
12:28:45.113,STABILIZE,-35.3632621,149.1652374,69,-0.00065242761047557,0.0009540352621115744,0.026216454803943634,0.00019399140728637576,0.000357470300514251,0.0019065486267209053,0,1,-1000,0,0,0,-1,0,-2,1500.0
12:28:45.315,STABILIZE,-35.3632621,149.1652374,69,-0.00065242761047557,0.0009540352621115744,0.026216454803943634,0.00019399140728637576,0.000357470300514251,0.0019065486267209053,0,1,-1000,0,0,0,-1,0,-2,1500.0
12:28:45.517,STABILIZE,-35.3632621,149.1652374,69,-0.00065242761047557,0.0009540352621115744,0.026216454803943634,0.00019399140728637576,0.000357470300514251,0.0019065486267209053,0,1,-1000,0,0,0,-1,0,-2,1500.0
12:28:45.719,STABILIZE,-35.3632621,149.1652374,69,-0.00065242761047557,0.0009540352621115744,0.026216454803943634,0.00019399140728637576,0.000357470300514251,0.0019065486267209053,0,1,-1000,0,0,0,-1,0,-2,1500.0
12:28:45.920,STABILIZE,-35.3632621,149.1652374,69,-0.00065242761047557,0.0009540352621115744,0.026216454803943634,0.00019399140728637576,0.000357470300514251,0.0019065486267209053,0,1,-1000,0,0,0,-1,0,-2,1500.0
12:28:46.122,STABILIZE,-35.3632621,149.1652374,69,-0.00065242761047557,0.0009540352621115744,0.026216454803943634,0.00019399140728637576,0.000357470300514251,0.0019065486267209053,0,1,-1000,0,0,0,-1,0,-2,1500.0
12:28:46.324,STABILIZE,-35.3632621,149.1652374,68,-0.0005699602188542485,0.000929396424908191,0.025636635720729828,0.00024875090457499027,0.00026388937840238214,0.001839273376390338,0,1,-1000,0,1,0,-1,1,-1,1500.0
12:28:46.525,STABILIZE,-35.3632621,149.1652374,67,-0.0005586076877079904,0.0009311619796790183,0.02552548237144947,0.0004315898986533284,0.0002688195090740919,0.0019016196019947529,0,1,-1000,0,1,1,-1,1,-1,1500.0
12:28:46.727,STABILIZE,-35.3632621,149.1652374,66,-0.0005586076877079904,0.0009311619796790183,0.02552548237144947,0.0004315898986533284,0.0002688195090740919,0.0019016196019947529,0,1,-1000,0,0,0,-1,1,-1,1500.0
12:28:46.928,STABILIZE,-35.3632621,149.1652374,66,-0.0005586076877079904,0.0009311619796790183,0.02552548237144947,0.0004315898986533284,0.0002688195090740919,0.0019016196019947529,0,1,-1000,0,0,0,-1,1,-1,1500.0
12:28:47.130,STABILIZE,-35.3632621,149.1652374,66,-0.0005586076877079904,0.0009311619796790183,0.02552548237144947,0.0004315898986533284,0.0002688195090740919,0.0019016196019947529,0,1,-1000,0,0,0,-1,1,-1,1500.0
12:28:47.332,STABILIZE,-35.3632621,149.1652374,66,-0.0005586076877079904,0.0009311619796790183,0.02552548237144947,0.0004315898986533284,0.0002688195090740919,0.0019016196019947529,0,1,-1000,0,0,0,-1,1,-1,1500.0
12:28:47.534,STABILIZE,-35.3632621,149.1652374,66,-0.0005586076877079904,0.0009311619796790183,0.02552548237144947,0.0004315898986533284,0.0002688195090740919,0.0019016196019947529,0,1,-1000,0,0,0,-1,1,-1,1500.0
12:28:47.737,STABILIZE,-35.3632621,149.1652375,55,-0.0004512403975240886,0.0009401896968483925,0.024965327233076096,0.00035020930226892233,0.00023938569938763976,0.0017849982250481844,0,1,-1000,0,1,0,-1,2,0,1500.0
12:28:47.938,STABILIZE,-35.3632621,149.1652375,53,-0.0004512403975240886,0.0009401896968483925,0.024965327233076096,0.00035020930226892233,0.00023938569938763976,0.0017849982250481844,0,1,-1000,0,1,0,-1,2,0,1500.0
12:28:48.140,STABILIZE,-35.3632621,149.1652375,53,-0.0004512403975240886,0.0009401896968483925,0.024965327233076096,0.00035020930226892233,0.00023938569938763976,0.0017849982250481844,0,1,-1000,0,1,0,-1,2,0,1500.0
12:28:48.342,STABILIZE,-35.3632621,149.1652375,51,-0.0005697785527445376,0.000946549407672137,0.024747395887970924,0.0002465243451297283,0.00027148687513545156,0.0017842985689640045,0,1,-1000,0,0,0,-1,2,0,1500.0
12:28:48.544,STABILIZE,-35.3632621,149.1652375,49,-0.0006073913536965847,0.0009492355166003108,0.024648873135447502,0.0003112738486379385,0.0002777199260890484,0.0018407388124614954,0,1,-1000,0,0,0,-1,2,0,1500.0
12:28:48.746,STABILIZE,-35.3632622,149.1652375,47,-0.0006073913536965847,0.0009492355166003108,0.024648873135447502,0.0003112738486379385,0.0002777199260890484,0.0018407388124614954,0,1,-1000,0,0,0,-1,2,0,1500.0
12:28:48.949,STABILIZE,-35.3632622,149.1652375,47,-0.0006073913536965847,0.0009492355166003108,0.024648873135447502,0.0003112738486379385,0.0002777199260890484,0.0018407388124614954,0,1,-1000,0,0,0,-1,2,0,1500.0
12:28:49.154,STABILIZE,-35.3632622,149.1652375,47,-0.0006073913536965847,0.0009492355166003108,0.024648873135447502,0.0003112738486379385,0.0002777199260890484,0.0018407388124614954,0,1,-1000,0,0,0,-1,2,0,1500.0
12:28:49.356,STABILIZE,-35.3632622,149.1652375,47,-0.0006073913536965847,0.0009492355166003108,0.024648873135447502,0.0003112738486379385,0.0002777199260890484,0.0018407388124614954,0,1,-1000,0,0,0,-1,2,0,1500.0
12:28:49.576,STABILIZE,-35.3632622,149.1652375,47,-0.0006073913536965847,0.0009492355166003108,0.024648873135447502,0.0003112738486379385,0.0002777199260890484,0.0018407388124614954,0,1,-1000,0,0,0,-1,2,0,1500.0
12:28:49.778,STABILIZE,-35.3632622,149.1652375,42,-0.0008232726249843836,0.0009601383935660124,0.02415618486702442,0.00021676666801795363,0.00030104228062555194,0.001594848814420402,0,2,-1000,0,0,0,-1,1,0,1500.0
12:28:49.980,STABILIZE,-35.3632622,149.1652375,41,-0.0008612315868958831,0.0009603819344192743,0.02409185841679573,0.00017509580357000232,0.00023775920271873474,0.0018073220271617174,0,1,-1000,0,1,0,-1,1,0,1500.0
12:28:50.181,STABILIZE,-35.3632622,149.1652375,40,-0.0008612315868958831,0.0009603819344192743,0.02409185841679573,0.00017509580357000232,0.00023775920271873474,0.0018073220271617174,0,2,-1000,0,0,1,-1,1,0,1500.0
12:28:50.383,STABILIZE,-35.3632622,149.1652375,40,-0.0008612315868958831,0.0009603819344192743,0.02409185841679573,0.00017509580357000232,0.00023775920271873474,0.0018073220271617174,0,2,-1000,0,0,1,-1,1,0,1500.0
12:28:50.584,STABILIZE,-35.3632622,149.1652375,39,-0.0009357639355584979,0.000958066142629832,0.023899439722299576,0.00027439568657428026,0.00018684245878830552,0.0016869030660018325,0,2,-1000,0,0,1,-1,1,0,1500.0
12:28:50.786,STABILIZE,-35.3632622,149.1652375,39,-0.0008086005691438913,0.0009640153730288148,0.02382218837738037,0.00018216244643554091,0.00023626373149454594,0.0017235041595995426,0,2,-1000,0,0,1,-1,1,0,1500.0
12:28:50.988,STABILIZE,-35.3632622,149.1652375,51,-0.000773844716604799,0.000965230748988688,0.023754455149173737,0.00025817914865911007,0.00021384097635746002,0.001703327288851142,0,1,-1000,0,0,1,-1,0,-2,1500.0
12:28:51.190,STABILIZE,-35.3632622,149.1652375,51,-0.000773844716604799,0.000965230748988688,0.023754455149173737,0.00025817914865911007,0.00021384097635746002,0.001703327288851142,0,1,-1000,0,0,1,-1,0,-2,1500.0
12:28:51.392,STABILIZE,-35.3632622,149.1652375,51,-0.000773844716604799,0.000965230748988688,0.023754455149173737,0.00025817914865911007,0.00021384097635746002,0.001703327288851142,0,1,-1000,0,0,1,-1,0,-2,1500.0
12:28:51.594,STABILIZE,-35.3632622,149.1652375,51,-0.000773844716604799,0.000965230748988688,0.023754455149173737,0.00025817914865911007,0.00021384097635746002,0.001703327288851142,0,1,-1000,0,0,1,-1,0,-2,1500.0
12:28:51.796,STABILIZE,-35.3632622,149.1652375,57,-0.0005914248176850379,0.0009556362056173384,0.02353707142174244,0.0003055937704630196,0.0002641549217514694,0.0017202489543706179,0,2,-1000,1,0,1,-1,0,-2,1500.0
12:28:51.997,STABILIZE,-35.3632622,149.1652375,57,-0.0005914248176850379,0.0009556362056173384,0.02353707142174244,0.0003055937704630196,0.0002641549217514694,0.0017202489543706179,0,2,-1000,1,0,1,-1,0,-2,1500.0
12:28:52.199,STABILIZE,-35.3632622,149.1652375,57,-0.0005914248176850379,0.0009556362056173384,0.02353707142174244,0.0003055937704630196,0.0002641549217514694,0.0017202489543706179,0,2,-1000,1,0,1,-1,0,-2,1500.0
12:28:52.401,STABILIZE,-35.3632622,149.1652375,57,-0.0005914248176850379,0.0009556362056173384,0.02353707142174244,0.0003055937704630196,0.0002641549217514694,0.0017202489543706179,0,2,-1000,1,0,1,-1,0,-2,1500.0
12:28:52.603,STABILIZE,-35.3632622,149.1652375,57,-0.0005914248176850379,0.0009556362056173384,0.02353707142174244,0.0003055937704630196,0.0002641549217514694,0.0017202489543706179,0,2,-1000,1,0,1,-1,0,-2,1500.0
12:28:52.804,STABILIZE,-35.3632622,149.1652375,59,-0.0005914248176850379,0.0009556362056173384,0.02353707142174244,0.0003055937704630196,0.0002641549217514694,0.0017202489543706179,0,2,-1000,1,0,1,-1,1,-1,1500.0
12:28:53.006,STABILIZE,-35.3632622,149.1652375,59,-0.0004592943878378719,0.0009684478281997144,0.023104973137378693,0.00028297893004491925,0.0002679745084606111,0.0016546585829928517,0,1,-1000,0,1,0,-1,1,-1,1500.0
12:28:53.208,AUTO,-35.3632622,149.1652375,59,-0.0004592943878378719,0.0009684478281997144,0.023104973137378693,0.00028297893004491925,0.0002679745084606111,0.0016546585829928517,0,1,-1000,0,1,0,-1,1,-1,1500.0
12:28:53.410,AUTO,-35.3632622,149.1652375,59,-0.0004592943878378719,0.0009684478281997144,0.023104973137378693,0.00028297893004491925,0.0002679745084606111,0.0016546585829928517,0,1,-1000,0,1,0,-1,1,-1,1500.0
12:28:53.611,AUTO,-35.3632622,149.1652375,59,-0.0004592943878378719,0.0009684478281997144,0.023104973137378693,0.00028297893004491925,0.0002679745084606111,0.0016546585829928517,0,1,-1000,0,1,0,-1,1,-1,1500.0
12:28:53.814,AUTO,-35.3632622,149.1652375,8,-0.0004588461888488382,0.0009779707761481404,0.022857042029500008,0.0002838430809788406,0.00020076794316992164,0.0016793599352240562,0,2,-1000,0,1,0,-1,1,0,1500.0
12:28:54.015,AUTO,-35.3632622,149.1652375,8,-0.0004619934188667685,0.0009838624391704798,0.02277757227420807,0.00028771767392754555,0.00028194428887218237,0.0016054061707109213,0,1,-1000,0,0,0,-1,1,0,1500.0
12:28:54.218,AUTO,-35.3632621,149.1652375,2,-0.00015227038238663226,0.001006474019959569,0.022700496017932892,0.00039423536509275436,0.00021425413433462381,0.001545837614685297,0,2,-1000,0,1,0,0,3,2,1500.0
12:28:54.421,AUTO,-35.3632621,149.1652375,0,-0.00015898776473477483,0.00103910977486521,0.022590823471546173,0.00029312603874132037,0.0002743966178968549,0.0014869519509375095,0,1,-1000,0,0,0,0,2,2,200.0
12:28:54.623,AUTO,-35.3632621,149.1652375,0,-0.00015898776473477483,0.00103910977486521,0.022590823471546173,0.00029312603874132037,0.0002743966178968549,0.0014869519509375095,0,1,-1000,0,0,0,0,2,2,200.0
12:28:54.824,AUTO,-35.3632621,149.1652375,0,-0.0001395445578964427,0.0010835870634764433,0.022501042112708092,0.0003198900958523154,0.0002655622665770352,0.0014051413163542747,0,2,-1000,1,0,0,0,1,2,200.0
12:28:55.025,AUTO,-35.3632621,149.1652375,0,-0.0001078970599337481,0.0011418694630265236,0.022418402135372162,0.0002553327358327806,0.0003052664687857032,0.0014013901818543673,0,1,-1000,0,0,0,0,0,2,200.0
12:28:55.227,AUTO,-35.3632621,149.1652375,0,-0.0001078970599337481,0.0011418694630265236,0.022418402135372162,0.0002553327358327806,0.0003052664687857032,0.0014013901818543673,0,1,-1000,0,0,0,0,0,2,200.0
12:28:55.429,AUTO,-35.3632621,149.1652375,0,-0.0001078970599337481,0.0011418694630265236,0.022418402135372162,0.0002553327358327806,0.0003052664687857032,0.0014013901818543673,0,1,-1000,0,0,0,0,0,2,200.0
12:28:55.630,AUTO,-35.3632621,149.1652375,0,-0.0001078970599337481,0.0011418694630265236,0.022418402135372162,0.0002553327358327806,0.0003052664687857032,0.0014013901818543673,0,1,-1000,0,0,0,0,0,2,200.0
12:28:55.831,AUTO,-35.3632621,149.1652375,0,6.684043182758614e-05,0.0013498276239261031,0.022152366116642952,0.00044187705498188734,0.000295955513138324,0.0014906348660588264,0,1,-1000,0,0,0,0,0,2,200.0
12:28:56.033,AUTO,-35.3632621,149.1652374,0,0.00012460513971745968,0.0014196762349456549,0.022057022899389267,0.0003033042885363102,0.00037556118331849575,0.0015543694607913494,0,1,-1000,1,0,0,0,0,1,200.0
12:28:56.235,AUTO,-35.3632621,149.1652374,0,0.00019070343114435673,0.0014919742243364453,0.021955428645014763,0.0004041579086333513,0.0002902481355704367,0.001410899916663766,0,1,-1000,0,1,1,0,0,1,200.0
12:28:56.438,AUTO,-35.3632621,149.1652374,0,0.0002530414203647524,0.0015665108803659678,0.021853819489479065,0.0002822905080392957,0.00030718016205355525,0.0015060331206768751,0,1,-1000,1,1,1,0,0,1,200.0
12:28:56.639,AUTO,-35.3632621,149.1652374,0,0.0002530414203647524,0.0015665108803659678,0.021853819489479065,0.0002822905080392957,0.00030718016205355525,0.0015060331206768751,0,1,-1000,1,1,1,0,0,1,200.0
12:28:56.840,AUTO,-35.3632621,149.1652374,0,0.0003255065530538559,0.0016436040168628097,0.021748105064034462,0.000337828416377306,0.00029348768293857574,0.0014514948707073927,0,2,-1000,1,0,0,0,0,1,200.0
12:28:57.043,AUTO,-35.3632621,149.1652374,0,0.0003963999915868044,0.0017127813771367073,0.021642569452524185,0.0003072923864237964,0.00029363256180658937,0.001493791933171451,0,1,-1000,0,1,1,0,0,1,200.0
12:28:57.244,AUTO,-35.3632621,149.1652374,0,0.0003963999915868044,0.0017127813771367073,0.021642569452524185,0.0003072923864237964,0.00029363256180658937,0.001493791933171451,0,1,-1000,0,1,1,0,0,1,200.0
12:28:57.446,AUTO,-35.3632621,149.1652374,0,0.0003963999915868044,0.0017127813771367073,0.021642569452524185,0.0003072923864237964,0.00029363256180658937,0.001493791933171451,0,1,-1000,0,1,1,0,0,1,200.0
12:28:57.648,AUTO,-35.3632621,149.1652374,0,0.0003963999915868044,0.0017127813771367073,0.021642569452524185,0.0003072923864237964,0.00029363256180658937,0.001493791933171451,0,1,-1000,0,1,1,0,0,1,200.0
12:28:57.849,AUTO,-35.3632621,149.1652374,168,0.0042762733064591885,5.317890827427618e-05,0.021726131439208984,0.005906805861741304,0.005774784367531538,0.0022625497076660395,0,0,-1130,6,6,1,0,0,-67,200.0
12:28:58.050,AUTO,-35.3632621,149.1652375,379,0.0028027028311043978,0.0011593103408813477,0.021640582010149956,-0.009312983602285385,0.004231648053973913,0.0033112489618360996,0,0,-1109,-8,4,2,0,0,-96,200.0
12:28:58.252,AUTO,-35.3632621,149.1652375,654,0.002021667780354619,0.0017141291173174977,0.021680820733308792,-0.0031435114797204733,-0.0001783532788977027,0.00220668176189065,0,0,-1090,-2,0,1,0,0,-120,203913.0
12:28:58.454,AUTO,-35.3632621,149.1652375,984,0.009844114072620869,0.0011068867752328515,0.021239634603261948,0.047229018062353134,-0.005660685710608959,0.0011512566125020385,0,0,-1045,48,-5,0,0,1,-136,203913.0
12:28:58.656,AUTO,-35.3632621,149.1652375,984,0.009844114072620869,0.0011068867752328515,0.021239634603261948,0.047229018062353134,-0.005660685710608959,0.0011512566125020385,0,0,-1045,48,-5,0,0,1,-136,203913.0
12:28:58.858,AUTO,-35.363262,149.1652375,1347,0.021705245599150658,-0.0005870435852557421,0.021153630688786507,0.046902500092983246,-0.00729363365098834,0.002105392748489976,0,0,-1019,47,-6,1,0,4,-143,203913.0
12:28:59.061,AUTO,-35.363262,149.1652377,1724,0.03314907103776932,-0.0025148920249193907,0.021229669451713562,0.04490777477622032,-0.008061233907938004,0.002721405355259776,0,-1,-1008,45,-7,2,1,10,-146,203913.0
12:28:59.262,AUTO,-35.363262,149.1652377,1724,0.03314907103776932,-0.0025148920249193907,0.021229669451713562,0.04490777477622032,-0.008061233907938004,0.002721405355259776,0,-1,-1008,45,-7,2,1,10,-146,203913.0
12:28:59.479,AUTO,-35.363262,149.1652377,1724,0.03314907103776932,-0.0025148920249193907,0.021229669451713562,0.04490777477622032,-0.008061233907938004,0.002721405355259776,0,-1,-1008,45,-7,2,1,10,-146,203913.0
12:28:59.685,AUTO,-35.3632616,149.1652396,2874,0.0626000240445137,-0.0095248743891716,-0.00847556535154581,0.008214402012526989,0.0059406571090221405,-0.02099812589585781,0,-9,-995,8,6,-21,8,41,-147,203913.0
12:28:59.886,AUTO,-35.3632616,149.1652396,2874,0.0626000240445137,-0.0095248743891716,-0.00847556535154581,0.008214402012526989,0.0059406571090221405,-0.02099812589585781,0,-9,-995,8,6,-21,8,41,-147,203913.0
12:29:00.088,AUTO,-35.3632614,149.1652409,3254,0.04623128101229668,0.009646166115999222,-0.028978917747735977,-0.12603138387203217,0.10750706493854523,-0.10514140129089355,2,-9,-990,-125,108,-105,9,52,-144,203913.0
12:29:00.290,AUTO,-35.3632612,149.1652423,3629,0.003164987312629819,0.023406626656651497,-0.04925551265478134,-0.1811889410018921,0.004680711776018143,-0.07320722937583923,5,-16,-997,-180,5,-73,7,54,-143,203913.0
12:29:00.491,AUTO,-35.363261,149.1652437,4006,-0.023855838924646378,0.02061064913868904,-0.06378432363271713,-0.06075289472937584,-0.015491674654185772,-0.05875067412853241,5,-12,-1011,-60,-14,-59,3,47,-146,203913.0
12:29:00.693,AUTO,-35.3632609,149.1652449,4388,-0.03301252797245979,0.015649719163775444,-0.07510610669851303,-0.021551532670855522,-0.016032034531235695,-0.047341540455818176,4,-7,-1007,-21,-15,-47,0,37,-148,203913.0
12:29:00.897,AUTO,-35.3632609,149.1652449,4388,-0.03301252797245979,0.015649719163775444,-0.07510610669851303,-0.021551532670855522,-0.016032034531235695,-0.047341540455818176,4,-7,-1007,-21,-15,-47,0,37,-148,203913.0
12:29:01.099,AUTO,-35.3632609,149.1652457,4773,-0.04075444117188454,0.010508979670703411,-0.08383060991764069,-0.04577996954321861,-0.022302936762571335,-0.028444672003388405,3,-7,-1001,-45,-21,-28,-1,25,-148,203913.0
12:29:01.301,AUTO,-35.3632609,149.1652457,4773,-0.04075444117188454,0.010508979670703411,-0.08383060991764069,-0.04577996954321861,-0.022302936762571335,-0.028444672003388405,3,-7,-1001,-45,-21,-28,-1,25,-148,203913.0
12:29:01.504,AUTO,-35.3632609,149.1652457,4773,-0.04075444117188454,0.010508979670703411,-0.08383060991764069,-0.04577996954321861,-0.022302936762571335,-0.028444672003388405,3,-7,-1001,-45,-21,-28,-1,25,-148,203913.0
12:29:01.706,AUTO,-35.363261,149.165246,5923,-0.07130082696676254,-0.007338315714150667,-0.09221243113279343,0.04466626048088074,-0.0026934186462312937,-0.009204715490341187,-1,3,-1003,45,-1,-9,-2,-24,-148,203913.0
12:29:01.908,AUTO,-35.363261,149.165246,5923,-0.07130082696676254,-0.007338315714150667,-0.09221243113279343,0.04466626048088074,-0.0026934186462312937,-0.009204715490341187,-1,3,-1003,45,-1,-9,-2,-24,-148,203913.0
12:29:02.110,AUTO,-35.363261,149.1652452,6306,-0.058279793709516525,-0.007808965165168047,-0.09431353211402893,0.05533333495259285,0.0004896915052086115,-0.004951827693730593,-4,7,-1001,55,1,-5,-2,-39,-148,203913.0
12:29:02.311,AUTO,-35.3632611,149.165244,6690,-0.04368233680725098,-0.006980763282626867,-0.09570694714784622,0.060285452753305435,0.006106310524046421,-0.0022744527086615562,-5,10,-1001,60,6,-2,-2,-50,-148,119131.0
12:29:02.514,AUTO,-35.3632611,149.1652425,7081,-0.027799975126981735,-0.004759133793413639,-0.09662631154060364,0.06428124755620956,0.010512193664908409,-0.00013725008466280997,-5,7,-1002,64,11,0,-3,-57,-148,119131.0
12:29:02.716,AUTO,-35.3632612,149.1652408,7466,-0.0115461191162467,-0.0016810994129627943,-0.09684396535158157,0.06453744322061539,0.013020542450249195,0.001341787981800735,-8,14,-1003,64,13,1,-3,-60,-149,119131.0
12:29:02.920,AUTO,-35.3632613,149.1652391,7853,0.004952083341777325,0.0017670114757493138,-0.09651462733745575,0.0675034448504448,0.01402102317661047,0.0025820224545896053,-6,9,-1003,68,14,2,-5,-59,-150,119131.0
12:29:03.123,AUTO,-35.3632613,149.1652391,7853,0.004952083341777325,0.0017670114757493138,-0.09651462733745575,0.0675034448504448,0.01402102317661047,0.0025820224545896053,-6,9,-1003,68,14,2,-5,-59,-150,119131.0
12:29:03.325,AUTO,-35.3632613,149.1652391,7853,0.004952083341777325,0.0017670114757493138,-0.09651462733745575,0.0675034448504448,0.01402102317661047,0.0025820224545896053,-6,9,-1003,68,14,2,-5,-59,-150,119131.0
12:29:03.527,AUTO,-35.3632613,149.1652391,7853,0.004952083341777325,0.0017670114757493138,-0.09651462733745575,0.0675034448504448,0.01402102317661047,0.0025820224545896053,-6,9,-1003,68,14,2,-5,-59,-150,119131.0
12:29:03.728,AUTO,-35.3632618,149.165235,9019,0.05321042239665985,0.009758303873240948,-0.09359079599380493,0.06170811131596565,0.005359812173992395,0.004292396828532219,-4,9,-1002,62,6,4,-10,-31,-152,119131.0
12:29:03.934,AUTO,-35.3632621,149.1652343,9413,0.06821133196353912,0.01029218826442957,-0.09232642501592636,0.05862663686275482,3.32448398694396e-05,0.0044124675914645195,-3,8,-1001,59,0,3,-11,-15,-152,119131.0
12:29:04.137,AUTO,-35.3632621,149.1652343,9413,0.06821133196353912,0.01029218826442957,-0.09232642501592636,0.05862663686275482,3.32448398694396e-05,0.0044124675914645195,-3,8,-1001,59,0,3,-11,-15,-152,119131.0
12:29:04.340,AUTO,-35.3632623,149.165234,9803,0.0719311311841011,0.0011650588130578399,-0.08358612656593323,-0.03499903902411461,-0.0672038346529007,0.05482954904437065,0,3,-992,-34,-66,54,-11,2,-151,119131.0
12:29:04.543,AUTO,-35.3632625,149.1652342,10189,0.05144469439983368,-0.011136963032186031,-0.07482513040304184,-0.10351074486970901,-0.023113662376999855,0.023454299196600914,2,0,-993,-103,-22,23,-7,16,-149,119131.0
12:29:04.745,AUTO,-35.3632627,149.1652347,10572,0.02576855570077896,-0.012178138829767704,-0.07348256558179855,-0.09355823695659637,0.007471744436770678,-0.0050547486171126366,3,-3,-999,-92,8,-5,-2,23,-148,119131.0
12:29:04.948,AUTO,-35.3632627,149.1652352,10954,0.0050547197461128235,-0.009436712600290775,-0.07784665375947952,-0.07162600755691528,0.011882506310939789,-0.02285226248204708,3,-5,-1002,-71,12,-23,1,24,-148,119131.0
12:29:05.150,AUTO,-35.3632627,149.1652352,10954,0.0050547197461128235,-0.009436712600290775,-0.07784665375947952,-0.07162600755691528,0.011882506310939789,-0.02285226248204708,3,-5,-1002,-71,12,-23,1,24,-148,119131.0
12:29:05.352,AUTO,-35.3632627,149.1652352,10954,0.0050547197461128235,-0.009436712600290775,-0.07784665375947952,-0.07162600755691528,0.011882506310939789,-0.02285226248204708,3,-5,-1002,-71,12,-23,1,24,-148,119131.0
12:29:05.555,AUTO,-35.3632627,149.1652352,10954,0.0050547197461128235,-0.009436712600290775,-0.07784665375947952,-0.07162600755691528,0.011882506310939789,-0.02285226248204708,3,-5,-1002,-71,12,-23,1,24,-148,119131.0
12:29:05.758,AUTO,-35.3632624,149.1652366,12117,-0.01862413063645363,-0.0027811131440103054,-0.10302790254354477,-0.0018313333857804537,0.007864214479923248,-0.03397686406970024,0,-3,-1002,-1,8,-34,6,9,-151,119131.0
12:29:05.959,AUTO,-35.3632623,149.1652367,12505,-0.0168895460665226,-0.0010586425196379423,-0.11208271235227585,0.011140858754515648,0.0070362514816224575,-0.03394331783056259,-1,-2,-1001,11,7,-34,7,3,-151,119131.0
12:29:06.162,AUTO,-35.3632623,149.1652367,12505,-0.0168895460665226,-0.0010586425196379423,-0.11208271235227585,0.011140858754515648,0.0070362514816224575,-0.03394331783056259,-1,-2,-1001,11,7,-34,7,3,-151,119131.0
12:29:06.365,AUTO,-35.3632621,149.1652367,12895,-0.013065134175121784,0.0008590110228396952,-0.12073391675949097,0.017669647932052612,0.0086077144369483,-0.030410317704081535,-1,-1,-1001,18,9,-30,6,-1,-151,116372.0
12:29:06.568,AUTO,-35.363262,149.1652366,13285,-0.0076758950017392635,0.0027080331929028034,-0.1283586472272873,0.02280624397099018,0.00713284220546484,-0.026073291897773743,-2,0,-1000,23,7,-26,6,-5,-152,116372.0
12:29:06.769,AUTO,-35.3632618,149.1652365,13674,-0.002228484023362398,0.004323480185121298,-0.13492342829704285,0.022645553573966026,0.007269609719514847,-0.023908929899334908,-2,0,-1000,23,8,-24,4,-6,-152,116372.0
12:29:06.971,AUTO,-35.3632617,149.1652362,14064,0.0024097647983580828,0.006037536077201366,-0.14080318808555603,0.01789064332842827,0.008019011467695236,-0.021608151495456696,-2,1,-1000,18,8,-22,3,-7,-152,116372.0
12:29:07.175,AUTO,-35.3632617,149.1652362,14064,0.0024097647983580828,0.006037536077201366,-0.14080318808555603,0.01789064332842827,0.008019011467695236,-0.021608151495456696,-2,1,-1000,18,8,-22,3,-7,-152,116372.0
12:29:07.381,AUTO,-35.3632617,149.1652362,14064,0.0024097647983580828,0.006037536077201366,-0.14080318808555603,0.01789064332842827,0.008019011467695236,-0.021608151495456696,-2,1,-1000,18,8,-22,3,-7,-152,116372.0
12:29:07.582,AUTO,-35.3632617,149.1652362,14064,0.0024097647983580828,0.006037536077201366,-0.14080318808555603,0.01789064332842827,0.008019011467695236,-0.021608151495456696,-2,1,-1000,18,8,-22,3,-7,-152,116372.0
12:29:07.784,AUTO,-35.3632615,149.1652356,15235,0.0104677127674222,0.007847392000257969,-0.15281081199645996,0.004979868419468403,3.416073741391301e-05,-0.011220334097743034,-1,1,-999,5,1,-11,0,-3,-152,116372.0
12:29:07.986,AUTO,-35.3632615,149.1652355,15625,0.011240219697356224,0.007539541460573673,-0.1555306315422058,0.003777527017518878,-0.0010271378559991717,-0.010207906365394592,0,0,-1000,4,0,-10,-1,-1,-152,116372.0
12:29:08.188,AUTO,-35.3632615,149.1652354,16015,0.01121358759701252,0.007253347896039486,-0.15820609033107758,-0.00048242235789075494,-0.001496417447924614,-0.010453649796545506,0,0,-1000,0,0,-10,-2,0,-152,116372.0
12:29:08.390,AUTO,-35.3632615,149.1652354,16015,0.01121358759701252,0.007253347896039486,-0.15820609033107758,-0.00048242235789075494,-0.001496417447924614,-0.010453649796545506,0,0,-1000,0,0,-10,-2,0,-152,116372.0
12:29:08.591,AUTO,-35.3632615,149.1652354,16407,0.010701660998165607,0.00643227668479085,-0.1605902761220932,-0.00026970391627401114,-0.0031007451470941305,-0.009169028140604496,0,0,-1000,0,-2,-9,-3,2,-152,116372.0
12:29:08.793,AUTO,-35.3632615,149.1652354,16797,0.009733706712722778,0.005599843803793192,-0.1631872057914734,-0.005166752263903618,-0.0018516378477215767,-0.011285237036645412,0,0,-1000,-4,-1,-11,-3,4,-152,116372.0
12:29:08.995,AUTO,-35.3632615,149.1652354,17187,0.008499538525938988,0.005067209713160992,-0.16619189083576202,-0.0023577844258397818,-0.0013693345244973898,-0.012090025469660759,0,0,-1000,-1,0,-12,-3,5,-152,116372.0
12:29:09.198,AUTO,-35.3632615,149.1652354,17187,0.008499538525938988,0.005067209713160992,-0.16619189083576202,-0.0023577844258397818,-0.0013693345244973898,-0.012090025469660759,0,0,-1000,-1,0,-12,-3,5,-152,116372.0
12:29:09.399,AUTO,-35.3632615,149.1652354,17187,0.008499538525938988,0.005067209713160992,-0.16619189083576202,-0.0023577844258397818,-0.0013693345244973898,-0.012090025469660759,0,0,-1000,-1,0,-12,-3,5,-152,116372.0
12:29:09.601,AUTO,-35.3632615,149.1652354,17187,0.008499538525938988,0.005067209713160992,-0.16619189083576202,-0.0023577844258397818,-0.0013693345244973898,-0.012090025469660759,0,0,-1000,-1,0,-12,-3,5,-152,116372.0
12:29:09.803,AUTO,-35.3632616,149.1652357,18350,0.004575781524181366,0.0037097011227160692,-0.17761622369289398,-0.0023729288950562477,-0.0005710662808269262,-0.017754537984728813,1,0,-1000,-1,0,-18,-3,6,-152,116372.0
12:29:10.005,AUTO,-35.3632616,149.1652358,18739,0.003609787905588746,0.003542918711900711,-0.18226316571235657,-0.002467343583703041,0.0014359001070261002,-0.021535497158765793,0,0,-1000,-1,2,-21,-3,6,-152,116372.0
12:29:10.206,AUTO,-35.3632617,149.1652359,19128,0.0033574295230209827,0.0035183734726160765,-0.18703000247478485,-0.00018418394029140472,-0.001530119450762868,-0.01848476752638817,0,0,-1000,0,0,-18,-3,6,-152,116372.0
12:29:10.408,AUTO,-35.3632617,149.1652359,19128,0.0033574295230209827,0.0035183734726160765,-0.18703000247478485,-0.00018418394029140472,-0.001530119450762868,-0.01848476752638817,0,0,-1000,0,0,-18,-3,6,-152,200.0
12:29:10.610,AUTO,-35.3632617,149.165236,19517,0.0023883201647549868,0.003267416264861822,-0.19197356700897217,-0.018437787890434265,-0.0014634369872510433,-0.020476827397942543,0,0,-997,-17,0,-20,-3,5,-152,200.0
12:29:10.812,AUTO,-35.3632617,149.165236,19906,-0.012408257462084293,0.003026925027370453,-0.19709159433841705,-0.08354809880256653,-0.0009626175742596388,-0.021576635539531708,0,0,-996,-82,0,-22,-3,3,-151,200.0
12:29:11.014,AUTO,-35.3632618,149.165236,20290,-0.03664345666766167,0.0035363659262657166,-0.20139403641223907,-0.08729235827922821,0.018244480714201927,0.014996672049164772,0,0,-992,-86,18,14,-4,-3,-150,200.0
12:29:11.216,AUTO,-35.3632618,149.165236,20290,-0.03664345666766167,0.0035363659262657166,-0.20139403641223907,-0.08729235827922821,0.018244480714201927,0.014996672049164772,0,0,-992,-86,18,14,-4,-3,-150,200.0
12:29:11.419,AUTO,-35.3632618,149.165236,20290,-0.03664345666766167,0.0035363659262657166,-0.20139403641223907,-0.08729235827922821,0.018244480714201927,0.014996672049164772,0,0,-992,-86,18,14,-4,-3,-150,200.0
12:29:11.621,AUTO,-35.3632618,149.165236,20290,-0.03664345666766167,0.0035363659262657166,-0.20139403641223907,-0.08729235827922821,0.018244480714201927,0.014996672049164772,0,0,-992,-86,18,14,-4,-3,-150,200.0
12:29:11.823,AUTO,-35.3632626,149.1652344,21382,-0.032249074429273605,0.04414781928062439,0.03286474570631981,0.10408174246549606,-0.1417359560728073,0.3045368790626526,1,9,-955,104,-141,304,-30,-33,-130,200.0
12:29:12.025,AUTO,-35.3632633,149.1652334,21703,0.0005190799129195511,0.0017228088108822703,0.08035212010145187,0.12754186987876892,-0.1625927984714508,0.09321409463882446,2,12,-955,128,-161,92,-34,-35,-119,200.0
12:29:12.226,AUTO,-35.3632639,149.1652325,21996,0.0294540636241436,-0.02912096492946148,0.08726771920919418,0.09922812134027481,-0.08699803799390793,-0.01820649579167366,2,10,-958,100,-86,-18,-29,-29,-109,200.0
12:29:12.428,AUTO,-35.3632645,149.1652318,22262,0.049346670508384705,-0.04169198498129845,0.07759478688240051,0.05959313362836838,-0.02776123210787773,-0.04917537793517113,1,8,-961,60,-27,-49,-20,-17,-98,200.0
12:29:12.630,AUTO,-35.3632645,149.1652318,22262,0.049346670508384705,-0.04169198498129845,0.07759478688240051,0.05959313362836838,-0.02776123210787773,-0.04917537793517113,1,8,-961,60,-27,-49,-20,-17,-98,200.0
12:29:12.832,AUTO,-35.3632648,149.1652314,22502,0.05815201625227928,-0.04334115609526634,0.06621585041284561,0.017400655895471573,0.005848940461874008,-0.04028923436999321,1,3,-965,17,6,-40,-10,-3,-89,200.0
12:29:13.035,AUTO,-35.3632649,149.1652313,22721,0.05783328413963318,-0.038862209767103195,0.05890272557735443,-0.01297871395945549,0.02208976447582245,-0.022410307079553604,0,0,-968,-11,22,-22,-1,9,-80,200.0
12:29:13.238,AUTO,-35.3632649,149.1652313,22721,0.05783328413963318,-0.038862209767103195,0.05890272557735443,-0.01297871395945549,0.02208976447582245,-0.022410307079553604,0,0,-968,-11,22,-22,-1,9,-80,200.0
12:29:13.440,AUTO,-35.3632649,149.1652313,22721,0.05783328413963318,-0.038862209767103195,0.05890272557735443,-0.01297871395945549,0.02208976447582245,-0.022410307079553604,0,0,-968,-11,22,-22,-1,9,-80,200.0
12:29:13.642,AUTO,-35.3632649,149.1652313,22721,0.05783328413963318,-0.038862209767103195,0.05890272557735443,-0.01297871395945549,0.02208976447582245,-0.022410307079553604,0,0,-968,-11,22,-22,-1,9,-80,200.0
12:29:13.844,AUTO,-35.3632644,149.1652331,23253,0.029541950672864914,-0.012430964969098568,0.05387706682085991,-0.04343801736831665,0.037100568413734436,0.0016059117624536157,0,-8,-975,-42,37,1,17,36,-60,200.0
12:29:14.046,AUTO,-35.3632639,149.1652341,23399,0.019360754638910294,-0.0041718934662640095,0.05341038107872009,-0.037556372582912445,0.030914798378944397,0.002066593850031495,0,-9,-977,-36,31,1,19,38,-54,200.0
12:29:14.248,AUTO,-35.3632635,149.165235,23528,0.010509921237826347,0.003094324143603444,0.05262818560004234,-0.03162166476249695,0.02613629214465618,0.0027230579871684313,0,-10,-977,-30,26,2,20,38,-48,200.0
12:29:14.449,AUTO,-35.363263,149.165236,23644,0.0028309437911957502,0.008612574078142643,0.051696185022592545,-0.03717150539159775,0.01737743802368641,-0.0009482115274295211,0,-10,-978,-36,18,0,19,36,-42,300000.0
12:29:14.651,AUTO,-35.363263,149.165236,23644,0.0028309437911957502,0.008612574078142643,0.051696185022592545,-0.03717150539159775,0.01737743802368641,-0.0009482115274295211,0,-10,-978,-36,18,0,19,36,-42,300000.0
12:29:14.853,AUTO,-35.3632626,149.165237,23744,-0.003005886683240533,0.011945188976824284,0.0509304516017437,-0.014857013709843159,0.013311360031366348,0.0006454586982727051,0,-9,-977,-13,14,0,17,33,-37,300000.0
12:29:15.055,AUTO,-35.3632622,149.1652378,23830,-0.006578333675861359,0.014453777112066746,0.05010872334241867,0.002786797471344471,0.006382534746080637,-0.0013793606776744127,0,-8,-976,3,7,-1,14,29,-31,300000.0
12:29:15.256,AUTO,-35.3632622,149.1652378,23830,-0.006578333675861359,0.014453777112066746,0.05010872334241867,0.002786797471344471,0.006382534746080637,-0.0013793606776744127,0,-8,-976,3,7,-1,14,29,-31,300000.0
12:29:15.459,AUTO,-35.3632622,149.1652378,23830,-0.006578333675861359,0.014453777112066746,0.05010872334241867,0.002786797471344471,0.006382534746080637,-0.0013793606776744127,0,-8,-976,3,7,-1,14,29,-31,300000.0
12:29:15.661,AUTO,-35.3632622,149.1652378,23830,-0.006578333675861359,0.014453777112066746,0.05010872334241867,0.002786797471344471,0.006382534746080637,-0.0013793606776744127,0,-8,-976,3,7,-1,14,29,-31,300000.0
12:29:15.863,AUTO,-35.3632614,149.1652395,23988,-0.009649011306464672,0.014047096483409405,0.047439154237508774,0.05570623651146889,-0.00589104974642396,-0.00425857724621892,0,-2,-970,56,-5,-4,6,15,-11,300000.0
12:29:16.065,AUTO,-35.3632612,149.1652398,24005,-0.010824386961758137,0.012584647163748741,0.04657372087240219,-0.09269265085458755,-0.004285088740289211,-0.004993316251784563,0,-8,-964,-92,-3,-5,3,10,-3,300000.0
12:29:16.267,AUTO,-35.3632611,149.16524,23992,-0.04620447754859924,0.028113119304180145,0.04465967416763306,0.04543766379356384,0.011464747600257397,-0.006442078854888678,0,14,-949,47,12,-6,0,3,12,300000.0
12:29:16.469,AUTO,-35.3632612,149.1652399,23945,-0.024743642657995224,0.011320442892611027,0.044076431542634964,0.814188539981842,-0.1099047139286995,-0.002304963767528534,0,25,-980,815,-109,-2,-4,-7,20,300000.0
12:29:16.671,AUTO,-35.3632612,149.1652396,23888,-0.01332539226859808,-0.016496775671839714,0.04370873421430588,0.12374700605869293,-0.10689494758844376,0.0064742122776806355,-2,-14,-997,123,-105,6,-3,-14,21,300000.0
12:29:16.873,AUTO,-35.3632612,149.1652396,23888,-0.01332539226859808,-0.016496775671839714,0.04370873421430588,0.12374700605869293,-0.10689494758844376,0.0064742122776806355,-2,-14,-997,123,-105,6,-3,-14,21,300000.0
12:29:17.075,AUTO,-35.3632612,149.1652392,23836,-0.016416598111391068,-0.03839525580406189,0.04295840859413147,-0.6120163202285767,-0.07414157688617706,-0.006765876896679401,-3,-32,-1033,-612,-73,-7,3,-17,16,300000.0
12:29:17.279,AUTO,-35.3632612,149.1652392,23836,-0.016416598111391068,-0.03839525580406189,0.04295840859413147,-0.6120163202285767,-0.07414157688617706,-0.006765876896679401,-3,-32,-1033,-612,-73,-7,3,-17,16,300000.0
12:29:17.481,AUTO,-35.3632612,149.1652392,23836,-0.016416598111391068,-0.03839525580406189,0.04295840859413147,-0.6120163202285767,-0.07414157688617706,-0.006765876896679401,-3,-32,-1033,-612,-73,-7,3,-17,16,300000.0
12:29:17.683,AUTO,-35.3632597,149.1652376,23747,0.013976731337606907,-0.08063933253288269,0.038020409643650055,0.4868532419204712,-0.0499950647354126,-0.007847781293094158,-10,9,-1022,487,-49,-7,44,-18,3,300000.0
12:29:17.884,AUTO,-35.3632597,149.1652376,23747,0.013976731337606907,-0.08063933253288269,0.038020409643650055,0.4868532419204712,-0.0499950647354126,-0.007847781293094158,-10,9,-1022,487,-49,-7,44,-18,3,300000.0
12:29:18.086,AUTO,-35.3632585,149.165237,23735,0.00876724161207676,-0.09225567430257797,0.026333047077059746,-0.3539184033870697,-0.04505913332104683,-0.05679955333471298,-17,-33,-1000,-353,-44,-56,62,-18,2,300000.0
12:29:18.288,AUTO,-35.3632569,149.1652365,23724,0.004806844517588615,-0.10382981598377228,0.007197387050837278,-0.46184489130973816,-0.04785480350255966,-0.07451818883419037,-20,-15,-1008,-460,-46,-74,81,-16,1,300000.0
12:29:18.489,AUTO,-35.3632549,149.165236,23713,0.017330776900053024,-0.1153130829334259,-0.01235366053879261,0.3700145184993744,-0.043423887342214584,-0.07748426496982574,-23,12,-1011,371,-42,-77,103,-15,1,211333.0
12:29:18.691,AUTO,-35.3632523,149.1652354,23703,0.029971949756145477,-0.12428494542837143,-0.030759194865822792,0.4162229299545288,-0.0420067124068737,-0.056534040719270706,-27,-6,-1003,416,-40,-56,126,-16,2,211333.0
12:29:18.894,AUTO,-35.3632523,149.1652354,23703,0.029971949756145477,-0.12428494542837143,-0.030759194865822792,0.4162229299545288,-0.0420067124068737,-0.056534040719270706,-27,-6,-1003,416,-40,-56,126,-16,2,211333.0
12:29:19.096,AUTO,-35.3632493,149.1652349,23692,0.023103460669517517,-0.1346054971218109,-0.04148058593273163,-0.33181238174438477,-0.046383459120988846,0.00037538271863013506,-33,-47,-1000,-331,-45,0,150,-17,2,211333.0
12:29:19.299,AUTO,-35.3632493,149.1652349,23692,0.023103460669517517,-0.1346054971218109,-0.04148058593273163,-0.33181238174438477,-0.046383459120988846,0.00037538271863013506,-33,-47,-1000,-331,-45,0,150,-17,2,211333.0
12:29:19.501,AUTO,-35.3632493,149.1652349,23692,0.023103460669517517,-0.1346054971218109,-0.04148058593273163,-0.33181238174438477,-0.046383459120988846,0.00037538271863013506,-33,-47,-1000,-331,-45,0,150,-17,2,211333.0
12:29:19.703,AUTO,-35.3632365,149.1652331,23646,0.03629747033119202,-0.17090949416160583,-0.04379229247570038,0.1783302128314972,-0.053563669323921204,0.020436231046915054,-45,-34,-1000,178,-52,20,233,-20,5,211333.0
12:29:19.905,AUTO,-35.3632365,149.1652331,23646,0.03629747033119202,-0.17090949416160583,-0.04379229247570038,0.1783302128314972,-0.053563669323921204,0.020436231046915054,-45,-34,-1000,178,-52,20,233,-20,5,211333.0
12:29:20.107,AUTO,-35.363231,149.1652324,23625,0.030090823769569397,-0.18262429535388947,-0.043473660945892334,-0.4482938349246979,-0.04467290639877319,0.023142673075199127,-55,-50,-998,-447,-43,22,264,-22,6,211333.0
12:29:20.308,AUTO,-35.3632246,149.1652317,23600,0.035561453551054,-0.18658941984176636,-0.044232115149497986,0.13203155994415283,0.007762141991406679,-0.0069689215160906315,-61,-21,-1005,133,8,-6,296,-23,7,211333.0
12:29:20.510,AUTO,-35.3632177,149.1652309,23576,0.042460571974515915,-0.18452735245227814,-0.04512792453169823,0.2219270020723343,-0.0019115963950753212,0.003001944161951542,-70,-34,-1005,222,0,2,325,-26,7,211333.0
12:29:20.712,AUTO,-35.3632102,149.1652301,23552,0.03738556057214737,-0.18953484296798706,-0.046464018523693085,-0.2830834984779358,-0.02483813650906086,0.007018605712801218,-71,-56,-999,-282,-23,6,353,-28,8,211333.0
12:29:20.915,AUTO,-35.3632102,149.1652301,23552,0.03738556057214737,-0.18953484296798706,-0.046464018523693085,-0.2830834984779358,-0.02483813650906086,0.007018605712801218,-71,-56,-999,-282,-23,6,353,-28,8,211333.0
12:29:21.117,AUTO,-35.363202,149.1652292,23526,0.04446939751505852,-0.1923602670431137,-0.04812616482377052,0.11798926442861557,-0.011455774307250977,-0.0026511973701417446,-81,-34,-1002,119,-10,-2,381,-30,8,211333.0
12:29:21.318,AUTO,-35.363202,149.1652292,23526,0.04446939751505852,-0.1923602670431137,-0.04812616482377052,0.11798926442861557,-0.011455774307250977,-0.0026511973701417446,-81,-34,-1002,119,-10,-2,381,-30,8,211333.0
12:29:21.520,AUTO,-35.363202,149.1652292,23526,0.04446939751505852,-0.1923602670431137,-0.04812616482377052,0.11798926442861557,-0.011455774307250977,-0.0026511973701417446,-81,-34,-1002,119,-10,-2,381,-30,8,211333.0
12:29:21.723,AUTO,-35.3631737,149.1652262,23438,0.05417155101895332,-0.20960097014904022,-0.05115986987948418,0.03999980539083481,-0.01771521382033825,0.0024940718431025743,-87,-47,-994,40,-16,2,464,-36,12,211333.0
12:29:21.926,AUTO,-35.363163,149.1652251,23404,0.05709391459822655,-0.21408268809318542,-0.05191512405872345,0.028724277392029762,-0.023654799908399582,-0.001940385322086513,-94,-51,-993,29,-22,-1,491,-39,12,211333.0
12:29:22.128,AUTO,-35.363163,149.1652251,23404,0.05709391459822655,-0.21408268809318542,-0.05191512405872345,0.028724277392029762,-0.023654799908399582,-0.001940385322086513,-94,-51,-993,29,-22,-1,491,-39,12,211333.0
12:29:22.330,AUTO,-35.3631517,149.1652239,23366,0.05847722664475441,-0.21916335821151733,-0.052449584007263184,-0.029719889163970947,-0.003759159706532955,0.002611870178952813,-103,-55,-995,-28,-2,3,519,-41,14,211333.0
12:29:22.532,AUTO,-35.3631398,149.1652227,23327,0.05951013043522835,-0.21344853937625885,-0.05260791257023811,-0.010306280106306076,0.03201115131378174,-0.0020001607481390238,-104,-70,-1002,-9,32,-1,546,-42,13,300000.0
12:29:22.735,AUTO,-35.3631274,149.1652215,23291,0.061723511666059494,-0.20652680099010468,-0.053166184574365616,0.03901524096727371,0.011059058830142021,-0.003703917609527707,-115,-66,-998,39,12,-3,569,-44,11,300000.0
12:29:22.937,AUTO,-35.3631145,149.1652202,23257,0.06368018686771393,-0.20318040251731873,-0.05352933704853058,0.013397794216871262,0.026851993054151535,0.00034753663931041956,-131,-45,-999,14,27,0,589,-45,11,300000.0
12:29:23.141,AUTO,-35.3631145,149.1652202,23257,0.06368018686771393,-0.20318040251731873,-0.05352933704853058,0.013397794216871262,0.026851993054151535,0.00034753663931041956,-131,-45,-999,14,27,0,589,-45,11,300000.0
12:29:23.343,AUTO,-35.3631145,149.1652202,23257,0.06368018686771393,-0.20318040251731873,-0.05352933704853058,0.013397794216871262,0.026851993054151535,0.00034753663931041956,-131,-45,-999,14,27,0,589,-45,11,300000.0
12:29:23.544,AUTO,-35.3631145,149.1652202,23257,0.06368018686771393,-0.20318040251731873,-0.05352933704853058,0.013397794216871262,0.026851993054151535,0.00034753663931041956,-131,-45,-999,14,27,0,589,-45,11,300000.0
12:29:23.746,AUTO,-35.3630731,149.165216,23170,0.0698300376534462,-0.18252678215503693,-0.05590845271945,-0.00976276770234108,-0.0050311884842813015,-0.002613292308524251,-124,-64,-983,-8,-4,-2,638,-50,9,300000.0
12:29:23.948,AUTO,-35.3630586,149.1652146,23142,0.07287727296352386,-0.18204240500926971,-0.05617492273449898,-0.002885664813220501,-0.0010786580387502909,0.0008334371959790587,-143,-62,-982,-1,0,0,649,-51,10,300000.0
12:29:24.150,AUTO,-35.3630586,149.1652146,23142,0.07287727296352386,-0.18204240500926971,-0.05617492273449898,-0.002885664813220501,-0.0010786580387502909,0.0008334371959790587,-143,-62,-982,-1,0,0,649,-51,10,300000.0
12:29:24.353,AUTO,-35.3630439,149.1652131,23111,0.07390083372592926,-0.17526164650917053,-0.056277740746736526,0.03658731281757355,0.032251495867967606,-0.016423813998699188,-142,-62,-997,37,33,-16,659,-52,10,300000.0
12:29:24.556,AUTO,-35.3630288,149.1652116,23080,0.07593642920255661,-0.1636705845594406,-0.0555504746735096,0.00040696049109101295,0.04098937287926674,-0.0021857141982764006,-132,-79,-995,1,41,-2,669,-54,9,300000.0
12:29:24.757,AUTO,-35.3630134,149.1652101,23050,0.07739369571208954,-0.1572333425283432,-0.05659862980246544,0.00272703031077981,0.007333623245358467,-0.0008646465139463544,-133,-94,-988,3,8,0,675,-54,9,300000.0
12:29:24.959,AUTO,-35.3629982,149.1652086,23019,0.07807980477809906,-0.15272347629070282,-0.05757375434041023,-0.017204517498612404,0.034666143357753754,-0.0069246478378772736,-133,-66,-982,-16,35,-6,680,-54,10,300000.0
12:29:25.162,AUTO,-35.3629982,149.1652086,23019,0.07807980477809906,-0.15272347629070282,-0.05757375434041023,-0.017204517498612404,0.034666143357753754,-0.0069246478378772736,-133,-66,-982,-16,35,-6,680,-54,10,300000.0
12:29:25.364,AUTO,-35.3629982,149.1652086,23019,0.07807980477809906,-0.15272347629070282,-0.05757375434041023,-0.017204517498612404,0.034666143357753754,-0.0069246478378772736,-133,-66,-982,-16,35,-6,680,-54,10,300000.0
12:29:25.566,AUTO,-35.3629982,149.1652086,23019,0.07807980477809906,-0.15272347629070282,-0.05757375434041023,-0.017204517498612404,0.034666143357753754,-0.0069246478378772736,-133,-66,-982,-16,35,-6,680,-54,10,300000.0
12:29:25.767,AUTO,-35.3629523,149.1652042,22919,0.0773170217871666,-0.13492633402347565,-0.05837187543511391,-0.03815145790576935,0.02269071526825428,-0.0008837752975523472,-139,-72,-983,-36,23,0,683,-53,12,300000.0
12:29:25.969,AUTO,-35.362937,149.1652027,22880,0.07692316174507141,-0.1286981850862503,-0.058014143258333206,0.009011924266815186,0.030530620366334915,-0.008075427263975143,-137,-60,-986,10,31,-7,682,-53,13,300000.0
12:29:26.171,AUTO,-35.362937,149.1652027,22880,0.07692316174507141,-0.1286981850862503,-0.058014143258333206,0.009011924266815186,0.030530620366334915,-0.008075427263975143,-137,-60,-986,10,31,-7,682,-53,13,300000.0
12:29:26.374,AUTO,-35.3629216,149.1652012,22838,0.07483191788196564,-0.13003075122833252,-0.05867424234747887,-0.03934836760163307,-0.03469448536634445,0.004479596856981516,-136,-77,-977,-38,-33,4,680,-54,14,300000.0
12:29:26.576,AUTO,-35.3629063,149.1651997,22791,0.07755274325609207,-0.13477520644664764,-0.05952713266015053,0.043354179710149765,0.016061166301369667,-0.009231670759618282,-136,-72,-981,44,17,-9,679,-54,17,300000.0
12:29:26.778,AUTO,-35.362891,149.1651982,22740,0.07960247248411179,-0.1390826255083084,-0.060685303062200546,0.024414222687482834,-0.022683799266815186,-0.006276029162108898,-157,-73,-990,25,-21,-6,679,-55,18,300000.0
12:29:26.980,AUTO,-35.3628757,149.1651967,22685,0.07930338382720947,-0.1439712941646576,-0.061414483934640884,-0.00957094319164753,-0.014001279138028622,-0.0055327326990664005,-137,-72,-987,-8,-13,-5,681,-55,20,300000.0
12:29:27.182,AUTO,-35.3628757,149.1651967,22685,0.07930338382720947,-0.1439712941646576,-0.061414483934640884,-0.00957094319164753,-0.014001279138028622,-0.0055327326990664005,-137,-72,-987,-8,-13,-5,681,-55,20,300000.0
12:29:27.385,AUTO,-35.3628757,149.1651967,22685,0.07930338382720947,-0.1439712941646576,-0.061414483934640884,-0.00957094319164753,-0.014001279138028622,-0.0055327326990664005,-137,-72,-987,-8,-13,-5,681,-55,20,300000.0
12:29:27.588,AUTO,-35.3628757,149.1651967,22685,0.07930338382720947,-0.1439712941646576,-0.061414483934640884,-0.00957094319164753,-0.014001279138028622,-0.0055327326990664005,-137,-72,-987,-8,-13,-5,681,-55,20,300000.0
12:29:27.789,AUTO,-35.3628293,149.165192,22525,0.08038125187158585,-0.14198225736618042,-0.06295277178287506,-0.004361163824796677,-0.020154954865574837,0.0034857308492064476,-154,-79,-997,-3,-19,3,685,-56,17,300000.0
12:29:27.991,AUTO,-35.362814,149.1651905,22477,0.07899268716573715,-0.14698997139930725,-0.06423646956682205,-0.02053266391158104,-0.011938654817640781,0.001162936445325613,-128,-80,-974,-19,-10,1,687,-56,18,300000.0
12:29:28.193,AUTO,-35.3627985,149.165189,22426,0.07787107676267624,-0.1419530063867569,-0.06439931690692902,-0.001159787643700838,0.03325315937399864,0.005172938108444214,-126,-81,-992,0,34,5,689,-56,17,300000.0
12:29:28.395,AUTO,-35.3627985,149.165189,22426,0.07787107676267624,-0.1419530063867569,-0.06439931690692902,-0.001159787643700838,0.03325315937399864,0.005172938108444214,-126,-81,-992,0,34,5,689,-56,17,300000.0
12:29:28.596,AUTO,-35.362783,149.1651875,22381,0.0760360062122345,-0.13796058297157288,-0.06445878744125366,-0.009861990809440613,0.00567599618807435,-0.002176690613850951,-143,-80,-994,-8,6,-2,689,-56,15,300000.0
12:29:28.799,AUTO,-35.3627676,149.165186,22339,0.07662458717823029,-0.13857607543468475,-0.06444814801216125,-0.03585517033934593,0.0032269058283418417,0.0031694788485765457,-141,-84,-990,-34,4,3,689,-57,14,300000.0
12:29:29.001,AUTO,-35.3627522,149.1651845,22298,0.07792717218399048,-0.13359367847442627,-0.06481772661209106,0.04459388181567192,0.04712852090597153,-0.010637347586452961,-133,-83,-997,45,47,-10,689,-57,14,300000.0
12:29:29.203,AUTO,-35.3627522,149.1651845,22298,0.07792717218399048,-0.13359367847442627,-0.06481772661209106,0.04459388181567192,0.04712852090597153,-0.010637347586452961,-133,-83,-997,45,47,-10,689,-57,14,300000.0
12:29:29.405,AUTO,-35.3627522,149.1651845,22298,0.07792717218399048,-0.13359367847442627,-0.06481772661209106,0.04459388181567192,0.04712852090597153,-0.010637347586452961,-133,-83,-997,45,47,-10,689,-57,14,300000.0
12:29:29.609,AUTO,-35.3627522,149.1651845,22298,0.07792717218399048,-0.13359367847442627,-0.06481772661209106,0.04459388181567192,0.04712852090597153,-0.010637347586452961,-133,-83,-997,45,47,-10,689,-57,14,300000.0
12:29:29.812,AUTO,-35.3627061,149.1651799,22214,0.07540666311979294,-0.08479166775941849,-0.06485921144485474,0.021944424137473106,0.06913597136735916,0.0005114027881063521,-124,-81,-986,22,70,0,667,-57,6,300000.0
12:29:30.014,AUTO,-35.3626913,149.1651784,22194,0.07839512079954147,-0.06952481716871262,-0.06472521275281906,-0.005373882129788399,0.03385161608457565,-0.002231030724942684,-128,-75,-987,-4,34,-1,654,-56,6,300000.0
12:29:30.215,AUTO,-35.3626767,149.165177,22173,0.07545888423919678,-0.05845221132040024,-0.06409955769777298,-0.017276868224143982,0.05082264542579651,0.0010196324437856674,-125,-64,-989,-16,51,1,639,-53,7,300000.0
12:29:30.417,AUTO,-35.3626767,149.165177,22173,0.07545888423919678,-0.05845221132040024,-0.06409955769777298,-0.017276868224143982,0.05082264542579651,0.0010196324437856674,-125,-64,-989,-16,51,1,639,-53,7,300000.0
12:29:30.619,AUTO,-35.3626625,149.1651755,22150,0.08131479471921921,-0.044006530195474625,-0.06410915404558182,0.11271382123231888,0.04250241443514824,-0.0025615764316171408,-122,-72,-990,113,43,-2,621,-54,8,242561.0
12:29:30.821,AUTO,-35.3626487,149.1651741,22126,0.07789094001054764,-0.03705219924449921,-0.06418740749359131,-0.19941622018814087,-0.005887158680707216,0.010547900572419167,-132,-71,-985,-198,-5,11,599,-50,9,242561.0
12:29:31.023,AUTO,-35.3626354,149.1651727,22096,0.07365072518587112,-0.0281180702149868,-0.06460730731487274,0.021343611180782318,0.0712285116314888,-0.009815880097448826,-126,-57,-994,22,72,-9,579,-48,12,242561.0
12:29:31.225,AUTO,-35.3626354,149.1651727,22096,0.07365072518587112,-0.0281180702149868,-0.06460730731487274,0.021343611180782318,0.0712285116314888,-0.009815880097448826,-126,-57,-994,22,72,-9,579,-48,12,242561.0
12:29:31.426,AUTO,-35.3626354,149.1651727,22096,0.07365072518587112,-0.0281180702149868,-0.06460730731487274,0.021343611180782318,0.0712285116314888,-0.009815880097448826,-126,-57,-994,22,72,-9,579,-48,12,242561.0
12:29:31.628,AUTO,-35.3626354,149.1651727,22096,0.07365072518587112,-0.0281180702149868,-0.06460730731487274,0.021343611180782318,0.0712285116314888,-0.009815880097448826,-126,-57,-994,22,72,-9,579,-48,12,242561.0
12:29:31.830,AUTO,-35.3625987,149.1651691,21987,0.06066830828785896,0.013126976788043976,-0.06196362525224686,-0.7467326521873474,0.051896072924137115,0.014877350069582462,-124,-106,-1005,-745,52,15,506,-42,16,242561.0
12:29:32.032,AUTO,-35.3625876,149.165168,21946,0.06592430174350739,0.02124275639653206,-0.0636700987815857,-0.04202355816960335,0.04463563859462738,-0.029638344421982765,-96,-54,-1012,-39,45,-29,478,-38,15,242561.0
12:29:32.234,AUTO,-35.3625771,149.165167,21907,0.06941713392734528,0.03265761584043503,-0.0646074116230011,0.6706596612930298,0.04408924654126167,-0.03584098443388939,-88,-10,-986,672,44,-35,449,-34,17,242561.0
12:29:32.436,AUTO,-35.3625673,149.1651661,21869,0.06993842869997025,0.045285213738679886,-0.06443634629249573,0.6676872372627258,0.05019155144691467,-0.005220544058829546,-86,-35,-995,668,51,-4,418,-31,15,242561.0
12:29:32.638,AUTO,-35.3625673,149.1651661,21869,0.06993842869997025,0.045285213738679886,-0.06443634629249573,0.6676872372627258,0.05019155144691467,-0.005220544058829546,-86,-35,-995,668,51,-4,418,-31,15,242561.0
12:29:32.840,AUTO,-35.3625582,149.1651654,21834,0.05897314473986626,0.05101928114891052,-0.06362895667552948,-0.14835265278816223,-0.009074254892766476,0.038914475589990616,-80,-81,-1006,-148,-8,39,386,-30,14,242561.0
12:29:33.043,AUTO,-35.3625498,149.1651647,21798,0.045427024364471436,0.04989487677812576,-0.06491462886333466,-0.7360183596611023,0.004731001332402229,0.04006939381361008,-75,-93,-1011,-736,5,40,356,-27,14,242561.0
12:29:33.247,AUTO,-35.3625498,149.1651647,21798,0.045427024364471436,0.04989487677812576,-0.06491462886333466,-0.7360183596611023,0.004731001332402229,0.04006939381361008,-75,-93,-1011,-736,5,40,356,-27,14,242561.0
12:29:33.450,AUTO,-35.3625498,149.1651647,21798,0.045427024364471436,0.04989487677812576,-0.06491462886333466,-0.7360183596611023,0.004731001332402229,0.04006939381361008,-75,-93,-1011,-736,5,40,356,-27,14,242561.0
12:29:33.652,AUTO,-35.3625498,149.1651647,21798,0.045427024364471436,0.04989487677812576,-0.06491462886333466,-0.7360183596611023,0.004731001332402229,0.04006939381361008,-75,-93,-1011,-736,5,40,356,-27,14,242561.0
12:29:33.854,AUTO,-35.3625285,149.1651632,21710,0.038952313363552094,0.05769207328557968,-0.06631851196289062,0.7559273838996887,0.024105917662382126,-0.017645858228206635,-57,-2,-1023,756,25,-16,273,-20,10,242561.0
12:29:34.057,AUTO,-35.3625226,149.1651628,21687,0.038643695414066315,0.06287140399217606,-0.06606681644916534,0.2536088228225708,0.013415629975497723,0.018330898135900497,-50,-45,-994,253,14,18,245,-21,9,242561.0
12:29:34.259,AUTO,-35.3625174,149.1651624,21667,0.02638518251478672,0.06839098781347275,-0.06617899984121323,-0.5616515874862671,0.0103535708039999,0.023578688502311707,-42,-72,-990,-561,11,24,218,-19,8,242561.0
12:29:34.463,AUTO,-35.3625127,149.1651622,21648,0.010720308870077133,0.07463125139474869,-0.06649934500455856,-0.7362077832221985,0.03116362728178501,0.005703454837203026,-43,-46,-1013,-735,32,6,190,-17,6,242561.0
12:29:34.666,AUTO,-35.3625127,149.1651622,21648,0.010720308870077133,0.07463125139474869,-0.06649934500455856,-0.7362077832221985,0.03116362728178501,0.005703454837203026,-43,-46,-1013,-735,32,6,190,-17,6,21905.0
12:29:34.868,AUTO,-35.3625087,149.1651619,21634,0.01022253092378378,0.08187039196491241,-0.06674230843782425,-0.0343894436955452,0.02033001184463501,-0.013806394301354885,-37,-5,-1015,-32,21,-13,162,-15,5,21905.0
12:29:35.070,AUTO,-35.3625054,149.1651617,21623,0.019722331315279007,0.07942556589841843,-0.06753866374492645,0.6730988025665283,-0.028011474758386612,-0.007993089966475964,-27,14,-1010,674,-26,-7,135,-14,4,21905.0
12:29:35.272,AUTO,-35.3625054,149.1651617,21623,0.019722331315279007,0.07942556589841843,-0.06753866374492645,0.6730988025665283,-0.028011474758386612,-0.007993089966475964,-27,14,-1010,674,-26,-7,135,-14,4,21905.0
12:29:35.474,AUTO,-35.3625054,149.1651617,21623,0.019722331315279007,0.07942556589841843,-0.06753866374492645,0.6730988025665283,-0.028011474758386612,-0.007993089966475964,-27,14,-1010,674,-26,-7,135,-14,4,21905.0
12:29:35.691,AUTO,-35.3624984,149.1651613,21598,-0.004920557141304016,0.05588970333337784,-0.06804744899272919,-0.19255293905735016,-0.02149374783039093,-0.0011230525560677052,-27,14,-1010,674,-26,-7,72,-12,2,21905.0
12:29:35.893,AUTO,-35.3624984,149.1651613,21598,-0.004920557141304016,0.05588970333337784,-0.06804744899272919,-0.19255293905735016,-0.02149374783039093,-0.0011230525560677052,-14,0,-1004,-190,-20,0,72,-12,2,21905.0
12:29:36.095,AUTO,-35.362497,149.1651612,21593,0.006998828146606684,0.05036838725209236,-0.06853695958852768,0.581762969493866,-0.020283905789256096,-0.002068741014227271,-11,25,-1009,583,-19,-1,56,-12,1,21905.0
12:29:36.297,AUTO,-35.3624959,149.1651611,21589,0.008416684344410896,0.04507944732904434,-0.06788080185651779,0.2947998046875,-0.020728226751089096,0.0028047021478414536,-8,-10,-998,294,-19,3,42,-12,2,21905.0
12:29:36.499,AUTO,-35.3624951,149.165161,21587,-0.006848342716693878,0.04058007523417473,-0.0676923468708992,-0.580533504486084,-0.018849998712539673,0.00034543476067483425,-5,-35,-996,-580,-17,0,30,-12,1,21905.0
12:29:36.701,AUTO,-35.3624946,149.1651609,21587,-0.01234321016818285,0.03527994081377983,-0.06808579713106155,-0.27765172719955444,-0.023002108559012413,-0.0007207358721643686,-4,1,-1001,-275,-21,0,19,-11,0,21905.0
