time_stamp,RTL_ALT,MODE,roll,pitch,yaw,rollspeed,pitchspeed,yawspeed,lat,lon,relative_alt,vx,vy,vz,xacc,yacc,zacc,xgyro,ygyro,zgyro
13:22:52,1500.0,STABILIZE,-0.0003155551094096154,0.000978980679064989,0.024214649572968483,6.652501178905368e-05,0.00022383587202057242,0.0019209565361961722,-35.3632621,149.1652375,0.0,-1.0,1.0,0.0,0.0,1.0,-1000.0,0.0,0.0,0.0
13:22:56,1500.0,STABILIZE,-0.0005795441684313118,0.0009379751863889396,0.022909723222255707,0.0002690100809559226,0.00029828172409906983,0.0018543078331276774,-35.3632621,149.1652375,0.0,-1.0,2.0,2.0,0.0,1.0,-1000.0,1.0,1.0,0.0
13:23:03,271678.0,AUTO,-0.001327625912381336,0.0009871679940260947,0.021473850589245558,0.00022249779431149364,0.00027087138732895255,0.0015253208403009921,-35.3632622,149.16523745,4.25,-1.0,-0.5,-1.5,0.0,1.75,-1000.0,0.5,0.0,0.25
13:23:04,271678.0,AUTO,-0.0010504951933398843,0.001083922281395644,0.02132820338010788,0.00032768785604275763,0.00029913432081229985,0.0014597185654565692,-35.3632621,149.1652375,13.5,0.0,0.0,-1.0,0.0,2.0,-1000.0,0.5,0.5,0.0
13:23:06,196518.0,AUTO,-0.000633833697065711,0.0016044102958403528,0.020891236141324043,0.0002754633314907551,0.00028232860495336354,0.0014407694688998163,-35.3632621,149.1652375,18.0,0.0,0.0,-1.0,0.0,1.0,-1000.0,0.0,0.0,0.0
13:23:08,121358.0,AUTO,0.01725353952497244,-0.00024297920754179358,0.020120068453252316,0.047319186851382256,-0.006881500128656626,0.0015213447040878236,-35.3632621,149.1652375,1252.5,0.5,4.0,-143.0,0.0,0.0,-1027.5,47.5,-5.5,0.5
13:23:09,235527.0,AUTO,0.04907753597944975,-0.006190001266077161,0.013112604152411222,0.026988452300429344,-7.177679799497128e-05,-0.011342987534590065,-35.363261824999995,149.16523865,2391.75,4.25,27.25,-148.5,0.75,-4.25,-1000.5,27.5,0.5,-12.25
13:23:10,235527.0,AUTO,-0.033173009753227234,0.008945785230025649,-0.06680525466799736,-0.042192159220576286,-0.023201745469123125,-0.032839138992130756,-35.3632609,149.165245,4449.5,1.5,37.5,-149.0,4.0,-9.0,-1005.0,-41.0,-22.0,-32.5
13:23:12,257128.5,AUTO,-0.009673304972238839,0.005533176241442561,-0.10694991424679756,0.06708158925175667,0.010735956951975822,-0.0016402539040427655,-35.3632613,149.16524045,7520.0,-10.5,-59.5,-150.5,-5.5,13.0,-1003.0,67.5,11.0,-1.5
13:23:14,278730.0,AUTO,0.021219403250142932,-0.05114183388650417,-0.045899441465735435,-0.10750740393996239,0.014065656810998917,0.014462308026850224,-35.363263950000004,149.16523519999998,10629.0,5.5,25.5,-148.5,2.5,-3.5,-997.5,-106.0,14.5,14.0
13:23:15,133900.0,AUTO,-0.02188445534557104,-0.00811696029995801,-0.0883325394243002,-0.019018371356651187,0.05054373852908611,-0.07106323912739754,-35.363262675,149.16523665,11776.25,24.75,11.5,-150.0,-2.5,-5.75,-1004.25,-18.0,50.75,-71.0
13:23:16,133900.0,AUTO,-0.000741564086638391,0.020142843946814537,-0.15662090480327606,0.03133825119584799,0.00541165319737047,-0.025156705640256405,-35.363260499999996,149.16523619999998,13721.0,7.0,-12.0,-152.0,-4.0,0.5,-1000.5,31.5,5.5,-25.0
13:23:18,86544.5,AUTO,0.00581967830657959,0.004284715047106147,-0.16551519185304642,-0.024831475224345922,-0.009273790288716555,-0.006750093074515462,-35.36326115,149.1652353,16836.0,-11.0,7.5,-151.5,1.5,0.0,-998.0,-23.5,-8.0,-6.0
13:23:20,39189.0,AUTO,0.048666397109627724,-0.035828763619065285,0.05580643191933632,0.07584924437105656,-0.04027322307229042,-0.03088552877306938,-35.36326425,149.16523135,19617.0,-22.5,-22.0,-100.0,1.0,8.5,-958.5,76.5,-38.5,-31.0
13:23:21,281858.0,AUTO,0.053849032148718834,-0.028972681611776352,0.03655265923589468,-0.02765387512044981,0.02824260527268052,-0.011383069882867858,-35.363264775000005,149.16523124999998,20268.0,3.0,18.5,-73.0,0.25,-2.0,-970.25,-26.75,28.75,-11.5
13:23:22,281858.0,AUTO,0.0032505134877283126,0.008007048862054944,0.03226001374423504,-0.028837909922003746,0.017505226656794548,0.0022081180941313505,-35.36326315,149.1652356,20999.5,17.5,39.5,-42.5,1.0,-10.0,-978.0,-27.0,18.0,1.5
13:23:24,272185.5,AUTO,-0.03450264502316713,0.016287426929920912,0.026138870045542717,0.704767644405365,-0.04657178744673729,-0.002119463781127706,-35.3632613,149.16524005000002,21303.0,-3.5,-7.5,20.0,-0.5,19.5,-980.5,704.5,-45.0,-2.0
13:23:26,262513.0,AUTO,-0.05786345899105072,-0.05207110568881035,-0.2267490141093731,-0.38756854087114334,-0.002380620688199997,-0.9771700799465179,-35.363260600000004,149.16523065,21108.5,22.0,-81.5,-0.5,-17.5,2.5,-1004.0,-385.5,-1.5,-977.0
13:23:27,160310.0,AUTO,9.509595111012459e-05,-0.11046627908945084,-1.051829144358635,-0.0015867650508880615,-0.0658700056374073,-0.800524266436696,-35.363258425,149.16522227500002,21112.75,41.25,-129.5,-1.25,-25.25,-14.25,-1003.0,-1.0,-64.5,-800.0
13:23:28,160310.0,AUTO,0.02318490296602249,-0.17335230857133865,-1.2091144919395447,-0.20476049836724997,-0.015660822158679366,0.06128309201449156,-35.36325175,149.1651986,21115.0,82.0,-247.0,0.0,-45.5,-35.5,-1004.0,-204.0,-14.0,60.5
13:23:30,150066.0,AUTO,0.054707108065485954,-0.12246052175760269,-1.2109761238098145,0.2272421047091484,0.002161497948691249,-0.005387523910030723,-35.36323195,149.16512899999998,21169.0,129.0,-377.0,-4.0,-82.5,-40.0,-996.0,227.5,3.0,-5.0
13:23:32,139822.0,AUTO,0.06804799288511276,-0.08518165349960327,-1.2126606702804565,0.14740054309368134,0.016599211958236992,0.0018222928047180176,-35.3632071,149.16504195,21235.0,144.5,-404.5,-3.0,-83.5,-56.0,-991.0,147.5,17.0,1.5
13:23:33,114382.0,AUTO,0.06462052278220654,-0.07769714295864105,-1.2133222222328186,-0.08732012822292745,0.02844575559720397,0.0007693110965192318,-35.363197575,149.16500870000002,21248.0,145.25,-399.0,-2.75,-82.5,-55.25,-995.5,-86.75,29.0,0.75
13:23:34,114382.0,AUTO,0.0656055398285389,-0.016613599378615618,-1.2135788798332214,0.155512735247612,0.047992387786507607,-0.0004458869807422161,-35.36318215,149.16495609999998,21288.5,132.5,-355.0,-4.0,-72.5,-51.5,-997.0,156.0,48.5,-0.5
13:23:36,153356.0,AUTO,0.03058423288166523,0.08033899590373039,-1.2151780128479004,0.4412325918674469,0.024739427492022514,-0.007353486260399222,-35.3631631,149.16489575,21301.0,68.5,-178.0,0.0,-36.0,1.0,-1011.5,441.5,25.0,-7.0
13:23:38,192330.0,AUTO,-0.005571958143264055,0.0239719795063138,-1.2170531153678894,-0.45125606656074524,-0.016005540266633034,0.00282601491198875,-35.36315635,149.1648766,21250.5,7.5,-38.0,-1.5,-6.0,-19.5,-994.5,-450.5,-15.0,2.0
13:23:39,235775.0,AUTO,0.002137094721547328,0.011769807431846857,-1.2176049649715424,0.05078469589352608,-0.017483283998444676,-0.00040625441761221737,-35.36315605,149.164875,21252.25,-1.0,-18.5,-2.0,-3.0,-2.75,-1003.0,51.25,-16.5,-0.25
13:23:40,235775.0,AUTO,0.013188301585614681,-0.015978628303855658,-1.2187671065330505,0.42952077090740204,-0.016188897541724145,-0.003544815117493272,-35.36315665,149.16487425000003,21263.5,-3.5,-9.0,-1.5,-2.0,12.5,-997.0,429.0,-15.5,-2.5
13:23:42,234662.0,RTL,0.0028289972979109734,0.0007446099625667557,-1.2193030714988708,0.1998732357751578,-0.001963550806976855,-0.00032935128547251225,-35.363156950000004,149.16487265,21386.5,4.5,-5.5,-24.0,0.0,12.5,-1040.0,201.0,-1.0,-0.5
13:23:44,233549.0,RTL,-0.006764600984752178,-0.0014002860989421606,-1.2194930911064148,0.0018708216957747936,-0.0008489061438012868,-0.003230088157579303,-35.3631561,149.1648727,22765.0,-4.5,-2.0,-111.5,0.0,-0.5,-1043.5,2.5,0.0,-2.5
13:23:45,148598.0,RTL,0.0023345547961071134,-0.003068018238991499,-1.2203516960144043,0.02517931570764631,-0.004338435712270439,-0.0015753366315038875,-35.363155875000004,149.1648728,23747.5,-6.0,-2.0,-139.0,0.0,0.0,-1027.5,25.5,-3.25,-1.0
13:23:46,148598.0,RTL,0.055955542251467705,-0.01111488975584507,-1.2199488878250122,0.01913044147659093,0.005063691642135382,-0.01782541465945542,-35.363154699999996,149.16487295000002,25637.5,26.5,3.0,-148.5,0.0,-5.0,-996.0,19.0,5.5,-17.5
13:23:48,198445.0,RTL,-0.047182170674204826,-0.004026925191283226,-1.3074656128883362,0.04835748299956322,0.003871365450322628,-0.010746583808213472,-35.36315095,149.16487354999998,28681.5,-30.5,-5.5,-149.0,-3.0,4.5,-1001.0,48.5,4.0,-10.0
13:23:50,248292.0,RTL,0.02983109373599291,-0.008853663457557559,-1.2858866453170776,-0.0077279419638216496,0.008840821217745543,0.011988602112978697,-35.363158150000004,149.16487189999998,31795.5,-17.5,1.5,-151.0,-3.0,5.0,-998.5,-7.0,9.0,12.0
13:23:51,238317.0,RTL,0.02201724238693714,-0.0030580526363337412,-1.2876737117767334,-0.009390502935275435,0.007332748151384294,-0.006697411183267832,-35.36315915,149.16487147499998,32960.0,-2.75,2.5,-150.0,-1.75,1.5,-999.5,-8.5,7.5,-6.0
13:23:52,238317.0,RTL,0.013209167867898941,0.0015624843072146177,-1.304846167564392,-0.0035722290631383657,0.003521474078297615,-0.013071394991129637,-35.3631595,149.16487095000002,34904.5,6.5,4.0,-151.0,-0.5,0.0,-999.5,-2.5,3.5,-12.0
13:23:54,174399.5,RTL,0.01051674922928214,0.003263133578002453,-1.3420794606208801,-0.00048046803567558527,0.0013500329514499754,-0.016807332634925842,-35.36315915,149.1648704,38019.0,9.0,7.5,-152.0,0.0,-0.5,-999.5,0.5,2.0,-16.0
13:23:56,110482.0,RTL,0.008419087622314692,0.0016307561891153455,-1.3842492699623108,-0.00044008390977978706,0.0002787977864500135,-0.020079060457646847,-35.363158549999994,149.16487085,41138.0,9.0,9.0,-152.0,0.5,0.0,-999.5,0.0,0.5,-19.0
13:23:57,70396.0,RTL,0.007750784046947956,0.0010477119212737307,-1.4011820554733276,0.0013539587089326233,0.00014847457350697368,-0.02279871003702283,-35.363158375000005,149.16487105000002,42308.0,8.0,8.0,-152.0,0.25,0.0,-1000.25,2.0,0.75,-21.75
13:23:58,70396.0,RTL,0.007510079536587,0.0004669334302889183,-1.4299525618553162,0.000683697231579572,0.0014029950834810734,-0.022261553443968296,-35.3631581,149.16487145000002,44259.5,7.0,7.0,-152.0,0.0,0.0,-1000.0,1.0,2.0,-21.5
13:24:00,53063.5,RTL,0.0073482736479490995,0.00040638260543346405,-1.4751365184783936,0.0021867750911042094,0.0027754774782806635,-0.021934336982667446,-35.3631578,149.16487174999997,47375.0,6.0,5.5,-152.0,0.0,0.0,-1000.0,2.5,3.5,-21.0
13:24:02,35731.0,RTL,0.010206439066678286,0.0029025707626715302,-1.4939627647399902,-0.0009092687105294317,0.0011085019214078784,0.023798104375600815,-35.363157650000005,149.16487204999999,50487.0,7.0,6.5,-152.0,0.0,0.0,-999.0,0.0,2.0,24.0
13:24:03,191985.0,RTL,0.007893383386544883,0.0012417635136898753,-1.474055916070938,-0.003002292156452313,-0.0015870004863245413,0.028700750321149826,-35.363157425,149.16487225,51649.75,8.0,7.0,-152.0,0.5,0.0,-1000.0,-1.5,-0.25,29.0
13:24:04,191985.0,RTL,0.004595685750246048,-0.0018980017048306763,-1.4420932531356812,0.0012964018387719989,-0.00020023345132358372,0.026103710755705833,-35.36315705,149.1648727,53589.5,6.0,5.5,-152.0,0.0,0.0,-999.5,2.0,0.0,26.5
13:24:06,236646.5,RTL,0.006244882941246033,-0.0019826521747745574,-1.4026188254356384,0.001725722977425903,0.0009268127614632249,0.01887717004865408,-35.363157,149.1648728,56696.0,3.0,1.5,-152.0,0.0,0.0,-1000.0,2.0,2.0,19.5
13:24:08,281308.0,RTL,0.0062612437177449465,-0.0015278265927918255,-1.373798906803131,-0.0013122179661877453,0.0008996474207378924,0.01339662168174982,-35.363157,149.16487265,59801.5,2.0,1.0,-152.0,0.0,0.0,-1000.0,0.0,1.5,13.5
13:24:09,154722.0,RTL,0.006254399544559419,-0.0012550287356134504,-1.3648915588855743,0.0014580086281057447,0.0019355012336745858,0.01260964386165142,-35.363157075,149.16487254999998,60974.25,2.0,1.0,-152.0,0.0,0.0,-999.5,2.25,3.0,13.0
13:24:10,154722.0,RTL,0.006130577996373177,-0.001432795892469585,-1.3517311811447144,-0.00020751444390043616,-0.0008274309802800417,0.011550313327461481,-35.3631571,149.1648724,62907.5,2.0,2.0,-152.0,0.0,0.0,-1000.0,1.0,0.0,12.0
13:24:12,140617.0,RTL,0.006451669614762068,-0.0016288735205307603,-1.3356792330741882,0.0003844173043034971,-0.00011919450480490923,0.00896240770816803,-35.3631572,149.16487235,66022.0,2.0,2.0,-152.0,0.0,0.0,-1000.0,1.5,0.5,9.5
13:24:14,126512.0,RTL,0.00598479132167995,-0.001686183037236333,-1.322492003440857,0.0009175143204629421,0.0020424225949682295,0.006648743757978082,-35.3631572,149.1648723,69128.0,2.0,2.0,-152.0,0.0,0.0,-1000.0,2.0,3.0,7.0
13:24:15,48993.0,RTL,0.006011951598338783,-0.0014717566082254052,-1.3181113004684448,0.0007948799611767754,-0.00043073244160041213,0.0068027181550860405,-35.3631572,149.1648723,70292.25,2.0,2.0,-152.0,0.0,0.0,-1000.5,2.0,0.5,7.5
13:24:16,48993.0,RTL,0.005883760517463088,-0.001710865122731775,-1.3111181855201721,0.0015650300192646682,0.0005569423665292561,0.006379401544108987,-35.3631572,149.1648723,72233.0,2.0,2.0,-152.0,0.0,0.0,-1000.0,2.5,1.5,7.0
13:24:18,145191.0,RTL,0.005282775731757283,-0.0014501093537546694,-1.30123770236969,6.767676677554846e-05,0.002036266785580665,0.006100876722484827,-35.3631572,149.1648722,75339.0,2.0,2.0,-152.0,0.0,0.0,-999.5,1.0,3.0,7.0
13:24:20,241389.0,RTL,0.0055350614711642265,-0.002041642728727311,-1.2916882634162903,-0.00041793662239797413,0.0009641721844673157,0.0030043157166801393,-35.3631572,149.1648722,78443.5,1.0,2.0,-152.0,0.0,0.0,-1000.0,0.5,2.5,4.0
13:24:21,82637.0,RTL,0.005548532120883465,-0.002125705243088305,-1.288960874080658,0.0004522364470176399,0.00027386652072891593,0.0048407697468064725,-35.3631572,149.1648722,79607.5,1.0,2.0,-152.0,0.0,0.0,-1000.0,1.5,1.25,5.5
13:24:22,82637.0,RTL,0.005776192992925644,-0.0019347653724253178,-1.28449946641922,0.001599448500201106,0.00036616658326238394,0.0044285880867391825,-35.3631572,149.1648722,81548.0,1.0,2.0,-152.0,0.0,0.0,-1000.0,2.5,1.5,5.0
13:24:24,102893.0,RTL,0.005676104221493006,-0.0018257622723467648,-1.2778907418251038,0.0008090321789495647,0.0007832931878510863,0.004691170994192362,-35.3631572,149.1648722,84655.0,1.0,2.0,-152.0,0.0,0.0,-1000.0,2.5,1.5,5.5
13:24:26,123149.0,RTL,0.005712619982659817,-0.0018122914480045438,-1.2722201943397522,0.0023495108471252024,0.002244477509520948,0.00407884840387851,-35.3631572,149.1648722,87768.0,1.0,2.0,-152.0,0.0,0.0,-1000.0,3.5,3.5,4.5
13:24:27,174357.0,RTL,0.005650482373312116,-0.0014966843300499022,-1.270258605480194,0.0005220631428528577,0.00043081067269667983,0.002551629819208756,-35.3631572,149.1648722,88936.0,1.0,2.0,-152.0,0.0,0.0,-1000.25,1.75,1.75,3.75
13:24:28,174357.0,RTL,0.004525406053289771,-0.0012605329393409193,-1.267142117023468,-0.0002217127475887537,0.0009267521090805531,0.0017340498743578792,-35.3631571,149.1648722,90869.5,1.0,2.0,-152.0,0.0,0.0,-999.5,1.0,2.0,3.0
13:24:30,120338.0,RTL,0.005343412980437279,-0.0018944076728075743,-1.2628083229064941,-0.00014852482127025723,0.0006407444889191538,0.003080646973103285,-35.3631571,149.1648722,93976.0,0.0,2.0,-152.0,0.0,0.0,-999.5,1.5,2.0,4.0
13:24:32,66319.0,RTL,0.005583917023614049,-0.002274498576298356,-1.2589554190635681,0.0017068680608645082,-0.0003161695785820484,0.002849170588888228,-35.3631572,149.1648722,97090.5,1.0,2.0,-152.0,0.0,0.0,-1000.0,3.0,1.0,4.0
13:24:33,34952.0,RTL,0.005460007581859827,-0.0019682780548464507,-1.2577938437461853,0.0007271294016391039,0.0010872148850467056,0.002854980673873797,-35.3631572,149.1648722,98255.25,1.0,1.0,-152.0,0.0,0.0,-1000.25,2.25,2.5,4.0
13:24:34,34952.0,RTL,0.005494159879162908,-0.0020115338847972453,-1.255758821964264,0.0005417862557806075,-0.0013550757430493832,0.0036750686122104526,-35.3631572,149.1648722,100199.0,1.0,2.0,-152.0,0.0,0.0,-1000.0,2.0,0.0,4.5
13:24:36,69638.5,RTL,0.005439370172098279,-0.002103333594277501,-1.2522253394126892,-0.0005032496410422027,0.0009624437661841512,0.0012817343813367188,-35.3631572,149.1648722,103303.5,1.0,2.0,-152.0,0.0,0.0,-1000.0,1.0,2.5,2.5
13:24:38,104325.0,RTL,0.004652887349948287,-0.001624386350158602,-1.2496234774589539,0.0025871506659314036,0.0011825976544059813,0.0024606590159237385,-35.3631571,149.1648722,106410.5,1.0,2.0,-152.0,0.0,0.0,-1000.0,4.0,2.5,3.5
13:24:39,232696.0,RTL,0.004869841621257365,-0.001956989784957841,-1.2488280534744263,0.0010530033614486456,-0.00040120494668371975,0.0016821889148559421,-35.3631571,149.1648722,107576.25,0.0,2.0,-152.0,0.0,0.0,-1000.0,2.75,1.25,3.0
13:24:40,232696.0,RTL,0.005237713223323226,-0.00207698333542794,-1.2476733326911926,0.0022255368530750275,0.00026207457995042205,0.002762273419648409,-35.3631571,149.1648722,109517.0,0.0,2.0,-152.0,0.0,0.0,-1000.0,4.0,1.5,4.0
13:24:42,126671.0,RTL,0.005967419128865004,-0.002206559758633375,-1.2459389567375183,7.06008868291974e-05,0.0013758001732639968,0.002927592257037759,-35.3631571,149.1648722,112624.0,1.0,1.0,-152.0,0.0,0.0,-999.5,1.5,3.0,4.0
13:24:44,20646.0,RTL,0.00534740649163723,-0.0018731283489614725,-1.2440635561943054,0.0005957545945420861,0.0012854124652221799,0.0014404899557121098,-35.3631571,149.1648722,115731.0,1.0,1.5,-152.0,0.0,0.0,-1000.0,2.5,3.0,2.5
13:24:45,42283.0,RTL,0.005154144833795726,-0.0018364542338531464,-1.2437047362327576,-3.0049384804442525e-05,0.000247480405960232,0.0017302334017585963,-35.3631571,149.1648722,116896.5,1.0,2.0,-152.0,0.0,0.0,-999.75,1.75,1.75,3.25
13:24:46,42283.0,RTL,0.004365694476291537,-0.0017127551254816353,-1.2428356409072876,0.0005330925341695547,0.000544450362212956,0.0019407504587434232,-35.3631571,149.1648722,118841.0,0.5,2.0,-152.0,0.0,0.0,-999.5,2.5,2.0,3.5
13:24:48,155965.5,RTL,0.0049853699747473,-0.0020916908979415894,-1.2415801882743835,-0.0011662835022434592,0.0004203510470688343,0.0006240798393264413,-35.3631571,149.1648722,121947.5,0.0,1.0,-152.0,0.0,0.0,-1000.0,1.0,2.0,2.0
13:24:50,269648.0,RTL,0.0048509587068110704,-0.002007510920520872,-1.2404823899269104,6.812636274844408e-05,0.0005810067523270845,1.03730708360672e-05,-35.3631571,149.1648722,125054.0,0.0,1.0,-152.0,0.0,0.0,-1000.0,2.0,2.0,1.5
13:24:51,267107.0,RTL,0.005226083332672715,-0.0020843671227339655,-1.2397485673427582,0.0007248879701364785,-0.00013630898320116103,0.0024764545378275216,-35.3631571,149.164872225,126218.75,0.0,1.25,-152.0,0.0,0.0,-1000.0,2.25,2.0,4.0
13:24:52,267107.0,RTL,0.005535793956369162,-0.0026096865767613053,-1.2388322949409485,0.000555502250790596,-0.0004454914014786482,0.0016685236478224397,-35.3631571,149.1648723,128168.0,1.0,1.0,-152.0,0.0,0.0,-1000.5,2.0,1.5,3.0
13:24:54,142413.5,RTL,0.005292760673910379,-0.0018436467507854104,-1.2382227182388306,0.00036785105476155877,0.0005932258209213614,0.0007305160979740322,-35.3631571,149.1648723,131275.5,1.0,1.0,-152.0,0.0,0.0,-1000.0,2.0,2.0,2.5
13:24:56,17720.0,RTL,0.004868811462074518,-0.0016556291375309229,-1.2375903725624084,0.002890148665755987,0.0007505856920033693,0.0018688715063035488,-35.3631571,149.1648723,134382.0,0.0,1.0,-152.0,0.0,0.0,-1000.0,4.5,2.5,3.5
13:24:57,281789.0,RTL,0.005162851884961128,-0.0017311423434875906,-1.2371835112571716,0.0018994939746335149,0.001002870878437534,0.001412300072843209,-35.3631571,149.1648723,135547.25,0.0,1.25,-152.0,0.0,0.0,-999.5,4.0,2.75,3.0
13:24:58,281789.0,RTL,0.004996845498681068,-0.0019264007569290698,-1.2369009256362915,0.0005419851513579488,0.00025651766918599606,0.00019967835396528244,-35.3631571,149.1648723,137488.5,0.0,2.0,-152.0,0.0,0.0,-1000.0,3.0,2.0,1.5
13:25:00,259960.0,RTL,0.005112051963806152,-0.0020540017867460847,-1.2365450263023376,0.0022989280405454338,-0.0009447522461414337,0.0010970268631353974,-35.3631571,149.1648723,140595.5,0.0,2.0,-152.0,0.0,0.0,-1000.5,4.0,1.0,2.5
13:25:02,238131.0,RTL,0.005277828546240926,-0.0020026019774377346,-1.235898733139038,-0.0018346672877669334,-0.0003540246980264783,-0.0003015041584149003,-35.3631571,149.1648723,143701.5,1.0,1.0,-152.0,0.0,0.0,-1000.0,0.5,1.5,1.0
13:25:03,85409.0,RTL,0.005110771511681378,-0.0019111025612801313,-1.2358068525791168,0.0016102488152682781,0.0009654911118559539,0.0016960414359346032,-35.3631571,149.1648723,144869.25,1.0,1.0,-152.0,0.0,0.0,-1000.0,3.5,3.0,3.0
13:25:04,85409.0,RTL,0.004083576845005155,-0.0019045757362619042,-1.2356960773468018,-0.0002602706663310528,-0.00012146547669544816,-0.0007383964257314801,-35.3631571,149.1648723,146808.0,0.5,1.0,-152.0,0.0,0.0,-1000.0,1.5,1.5,1.0
13:25:06,121739.5,RTL,0.004881579428911209,-0.0023334905272349715,-1.2353892922401428,5.410442827269435e-05,-0.0006296663195826113,0.002651275251992047,-35.3631571,149.1648723,149919.0,0.0,1.0,-152.0,0.0,0.0,-1000.0,2.0,1.5,4.5
13:25:08,158070.0,RTL,0.0050762679893523455,-0.0023014420876279473,-1.2345272302627563,0.0014869773294776678,0.0013210817705839872,0.001651688595302403,-35.3631571,149.1648723,153025.5,0.0,1.0,-152.0,0.0,0.0,-999.5,3.5,3.5,3.0
13:25:09,179531.0,RTL,0.005433346494100988,-0.002347505767829716,-1.2343188524246216,0.0007461621426045895,0.0001809620880521834,0.0007677943212911487,-35.3631571,149.1648723,154191.0,0.25,1.0,-152.0,0.0,0.0,-999.75,2.75,2.25,2.5
13:25:10,179531.0,RTL,0.005761968903243542,-0.0022630597231909633,-1.2342195510864258,0.0003822792787104845,9.534793207421899e-05,0.001389827928505838,-35.3631571,149.1648723,156132.5,1.0,1.0,-152.0,0.0,0.0,-1000.0,2.5,2.0,3.0
13:25:12,232884.0,RTL,0.005253343377262354,-0.0015961775789037347,-1.2342177033424377,-0.0005938045214861631,0.001205882173962891,-0.0001319523435086012,-35.3631571,149.1648723,159241.0,1.0,1.0,-152.0,0.0,0.0,-1000.0,1.5,3.0,2.0
13:25:14,286237.0,RTL,0.004730946850031614,-0.0019336247933097184,-1.2339600324630737,0.0009096757275983691,0.00014084635768085718,0.0005262371269054711,-35.3631571,149.1648723,162349.5,0.0,1.0,-152.0,0.0,0.0,-1000.5,3.0,2.0,2.0
13:25:15,263692.0,RTL,0.004961273167282343,-0.0020173912635073066,-1.2338463068008423,0.00035485526314005256,0.0006766633596271276,0.0012896085972897708,-35.3631571,149.1648723,163514.5,0.0,1.0,-152.0,0.0,0.0,-1000.0,2.5,2.75,3.0
13:25:16,263692.0,RTL,0.004918351769447327,-0.002049089875072241,-1.2338960766792297,-0.00060878018848598,0.0011935088550671935,-0.0003704643459059298,-35.3631571,149.1648723,165458.0,0.0,1.0,-152.0,0.0,0.0,-999.5,1.5,3.0,1.5
13:25:18,185705.0,RTL,0.004899629857391119,-0.002289072028361261,-1.2338166236877441,0.0015452979132533073,0.0008372077718377113,0.0021876395912840962,-35.3631571,149.1648723,168564.0,0.0,1.0,-152.0,0.0,0.0,-999.5,3.5,3.0,4.0
13:25:20,107718.0,RTL,0.0056019851472228765,-0.002253924496471882,-1.233497977256775,0.000830231118015945,0.0007683936273679137,0.0011700992472469807,-35.3631571,149.1648723,171678.0,1.0,1.0,-152.0,0.0,0.0,-1000.0,3.0,2.5,3.0
13:25:21,10134.0,RTL,0.005301472381688654,-0.002042757609160617,-1.233501523733139,3.2123003620654345e-05,0.0007476531900465488,6.631220458075404e-05,-35.3631571,149.1648723,172842.75,1.0,1.0,-152.0,0.0,0.0,-1000.25,2.5,2.75,2.0
13:25:22,10134.0,RTL,0.004261670866981149,0.026225409470498562,-1.2332901358604431,-0.0033728949492797256,0.05308717302978039,0.0003929544473066926,-35.3631571,149.1648724,174779.0,-1.0,8.5,-151.0,0.5,0.0,-999.0,-0.5,55.5,2.0
13:25:24,17648.0,RTL,-0.006973318289965391,0.09858424589037895,-1.232049584388733,-0.010450214147567749,0.03938618302345276,5.6358694564551115e-05,-35.3631601,149.16488385,177787.0,-36.0,113.0,-139.5,21.0,8.5,-990.5,-7.0,41.5,2.0
13:25:26,25162.0,RTL,0.06676169857382774,0.09371913224458694,-0.7128711938858032,0.006645407527685165,-0.059463195502758026,0.09758450090885162,-35.3631764,149.16492875,179609.0,-129.0,293.0,-25.0,71.5,7.5,-942.0,9.0,-56.5,99.5
13:25:27,178675.0,RTL,0.05970338825136423,0.09177654050290585,-0.677160233259201,-0.2745090238749981,0.020210897084325552,0.01477246847935021,-35.363184175,149.1649551,179636.75,-104.25,333.5,11.5,78.25,-5.25,-952.75,-271.75,22.5,17.25
13:25:28,178675.0,RTL,0.020801902282983065,0.13374034315347672,-0.6971387267112732,0.2650911572854966,0.012471899390220642,-0.055324528366327286,-35.363195149999996,149.1650051,179342.5,-101.5,387.0,19.0,95.0,4.5,-1015.5,267.0,15.0,-53.0
13:25:30,103445.5,RTL,-0.018149862997233868,0.10050876066088676,-0.7865806818008423,0.3045341968536377,-0.03151585487648845,-0.005309983156621456,-35.36321835,149.1650943,179210.0,-138.5,407.5,-0.5,101.5,39.0,-994.5,307.5,-29.0,-3.0
13:25:32,28216.0,RTL,-0.0649132989346981,-0.004052797201438807,-0.8599283397197723,-0.4626021832227707,-0.03727060183882713,-0.03831162489950657,-35.36324305,149.1651782,179263.0,-119.5,314.5,-0.5,78.0,16.0,-982.0,-459.0,-34.0,-35.5
13:25:33,208662.0,RTL,-0.05336182564496994,-0.041957275941967964,-0.8806357830762863,0.04870353639125824,-0.0577705567702651,-0.03787796129472554,-35.3632504,149.165201925,179262.25,-99.5,245.25,1.75,65.75,10.75,-995.25,50.75,-55.0,-35.0
13:25:34,208662.0,RTL,-0.03557953145354986,-0.07971060648560524,-0.9135165810585022,0.680697113275528,0.023870753590017557,-0.009550140472128987,-35.36325925,149.16522815,179248.5,-51.5,114.0,2.0,28.0,47.5,-1013.5,683.5,26.0,-7.0
13:25:36,115011.5,RTL,0.01657523261383176,-0.031917751766741276,-0.9575147032737732,0.014040887355804443,0.016618923749774694,-0.019064869731664658,-35.363265049999995,149.16523975,179226.5,0.5,14.5,0.5,2.0,-12.0,-1000.5,16.0,18.5,-16.0
13:25:38,21361.0,RTL,-0.0017151730135083199,-0.001799196528736502,-0.9848970174789429,-0.5302691459655762,-0.022076568566262722,-0.012264451012015343,-35.3632647,149.16524040000002,179232.0,12.5,7.0,0.5,1.5,-16.5,-1001.5,-526.5,-19.0,-9.5
13:25:39,22376.0,RTL,0.003751641314011067,-0.010050534969195724,-0.9939191341400146,0.3563823401927948,-0.004129276494495571,-0.0142020124476403,-35.363264125,149.16524082499998,179234.25,10.0,1.25,0.5,1.0,2.5,-996.75,358.75,-1.5,-11.5
13:25:40,22376.0,RTL,-0.005639525188598782,-0.006693308707326651,-1.0083786249160767,0.1536511927843094,0.005638506030663848,-0.006205088924616575,-35.3632631,149.16524075,179232.5,6.5,-8.5,0.0,0.0,15.0,-1008.0,157.5,7.5,-3.0
13:25:42,100891.5,RTL,0.0015511534438701347,-0.0034700341057032347,-1.024636447429657,0.2843579463660717,-0.0018091198289766908,-0.008520107250660658,-35.3632617,149.16523984999998,179236.5,-5.0,-12.5,1.0,-0.5,-4.5,-992.0,286.5,0.5,-5.5
13:25:44,179407.0,RTL,0.021317667327821255,-0.00477294554002583,-1.0369617342948914,1.508955478668213,-0.001157280057668686,-0.005373821477405727,-35.3632619,149.1652388,178660.5,-4.5,-8.0,84.0,0.5,58.5,-953.5,1511.5,1.5,-2.5
13:25:45,209503.0,RTL,0.00031193136237561703,-0.004797553294338286,-1.0409950613975525,0.8488295283168554,0.0008570092031732202,0.010361015272792429,-35.363261875,149.16523865,177861.5,-3.25,-7.0,115.0,0.0,65.25,-987.25,852.75,3.0,12.75
13:25:46,209503.0,RTL,-0.03915214352309704,-0.00035967034636996686,-1.0481798648834229,-1.049962967634201,-0.0030071253422647715,0.0016077831387519836,-35.36326095,149.16523905,176466.0,-3.0,-7.5,102.0,3.0,-10.0,-953.0,-1046.0,0.0,4.5
13:25:48,214155.0,RTL,-0.023023370653390884,-0.009551589842885733,-1.057845652103424,-1.3508194088935852,0.0027122270548716187,-0.005924699711613357,-35.36326015,149.1652398,174402.0,-25.5,-18.0,97.5,-2.0,-54.0,-1039.5,-1348.5,4.5,-3.0
13:25:50,218807.0,RTL,0.01976173184812069,-0.010121630504727364,-1.0666254162788391,-0.5300675332546234,0.001721017761155963,-0.005293883034028113,-35.36326215,149.1652385,172346.5,-10.5,-12.5,97.5,-2.5,-57.0,-981.0,-530.0,3.0,-2.5
13:25:51,197475.0,RTL,0.021643026266247034,-0.008414439158514142,-1.0693171620368958,-0.47843567840754986,0.0010196408547926694,-0.005066854995675385,-35.363262825,149.16523790000002,171593.5,-3.0,-7.75,99.75,-1.5,-54.25,-995.25,-478.0,2.25,-2.25
13:25:52,197475.0,RTL,0.03310565371066332,-0.003927706507965922,-1.0735501646995544,0.9715534746646881,0.00018315931083634496,-0.014605333097279072,-35.36326335,149.16523715,170319.5,8.0,-1.0,100.0,0.5,7.0,-1007.0,971.5,2.0,-11.5
13:25:54,160893.5,RTL,0.011276376899331808,-0.0012202782672829926,-1.0809308290481567,1.3422247767448425,-0.0012434711679816246,0.0025372201343998313,-35.363262,149.16523765,168275.0,3.5,0.0,98.0,0.5,40.0,-1020.5,1343.0,0.5,4.5
13:25:56,124312.0,RTL,0.010256267618387938,-0.009906894993036985,-1.0868576765060425,0.6948341727256775,0.0014995544916018844,-0.004393210751004517,-35.363262399999996,149.16523765,166232.5,0.0,0.0,99.0,-6.5,70.5,-1004.0,697.5,3.5,-1.0
13:25:57,150782.0,RTL,0.04045478953048587,-0.01441384362988174,-1.0903635621070862,0.8907635062932968,-0.003282549441792071,-0.0029191133799031377,-35.3632642,149.16523669999998,165467.0,8.0,4.0,98.25,-10.25,78.25,-992.5,893.75,-1.25,-0.25
13:25:58,150782.0,RTL,0.0661440659314394,-0.015306344255805016,-1.09307461977005,-0.8692788779735565,-0.00031964152003638446,-0.0015592868439853191,-35.3632686,149.1652339,164185.0,42.5,21.0,96.0,-11.5,6.5,-1014.5,-864.5,1.5,1.5
13:26:00,150782.0,RTL,0.09808364138007164,-0.0024674561573192477,-1.0948532819747925,-1.0881245136260986,0.009907607221975923,-0.0037118340842425823,-35.3632741,149.16522980000002,162204.0,109.5,53.5,105.5,-1.5,-24.5,-1037.0,-1081.5,11.0,-1.0
13:26:01,255441.0,RTL,0.0769922100007534,0.0026097712107002735,-1.0954993963241577,-1.2337279915809631,0.005880320240976289,-0.003025996091309935,-35.3632737,149.16522965,161461.5,118.0,59.0,105.75,3.25,-37.25,-986.75,-1226.5,7.25,0.0
13:26:02,255441.0,RTL,0.036439405754208565,0.008365686051547527,-1.0966224074363708,-1.4186289310455322,0.0028106667450629175,-0.01073016645386815,-35.36327085,149.16523115,160184.5,108.5,56.5,102.5,8.0,-77.5,-1013.0,-1411.5,4.5,-7.5
13:26:04,129262.0,RTL,0.0161701119504869,0.0018201922648586333,-1.1009387969970703,-1.1567916572093964,-0.00529713009018451,-0.0031488772947341204,-35.3632663,149.1652345,158098.5,61.0,34.5,99.5,7.5,-70.5,-1067.0,-1149.5,-3.0,-0.5
13:26:06,129262.0,RTL,0.04436647333204746,-0.005397074623033404,-1.1033782362937927,0.6273941993713379,-0.002174779772758484,-0.0020469644805416465,-35.363264650000005,149.16523625000002,156040.5,32.5,17.0,101.5,1.0,-11.5,-1029.5,634.5,-0.5,0.5
13:26:07,66752.0,RTL,0.0519405547529459,-0.006784316967241466,-1.1058143973350525,1.047113299369812,-0.0012452796509023756,0.0012321410467848182,-35.36326495,149.1652363,155280.75,30.25,14.5,100.75,0.0,12.5,-982.0,1054.75,0.25,4.0
13:26:08,66752.0,RTL,0.037161583080887794,-0.0038228470366448164,-1.1062235832214355,0.9252330362796783,-0.0006571545964106917,0.01046997238881886,-35.3632652,149.1652361,153998.5,36.0,15.0,99.0,0.5,64.5,-1040.5,936.0,1.0,13.0
13:26:10,158030.0,RTL,0.015687345527112484,-0.0009592320129740983,-1.1093778014183044,0.5502390414476395,-0.001422123285010457,0.013408154249191284,-35.36326445,149.16523625000002,151966.0,30.5,12.5,100.0,2.5,55.5,-1015.0,562.5,0.5,16.0
13:26:12,158030.0,RTL,-0.03271426726132631,0.0032513088081032038,-1.109279990196228,0.37615618854761124,-0.0008445798303000629,0.02165209176018834,-35.363260999999994,149.1652381,149910.0,7.5,2.0,102.5,3.5,55.0,-989.5,388.5,1.0,24.0
13:26:13,2340.0,RTL,-0.0395210487768054,0.0003061505121877417,-1.1104322969913483,0.274621345102787,-0.005535837495699525,-0.0012881119037047029,-35.36325985,149.16523885,149143.5,-7.0,-3.0,99.25,2.0,49.0,-985.0,286.75,-3.5,1.25
13:26:14,2340.0,RTL,-0.02302845660597086,-0.00447003124281764,-1.1124269366264343,0.393064022064209,0.00023353227879852057,0.008004383649677038,-35.363259400000004,149.16523934999998,147857.5,-25.5,-11.5,100.5,-0.5,53.5,-984.5,405.0,2.0,10.5
13:26:16,136422.0,RTL,-0.0472605898976326,-0.0007528823334723711,-1.1132442355155945,-1.1841284036636353,-0.0017892337637022138,0.0007307648193091154,-35.3632589,149.16523955000002,145792.0,-29.5,-15.0,97.0,2.0,-23.0,-1019.0,-1173.5,0.0,3.5
13:26:18,136422.0,RTL,-0.053401947021484375,-0.0020441549131646752,-1.1150553822517395,-1.3688932061195374,-0.0008882738184183836,-0.008540784358046949,-35.3632578,149.1652401,143758.5,-43.5,-20.5,97.0,-1.0,-50.5,-995.5,-1360.0,1.0,-6.0
13:26:19,195780.0,RTL,-0.04926509503275156,-0.0029820756753906608,-1.1154548525810242,-1.210475891828537,9.025886538438499e-05,0.003734371217433363,-35.3632578,149.16524017499998,143006.0,-44.5,-21.0,96.25,1.5,-31.0,-1012.5,-1201.25,1.75,6.25
13:26:20,195780.0,RTL,-0.05279611796140671,-0.0043117988388985395,-1.116526186466217,-0.6250037252902985,-0.00027978699654340744,-0.001020293915644288,-35.36325775,149.1652403,141741.0,-45.0,-22.0,99.5,-2.0,9.5,-1017.0,-615.5,1.0,2.0
13:26:22,73851.0,RTL,-0.0321278627961874,-0.006053277524188161,-1.1158799529075623,-0.20315489917993546,-0.0005570962093770504,-0.002541369292885065,-35.3632589,149.16523975,139711.5,-38.5,-19.5,105.0,-4.0,35.5,-972.0,-194.5,1.0,0.5
13:26:24,73851.0,RTL,0.016001946292817593,-0.011068721767514944,-1.1192331314086914,-0.7195819616317749,0.004477567214053124,-0.011278290301561356,-35.363263,149.1652373,137651.5,-13.5,-6.0,94.5,-8.0,8.5,-986.0,-711.0,6.0,-8.0
13:26:25,32584.0,RTL,0.03208027966320515,-0.008279016241431236,-1.1185158789157867,-1.4002285599708557,0.008222879463573918,0.003561371471732855,-35.363264825,149.165236075,136882.0,6.0,2.0,99.25,-5.0,-43.0,-977.0,-1392.5,9.75,6.5
13:26:26,32584.0,RTL,0.03157533518970013,-0.00032180427297134884,-1.1179620623588562,-1.214413046836853,-0.002947317552752793,-0.01271566841751337,-35.3632659,149.165235,135607.5,32.0,14.5,101.5,0.0,-61.5,-1077.0,-1208.0,-1.0,-9.0
13:26:28,130801.0,RTL,0.022336711175739765,0.0023522881092503667,-1.1179625988006592,-0.742721438407898,0.006759459152817726,-0.0045894538052380085,-35.363265049999995,149.16523510000002,133581.0,32.5,18.0,100.0,4.0,-65.5,-987.0,-736.5,8.5,-1.0
13:26:30,130801.0,RTL,-0.0371185839176178,0.0035093824844807386,-1.1189044713974,-1.4197934865951538,-0.0024136709980666637,-0.0025419327430427074,-35.3632619,149.1652371,131548.0,10.0,7.0,102.0,5.0,-69.0,-1046.0,-1412.0,0.0,0.0
13:26:31,39357.0,RTL,-0.02451649261638522,0.003153385710902512,-1.1184250712394714,-0.9112614840269089,-0.0004542966198641807,-0.00892360892612487,-35.3632608,149.16523785,130905.0,-3.0,1.0,98.5,6.25,-74.25,-986.75,-904.75,1.25,-5.25
13:26:32,39357.0,RTL,-0.02751596737653017,0.005975308828055859,-1.1187349557876587,-0.2348242849111557,-0.00094623799668625,-0.014294480439275503,-35.36325875,149.1652391,129892.5,-20.5,-7.5,98.0,8.0,-60.0,-974.5,-229.0,1.0,-10.5
13:26:34,22707.0,RTL,-0.06051580607891083,0.004156434559263289,-1.1197622418403625,0.6335168182849884,-0.010317823151126504,-0.0015244970563799143,-35.36325395,149.16524195,127888.5,-69.0,-29.0,101.5,5.0,-20.0,-926.0,637.5,-8.0,2.0
13:26:36,22707.0,RTL,-0.06010715663433075,-0.0050530992448329926,-1.119471251964569,-0.9392522871494293,0.0008872137987054884,-0.012115935795009136,-35.36325345,149.1652428,125881.5,-95.0,-42.5,105.0,0.5,-71.5,-920.5,-937.0,2.5,-8.5
13:26:37,136526.0,RTL,-0.058484471403062344,-0.005690266960300505,-1.1196112632751465,-1.1403605043888092,0.00044461735524237156,-0.005760077910963446,-35.363254275,149.165242425,124847.75,-91.75,-42.75,104.5,-2.25,-68.25,-992.25,-1138.25,2.5,-2.75
13:26:38,136526.0,RTL,-0.03533621318638325,-0.006953047588467598,-1.1204335689544678,-0.8641433119773865,-0.002567454008385539,-0.0011089220643043518,-35.3632554,149.1652418,123811.0,-83.0,-39.5,103.5,-3.0,-60.5,-1007.0,-863.0,-0.5,2.0
13:26:40,234602.0,RTL,0.024571676272898912,-0.014210719615221024,-1.1205726861953735,0.01004992425441742,-0.002772838925011456,0.002239725668914616,-35.363260350000004,149.16523899999999,121723.5,-47.0,-22.0,102.0,-10.0,-20.0,-1046.0,10.0,-0.5,5.5
13:26:42,234602.0,RTL,0.06142514385282993,-0.002721990109421313,-1.1184893250465393,0.5890783071517944,0.006174365291371942,-0.009584062732756138,-35.3632651,149.16523575,119673.5,11.0,2.5,104.5,-0.5,-11.5,-1028.5,589.0,8.0,-5.5
13:26:43,58297.0,RTL,0.02202137850690633,0.004395704483613372,-1.1188643276691437,0.05628006858751178,0.0005258190212771297,-0.010771004483103752,-35.363264325,149.16523575,118662.75,22.5,8.5,96.0,3.75,-41.5,-993.75,56.5,2.75,-6.75
13:26:44,58297.0,RTL,0.004771182080730796,0.0037918483139947057,-1.1191388964653015,0.38700875267386436,0.00013934262096881866,0.0029762471094727516,-35.36326255,149.1652367,117640.0,12.5,7.0,104.0,3.5,-19.0,-997.0,387.5,2.5,6.0
13:26:46,258507.0,RTL,0.016685711219906807,-0.00683886231854558,-1.1194272637367249,0.33488690853118896,0.0006542196497321129,0.0032319885212928057,-35.36326175,149.1652379,115609.5,-5.5,-2.0,100.5,-0.5,-17.0,-1006.5,334.5,2.5,6.5
13:26:48,258507.0,RTL,0.023619293235242367,-0.006524174241349101,-1.1193984150886536,0.08653323724865913,0.005596236092969775,-0.0018972331890836358,-35.363262399999996,149.1652378,113587.0,-1.5,-2.5,108.0,-1.5,-30.5,-979.0,86.5,7.0,1.5
13:26:49,129272.0,RTL,0.03540485538542271,-0.0059159970842301846,-1.1197117567062378,0.2984079481102526,0.002127374755218625,0.004078322264831513,-35.363263225,149.165237225,112561.5,3.0,0.0,101.25,-2.5,-22.5,-1003.75,298.5,4.0,7.0
13:26:50,129272.0,RTL,0.04454123415052891,-0.005173362558707595,-1.119997262954712,0.8235515058040619,0.0004581350367516279,0.004690253525041044,-35.36326405,149.16523655,111540.5,11.5,4.0,99.0,-2.5,12.5,-979.0,824.0,2.0,7.5
13:26:52,94389.0,RTL,0.03914325684309006,0.0017071861366275698,-1.1198115944862366,1.1560296416282654,0.008037928491830826,-0.002259330009110272,-35.3632642,149.165236,109517.5,23.0,9.5,102.0,2.0,21.5,-962.0,1157.5,9.5,0.5
13:26:54,94389.0,RTL,0.0009996664593927562,-0.00029197795083746314,-1.1187859773635864,1.1676527857780457,-0.002936223754659295,0.0122567672515288,-35.3632619,149.1652373,107479.0,5.5,5.5,105.0,1.5,72.0,-1054.0,1171.0,-1.0,15.5
13:26:55,187641.0,RTL,0.0014277287991717458,-0.003386658208910376,-1.119344711303711,0.9495438486337662,-0.0009977322188206017,0.005974918545689434,-35.3632618,149.165237575,106458.75,-1.75,1.0,99.75,-0.25,68.0,-1009.0,953.75,1.25,9.0
13:26:56,187641.0,RTL,-0.002292509889230132,-0.0025900020264089108,-1.1199113726615906,0.7295115441083908,0.002730578533373773,0.017271209973841906,-35.36326185,149.16523765,105439.5,-0.5,0.0,106.0,-0.5,67.0,-972.0,733.5,4.0,20.5
13:26:58,203900.0,RTL,-0.010549129918217659,-0.0032054989133030176,-1.1196211576461792,0.04803069680929184,0.00019710161723196507,0.006364857545122504,-35.3632618,149.1652378,103380.5,-1.0,0.0,103.0,-0.5,43.5,-956.5,52.5,1.5,9.5
13:27:00,203900.0,RTL,0.015117128379642963,-0.005611068103462458,-1.1192831993103027,0.6195245385169983,0.0009259989019483328,0.014073977246880531,-35.36326305,149.1652371,101348.5,3.0,2.0,101.5,-4.0,62.5,-1014.0,624.0,2.5,17.5
13:27:01,209543.0,RTL,0.026183845940977335,-0.0033478118130005896,-1.119169682264328,0.8466962352395058,0.0047243962762877345,0.00019063358195126057,-35.363263849999996,149.165236525,100322.75,12.0,5.75,99.5,-2.0,64.5,-988.0,851.25,6.75,3.75
13:27:02,209543.0,RTL,0.025276009924709797,-0.0030530960066244006,-1.1203108429908752,0.7837960720062256,0.005675993277691305,0.003159917891025543,-35.36326425,149.16523619999998,99302.0,19.5,10.0,99.5,-1.5,68.0,-1019.0,788.5,7.5,6.0
13:27:04,221227.0,RTL,0.023203706368803978,-0.002202086499892175,-1.1191948652267456,0.49552011489868164,0.004001052584499121,0.0033622185001149774,-35.363264650000005,149.16523585,97254.0,25.5,13.5,96.0,-0.5,57.0,-994.5,501.0,5.5,6.5
13:27:06,221227.0,RTL,0.014202131424099207,-0.004121956531889737,-1.119968831539154,-0.9445606470108032,-0.00033769162837415934,0.007297590374946594,-35.36326525,149.1652355,95213.5,28.0,15.5,102.5,-1.5,0.0,-954.5,-938.0,1.5,10.5
13:27:07,163588.0,RTL,0.02540928777307272,-0.001858508781879209,-1.1195208728313446,-0.5604226589202881,0.006945539265871048,0.0039642564952373505,-35.363265850000005,149.165235125,94196.5,34.75,17.25,99.75,0.75,7.0,-992.75,-553.5,8.5,7.5
13:27:08,163588.0,RTL,-0.0023726029321551323,0.004251681501045823,-1.118312120437622,-0.8716167509555817,0.008133340976200998,-0.00478339521214366,-35.363264799999996,149.1652355,93175.0,35.0,17.5,98.5,3.5,-6.0,-1000.5,-865.0,9.5,-1.0
13:27:10,250158.0,RTL,-0.027367948554456234,0.0017296429286943749,-1.1189614534378052,-1.0033589899539948,-0.004411719331983477,-0.0016280357958748937,-35.3632616,149.1652373,91140.5,4.0,6.0,100.0,2.0,-22.0,-979.0,-997.0,-2.0,1.5
13:27:12,250158.0,RTL,-0.018651003949344158,-0.004825557814911008,-1.1195436716079712,-1.1274607181549072,0.0019983407109975815,0.0009297260548919439,-35.363261300000005,149.16523805,89128.0,-7.5,-0.5,106.0,-1.5,-17.0,-978.0,-1121.0,3.5,5.0
13:27:13,214302.0,RTL,-0.008883753413101658,-0.00583382323384285,-1.1191090047359467,-0.7077630758285522,-0.0020053821499459445,-0.0032086640712805092,-35.3632619,149.16523785,88115.25,-5.25,-1.0,105.75,-2.75,5.0,-984.25,-700.5,0.5,0.5
13:27:14,214302.0,RTL,-0.0003202790394425392,-0.007593248737975955,-1.120275616645813,-0.9584861993789673,-0.0027399154496379197,0.0011081149568781257,-35.363262899999995,149.16523740000002,87081.5,1.0,0.5,105.0,-3.5,-11.5,-1027.5,-952.0,-0.5,4.5
13:27:16,136405.0,RTL,0.028718368150293827,-0.0074868472293019295,-1.119841456413269,-1.2969961762428284,0.0028165276162326336,-0.0018055508844554424,-35.3632652,149.165236,85034.0,21.5,9.0,99.0,-3.5,-53.5,-1050.5,-1291.5,5.0,2.0
13:27:18,136405.0,RTL,0.07609771937131882,-0.004630205919966102,-1.1191051602363586,0.5089856833219528,0.003065214492380619,-0.0063459493685513735,-35.36326765,149.16523435,83001.0,48.0,21.5,103.5,-1.5,-9.5,-1008.5,514.0,4.5,-2.0
13:27:19,233833.0,RTL,0.0587937543168664,0.0012690959720202954,-1.1183308959007263,0.7747128009796143,0.0034314009826630354,-0.006907288043294102,-35.363267325,149.16523425,81997.75,56.25,24.75,103.5,3.75,-10.5,-998.0,780.0,5.0,-2.75
13:27:20,233833.0,RTL,0.02937818132340908,0.0052544360514730215,-1.1188366413116455,0.44205380231142044,0.006629401934333146,-0.002395235002040863,-35.36326535,149.16523519999998,80972.5,46.0,21.0,104.5,5.0,-25.5,-979.0,447.0,8.5,1.0
13:27:22,212601.0,RTL,0.006038121413439512,-0.001013212458929047,-1.1180987358093262,1.249852478504181,-0.005819529411382973,0.005010249791666865,-35.36326215,149.16523740000002,78905.5,12.0,7.5,100.5,1.5,42.5,-1041.5,1257.0,-3.0,8.5
13:27:24,212601.0,RTL,0.014712049160152674,-0.00645757676102221,-1.1178148984909058,1.5671916604042053,0.0018224769737571478,0.014541174285113811,-35.363261949999995,149.16523805,76870.0,-0.5,-0.5,102.5,-1.5,78.0,-926.5,1575.5,4.0,18.0
13:27:25,116229.0,RTL,0.007377001456916332,-0.00882563495542854,-1.1193482279777527,0.45205598324537277,-0.0021072239032946527,0.00028114544693380594,-35.363262649999996,149.16523782500002,75850.25,1.75,-0.5,102.5,-3.25,61.5,-1006.25,461.5,0.0,4.0
13:27:26,116229.0,RTL,0.025051124393939972,-0.008495223009958863,-1.1194668412208557,0.8298027217388153,0.002115487353876233,0.0077063217759132385,-35.36326375,149.16523719999998,74838.0,11.0,1.5,103.5,-3.0,70.0,-951.0,839.5,4.0,11.0
13:27:28,207568.0,RTL,0.034570446237921715,-0.006309408228844404,-1.119853138923645,0.7534724473953247,0.0017501919064670801,0.0006256629712879658,-35.3632654,149.16523595,72803.0,30.0,11.5,104.0,-2.5,80.0,-930.5,763.5,4.0,4.0
13:27:30,207568.0,RTL,0.029334653168916702,-0.0030626050429418683,-1.1185153722763062,0.24775344878435135,0.0035261104349046946,0.0028885987121611834,-35.363266249999995,149.16523515,70751.0,43.5,18.5,96.5,-1.0,54.0,-958.0,259.0,5.5,6.5
13:27:31,89413.0,RTL,0.03448149375617504,-0.001726861868519336,-1.1186676621437073,0.8173143714666367,0.0031288433237932622,0.0008194123511202633,-35.36326605,149.16523512499998,69728.75,43.25,19.25,102.25,0.0,65.0,-1005.75,828.75,4.75,4.25
13:27:32,89413.0,RTL,0.01152581162750721,-0.0018113584956154227,-1.119368314743042,-0.3006966710090637,-0.001686371280811727,0.01482078479602933,-35.3632657,149.16523525000002,68697.5,40.5,19.5,105.0,0.0,27.5,-970.0,-288.5,0.5,18.5
13:27:34,180479.0,RTL,0.011683806544169784,-0.0013258248691272456,-1.118716835975647,-0.20708683878183365,0.0022751635406166315,0.0022054738365113735,-35.36326535,149.1652355,66661.0,37.0,18.0,104.5,1.0,28.0,-970.0,-194.0,3.5,6.0
13:27:36,180479.0,RTL,-0.00238345330581069,-0.000307566711853724,-1.118664026260376,-0.15517666935920715,0.0021874166559427977,0.013324190396815538,-35.363263700000005,149.1652364,64604.0,24.0,12.0,98.5,1.5,32.0,-962.5,-141.5,4.0,17.0
13:27:37,215122.0,RTL,-0.011109924758784473,-0.0022296211682260036,-1.1179809868335724,-0.5124015603214502,-0.003465512680122629,0.0012814573710784316,-35.363263024999995,149.165236925,63574.75,16.5,8.75,102.0,0.25,16.25,-962.5,-498.5,-1.25,5.0
13:27:38,215122.0,RTL,-0.009366982383653522,-0.004832767648622394,-1.1183021664619446,-0.759527713060379,-0.0014281377661973238,0.005252955248579383,-35.36326305,149.1652371,62553.5,11.5,6.0,99.0,-0.5,8.5,-937.5,-746.0,1.0,8.5
13:27:40,99393.0,RTL,0.011105239391326904,-0.0047160296235233545,-1.1188125610351562,-0.9809378087520599,0.0039611137472093105,0.001434634905308485,-35.363264099999995,149.1652365,60504.0,17.0,7.5,95.0,-0.5,-26.0,-1087.5,-967.5,6.0,5.0
13:27:42,99393.0,RTL,-0.015281942789442837,0.0037009239895269275,-1.118515968322754,-1.4270554780960083,0.005876537412405014,-0.0048099709674716,-35.36326315,149.16523665,58493.5,17.0,6.5,100.5,3.5,-69.5,-1014.0,-1414.0,7.5,-0.5
13:27:43,28930.0,RTL,-0.047892467118799686,0.005967719247564673,-1.117740958929062,-1.4718875885009766,0.0030663126963190734,-0.007899702759459615,-35.363260825,149.1652379,57480.25,2.5,0.75,102.0,6.25,-58.25,-981.0,-1459.0,5.0,-3.5
13:27:44,28930.0,RTL,-0.0640434268862009,0.005277207121253014,-1.1178010702133179,-1.169582486152649,-0.004066533292643726,-0.0046909397933632135,-35.3632583,149.16523945,56460.5,-20.5,-9.0,100.0,8.5,-63.0,-1118.5,-1158.0,-2.0,-1.0
13:27:46,32682.0,RTL,-0.09819149225950241,-0.001461768988519907,-1.1170917749404907,-1.4063227772712708,-0.003154147998429835,-0.005433289799839258,-35.363254350000005,149.16524235,54470.0,-67.5,-32.0,104.0,3.0,-45.0,-964.5,-1395.0,-1.0,-1.5
13:27:48,32682.0,RTL,-0.0727989412844181,-0.009513035416603088,-1.1174570322036743,-1.3188557624816895,-1.768604852259159e-05,-0.006808214355260134,-35.363254749999996,149.16524270000002,52445.0,-83.5,-42.5,111.5,-3.5,-28.0,-915.5,-1308.5,2.5,-2.0
13:27:49,24687.0,RTL,-0.05616943724453449,-0.010216737631708384,-1.1162795424461365,-1.3981049954891205,-0.0007864523213356733,-0.006306528870481998,-35.36325587500001,149.165242075,51407.0,-75.25,-39.75,106.5,-4.5,-44.0,-1035.0,-1389.5,1.5,-2.0
13:27:50,24687.0,RTL,-0.03503225464373827,-0.011300711426883936,-1.1174309253692627,-1.6320252418518066,-0.007329814485274255,0.002483188873156905,-35.3632576,149.165241,50364.5,-63.0,-34.0,105.0,-5.5,-60.5,-976.5,-1624.0,-5.0,6.0
13:27:52,38567.0,RTL,-0.008871690835803747,-0.005243490217253566,-1.116752803325653,-1.443430781364441,0.005366483237594366,-0.00258860201574862,-35.3632607,149.16523875000001,48276.0,-29.5,-19.0,102.5,-1.5,-77.0,-1021.5,-1437.5,7.0,1.0
13:27:54,38567.0,RTL,-0.042655790224671364,0.0004323975335864816,-1.1172561049461365,-1.511491298675537,-0.002398829208686948,-0.0012658091727644205,-35.363259549999995,149.16523899999999,46220.5,-23.0,-13.5,101.5,2.0,-73.0,-989.0,-1505.5,-0.5,2.0
13:27:55,7686.0,RTL,-0.0313491583801806,-0.0025378551799803972,-1.1168377995491028,-0.7520527532324195,-0.001564452308230102,-0.006627743132412434,-35.36325875,149.1652396,45198.0,-33.75,-17.25,98.5,2.25,-63.5,-1006.25,-747.5,0.25,-2.5
13:27:56,7686.0,RTL,-0.029651970602571964,-0.0023433242458850145,-1.1171004176139832,-0.5268840193748474,-0.00457261351402849,0.002618557191453874,-35.363258,149.16524025,44192.0,-39.5,-21.0,96.5,2.5,-66.0,-948.5,-523.0,-2.0,6.0
13:27:58,96460.0,RTL,-0.010843861382454634,-0.008241616422310472,-1.1163338422775269,0.7193238437175751,-0.0038229714846238494,-0.012477785348892212,-35.3632578,149.1652407,42168.0,-49.0,-25.5,98.0,-1.0,-1.5,-997.5,722.0,-2.0,-8.0
13:28:00,96460.0,RTL,0.02956272941082716,-0.010067070368677378,-1.1164852976799011,1.1374333798885345,-0.0027478369884192944,-0.003238495555706322,-35.363260749999995,149.1652389,40120.0,-30.0,-17.0,100.5,-6.0,37.5,-1042.5,1140.5,-0.5,0.5
13:28:01,166029.0,RTL,0.03992885025218129,-0.008298031752929091,-1.1166767179965973,1.4147206544876099,0.0015378439566120505,-0.008478525094687939,-35.363262525,149.16523765,39107.25,-10.75,-7.5,100.5,-3.5,62.5,-1010.25,1418.5,3.25,-4.5
13:28:02,166029.0,RTL,0.03991342522203922,-0.007045810809358954,-1.1164459586143494,1.3934008479118347,-0.002389684144873172,0.009282854851335287,-35.3632639,149.16523665,38088.5,5.0,0.5,101.5,-3.0,72.0,-1019.5,1398.0,-0.5,13.5
13:28:04,159762.0,RTL,0.06108510494232178,-0.008564780233427882,-1.116495132446289,1.2828654646873474,-0.0028020787867717445,0.0030930088832974434,-35.3632667,149.165235,36060.5,34.0,15.0,103.0,-4.0,74.0,-1009.0,1288.5,-1.0,6.5
13:28:06,159762.0,RTL,0.05195293575525284,-0.0005794286844320595,-1.1153109073638916,1.363013744354248,0.00376931915525347,0.003381693153642118,-35.363267300000004,149.1652344,34035.0,54.0,22.5,102.0,2.0,54.5,-1039.5,1368.5,5.5,7.0
13:28:07,76246.0,RTL,0.036401590798050165,0.00295378640294075,-1.1154284477233887,1.3899593949317932,-0.005066290177637711,-0.00040208850987255573,-35.3632658,149.1652351,33012.0,47.75,21.0,104.75,4.75,44.25,-1022.75,1396.0,-3.0,3.25
13:28:08,76246.0,RTL,0.021999086253345013,0.0020222202874720097,-1.1157273650169373,1.348306119441986,-0.001218748977407813,0.0010053146397694945,-35.363264,149.16523610000002,31988.5,32.0,14.5,102.5,3.5,30.5,-1020.5,1354.0,0.0,4.0
13:28:10,95481.0,RTL,0.023365422151982784,-0.004929817747324705,-1.1159729361534119,1.019583821296692,-0.009779113344848156,-0.005106819560751319,-35.3632622,149.1652378,29953.0,6.0,2.5,102.5,1.0,13.5,-983.0,1024.5,-7.5,-1.0
13:28:12,95481.0,RTL,0.02731929626315832,-0.00402764871250838,-1.115743637084961,1.2213947176933289,-0.001637786510400474,-0.004476264119148254,-35.363262,149.165238,27904.5,1.5,-1.5,101.0,1.0,23.0,-973.5,1226.5,0.0,0.0
13:28:13,280095.0,RTL,0.02753074560314417,-0.005130604607984424,-1.1156995594501495,1.149298071861267,-0.003728709794813767,-0.0003768563619814813,-35.3632621,149.1652379,26885.25,-1.25,-2.25,103.5,-1.0,22.75,-1019.25,1154.25,-1.75,3.25
13:28:14,280095.0,RTL,0.032527617178857327,-0.005019425181671977,-1.1152734756469727,0.9050933718681335,-0.0028070194530300796,-0.0029296944849193096,-35.363262500000005,149.16523765,25868.0,1.5,-1.5,102.5,1.5,6.5,-1039.0,910.0,-1.0,1.0
13:28:16,269270.5,RTL,0.01710018329322338,-0.0024154172278940678,-1.1154045462608337,0.47553879022598267,-0.00030447402969002724,-0.0043961051851511,-35.36326215,149.1652378,23826.5,2.0,-1.5,105.5,1.0,-17.0,-979.0,480.0,1.0,-0.5
13:28:18,258446.0,RTL,0.011720596812665462,-0.0017819118802435696,-1.1139597296714783,1.34054297208786,-0.00948362611234188,-0.005813044961541891,-35.36326105,149.1652383,21767.0,-4.0,-3.5,109.5,2.0,41.0,-981.0,1346.5,-7.5,-1.5
13:28:19,114555.0,RTL,0.005456972881802358,-0.003867438994348049,-1.1159522533416748,1.2376892268657684,-0.0007016575546003878,0.002794814296066761,-35.363260575,149.165238675,20743.0,-11.25,-6.5,100.5,-0.5,36.25,-1000.75,1242.75,0.75,6.0
13:28:20,114555.0,RTL,0.012816725298762321,-0.005511922528967261,-1.1158508658409119,1.3475152850151062,0.00020128116011619568,0.005903782555833459,-35.36326085,149.16523865,19716.0,-13.5,-8.0,102.0,-0.5,64.5,-1015.5,1353.5,2.0,9.0
13:28:22,123790.5,RTL,-0.002666343003511429,-0.003501344588585198,-1.1151039600372314,1.0212582647800446,0.002466488629579544,0.012108728056773543,-35.36326095,149.1652385,17674.5,-11.0,-8.0,103.5,0.5,71.5,-987.5,1028.5,4.0,15.0
13:28:24,133026.0,RTL,-0.006477969931438565,-0.006756651448085904,-1.1154870390892029,0.5100363194942474,-0.0027967073838226497,-0.0008724764920771122,-35.36326115,149.16523840000002,15622.0,-12.5,-6.5,96.5,-4.0,60.5,-1013.0,517.0,-1.0,3.0
13:28:25,128493.0,RTL,0.02846480836160481,-0.010850162012502551,-1.1161856949329376,1.0520295947790146,-0.004718600423075259,-0.0005368028650991619,-35.3632627,149.1652376,14603.75,-5.5,-3.0,100.0,-4.5,75.75,-990.0,1059.0,-2.75,2.5
13:28:26,128493.0,RTL,0.04244854673743248,-0.009468348696827888,-1.1159090399742126,0.9513416290283203,-0.004197789879981428,0.005032422253862023,-35.36326455,149.16523655,13575.0,10.5,3.0,102.0,-4.5,73.5,-1005.0,958.5,-2.5,8.0
13:28:28,185267.5,RTL,0.038772640749812126,-0.0027803388657048345,-1.1158012747764587,1.0488067865371704,-0.0034257316729053855,-0.0001705355243757367,-35.363265549999994,149.1652355,11656.0,31.5,13.0,68.0,-0.5,56.0,-1045.0,1056.0,-1.5,3.0
13:28:30,242042.0,RTL,0.02633349969983101,-0.0017886421119328588,-1.1157044768333435,-0.3327183574438095,0.0075456632766872644,0.0014970027841627598,-35.363265600000005,149.1652354,10937.0,36.0,16.0,27.0,1.5,-7.5,-997.0,-325.0,8.5,4.5
13:28:31,112866.0,RTL,0.01981330383569002,0.003045417688554153,-1.1156608760356903,0.6797652766108513,0.00043399696005508304,-0.002531338745029643,-35.363264375,149.16523595,10639.5,32.5,14.0,34.25,5.5,16.0,-1001.0,686.75,2.0,0.75
13:28:32,112866.0,RTL,-0.012278482550755143,0.003094681538641453,-1.1155648231506348,-0.5063842087984085,0.0003642170340754092,-0.0020574118243530393,-35.3632625,149.165237,10300.0,16.0,7.5,34.5,4.0,-29.5,-1013.5,-499.0,1.5,1.5
13:28:34,139113.0,RTL,-0.031938571482896805,0.0006085441273171455,-1.1155385971069336,-0.48494112491607666,-0.005435801751445979,-0.004037229111418128,-35.3632595,149.16523899999999,9612.5,-16.0,-6.5,34.0,3.0,-29.0,-1023.5,-478.0,-4.0,-1.0
13:28:36,165360.0,RTL,-0.019329725299030542,-0.003975478699430823,-1.1157248616218567,-0.11477553844451904,-0.0005819543148390949,-0.00041686929762363434,-35.36325875,149.1652398,8950.0,-33.0,-16.0,35.0,0.0,-14.5,-1006.0,-109.0,1.0,2.0
13:28:37,108557.0,RTL,-0.0243912017904222,-0.0031088481191545725,-1.1151266396045685,0.11862507462501526,0.0001720813161227852,-0.001507652923464775,-35.363258725,149.165239825,8720.25,-33.25,-17.25,9.0,1.25,10.0,-1039.25,124.75,1.25,1.75
13:28:38,108557.0,RTL,-0.027160109020769596,-0.002042299194727093,-1.1152724027633667,0.07760071754455566,0.0014790486311540008,-0.0010323316091671586,-35.3632584,149.16523995,8758.5,-36.5,-18.5,-3.5,0.0,-0.5,-996.0,83.0,2.5,2.0
13:28:40,165304.0,RTL,-0.007852035807445645,-0.005800541955977678,-1.115454077720642,0.3309200406074524,-0.004241335322149098,-0.0018526260973885655,-35.363259049999996,149.16523949999998,8757.0,-37.0,-17.5,13.0,-3.0,11.0,-1003.0,335.0,-2.5,1.5
13:28:42,222051.0,RTL,0.005157158710062504,-0.004746420541778207,-1.1153050065040588,0.045192644000053406,-0.00014496140647679567,-0.0015423159347847104,-35.363261300000005,149.16523805,8660.5,-18.0,-8.0,0.0,-0.5,7.0,-1004.5,50.0,1.0,1.5
13:28:43,245195.0,RTL,0.0029952999902889132,-0.0021719041105825454,-1.1145974695682526,0.08535011112689972,0.0033456578385084867,0.0005455578793771565,-35.3632617,149.1652377,8672.5,-9.25,-4.25,0.25,0.0,3.0,-996.5,89.75,4.0,3.5
13:28:44,245195.0,RTL,-0.0068242778070271015,-0.0007613857742398977,-1.1152859330177307,-0.06916633993387222,-0.0006909659132361412,8.573289960622787e-06,-35.3632614,149.16523775000002,8673.0,-8.0,-3.0,1.0,0.5,-4.5,-994.0,-65.0,1.0,3.5
13:28:46,184020.5,RTL,0.005703270202502608,-0.005477352300658822,-1.1152264475822449,-0.03093525767326355,-0.0010036302264779806,-0.0014070371398702264,-35.36326185,149.1652377,8668.5,-8.0,-2.5,0.5,0.0,0.5,-999.5,-26.5,0.5,2.0
13:28:48,122846.0,RTL,-0.0014178394339978695,-0.003538299584761262,-1.1143437623977661,-0.7591188848018646,0.0019513634615577757,-0.001091933692805469,-35.3632627,149.1652373,8412.5,2.0,0.5,39.5,-0.5,-29.5,-969.5,-754.5,2.5,2.0
13:28:49,297167.0,RTL,0.009945435987901874,-0.0031710663461126387,-1.1148384511470795,0.5974739417433739,-0.001785551241482608,-0.0005351531435735524,-35.363262649999996,149.1652372,8002.5,3.5,0.75,36.75,0.25,30.5,-1012.25,601.75,-0.25,2.75
13:28:50,297167.0,RTL,0.0031353537924587727,-0.0022262342390604317,-1.115014374256134,-0.44432638958096504,0.001486726920120418,-0.004037662874907255,-35.363262500000005,149.16523725000002,7631.0,2.0,0.0,32.5,1.0,-31.5,-999.0,-440.5,2.5,-0.5
13:28:52,254661.5,RTL,-0.012445060070604086,0.0011492012199596502,-1.1140276789665222,0.0007017850875854492,-0.0008795250905677676,-0.005108501762151718,-35.363260600000004,149.16523825,6942.5,-8.5,-3.5,33.5,2.0,-26.0,-993.0,3.5,0.5,-1.5
13:28:54,212156.0,RTL,-0.018049572128802538,-0.0030488516204059124,-1.1147792339324951,0.5804153829813004,-0.0033303475938737392,0.000759370916057378,-35.36325925,149.16523940000002,6266.5,-26.5,-12.5,31.0,0.5,27.5,-998.0,584.0,-1.5,3.5
13:28:55,80675.0,RTL,-0.016444695880636573,-0.003945626027416438,-1.114387959241867,0.02533737476915121,-0.003106200078036636,-0.0015026390319690108,-35.363259049999996,149.1652396,5930.5,-30.5,-15.25,33.5,0.0,-19.5,-978.5,27.25,-1.5,1.25
13:28:56,80675.0,RTL,-0.016539192525669932,-0.007470324402675033,-1.1149630546569824,-0.14533677697181702,-0.0023241969756782055,0.0011764804366976023,-35.3632596,149.16523940000002,5590.5,-31.5,-15.5,33.0,-2.5,-3.0,-1014.5,-142.0,-0.5,4.0
13:28:58,156787.0,RTL,6.46454282104969e-06,-0.005925767123699188,-1.1147142052650452,-0.10692739486694336,0.0020949557656422257,0.0011121353600174189,-35.3632615,149.1652383,4902.0,-12.5,-8.5,31.5,-1.0,7.5,-1016.0,-104.0,3.0,4.0
13:29:00,232899.0,RTL,0.0013320954167284071,-0.0042165101040154696,-1.1141589283943176,-0.45762592926621437,-0.0016047958633862436,0.0008920102845877409,-35.36326255,149.16523734999998,4219.5,-0.5,-1.5,33.5,0.0,-4.5,-1016.0,-454.5,-0.5,4.0
13:29:01,226815.0,RTL,0.016083722934126854,-0.0030864630243740976,-1.1145421266555786,0.5856621786952019,0.0009852916264208034,-0.0008406126289628446,-35.363262725,149.1652372,3883.75,2.75,0.0,31.5,0.5,18.0,-1000.0,587.75,1.75,2.0
13:29:02,226815.0,RTL,-0.006891168653964996,-0.0005193562974454835,-1.1147196888923645,-0.39063896238803864,0.0017553711659274995,0.0022741283755749464,-35.3632623,149.16523734999998,3556.0,1.5,0.0,33.5,1.0,-14.0,-1000.5,-387.5,2.5,5.5
13:29:04,188409.5,RTL,-0.03383152885362506,-0.0003396431711735204,-1.1143287420272827,-0.292722150683403,-0.0057874994818121195,-0.006016526138409972,-35.36325985,149.16523890000002,2876.0,-14.0,-7.5,32.5,3.0,-15.5,-1020.0,-291.0,-4.0,-2.5
13:29:06,150004.0,RTL,-0.02341162133961916,-0.005388059886172414,-1.1142818927764893,-0.07884630560874939,-0.0038830534322187304,-0.0016655689105391502,-35.3632584,149.1652401,2195.0,-36.5,-18.5,33.0,-0.5,-16.0,-997.5,-78.0,-2.0,1.0
13:29:07,180754.0,RTL,-0.024150030221790075,-0.008620963082648814,-1.1148498058319092,-0.5033790245652199,-0.0010803728946484625,0.0013520066277123988,-35.3632591,149.165239925,1856.0,-37.0,-19.25,33.75,-3.25,-5.25,-996.75,-501.5,0.25,3.75
13:29:08,180754.0,RTL,0.007728215539827943,-0.008262500399723649,-1.114504635334015,0.5348820984363556,-0.0010703010484576225,0.0031656998908147216,-35.363260350000004,149.16523915,1515.5,-28.0,-16.0,33.0,-4.5,21.5,-1001.0,535.0,0.0,5.5
13:29:10,143510.5,RTL,0.0032411792781203985,-0.004289562813937664,-1.1144009828567505,0.28949369490146637,-0.00033826613798737526,0.00043169280979782343,-35.36326185,149.1652379,835.5,-8.5,-6.0,33.5,-1.5,28.5,-976.0,291.0,1.0,3.0
13:29:12,106267.0,RTL,0.010658523679012433,-0.004655389697290957,-1.112233281135559,-0.21732919663190842,0.044503142358735204,0.026854737428948283,-35.3632633,149.165237,179.5,17.0,5.0,11.0,82.0,393.5,-1713.0,-216.5,45.5,29.0
13:29:13,175118.0,RTL,0.01893840217962861,-0.0012389935873216018,-1.1097493469715118,0.0013772233796771616,0.001352368766674772,-0.0005562288570217788,-35.36326325,149.16523684999999,141.0,32.0,11.5,-13.5,0.0,0.0,-1000.0,2.0,2.0,2.0
13:29:14,175118.0,RTL,0.015332367736846209,0.00044606798837776296,-1.1097339391708374,0.0011332782451063395,0.0013749367790296674,-0.0006090656388550997,-35.3632633,149.16523705,176.5,23.5,12.5,-11.0,-0.5,0.0,-1000.0,2.0,2.0,2.0
13:29:16,175118.0,RTL,0.009819861501455307,0.0019488965044729412,-1.110093593597412,0.0007373591652140021,0.0012224260135553777,-0.0006378019461408257,-35.363264,149.1652371,177.5,8.0,12.0,-7.5,-0.5,0.0,-1000.0,2.0,2.0,2.0
13:29:18,175118.0,RTL,0.0068891411647200584,0.001520762569271028,-1.1106411218643188,0.00046213262248784304,0.000997723313048482,-0.0006368726026266813,-35.3632645,149.165237,147.0,0.0,9.0,-5.0,-1.0,0.0,-1000.0,2.0,2.0,1.0
13:29:20,175118.0,RTL,0.005756874568760395,0.0007052818837109953,-1.111710786819458,0.00039231404662132263,0.0009489014628343284,-0.0006002816371619701,-35.36326495,149.16523675000002,129.0,-2.0,6.0,-2.5,0.0,0.0,-1000.0,2.0,2.0,2.0
