time_stamp,MODE,lat,lon,relative_alt,roll,pitch,yaw,rollspeed,pitchspeed,yawspeed,xacc,yacc,zacc,xgyro,ygyro,zgyro,vx,vy,vz,LAND_SPEED_HIGH,WPNAV_SPEED_DN,RTL_ALT
10:47:30.291,GUIDED,-35.3632621,149.1652374,0,-0.0008743381476961076,0.001276748487725854,0.02970890700817108,0.00016474389121867716,0.00023704583873040974,0.0024660155177116394,0,1,-1000,0,0,0,0,0,1,90.0,90.0,1500.0
10:47:30.495,GUIDED,-35.3632621,149.1652374,0,-0.0008743381476961076,0.001276748487725854,0.02970890700817108,0.00016474389121867716,0.00023704583873040974,0.0024660155177116394,0,1,-1000,0,0,0,0,0,1,90.0,90.0,1500.0
10:47:30.696,GUIDED,-35.3632621,149.1652374,0,-0.0008743381476961076,0.001276748487725854,0.02970890700817108,0.00016474389121867716,0.00023704583873040974,0.0024660155177116394,0,1,-1000,0,0,0,0,0,1,90.0,90.0,1500.0
10:47:30.898,GUIDED,-35.3632621,149.1652374,0,-0.0008743381476961076,0.001276748487725854,0.02970890700817108,0.00016474389121867716,0.00023704583873040974,0.0024660155177116394,0,1,-1000,0,0,0,0,0,1,90.0,90.0,1500.0
10:47:31.102,GUIDED,-35.3632621,149.1652374,0,-0.0008743381476961076,0.001276748487725854,0.02970890700817108,0.00016474389121867716,0.00023704583873040974,0.0024660155177116394,0,1,-1000,0,0,0,0,0,1,90.0,90.0,1500.0
10:47:31.305,GUIDED,-35.3632621,149.1652374,0,-0.0008743381476961076,0.001276748487725854,0.02970890700817108,0.00016474389121867716,0.00023704583873040974,0.0024660155177116394,0,1,-1000,0,0,0,0,0,1,90.0,90.0,1500.0
10:47:31.511,GUIDED,-35.3632621,149.1652374,0,-0.000838791485875845,0.0014305022777989507,0.02922404371201992,0.00018057276611216366,0.0002874760830309242,0.0023564540315419436,0,1,-1000,0,0,0,0,0,0,90.0,90.0,1500.0
10:47:31.713,GUIDED,-35.3632621,149.1652374,0,-0.0007606578292325139,0.0015705447876825929,0.02877957373857498,0.00022886355873197317,0.00034588901326060295,0.002499131252989173,0,1,-1000,0,0,0,-1,0,0,90.0,90.0,1500.0
10:47:31.915,GUIDED,-35.3632621,149.1652374,0,-0.0007394405547529459,0.0015897980192676187,0.02861647680401802,0.00019355572294443846,0.0003226371482014656,0.00246895058080554,0,1,-1000,0,0,0,-1,0,0,90.0,90.0,1500.0
10:47:32.118,GUIDED,-35.3632621,149.1652374,0,-0.0007394405547529459,0.0015897980192676187,0.02861647680401802,0.00019355572294443846,0.0003226371482014656,0.00246895058080554,0,1,-1000,0,0,0,-1,0,0,90.0,90.0,1500.0
10:47:32.323,GUIDED,-35.3632621,149.1652374,0,-0.0007394405547529459,0.0015897980192676187,0.02861647680401802,0.00019355572294443846,0.0003226371482014656,0.00246895058080554,0,1,-1000,0,0,0,-1,0,0,90.0,90.0,1500.0
10:47:32.525,GUIDED,-35.3632621,149.1652374,0,-0.0007394405547529459,0.0015897980192676187,0.02861647680401802,0.00019355572294443846,0.0003226371482014656,0.00246895058080554,0,1,-1000,0,0,0,-1,0,0,90.0,90.0,1500.0
10:47:32.726,GUIDED,-35.3632621,149.1652374,0,-0.0007394405547529459,0.0015897980192676187,0.02861647680401802,0.00019355572294443846,0.0003226371482014656,0.00246895058080554,0,1,-1000,0,0,0,-1,0,0,90.0,90.0,1500.0
10:47:32.929,GUIDED,-35.3632621,149.1652374,0,-0.0007394405547529459,0.0015897980192676187,0.02861647680401802,0.00019355572294443846,0.0003226371482014656,0.00246895058080554,0,1,-1000,0,0,0,-1,0,0,90.0,90.0,1500.0
10:47:33.131,GUIDED,-35.3632621,149.1652374,0,-0.0007394405547529459,0.0015897980192676187,0.02861647680401802,0.00019355572294443846,0.0003226371482014656,0.00246895058080554,0,1,-1000,0,0,0,-1,0,0,90.0,90.0,1500.0
10:47:33.337,GUIDED,-35.3632621,149.1652374,0,-0.0007394405547529459,0.0015897980192676187,0.02861647680401802,0.00019355572294443846,0.0003226371482014656,0.00246895058080554,0,1,-1000,0,0,0,-1,0,0,90.0,90.0,1500.0
10:47:33.539,GUIDED,-35.3632621,149.1652374,0,-0.0007394405547529459,0.0015897980192676187,0.02861647680401802,0.00019355572294443846,0.0003226371482014656,0.00246895058080554,0,1,-1000,0,0,0,-1,0,0,90.0,90.0,1500.0
10:47:33.741,GUIDED,-35.3632622,149.1652374,0,-0.0007896970491856337,0.0014178941491991282,0.027636513113975525,0.0002443229896016419,0.00026163423899561167,0.0022737469989806414,0,2,-1000,0,0,0,-2,1,0,90.0,90.0,1500.0
10:47:33.942,GUIDED,-35.3632622,149.1652374,1,-0.0008163452730514109,0.001372881350107491,0.02755553461611271,0.000420362688601017,0.0002392648020759225,0.002197528723627329,0,1,-1000,0,0,0,-2,1,-1,90.0,90.0,1500.0
10:47:34.144,GUIDED,-35.3632622,149.1652374,1,-0.0008163452730514109,0.001372881350107491,0.02755553461611271,0.000420362688601017,0.0002392648020759225,0.002197528723627329,0,1,-1000,0,0,0,-2,1,-1,90.0,90.0,1500.0
10:47:34.349,GUIDED,-35.3632622,149.1652374,1,-0.0008163452730514109,0.001372881350107491,0.02755553461611271,0.000420362688601017,0.0002392648020759225,0.002197528723627329,0,1,-1000,0,0,0,-2,1,-1,90.0,90.0,1500.0
10:47:34.554,GUIDED,-35.3632622,149.1652374,1,-0.0008163452730514109,0.001372881350107491,0.02755553461611271,0.000420362688601017,0.0002392648020759225,0.002197528723627329,0,1,-1000,0,0,0,-2,1,-1,90.0,90.0,1500.0
10:47:34.756,GUIDED,-35.3632622,149.1652374,1,-0.0008163452730514109,0.001372881350107491,0.02755553461611271,0.000420362688601017,0.0002392648020759225,0.002197528723627329,0,1,-1000,0,0,0,-2,1,-1,90.0,90.0,1500.0
10:47:34.959,GUIDED,-35.3632622,149.1652374,1,-0.0008163452730514109,0.001372881350107491,0.02755553461611271,0.000420362688601017,0.0002392648020759225,0.002197528723627329,0,1,-1000,0,0,0,-2,1,-1,90.0,90.0,1500.0
10:47:35.163,GUIDED,-35.3632622,149.1652374,1,-0.0008163452730514109,0.001372881350107491,0.02755553461611271,0.000420362688601017,0.0002392648020759225,0.002197528723627329,0,1,-1000,0,0,0,-2,1,-1,90.0,90.0,1500.0
10:47:35.366,GUIDED,-35.3632622,149.1652374,1,-0.0008163452730514109,0.001372881350107491,0.02755553461611271,0.000420362688601017,0.0002392648020759225,0.002197528723627329,0,1,-1000,0,0,0,-2,1,-1,90.0,90.0,1500.0
10:47:35.568,GUIDED,-35.3632621,149.1652374,7,-0.0008757198811508715,0.0013084186939522624,0.026787206530570984,0.0003432047087699175,0.0002321191132068634,0.00212017260491848,0,1,-1000,0,0,1,0,0,-1,90.0,90.0,1500.0
10:47:35.770,GUIDED,-35.3632621,149.1652374,8,-0.0008505473961122334,0.0013588739093393087,0.02668122760951519,0.00018525548512116075,0.0003201494400855154,0.002108619548380375,0,1,-1000,0,0,0,0,0,-1,90.0,90.0,1500.0
10:47:35.971,GUIDED,-35.3632621,149.1652374,9,-0.000805291288997978,0.0014142488362267613,0.026549750939011574,0.0002938928664661944,0.0002716646413318813,0.0020391512662172318,0,1,-1000,0,0,0,0,0,-1,90.0,90.0,1500.0
10:47:36.173,GUIDED,-35.3632621,149.1652374,9,-0.000805291288997978,0.0014142488362267613,0.026549750939011574,0.0002938928664661944,0.0002716646413318813,0.0020391512662172318,0,1,-1000,0,0,0,0,0,-1,90.0,90.0,1500.0
10:47:36.377,GUIDED,-35.3632621,149.1652374,9,-0.000805291288997978,0.0014142488362267613,0.026549750939011574,0.0002938928664661944,0.0002716646413318813,0.0020391512662172318,0,1,-1000,0,0,0,0,0,-1,90.0,90.0,1500.0
10:47:36.580,GUIDED,-35.3632621,149.1652374,9,-0.000805291288997978,0.0014142488362267613,0.026549750939011574,0.0002938928664661944,0.0002716646413318813,0.0020391512662172318,0,1,-1000,0,0,0,0,0,-1,90.0,90.0,1500.0
10:47:36.783,GUIDED,-35.3632621,149.1652374,9,-0.000805291288997978,0.0014142488362267613,0.026549750939011574,0.0002938928664661944,0.0002716646413318813,0.0020391512662172318,0,1,-1000,0,0,0,0,0,-1,90.0,90.0,1500.0
10:47:36.985,GUIDED,-35.3632621,149.1652374,9,-0.000805291288997978,0.0014142488362267613,0.026549750939011574,0.0002938928664661944,0.0002716646413318813,0.0020391512662172318,0,1,-1000,0,0,0,0,0,-1,90.0,90.0,1500.0
10:47:37.187,GUIDED,-35.3632621,149.1652374,9,-0.000805291288997978,0.0014142488362267613,0.026549750939011574,0.0002938928664661944,0.0002716646413318813,0.0020391512662172318,0,1,-1000,0,0,0,0,0,-1,90.0,90.0,1500.0
10:47:37.389,GUIDED,-35.3632621,149.1652374,9,-0.000805291288997978,0.0014142488362267613,0.026549750939011574,0.0002938928664661944,0.0002716646413318813,0.0020391512662172318,0,1,-1000,0,0,0,0,0,-1,90.0,90.0,1500.0
10:47:37.593,GUIDED,-35.3632621,149.1652374,11,-0.0006699078949168324,0.0016135871410369873,0.026187626644968987,0.00024841452250257134,0.00029309806996025145,0.002020709216594696,0,2,-1000,0,0,0,0,0,-1,90.0,90.0,1500.0
10:47:37.796,GUIDED,-35.3632621,149.1652374,14,-0.0004477874026633799,0.0018945418996736407,0.025671791285276413,0.00041987013537436724,0.0003175950259901583,0.0018905140459537506,0,1,-1000,0,0,0,0,0,-1,90.0,90.0,1500.0
10:47:37.998,GUIDED,-35.3632621,149.1652374,33,0.002819786546751857,0.00015324442938435823,0.025709008798003197,0.014866005629301071,-0.008146745152771473,0.002495288383215666,0,0,-1140,15,-7,1,0,0,-23,90.0,90.0,1500.0
10:47:38.200,GUIDED,-35.3632621,149.1652374,33,0.002819786546751857,0.00015324442938435823,0.025709008798003197,0.014866005629301071,-0.008146745152771473,0.002495288383215666,0,0,-1140,15,-7,1,0,0,-23,90.0,90.0,1500.0
10:47:38.404,GUIDED,-35.3632621,149.1652374,33,0.002819786546751857,0.00015324442938435823,0.025709008798003197,0.014866005629301071,-0.008146745152771473,0.002495288383215666,0,0,-1140,15,-7,1,0,0,-23,90.0,90.0,1500.0
10:47:38.606,GUIDED,-35.3632621,149.1652374,33,0.002819786546751857,0.00015324442938435823,0.025709008798003197,0.014866005629301071,-0.008146745152771473,0.002495288383215666,0,0,-1140,15,-7,1,0,0,-23,90.0,90.0,1500.0
10:47:38.809,GUIDED,-35.3632621,149.1652374,33,0.002819786546751857,0.00015324442938435823,0.025709008798003197,0.014866005629301071,-0.008146745152771473,0.002495288383215666,0,0,-1140,15,-7,1,0,0,-23,90.0,90.0,1500.0
10:47:39.013,GUIDED,-35.3632621,149.1652374,33,0.002819786546751857,0.00015324442938435823,0.025709008798003197,0.014866005629301071,-0.008146745152771473,0.002495288383215666,0,0,-1140,15,-7,1,0,0,-23,90.0,90.0,1500.0
10:47:39.215,GUIDED,-35.3632621,149.1652374,33,0.002819786546751857,0.00015324442938435823,0.025709008798003197,0.014866005629301071,-0.008146745152771473,0.002495288383215666,0,0,-1140,15,-7,1,0,0,-23,90.0,90.0,1500.0
10:47:39.417,GUIDED,-35.3632621,149.1652374,33,0.002819786546751857,0.00015324442938435823,0.025709008798003197,0.014866005629301071,-0.008146745152771473,0.002495288383215666,0,0,-1140,15,-7,1,0,0,-23,90.0,90.0,1500.0
10:47:39.619,GUIDED,-35.3632619,149.1652376,1235,0.020410915836691856,-0.0034563688095659018,0.025183167308568954,0.045974940061569214,-0.00629004929214716,0.0023609809577465057,0,-1,-1026,46,-5,1,3,6,-144,90.0,90.0,1500.0
10:47:39.822,GUIDED,-35.3632614,149.165239,2375,0.05228360742330551,-0.009174985811114311,0.025340545922517776,0.03819013386964798,-0.009150542318820953,0.0035160272382199764,0,-5,-1000,38,-8,2,9,30,-149,90.0,90.0,1500.0
10:47:40.023,GUIDED,-35.3632614,149.165239,2375,0.05228360742330551,-0.009174985811114311,0.025340545922517776,0.03819013386964798,-0.009150542318820953,0.0035160272382199764,0,-5,-1000,38,-8,2,9,30,-149,90.0,90.0,1500.0
10:47:40.225,GUIDED,-35.3632614,149.165239,2375,0.05228360742330551,-0.009174985811114311,0.025340545922517776,0.03819013386964798,-0.009150542318820953,0.0035160272382199764,0,-5,-1000,38,-8,2,9,30,-149,90.0,90.0,1500.0
10:47:40.427,GUIDED,-35.3632614,149.165239,2375,0.05228360742330551,-0.009174985811114311,0.025340545922517776,0.03819013386964798,-0.009150542318820953,0.0035160272382199764,0,-5,-1000,38,-8,2,9,30,-149,90.0,90.0,1500.0
10:47:40.630,GUIDED,-35.3632614,149.165239,2375,0.05228360742330551,-0.009174985811114311,0.025340545922517776,0.03819013386964798,-0.009150542318820953,0.0035160272382199764,0,-5,-1000,38,-8,2,9,30,-149,90.0,90.0,1500.0
10:47:40.835,GUIDED,-35.3632614,149.165239,2375,0.05228360742330551,-0.009174985811114311,0.025340545922517776,0.03819013386964798,-0.009150542318820953,0.0035160272382199764,0,-5,-1000,38,-8,2,9,30,-149,90.0,90.0,1500.0
10:47:41.036,GUIDED,-35.3632614,149.165239,2375,0.05228360742330551,-0.009174985811114311,0.025340545922517776,0.03819013386964798,-0.009150542318820953,0.0035160272382199764,0,-5,-1000,38,-8,2,9,30,-149,90.0,90.0,1500.0
10:47:41.238,GUIDED,-35.3632614,149.165239,2375,0.05228360742330551,-0.009174985811114311,0.025340545922517776,0.03819013386964798,-0.009150542318820953,0.0035160272382199764,0,-5,-1000,38,-8,2,9,30,-149,90.0,90.0,1500.0
10:47:41.441,GUIDED,-35.3632614,149.165239,2375,0.05228360742330551,-0.009174985811114311,0.025340545922517776,0.03819013386964798,-0.009150542318820953,0.0035160272382199764,0,-5,-1000,38,-8,2,9,30,-149,90.0,90.0,1500.0
10:47:41.649,GUIDED,-35.363258,149.1652503,4650,0.0878613144159317,-0.03188430517911911,-0.001619084388948977,0.008073266595602036,-0.017806455492973328,0.006128191016614437,3,-25,-995,8,-17,4,45,113,-143,90.0,90.0,1500.0
10:47:41.850,GUIDED,-35.3632555,149.1652573,5382,0.0548270083963871,-0.004189390689134598,-0.033338140696287155,-0.09659980237483978,0.10791303217411041,-0.1260635107755661,4,-33,-1011,-96,108,-126,61,136,-140,90.0,90.0,1500.0
10:47:42.052,GUIDED,-35.3632555,149.1652573,5382,0.0548270083963871,-0.004189390689134598,-0.033338140696287155,-0.09659980237483978,0.10791303217411041,-0.1260635107755661,4,-33,-1011,-96,108,-126,61,136,-140,90.0,90.0,1500.0
10:47:42.256,GUIDED,-35.3632555,149.1652573,5382,0.0548270083963871,-0.004189390689134598,-0.033338140696287155,-0.09659980237483978,0.10791303217411041,-0.1260635107755661,4,-33,-1011,-96,108,-126,61,136,-140,90.0,90.0,1500.0
10:47:42.458,GUIDED,-35.3632555,149.1652573,5382,0.0548270083963871,-0.004189390689134598,-0.033338140696287155,-0.09659980237483978,0.10791303217411041,-0.1260635107755661,4,-33,-1011,-96,108,-126,61,136,-140,90.0,90.0,1500.0
10:47:42.660,GUIDED,-35.3632555,149.1652573,5382,0.0548270083963871,-0.004189390689134598,-0.033338140696287155,-0.09659980237483978,0.10791303217411041,-0.1260635107755661,4,-33,-1011,-96,108,-126,61,136,-140,90.0,90.0,1500.0
10:47:42.861,GUIDED,-35.3632555,149.1652573,5382,0.0548270083963871,-0.004189390689134598,-0.033338140696287155,-0.09659980237483978,0.10791303217411041,-0.1260635107755661,4,-33,-1011,-96,108,-126,61,136,-140,90.0,90.0,1500.0
10:47:43.064,GUIDED,-35.3632555,149.1652573,5382,0.0548270083963871,-0.004189390689134598,-0.033338140696287155,-0.09659980237483978,0.10791303217411041,-0.1260635107755661,4,-33,-1011,-96,108,-126,61,136,-140,90.0,90.0,1500.0
10:47:43.266,GUIDED,-35.3632555,149.1652573,5382,0.0548270083963871,-0.004189390689134598,-0.033338140696287155,-0.09659980237483978,0.10791303217411041,-0.1260635107755661,4,-33,-1011,-96,108,-126,61,136,-140,90.0,90.0,1500.0
10:47:43.468,GUIDED,-35.3632555,149.1652573,5382,0.0548270083963871,-0.004189390689134598,-0.033338140696287155,-0.09659980237483978,0.10791303217411041,-0.1260635107755661,4,-33,-1011,-96,108,-126,61,136,-140,90.0,90.0,1500.0
10:47:43.669,GUIDED,-35.3632555,149.1652573,5382,0.0548270083963871,-0.004189390689134598,-0.033338140696287155,-0.09659980237483978,0.10791303217411041,-0.1260635107755661,4,-33,-1011,-96,108,-126,61,136,-140,90.0,90.0,1500.0
10:47:43.873,GUIDED,-35.3632516,149.1652685,6498,-0.003842058125883341,0.026135608553886414,-0.11715441942214966,-0.10689057409763336,-0.015510189346969128,-0.083109550178051,8,-33,-1009,-106,-15,-83,52,130,-149,90.0,90.0,1500.0
10:47:44.076,GUIDED,-35.3632477,149.1652791,8067,-0.10853895545005798,0.018161142244935036,-0.18668119609355927,-0.08047732710838318,0.011960785835981369,-0.07244855910539627,4,-17,-1005,-79,12,-73,28,46,-156,90.0,90.0,1500.0
10:47:44.278,GUIDED,-35.3632468,149.1652801,8859,-0.12175007164478302,0.02213127911090851,-0.22088319063186646,0.03793802484869957,0.0022265214938670397,-0.04981651157140732,-2,-3,-999,38,2,-50,7,-14,-153,90.0,90.0,1500.0
10:47:44.480,GUIDED,-35.3632468,149.1652801,8859,-0.12175007164478302,0.02213127911090851,-0.22088319063186646,0.03793802484869957,0.0022265214938670397,-0.04981651157140732,-2,-3,-999,38,2,-50,7,-14,-153,90.0,90.0,1500.0
10:47:44.682,GUIDED,-35.3632468,149.1652801,8859,-0.12175007164478302,0.02213127911090851,-0.22088319063186646,0.03793802484869957,0.0022265214938670397,-0.04981651157140732,-2,-3,-999,38,2,-50,7,-14,-153,90.0,90.0,1500.0
10:47:44.887,GUIDED,-35.3632468,149.1652801,8859,-0.12175007164478302,0.02213127911090851,-0.22088319063186646,0.03793802484869957,0.0022265214938670397,-0.04981651157140732,-2,-3,-999,38,2,-50,7,-14,-153,90.0,90.0,1500.0
10:47:45.089,GUIDED,-35.3632468,149.1652801,8859,-0.12175007164478302,0.02213127911090851,-0.22088319063186646,0.03793802484869957,0.0022265214938670397,-0.04981651157140732,-2,-3,-999,38,2,-50,7,-14,-153,90.0,90.0,1500.0
10:47:45.291,GUIDED,-35.3632468,149.1652801,8859,-0.12175007164478302,0.02213127911090851,-0.22088319063186646,0.03793802484869957,0.0022265214938670397,-0.04981651157140732,-2,-3,-999,38,2,-50,7,-14,-153,90.0,90.0,1500.0
10:47:45.497,GUIDED,-35.3632468,149.1652801,8859,-0.12175007164478302,0.02213127911090851,-0.22088319063186646,0.03793802484869957,0.0022265214938670397,-0.04981651157140732,-2,-3,-999,38,2,-50,7,-14,-153,90.0,90.0,1500.0
10:47:45.700,GUIDED,-35.3632468,149.1652801,8859,-0.12175007164478302,0.02213127911090851,-0.22088319063186646,0.03793802484869957,0.0022265214938670397,-0.04981651157140732,-2,-3,-999,38,2,-50,7,-14,-153,90.0,90.0,1500.0
10:47:45.904,GUIDED,-35.3632468,149.1652801,8859,-0.12175007164478302,0.02213127911090851,-0.22088319063186646,0.03793802484869957,0.0022265214938670397,-0.04981651157140732,-2,-3,-999,38,2,-50,7,-14,-153,90.0,90.0,1500.0
10:47:46.109,GUIDED,-35.3632468,149.1652801,8859,-0.12175007164478302,0.02213127911090851,-0.22088319063186646,0.03793802484869957,0.0022265214938670397,-0.04981651157140732,-2,-3,-999,38,2,-50,7,-14,-153,90.0,90.0,1500.0
10:47:46.315,GUIDED,-35.3632488,149.1652716,10686,-0.04680000618100166,0.03203973174095154,-0.2463383674621582,0.08128642290830612,0.01796836405992508,-0.00635226396843791,-7,20,-1003,81,18,-7,-46,-96,-147,90.0,90.0,1500.0
10:47:46.518,GUIDED,-35.3632546,149.1652614,12216,0.0400504507124424,0.04195155203342438,-0.24284633994102478,0.08842504769563675,-0.0030969649087637663,0.00712163420394063,-5,27,-1008,90,5,4,-81,-69,-153,90.0,90.0,1500.0
10:47:46.722,GUIDED,-35.3632564,149.1652597,12608,0.06109493598341942,0.039173003286123276,-0.2397286295890808,0.08081518113613129,-0.017152555286884308,0.013894401490688324,2,25,-1007,81,-16,12,-85,-49,-154,90.0,90.0,1500.0
10:47:46.924,GUIDED,-35.3632564,149.1652597,12608,0.06109493598341942,0.039173003286123276,-0.2397286295890808,0.08081518113613129,-0.017152555286884308,0.013894401490688324,2,25,-1007,81,-16,12,-85,-49,-154,90.0,90.0,1500.0
10:47:47.126,GUIDED,-35.3632564,149.1652597,12608,0.06109493598341942,0.039173003286123276,-0.2397286295890808,0.08081518113613129,-0.017152555286884308,0.013894401490688324,2,25,-1007,81,-16,12,-85,-49,-154,90.0,90.0,1500.0
10:47:47.332,GUIDED,-35.3632564,149.1652597,12608,0.06109493598341942,0.039173003286123276,-0.2397286295890808,0.08081518113613129,-0.017152555286884308,0.013894401490688324,2,25,-1007,81,-16,12,-85,-49,-154,90.0,90.0,1500.0
10:47:47.535,GUIDED,-35.3632564,149.1652597,12608,0.06109493598341942,0.039173003286123276,-0.2397286295890808,0.08081518113613129,-0.017152555286884308,0.013894401490688324,2,25,-1007,81,-16,12,-85,-49,-154,90.0,90.0,1500.0
10:47:47.737,GUIDED,-35.3632564,149.1652597,12608,0.06109493598341942,0.039173003286123276,-0.2397286295890808,0.08081518113613129,-0.017152555286884308,0.013894401490688324,2,25,-1007,81,-16,12,-85,-49,-154,90.0,90.0,1500.0
10:47:47.939,GUIDED,-35.3632564,149.1652597,12608,0.06109493598341942,0.039173003286123276,-0.2397286295890808,0.08081518113613129,-0.017152555286884308,0.013894401490688324,2,25,-1007,81,-16,12,-85,-49,-154,90.0,90.0,1500.0
10:47:48.141,GUIDED,-35.3632564,149.1652597,12608,0.06109493598341942,0.039173003286123276,-0.2397286295890808,0.08081518113613129,-0.017152555286884308,0.013894401490688324,2,25,-1007,81,-16,12,-85,-49,-154,90.0,90.0,1500.0
10:47:48.342,GUIDED,-35.3632564,149.1652597,12608,0.06109493598341942,0.039173003286123276,-0.2397286295890808,0.08081518113613129,-0.017152555286884308,0.013894401490688324,2,25,-1007,81,-16,12,-85,-49,-154,90.0,90.0,1500.0
10:47:48.547,GUIDED,-35.3632564,149.1652597,12608,0.06109493598341942,0.039173003286123276,-0.2397286295890808,0.08081518113613129,-0.017152555286884308,0.013894401490688324,2,25,-1007,81,-16,12,-85,-49,-154,90.0,90.0,1500.0
10:47:48.750,GUIDED,-35.3632646,149.1652604,14639,0.07456585019826889,-0.09501288831233978,-0.1419190615415573,-0.018731210380792618,-0.12340674549341202,0.13811351358890533,14,-1,-1004,-18,-122,137,-26,58,-152,90.0,90.0,1500.0
10:47:48.953,GUIDED,-35.3632629,149.1652661,15772,0.057805366814136505,-0.15838542580604553,-0.05970049276947975,0.012915034778416157,-0.011767743155360222,0.0796070247888565,-2,-21,-990,13,-11,78,82,82,-142,90.0,90.0,1500.0
10:47:49.155,GUIDED,-35.3632629,149.1652661,15772,0.057805366814136505,-0.15838542580604553,-0.05970049276947975,0.012915034778416157,-0.011767743155360222,0.0796070247888565,-2,-21,-990,13,-11,78,82,82,-142,90.0,90.0,1500.0
10:47:49.357,GUIDED,-35.3632629,149.1652661,15772,0.057805366814136505,-0.15838542580604553,-0.05970049276947975,0.012915034778416157,-0.011767743155360222,0.0796070247888565,-2,-21,-990,13,-11,78,82,82,-142,90.0,90.0,1500.0
10:47:49.560,GUIDED,-35.3632629,149.1652661,15772,0.057805366814136505,-0.15838542580604553,-0.05970049276947975,0.012915034778416157,-0.011767743155360222,0.0796070247888565,-2,-21,-990,13,-11,78,82,82,-142,90.0,90.0,1500.0
10:47:49.765,GUIDED,-35.3632629,149.1652661,15772,0.057805366814136505,-0.15838542580604553,-0.05970049276947975,0.012915034778416157,-0.011767743155360222,0.0796070247888565,-2,-21,-990,13,-11,78,82,82,-142,90.0,90.0,1500.0
10:47:49.966,GUIDED,-35.3632629,149.1652661,15772,0.057805366814136505,-0.15838542580604553,-0.05970049276947975,0.012915034778416157,-0.011767743155360222,0.0796070247888565,-2,-21,-990,13,-11,78,82,82,-142,90.0,90.0,1500.0
10:47:50.168,GUIDED,-35.3632629,149.1652661,15772,0.057805366814136505,-0.15838542580604553,-0.05970049276947975,0.012915034778416157,-0.011767743155360222,0.0796070247888565,-2,-21,-990,13,-11,78,82,82,-142,90.0,90.0,1500.0
10:47:50.372,GUIDED,-35.3632629,149.1652661,15772,0.057805366814136505,-0.15838542580604553,-0.05970049276947975,0.012915034778416157,-0.011767743155360222,0.0796070247888565,-2,-21,-990,13,-11,78,82,82,-142,90.0,90.0,1500.0
10:47:50.577,GUIDED,-35.363245,149.1652764,17597,0.0004174679343122989,-0.05249249190092087,-0.12902455031871796,-0.011070034466683865,0.07118557393550873,-0.034523338079452515,-19,-40,-1011,-11,61,-48,192,51,-142,90.0,90.0,1500.0
10:47:50.780,GUIDED,-35.3632318,149.1652793,18716,-0.006577477790415287,0.006167056038975716,-0.15057991445064545,-0.004863162524998188,0.08561787009239197,-0.019863460212945938,-33,-32,-1015,-4,86,-20,187,21,-152,90.0,90.0,1500.0
10:47:50.983,GUIDED,-35.3632318,149.1652793,18716,-0.006577477790415287,0.006167056038975716,-0.15057991445064545,-0.004863162524998188,0.08561787009239197,-0.019863460212945938,-33,-32,-1015,-4,86,-20,187,21,-152,90.0,90.0,1500.0
10:47:51.187,GUIDED,-35.3632318,149.1652793,18716,-0.006577477790415287,0.006167056038975716,-0.15057991445064545,-0.004863162524998188,0.08561787009239197,-0.019863460212945938,-33,-32,-1015,-4,86,-20,187,21,-152,90.0,90.0,1500.0
10:47:51.389,GUIDED,-35.3632318,149.1652793,18716,-0.006577477790415287,0.006167056038975716,-0.15057991445064545,-0.004863162524998188,0.08561787009239197,-0.019863460212945938,-33,-32,-1015,-4,86,-20,187,21,-152,90.0,90.0,1500.0
10:47:51.591,GUIDED,-35.3632318,149.1652793,18716,-0.006577477790415287,0.006167056038975716,-0.15057991445064545,-0.004863162524998188,0.08561787009239197,-0.019863460212945938,-33,-32,-1015,-4,86,-20,187,21,-152,90.0,90.0,1500.0
10:47:51.792,GUIDED,-35.3632318,149.1652793,18716,-0.006577477790415287,0.006167056038975716,-0.15057991445064545,-0.004863162524998188,0.08561787009239197,-0.019863460212945938,-33,-32,-1015,-4,86,-20,187,21,-152,90.0,90.0,1500.0
10:47:51.994,GUIDED,-35.3632318,149.1652793,18716,-0.006577477790415287,0.006167056038975716,-0.15057991445064545,-0.004863162524998188,0.08561787009239197,-0.019863460212945938,-33,-32,-1015,-4,86,-20,187,21,-152,90.0,90.0,1500.0
10:47:52.197,GUIDED,-35.3632318,149.1652793,18716,-0.006577477790415287,0.006167056038975716,-0.15057991445064545,-0.004863162524998188,0.08561787009239197,-0.019863460212945938,-33,-32,-1015,-4,86,-20,187,21,-152,90.0,90.0,1500.0
10:47:52.398,GUIDED,-35.3632318,149.1652793,18716,-0.006577477790415287,0.006167056038975716,-0.15057991445064545,-0.004863162524998188,0.08561787009239197,-0.019863460212945938,-33,-32,-1015,-4,86,-20,187,21,-152,90.0,90.0,1500.0
10:47:52.599,GUIDED,-35.363215,149.1652802,20817,0.002469340804964304,0.10021300613880157,-0.1697404682636261,0.022486282512545586,0.0487920343875885,-0.010565364733338356,-18,-13,-1004,23,49,-11,79,0,-162,90.0,90.0,1500.0
10:47:52.800,GUIDED,-35.3632126,149.1652803,21636,0.016434872522950172,0.11686577647924423,-0.1738864779472351,0.034340325742959976,0.01833927631378174,-0.006973695941269398,-7,-6,-997,34,18,-7,22,8,-159,90.0,90.0,1500.0
10:47:53.002,GUIDED,-35.3632126,149.1652803,21636,0.016434872522950172,0.11686577647924423,-0.1738864779472351,0.034340325742959976,0.01833927631378174,-0.006973695941269398,-7,-6,-997,34,18,-7,22,8,-159,90.0,90.0,1500.0
10:47:53.205,GUIDED,-35.3632126,149.1652803,21636,0.016434872522950172,0.11686577647924423,-0.1738864779472351,0.034340325742959976,0.01833927631378174,-0.006973695941269398,-7,-6,-997,34,18,-7,22,8,-159,90.0,90.0,1500.0
10:47:53.408,GUIDED,-35.3632126,149.1652803,21636,0.016434872522950172,0.11686577647924423,-0.1738864779472351,0.034340325742959976,0.01833927631378174,-0.006973695941269398,-7,-6,-997,34,18,-7,22,8,-159,90.0,90.0,1500.0
10:47:53.612,GUIDED,-35.3632126,149.1652803,21636,0.016434872522950172,0.11686577647924423,-0.1738864779472351,0.034340325742959976,0.01833927631378174,-0.006973695941269398,-7,-6,-997,34,18,-7,22,8,-159,90.0,90.0,1500.0
10:47:53.814,GUIDED,-35.3632126,149.1652803,21636,0.016434872522950172,0.11686577647924423,-0.1738864779472351,0.034340325742959976,0.01833927631378174,-0.006973695941269398,-7,-6,-997,34,18,-7,22,8,-159,90.0,90.0,1500.0
10:47:54.017,GUIDED,-35.3632126,149.1652803,21636,0.016434872522950172,0.11686577647924423,-0.1738864779472351,0.034340325742959976,0.01833927631378174,-0.006973695941269398,-7,-6,-997,34,18,-7,22,8,-159,90.0,90.0,1500.0
10:47:54.222,GUIDED,-35.3632126,149.1652803,21636,0.016434872522950172,0.11686577647924423,-0.1738864779472351,0.034340325742959976,0.01833927631378174,-0.006973695941269398,-7,-6,-997,34,18,-7,22,8,-159,90.0,90.0,1500.0
10:47:54.428,GUIDED,-35.3632164,149.165284,23395,-0.026498135179281235,0.10178446769714355,-0.20120753347873688,-0.10005110502243042,-0.07692056149244308,-0.008462579920887947,15,1,-990,-90,-70,-6,-97,42,-142,90.0,90.0,1500.0
10:47:54.632,GUIDED,-35.3632245,149.1652865,24485,-0.0979028195142746,0.05683054402470589,-0.22529999911785126,-0.0859634280204773,-0.04648895934224129,-0.05807514488697052,26,17,-1001,-85,-45,-58,-142,11,-141,90.0,90.0,1500.0
10:47:54.835,GUIDED,-35.3632245,149.1652865,24485,-0.0979028195142746,0.05683054402470589,-0.22529999911785126,-0.0859634280204773,-0.04648895934224129,-0.05807514488697052,26,17,-1001,-85,-45,-58,-142,11,-141,90.0,90.0,1500.0
10:47:55.037,GUIDED,-35.3632245,149.1652865,24485,-0.0979028195142746,0.05683054402470589,-0.22529999911785126,-0.0859634280204773,-0.04648895934224129,-0.05807514488697052,26,17,-1001,-85,-45,-58,-142,11,-141,90.0,90.0,1500.0
10:47:55.242,GUIDED,-35.3632245,149.1652865,24485,-0.0979028195142746,0.05683054402470589,-0.22529999911785126,-0.0859634280204773,-0.04648895934224129,-0.05807514488697052,26,17,-1001,-85,-45,-58,-142,11,-141,90.0,90.0,1500.0
10:47:55.443,GUIDED,-35.3632245,149.1652865,24485,-0.0979028195142746,0.05683054402470589,-0.22529999911785126,-0.0859634280204773,-0.04648895934224129,-0.05807514488697052,26,17,-1001,-85,-45,-58,-142,11,-141,90.0,90.0,1500.0
10:47:55.645,GUIDED,-35.3632245,149.1652865,24485,-0.0979028195142746,0.05683054402470589,-0.22529999911785126,-0.0859634280204773,-0.04648895934224129,-0.05807514488697052,26,17,-1001,-85,-45,-58,-142,11,-141,90.0,90.0,1500.0
10:47:55.849,GUIDED,-35.3632245,149.1652865,24485,-0.0979028195142746,0.05683054402470589,-0.22529999911785126,-0.0859634280204773,-0.04648895934224129,-0.05807514488697052,26,17,-1001,-85,-45,-58,-142,11,-141,90.0,90.0,1500.0
10:47:56.054,GUIDED,-35.3632245,149.1652865,24485,-0.0979028195142746,0.05683054402470589,-0.22529999911785126,-0.0859634280204773,-0.04648895934224129,-0.05807514488697052,26,17,-1001,-85,-45,-58,-142,11,-141,90.0,90.0,1500.0
10:47:56.257,GUIDED,-35.3632245,149.1652865,24485,-0.0979028195142746,0.05683054402470589,-0.22529999911785126,-0.0859634280204773,-0.04648895934224129,-0.05807514488697052,26,17,-1001,-85,-45,-58,-142,11,-141,90.0,90.0,1500.0
10:47:56.458,GUIDED,-35.3632488,149.1652782,27371,0.03356914222240448,-0.06483695656061172,-0.2236345261335373,0.09135957062244415,-0.036029573529958725,0.018833450973033905,2,28,-1011,92,-35,18,-96,-48,-160,90.0,90.0,1500.0
10:47:56.660,GUIDED,-35.3632488,149.1652782,27371,0.03356914222240448,-0.06483695656061172,-0.2236345261335373,0.09135957062244415,-0.036029573529958725,0.018833450973033905,2,28,-1011,92,-35,18,-96,-48,-160,90.0,90.0,1500.0
10:47:56.863,GUIDED,-35.3632488,149.1652782,27371,0.03356914222240448,-0.06483695656061172,-0.2236345261335373,0.09135957062244415,-0.036029573529958725,0.018833450973033905,2,28,-1011,92,-35,18,-96,-48,-160,90.0,90.0,1500.0
10:47:57.064,GUIDED,-35.3632488,149.1652782,27371,0.03356914222240448,-0.06483695656061172,-0.2236345261335373,0.09135957062244415,-0.036029573529958725,0.018833450973033905,2,28,-1011,92,-35,18,-96,-48,-160,90.0,90.0,1500.0
10:47:57.266,GUIDED,-35.3632488,149.1652782,27371,0.03356914222240448,-0.06483695656061172,-0.2236345261335373,0.09135957062244415,-0.036029573529958725,0.018833450973033905,2,28,-1011,92,-35,18,-96,-48,-160,90.0,90.0,1500.0
10:47:57.469,GUIDED,-35.3632488,149.1652782,27371,0.03356914222240448,-0.06483695656061172,-0.2236345261335373,0.09135957062244415,-0.036029573529958725,0.018833450973033905,2,28,-1011,92,-35,18,-96,-48,-160,90.0,90.0,1500.0
10:47:57.671,GUIDED,-35.3632488,149.1652782,27371,0.03356914222240448,-0.06483695656061172,-0.2236345261335373,0.09135957062244415,-0.036029573529958725,0.018833450973033905,2,28,-1011,92,-35,18,-96,-48,-160,90.0,90.0,1500.0
10:47:57.872,GUIDED,-35.3632527,149.1652755,28428,0.07675390690565109,-0.09084055572748184,-0.20754927396774292,0.035028647631406784,-0.04767169803380966,0.0611974336206913,4,12,-998,35,-47,61,-33,-14,-160,90.0,90.0,1500.0
10:47:58.075,GUIDED,-35.3632504,149.1652751,29963,0.0073364959098398685,-0.034895628690719604,-0.20205262303352356,-0.022266171872615814,0.22895075380802155,-0.04693170636892319,-13,-11,-1004,-21,229,-47,70,3,-144,90.0,90.0,1500.0
10:47:58.277,GUIDED,-35.3632504,149.1652751,29963,0.0073364959098398685,-0.034895628690719604,-0.20205262303352356,-0.022266171872615814,0.22895075380802155,-0.04693170636892319,-13,-11,-1004,-21,229,-47,70,3,-144,90.0,90.0,1500.0
10:47:58.478,GUIDED,-35.3632504,149.1652751,29963,0.0073364959098398685,-0.034895628690719604,-0.20205262303352356,-0.022266171872615814,0.22895075380802155,-0.04693170636892319,-13,-11,-1004,-21,229,-47,70,3,-144,90.0,90.0,1500.0
10:47:58.681,GUIDED,-35.3632504,149.1652751,29963,0.0073364959098398685,-0.034895628690719604,-0.20205262303352356,-0.022266171872615814,0.22895075380802155,-0.04693170636892319,-13,-11,-1004,-21,229,-47,70,3,-144,90.0,90.0,1500.0
10:47:58.886,GUIDED,-35.3632504,149.1652751,29963,0.0073364959098398685,-0.034895628690719604,-0.20205262303352356,-0.022266171872615814,0.22895075380802155,-0.04693170636892319,-13,-11,-1004,-21,229,-47,70,3,-144,90.0,90.0,1500.0
10:47:59.091,GUIDED,-35.3632504,149.1652751,29963,0.0073364959098398685,-0.034895628690719604,-0.20205262303352356,-0.022266171872615814,0.22895075380802155,-0.04693170636892319,-13,-11,-1004,-21,229,-47,70,3,-144,90.0,90.0,1500.0
10:47:59.297,GUIDED,-35.3632504,149.1652751,29963,0.0073364959098398685,-0.034895628690719604,-0.20205262303352356,-0.022266171872615814,0.22895075380802155,-0.04693170636892319,-13,-11,-1004,-21,229,-47,70,3,-144,90.0,90.0,1500.0
10:47:59.504,GUIDED,-35.3632504,149.1652751,29963,0.0073364959098398685,-0.034895628690719604,-0.20205262303352356,-0.022266171872615814,0.22895075380802155,-0.04693170636892319,-13,-11,-1004,-21,229,-47,70,3,-144,90.0,90.0,1500.0
10:47:59.708,GUIDED,-35.3632504,149.1652751,29963,0.0073364959098398685,-0.034895628690719604,-0.20205262303352356,-0.022266171872615814,0.22895075380802155,-0.04693170636892319,-13,-11,-1004,-21,229,-47,70,3,-144,90.0,90.0,1500.0
10:47:59.913,GUIDED,-35.3632504,149.1652751,29963,0.0073364959098398685,-0.034895628690719604,-0.20205262303352356,-0.022266171872615814,0.22895075380802155,-0.04693170636892319,-13,-11,-1004,-21,229,-47,70,3,-144,90.0,90.0,1500.0
10:48:00.116,GUIDED,-35.3632456,149.165275,31251,0.003465883433818817,0.06366490572690964,-0.2099275439977646,-0.005700760520994663,0.013236600905656815,0.021244164556264877,-8,-8,-1007,-4,13,21,36,3,-154,90.0,90.0,1500.0
10:48:00.321,GUIDED,-35.3632448,149.1652759,33205,0.00017745958757586777,0.029000423848628998,-0.15861636400222778,-0.012769531458616257,-0.04072732478380203,0.04773690924048424,4,0,-999,-12,-40,47,-22,12,-153,90.0,90.0,1500.0
10:48:00.527,GUIDED,-35.3632448,149.1652759,33205,0.00017745958757586777,0.029000423848628998,-0.15861636400222778,-0.012769531458616257,-0.04072732478380203,0.04773690924048424,4,0,-999,-12,-40,47,-22,12,-153,90.0,90.0,1500.0
10:48:00.729,GUIDED,-35.3632448,149.1652759,33205,0.00017745958757586777,0.029000423848628998,-0.15861636400222778,-0.012769531458616257,-0.04072732478380203,0.04773690924048424,4,0,-999,-12,-40,47,-22,12,-153,90.0,90.0,1500.0
10:48:00.939,GUIDED,-35.3632448,149.1652759,33205,0.00017745958757586777,0.029000423848628998,-0.15861636400222778,-0.012769531458616257,-0.04072732478380203,0.04773690924048424,4,0,-999,-12,-40,47,-22,12,-153,90.0,90.0,1500.0
10:48:01.141,GUIDED,-35.3632448,149.1652759,33205,0.00017745958757586777,0.029000423848628998,-0.15861636400222778,-0.012769531458616257,-0.04072732478380203,0.04773690924048424,4,0,-999,-12,-40,47,-22,12,-153,90.0,90.0,1500.0
10:48:01.344,GUIDED,-35.3632448,149.1652759,33205,0.00017745958757586777,0.029000423848628998,-0.15861636400222778,-0.012769531458616257,-0.04072732478380203,0.04773690924048424,4,0,-999,-12,-40,47,-22,12,-153,90.0,90.0,1500.0
10:48:01.546,GUIDED,-35.3632448,149.1652759,33205,0.00017745958757586777,0.029000423848628998,-0.15861636400222778,-0.012769531458616257,-0.04072732478380203,0.04773690924048424,4,0,-999,-12,-40,47,-22,12,-153,90.0,90.0,1500.0
10:48:01.750,GUIDED,-35.3632448,149.1652759,33205,0.00017745958757586777,0.029000423848628998,-0.15861636400222778,-0.012769531458616257,-0.04072732478380203,0.04773690924048424,4,0,-999,-12,-40,47,-22,12,-153,90.0,90.0,1500.0
10:48:01.958,GUIDED,-35.3632448,149.1652759,33205,0.00017745958757586777,0.029000423848628998,-0.15861636400222778,-0.012769531458616257,-0.04072732478380203,0.04773690924048424,4,0,-999,-12,-40,47,-22,12,-153,90.0,90.0,1500.0
10:48:02.162,GUIDED,-35.3632482,149.1652776,36013,-0.01020221970975399,-0.011621356941759586,-0.1305689513683319,0.0021308246068656445,-0.0023750504478812218,-0.014658070169389248,2,1,-1000,3,-1,-14,-14,0,-153,90.0,90.0,1500.0
10:48:02.364,GUIDED,-35.3632485,149.1652775,36403,-0.008897068910300732,-0.011837529018521309,-0.1350531429052353,0.005785764195024967,0.0012600211193785071,-0.019910266622900963,2,2,-1000,6,1,-19,-11,-2,-154,90.0,90.0,1500.0
10:48:02.569,GUIDED,-35.3632485,149.1652775,36403,-0.008897068910300732,-0.011837529018521309,-0.1350531429052353,0.005785764195024967,0.0012600211193785071,-0.019910266622900963,2,2,-1000,6,1,-19,-11,-2,-154,90.0,90.0,1500.0
10:48:02.771,GUIDED,-35.3632485,149.1652775,36403,-0.008897068910300732,-0.011837529018521309,-0.1350531429052353,0.005785764195024967,0.0012600211193785071,-0.019910266622900963,2,2,-1000,6,1,-19,-11,-2,-154,90.0,90.0,1500.0
10:48:02.977,GUIDED,-35.3632485,149.1652775,36403,-0.008897068910300732,-0.011837529018521309,-0.1350531429052353,0.005785764195024967,0.0012600211193785071,-0.019910266622900963,2,2,-1000,6,1,-19,-11,-2,-154,90.0,90.0,1500.0
10:48:03.181,GUIDED,-35.3632485,149.1652775,36403,-0.008897068910300732,-0.011837529018521309,-0.1350531429052353,0.005785764195024967,0.0012600211193785071,-0.019910266622900963,2,2,-1000,6,1,-19,-11,-2,-154,90.0,90.0,1500.0
10:48:03.386,GUIDED,-35.3632485,149.1652775,36403,-0.008897068910300732,-0.011837529018521309,-0.1350531429052353,0.005785764195024967,0.0012600211193785071,-0.019910266622900963,2,2,-1000,6,1,-19,-11,-2,-154,90.0,90.0,1500.0
10:48:03.591,GUIDED,-35.3632485,149.1652775,36403,-0.008897068910300732,-0.011837529018521309,-0.1350531429052353,0.005785764195024967,0.0012600211193785071,-0.019910266622900963,2,2,-1000,6,1,-19,-11,-2,-154,90.0,90.0,1500.0
10:48:03.800,GUIDED,-35.3632488,149.1652766,38814,0.007247773464769125,0.0010746020125225186,-0.1423615664243698,0.005781552754342556,0.006264933384954929,0.014587117359042168,-1,1,-1000,6,7,14,0,-4,-153,90.0,90.0,1500.0
10:48:04.002,GUIDED,-35.3632488,149.1652765,39204,0.00740908132866025,0.0019202824914827943,-0.13943883776664734,-0.003885770682245493,0.0019262740388512611,0.009623998776078224,0,0,-1000,-3,2,9,0,-2,-153,90.0,90.0,1500.0
10:48:04.203,GUIDED,-35.3632488,149.1652765,39204,0.00740908132866025,0.0019202824914827943,-0.13943883776664734,-0.003885770682245493,0.0019262740388512611,0.009623998776078224,0,0,-1000,-3,2,9,0,-2,-153,90.0,90.0,1500.0
10:48:04.406,GUIDED,-35.3632488,149.1652765,39204,0.00740908132866025,0.0019202824914827943,-0.13943883776664734,-0.003885770682245493,0.0019262740388512611,0.009623998776078224,0,0,-1000,-3,2,9,0,-2,-153,90.0,90.0,1500.0
10:48:04.613,GUIDED,-35.3632488,149.1652765,39204,0.00740908132866025,0.0019202824914827943,-0.13943883776664734,-0.003885770682245493,0.0019262740388512611,0.009623998776078224,0,0,-1000,-3,2,9,0,-2,-153,90.0,90.0,1500.0
10:48:04.817,GUIDED,-35.3632488,149.1652765,39204,0.00740908132866025,0.0019202824914827943,-0.13943883776664734,-0.003885770682245493,0.0019262740388512611,0.009623998776078224,0,0,-1000,-3,2,9,0,-2,-153,90.0,90.0,1500.0
10:48:05.028,GUIDED,-35.3632488,149.1652765,39204,0.00740908132866025,0.0019202824914827943,-0.13943883776664734,-0.003885770682245493,0.0019262740388512611,0.009623998776078224,0,0,-1000,-3,2,9,0,-2,-153,90.0,90.0,1500.0
10:48:05.236,GUIDED,-35.3632488,149.1652763,40450,0.005262370686978102,0.002294838661327958,-0.13200610876083374,-0.0023711943067610264,0.0020537253003567457,0.008941109292209148,0,0,-1000,-1,2,9,0,1,-153,90.0,90.0,1500.0
10:48:05.438,GUIDED,-35.3632488,149.1652763,41227,0.003342646872624755,0.0021941273007541895,-0.12755462527275085,-0.003532740520313382,-0.0013055744348093867,0.01075306348502636,0,0,-1000,-2,0,10,0,2,-153,90.0,90.0,1500.0
10:48:05.640,GUIDED,-35.3632488,149.1652763,41617,0.00266714277677238,0.0019915741868317127,-0.12551523745059967,-0.002390911802649498,-0.0004693582886829972,0.008373253978788853,0,0,-1000,-1,0,8,0,3,-153,90.0,90.0,1500.0
10:48:05.841,GUIDED,-35.3632487,149.1652764,42014,0.00220756814815104,0.001975173829123378,-0.12336933612823486,0.0018908014753833413,0.002534575294703245,0.008870559744536877,0,0,-1000,2,3,9,0,3,-153,90.0,90.0,1500.0
10:48:06.044,GUIDED,-35.3632487,149.1652764,42014,0.00220756814815104,0.001975173829123378,-0.12336933612823486,0.0018908014753833413,0.002534575294703245,0.008870559744536877,0,0,-1000,2,3,9,0,3,-153,90.0,90.0,1500.0
10:48:06.250,GUIDED,-35.3632487,149.1652764,42014,0.00220756814815104,0.001975173829123378,-0.12336933612823486,0.0018908014753833413,0.002534575294703245,0.008870559744536877,0,0,-1000,2,3,9,0,3,-153,90.0,90.0,1500.0
10:48:06.458,GUIDED,-35.3632487,149.1652764,42014,0.00220756814815104,0.001975173829123378,-0.12336933612823486,0.0018908014753833413,0.002534575294703245,0.008870559744536877,0,0,-1000,2,3,9,0,3,-153,90.0,90.0,1500.0
10:48:06.660,GUIDED,-35.3632487,149.1652764,42014,0.00220756814815104,0.001975173829123378,-0.12336933612823486,0.0018908014753833413,0.002534575294703245,0.008870559744536877,0,0,-1000,2,3,9,0,3,-153,90.0,90.0,1500.0
10:48:06.863,GUIDED,-35.3632487,149.1652764,42014,0.00220756814815104,0.001975173829123378,-0.12336933612823486,0.0018908014753833413,0.002534575294703245,0.008870559744536877,0,0,-1000,2,3,9,0,3,-153,90.0,90.0,1500.0
10:48:07.066,GUIDED,-35.3632487,149.1652764,42014,0.00220756814815104,0.001975173829123378,-0.12336933612823486,0.0018908014753833413,0.002534575294703245,0.008870559744536877,0,0,-1000,2,3,9,0,3,-153,90.0,90.0,1500.0
10:48:07.270,GUIDED,-35.3632487,149.1652765,43563,0.001609462546184659,0.0015762544935569167,-0.11606105417013168,0.002200793009251356,-0.00039656803710386157,0.009233255870640278,0,0,-1000,2,0,9,0,2,-153,90.0,90.0,1500.0
10:48:07.472,GUIDED,-35.3632487,149.1652765,44341,0.0015511579113081098,0.0016762330196797848,-0.11293356120586395,-0.0005552598740905523,0.0008795639150775969,0.005661423783749342,0,0,-1000,0,1,5,0,2,-153,90.0,90.0,1500.0
10:48:07.677,GUIDED,-35.3632486,149.1652765,44731,0.0016082474030554295,0.00182819995097816,-0.11109336465597153,-0.001839333213865757,0.0009711615857668221,0.006814423482865095,0,0,-1000,-1,1,6,0,2,-153,90.0,90.0,1500.0
10:48:07.879,GUIDED,-35.3632486,149.1652765,45120,0.0012850939529016614,0.0017251516692340374,-0.10950630158185959,0.0008563774754293263,-0.001216362346895039,0.006257363595068455,0,0,-1001,1,0,6,0,2,-153,90.0,90.0,1500.0
10:48:08.083,GUIDED,-35.3632486,149.1652765,45120,0.0012850939529016614,0.0017251516692340374,-0.10950630158185959,0.0008563774754293263,-0.001216362346895039,0.006257363595068455,0,0,-1001,1,0,6,0,2,-153,90.0,90.0,1500.0
10:48:08.285,GUIDED,-35.3632486,149.1652765,45120,0.0012850939529016614,0.0017251516692340374,-0.10950630158185959,0.0008563774754293263,-0.001216362346895039,0.006257363595068455,0,0,-1001,1,0,6,0,2,-153,90.0,90.0,1500.0
10:48:08.488,GUIDED,-35.3632486,149.1652765,45120,0.0012850939529016614,0.0017251516692340374,-0.10950630158185959,0.0008563774754293263,-0.001216362346895039,0.006257363595068455,0,0,-1001,1,0,6,0,2,-153,90.0,90.0,1500.0
10:48:08.697,GUIDED,-35.3632486,149.1652765,45120,0.0012850939529016614,0.0017251516692340374,-0.10950630158185959,0.0008563774754293263,-0.001216362346895039,0.006257363595068455,0,0,-1001,1,0,6,0,2,-153,90.0,90.0,1500.0
10:48:08.899,GUIDED,-35.3632486,149.1652765,45120,0.0012850939529016614,0.0017251516692340374,-0.10950630158185959,0.0008563774754293263,-0.001216362346895039,0.006257363595068455,0,0,-1001,1,0,6,0,2,-153,90.0,90.0,1500.0
10:48:09.102,GUIDED,-35.3632486,149.1652765,45120,0.0012850939529016614,0.0017251516692340374,-0.10950630158185959,0.0008563774754293263,-0.001216362346895039,0.006257363595068455,0,0,-1001,1,0,6,0,2,-153,90.0,90.0,1500.0
10:48:09.306,GUIDED,-35.3632486,149.1652765,45120,0.0012850939529016614,0.0017251516692340374,-0.10950630158185959,0.0008563774754293263,-0.001216362346895039,0.006257363595068455,0,0,-1001,1,0,6,0,2,-153,90.0,90.0,1500.0
10:48:09.508,GUIDED,-35.3632486,149.1652765,45120,0.0012850939529016614,0.0017251516692340374,-0.10950630158185959,0.0008563774754293263,-0.001216362346895039,0.006257363595068455,0,0,-1001,1,0,6,0,2,-153,90.0,90.0,1500.0
10:48:09.709,GUIDED,-35.3632486,149.1652765,45120,0.0012850939529016614,0.0017251516692340374,-0.10950630158185959,0.0008563774754293263,-0.001216362346895039,0.006257363595068455,0,0,-1001,1,0,6,0,2,-153,90.0,90.0,1500.0
10:48:09.911,GUIDED,-35.3632486,149.1652766,46684,0.0011883201077580452,0.0012478341814130545,-0.10365580022335052,0.003008292056620121,0.0003434628597460687,0.006582928821444511,0,0,-999,0,1,8,0,1,-153,90.0,90.0,1500.0
10:48:10.113,GUIDED,-35.3632485,149.1652766,48632,0.0017633057432249188,0.0020717906299978495,-0.09609924256801605,0.0026387751568108797,0.0011361782671883702,0.005830128211528063,0,0,-1001,3,2,6,0,1,-153,90.0,90.0,1500.0
10:48:10.317,GUIDED,-35.3632485,149.1652766,48632,0.0017633057432249188,0.0020717906299978495,-0.09609924256801605,0.0026387751568108797,0.0011361782671883702,0.005830128211528063,0,0,-1001,3,2,6,0,1,-153,90.0,90.0,1500.0
10:48:10.519,GUIDED,-35.3632485,149.1652766,48632,0.0017633057432249188,0.0020717906299978495,-0.09609924256801605,0.0026387751568108797,0.0011361782671883702,0.005830128211528063,0,0,-1001,3,2,6,0,1,-153,90.0,90.0,1500.0
10:48:10.721,GUIDED,-35.3632485,149.1652766,48632,0.0017633057432249188,0.0020717906299978495,-0.09609924256801605,0.0026387751568108797,0.0011361782671883702,0.005830128211528063,0,0,-1001,3,2,6,0,1,-153,90.0,90.0,1500.0
10:48:10.923,GUIDED,-35.3632485,149.1652766,48632,0.0017633057432249188,0.0020717906299978495,-0.09609924256801605,0.0026387751568108797,0.0011361782671883702,0.005830128211528063,0,0,-1001,3,2,6,0,1,-153,90.0,90.0,1500.0
10:48:11.129,GUIDED,-35.3632485,149.1652766,48632,0.0017633057432249188,0.0020717906299978495,-0.09609924256801605,0.0026387751568108797,0.0011361782671883702,0.005830128211528063,0,0,-1001,3,2,6,0,1,-153,90.0,90.0,1500.0
10:48:11.331,GUIDED,-35.3632485,149.1652766,48632,0.0017633057432249188,0.0020717906299978495,-0.09609924256801605,0.0026387751568108797,0.0011361782671883702,0.005830128211528063,0,0,-1001,3,2,6,0,1,-153,90.0,90.0,1500.0
10:48:11.534,GUIDED,-35.3632485,149.1652766,48632,0.0017633057432249188,0.0020717906299978495,-0.09609924256801605,0.0026387751568108797,0.0011361782671883702,0.005830128211528063,0,0,-1001,3,2,6,0,1,-153,90.0,90.0,1500.0
10:48:11.738,GUIDED,-35.3632485,149.1652766,48632,0.0017633057432249188,0.0020717906299978495,-0.09609924256801605,0.0026387751568108797,0.0011361782671883702,0.005830128211528063,0,0,-1001,3,2,6,0,1,-153,90.0,90.0,1500.0
10:48:11.941,GUIDED,-35.3632485,149.1652766,51115,0.001499286969192326,0.0015174661530181766,-0.08716437220573425,0.002350331051275134,0.0007098359055817127,0.007472485303878784,0,0,-1000,3,1,7,-1,1,-153,90.0,90.0,1500.0
10:48:12.149,LAND,-35.3632485,149.1652766,51512,0.0015941503224894404,0.0013291619252413511,-0.08592601120471954,-0.0007843803614377975,0.0008404627442359924,0.004668611101806164,0,0,-999,0,1,4,-1,1,-153,90.0,90.0,1500.0
10:48:12.367,LAND,-35.3632485,149.1652766,51512,0.0015941503224894404,0.0013291619252413511,-0.08592601120471954,-0.0007843803614377975,0.0008404627442359924,0.004668611101806164,0,0,-999,0,1,4,-1,1,-153,90.0,90.0,1500.0
10:48:12.570,LAND,-35.3632485,149.1652766,51512,0.0015941503224894404,0.0013291619252413511,-0.08592601120471954,-0.0007843803614377975,0.0008404627442359924,0.004668611101806164,0,0,-999,0,1,4,-1,1,-153,90.0,90.0,1500.0
10:48:12.774,LAND,-35.3632485,149.1652766,51512,0.0015941503224894404,0.0013291619252413511,-0.08592601120471954,-0.0007843803614377975,0.0008404627442359924,0.004668611101806164,0,0,-999,0,1,4,-1,1,-153,90.0,90.0,1500.0
10:48:12.983,LAND,-35.3632485,149.1652766,51512,0.0015941503224894404,0.0013291619252413511,-0.08592601120471954,-0.0007843803614377975,0.0008404627442359924,0.004668611101806164,0,0,-999,0,1,4,-1,1,-153,90.0,90.0,1500.0
10:48:13.189,LAND,-35.3632485,149.1652766,51512,0.0015941503224894404,0.0013291619252413511,-0.08592601120471954,-0.0007843803614377975,0.0008404627442359924,0.004668611101806164,0,0,-999,0,1,4,-1,1,-153,90.0,90.0,1500.0
10:48:13.392,LAND,-35.3632485,149.1652766,51512,0.0015941503224894404,0.0013291619252413511,-0.08592601120471954,-0.0007843803614377975,0.0008404627442359924,0.004668611101806164,0,0,-999,0,1,4,-1,1,-153,90.0,90.0,1500.0
10:48:13.594,LAND,-35.3632485,149.1652766,51512,0.0015941503224894404,0.0013291619252413511,-0.08592601120471954,-0.0007843803614377975,0.0008404627442359924,0.004668611101806164,0,0,-999,0,1,4,-1,1,-153,90.0,90.0,1500.0
10:48:13.797,LAND,-35.3632485,149.1652766,51512,0.0015941503224894404,0.0013291619252413511,-0.08592601120471954,-0.0007843803614377975,0.0008404627442359924,0.004668611101806164,0,0,-999,0,1,4,-1,1,-153,90.0,90.0,1500.0
10:48:13.999,LAND,-35.3632485,149.1652765,53304,0.002445774618536234,0.0011999636190012097,-0.08116208761930466,0.0029567345045506954,0.00020205497276037931,0.00794052705168724,0,0,-1000,4,1,8,-1,1,-153,440.0,90.0,1500.0
10:48:14.201,LAND,-35.363249,149.1652756,54689,-0.05713842809200287,0.058631885796785355,0.2353716492652893,0.08966854959726334,-0.21856307983398438,0.312120646238327,3,6,-887,90,-217,312,-27,-28,-94,440.0,90.0,1500.0
10:48:14.403,LAND,-35.363249,149.1652756,54689,-0.05713842809200287,0.058631885796785355,0.2353716492652893,0.08966854959726334,-0.21856307983398438,0.312120646238327,3,6,-887,90,-217,312,-27,-28,-94,440.0,90.0,1500.0
10:48:14.606,LAND,-35.363249,149.1652756,54689,-0.05713842809200287,0.058631885796785355,0.2353716492652893,0.08966854959726334,-0.21856307983398438,0.312120646238327,3,6,-887,90,-217,312,-27,-28,-94,440.0,90.0,1500.0
10:48:14.810,LAND,-35.363249,149.1652756,54689,-0.05713842809200287,0.058631885796785355,0.2353716492652893,0.08966854959726334,-0.21856307983398438,0.312120646238327,3,6,-887,90,-217,312,-27,-28,-94,440.0,90.0,1500.0
10:48:15.012,LAND,-35.363249,149.1652756,54689,-0.05713842809200287,0.058631885796785355,0.2353716492652893,0.08966854959726334,-0.21856307983398438,0.312120646238327,3,6,-887,90,-217,312,-27,-28,-94,440.0,90.0,1500.0
10:48:15.214,LAND,-35.363249,149.1652756,54689,-0.05713842809200287,0.058631885796785355,0.2353716492652893,0.08966854959726334,-0.21856307983398438,0.312120646238327,3,6,-887,90,-217,312,-27,-28,-94,440.0,90.0,1500.0
10:48:15.416,LAND,-35.363249,149.1652756,54689,-0.05713842809200287,0.058631885796785355,0.2353716492652893,0.08966854959726334,-0.21856307983398438,0.312120646238327,3,6,-887,90,-217,312,-27,-28,-94,440.0,90.0,1500.0
10:48:15.620,LAND,-35.363249,149.1652756,54689,-0.05713842809200287,0.058631885796785355,0.2353716492652893,0.08966854959726334,-0.21856307983398438,0.312120646238327,3,6,-887,90,-217,312,-27,-28,-94,440.0,90.0,1500.0
10:48:15.823,LAND,-35.363249,149.1652756,54689,-0.05713842809200287,0.058631885796785355,0.2353716492652893,0.08966854959726334,-0.21856307983398438,0.312120646238327,3,6,-887,90,-217,312,-27,-28,-94,440.0,90.0,1500.0
10:48:16.026,LAND,-35.363251,149.1652721,55150,0.029406718909740448,-0.05722109228372574,0.32697880268096924,0.22960464656352997,-0.013255896046757698,-0.012311105616390705,1,2,-916,-45,-55,22,-9,-20,-6,440.0,90.0,1500.0
10:48:16.227,LAND,-35.3632506,149.1652721,54852,0.045332636684179306,-0.023195702582597733,0.2912547290325165,0.2732585668563843,0.04222455248236656,-0.04885876551270485,-2,-26,-969,268,43,-48,18,21,51,480.0,90.0,1500.0
10:48:16.429,LAND,-35.3632501,149.1652727,54706,0.031087541952729225,-0.012369614094495773,0.28160059452056885,-0.3774467408657074,0.03733396530151367,-0.045722734183073044,-1,-48,-950,-383,38,-45,20,26,58,480.0,90.0,1500.0
10:48:16.631,LAND,-35.3632501,149.1652727,54706,0.031087541952729225,-0.012369614094495773,0.28160059452056885,-0.3774467408657074,0.03733396530151367,-0.045722734183073044,-1,-48,-950,-383,38,-45,20,26,58,480.0,90.0,1500.0
10:48:16.838,LAND,-35.3632501,149.1652727,54706,0.031087541952729225,-0.012369614094495773,0.28160059452056885,-0.3774467408657074,0.03733396530151367,-0.045722734183073044,-1,-48,-950,-383,38,-45,20,26,58,480.0,90.0,1500.0
10:48:17.040,LAND,-35.3632501,149.1652727,54706,0.031087541952729225,-0.012369614094495773,0.28160059452056885,-0.3774467408657074,0.03733396530151367,-0.045722734183073044,-1,-48,-950,-383,38,-45,20,26,58,480.0,90.0,1500.0
10:48:17.243,LAND,-35.3632501,149.1652727,54706,0.031087541952729225,-0.012369614094495773,0.28160059452056885,-0.3774467408657074,0.03733396530151367,-0.045722734183073044,-1,-48,-950,-383,38,-45,20,26,58,480.0,90.0,1500.0
10:48:17.444,LAND,-35.3632501,149.1652727,54706,0.031087541952729225,-0.012369614094495773,0.28160059452056885,-0.3774467408657074,0.03733396530151367,-0.045722734183073044,-1,-48,-950,-383,38,-45,20,26,58,480.0,90.0,1500.0
10:48:17.646,LAND,-35.3632501,149.1652727,54706,0.031087541952729225,-0.012369614094495773,0.28160059452056885,-0.3774467408657074,0.03733396530151367,-0.045722734183073044,-1,-48,-950,-383,38,-45,20,26,58,480.0,90.0,1500.0
10:48:17.848,LAND,-35.3632501,149.1652727,54706,0.031087541952729225,-0.012369614094495773,0.28160059452056885,-0.3774467408657074,0.03733396530151367,-0.045722734183073044,-1,-48,-950,-383,38,-45,20,26,58,480.0,90.0,1500.0
10:48:18.053,LAND,-35.3632479,149.1652767,53472,0.010218290612101555,0.01729498989880085,0.2382403463125229,-0.915337324142456,0.011629536747932434,-0.023250291123986244,1,-99,-888,-1591,5,-23,12,23,148,480.0,90.0,1500.0
10:48:18.256,LAND,-35.3632477,149.1652774,53033,0.024020789191126823,0.018449807539582253,0.2309151589870453,0.2365572452545166,-0.006186657585203648,-0.0317051075398922,1,-37,-740,229,-5,-31,8,24,197,420.0,90.0,1500.0
10:48:18.459,LAND,-35.3632477,149.1652774,53033,0.024020789191126823,0.018449807539582253,0.2309151589870453,0.2365572452545166,-0.006186657585203648,-0.0317051075398922,1,-37,-740,229,-5,-31,8,24,197,420.0,90.0,1500.0
10:48:18.661,LAND,-35.3632477,149.1652774,53033,0.024020789191126823,0.018449807539582253,0.2309151589870453,0.2365572452545166,-0.006186657585203648,-0.0317051075398922,1,-37,-740,229,-5,-31,8,24,197,420.0,90.0,1500.0
10:48:18.865,LAND,-35.3632477,149.1652774,53033,0.024020789191126823,0.018449807539582253,0.2309151589870453,0.2365572452545166,-0.006186657585203648,-0.0317051075398922,1,-37,-740,229,-5,-31,8,24,197,420.0,90.0,1500.0
10:48:19.066,LAND,-35.3632477,149.1652774,53033,0.024020789191126823,0.018449807539582253,0.2309151589870453,0.2365572452545166,-0.006186657585203648,-0.0317051075398922,1,-37,-740,229,-5,-31,8,24,197,420.0,90.0,1500.0
10:48:19.268,LAND,-35.3632477,149.1652774,53033,0.024020789191126823,0.018449807539582253,0.2309151589870453,0.2365572452545166,-0.006186657585203648,-0.0317051075398922,1,-37,-740,229,-5,-31,8,24,197,420.0,90.0,1500.0
10:48:19.470,LAND,-35.3632477,149.1652774,53033,0.024020789191126823,0.018449807539582253,0.2309151589870453,0.2365572452545166,-0.006186657585203648,-0.0317051075398922,1,-37,-740,229,-5,-31,8,24,197,420.0,90.0,1500.0
10:48:19.673,LAND,-35.3632477,149.1652774,53033,0.024020789191126823,0.018449807539582253,0.2309151589870453,0.2365572452545166,-0.006186657585203648,-0.0317051075398922,1,-37,-740,229,-5,-31,8,24,197,420.0,90.0,1500.0
10:48:19.874,LAND,-35.3632477,149.1652774,53033,0.024020789191126823,0.018449807539582253,0.2309151589870453,0.2365572452545166,-0.006186657585203648,-0.0317051075398922,1,-37,-740,229,-5,-31,8,24,197,420.0,90.0,1500.0
10:48:20.076,LAND,-35.3632477,149.16528,48020,-0.029657118022441864,0.002913934178650379,0.18849724531173706,0.04813650622963905,-0.05561229586601257,-0.013309669680893421,4,73,-1026,59,-54,-12,-2,6,316,420.0,90.0,1500.0
10:48:20.278,LAND,-35.363248,149.1652804,46413,-0.029269646853208542,-0.00010190163447987288,0.178384929895401,-0.5242667198181152,-0.015745127573609352,-0.016542786732316017,2,52,-1000,-511,-14,-15,-2,2,302,420.0,90.0,1500.0
10:48:20.480,LAND,-35.363248,149.1652804,46413,-0.029269646853208542,-0.00010190163447987288,0.178384929895401,-0.5242667198181152,-0.015745127573609352,-0.016542786732316017,2,52,-1000,-511,-14,-15,-2,2,302,420.0,90.0,1500.0
10:48:20.681,LAND,-35.363248,149.1652804,46413,-0.029269646853208542,-0.00010190163447987288,0.178384929895401,-0.5242667198181152,-0.015745127573609352,-0.016542786732316017,2,52,-1000,-511,-14,-15,-2,2,302,420.0,90.0,1500.0
10:48:20.883,LAND,-35.363248,149.1652804,46413,-0.029269646853208542,-0.00010190163447987288,0.178384929895401,-0.5242667198181152,-0.015745127573609352,-0.016542786732316017,2,52,-1000,-511,-14,-15,-2,2,302,420.0,90.0,1500.0
10:48:21.084,LAND,-35.363248,149.1652804,46413,-0.029269646853208542,-0.00010190163447987288,0.178384929895401,-0.5242667198181152,-0.015745127573609352,-0.016542786732316017,2,52,-1000,-511,-14,-15,-2,2,302,420.0,90.0,1500.0
10:48:21.288,LAND,-35.363248,149.1652804,46413,-0.029269646853208542,-0.00010190163447987288,0.178384929895401,-0.5242667198181152,-0.015745127573609352,-0.016542786732316017,2,52,-1000,-511,-14,-15,-2,2,302,420.0,90.0,1500.0
10:48:21.493,LAND,-35.363248,149.1652804,46413,-0.029269646853208542,-0.00010190163447987288,0.178384929895401,-0.5242667198181152,-0.015745127573609352,-0.016542786732316017,2,52,-1000,-511,-14,-15,-2,2,302,420.0,90.0,1500.0
10:48:21.695,LAND,-35.363248,149.1652804,46413,-0.029269646853208542,-0.00010190163447987288,0.178384929895401,-0.5242667198181152,-0.015745127573609352,-0.016542786732316017,2,52,-1000,-511,-14,-15,-2,2,302,420.0,90.0,1500.0
10:48:21.898,LAND,-35.3632483,149.1652802,44110,-0.05408429354429245,-0.005673551000654697,0.16508324444293976,-2.3131320476531982,-0.0009160086046904325,-0.020534487441182137,-5,-94,-1006,-2317,0,-19,0,-11,289,420.0,90.0,1500.0
10:48:22.102,LAND,-35.3632485,149.1652764,40444,0.04993101581931114,-0.009023117832839489,0.14493726193904877,2.2365572452545166,0.00924458634108305,-0.016585486009716988,-2,115,-1011,2243,10,-15,3,-7,275,420.0,90.0,1500.0
10:48:22.305,LAND,-35.3632485,149.1652764,40444,0.04993101581931114,-0.009023117832839489,0.14493726193904877,2.2365572452545166,0.00924458634108305,-0.016585486009716988,-2,115,-1011,2243,10,-15,3,-7,275,230.0,90.0,1500.0
10:48:22.507,LAND,-35.3632485,149.1652764,40444,0.04993101581931114,-0.009023117832839489,0.14493726193904877,2.2365572452545166,0.00924458634108305,-0.016585486009716988,-2,115,-1011,2243,10,-15,3,-7,275,230.0,90.0,1500.0
10:48:22.710,LAND,-35.3632485,149.1652764,40444,0.04993101581931114,-0.009023117832839489,0.14493726193904877,2.2365572452545166,0.00924458634108305,-0.016585486009716988,-2,115,-1011,2243,10,-15,3,-7,275,230.0,90.0,1500.0
10:48:22.913,LAND,-35.3632485,149.1652764,40444,0.04993101581931114,-0.009023117832839489,0.14493726193904877,2.2365572452545166,0.00924458634108305,-0.016585486009716988,-2,115,-1011,2243,10,-15,3,-7,275,230.0,90.0,1500.0
10:48:23.117,LAND,-35.3632485,149.1652764,40444,0.04993101581931114,-0.009023117832839489,0.14493726193904877,2.2365572452545166,0.00924458634108305,-0.016585486009716988,-2,115,-1011,2243,10,-15,3,-7,275,230.0,90.0,1500.0
10:48:23.321,LAND,-35.3632485,149.1652764,40444,0.04993101581931114,-0.009023117832839489,0.14493726193904877,2.2365572452545166,0.00924458634108305,-0.016585486009716988,-2,115,-1011,2243,10,-15,3,-7,275,230.0,90.0,1500.0
10:48:23.524,LAND,-35.3632485,149.1652764,40444,0.04993101581931114,-0.009023117832839489,0.14493726193904877,2.2365572452545166,0.00924458634108305,-0.016585486009716988,-2,115,-1011,2243,10,-15,3,-7,275,230.0,90.0,1500.0
10:48:23.728,LAND,-35.3632485,149.1652764,40444,0.04993101581931114,-0.009023117832839489,0.14493726193904877,2.2365572452545166,0.00924458634108305,-0.016585486009716988,-2,115,-1011,2243,10,-15,3,-7,275,230.0,90.0,1500.0
10:48:23.931,LAND,-35.3632484,149.165275,38802,0.001758305006660521,-0.004306452348828316,0.13763214647769928,0.13704930245876312,0.0026199843268841505,-0.006045505870133638,-4,62,-1034,147,3,-5,2,9,136,230.0,90.0,1500.0
10:48:24.134,LAND,-35.363248,149.165273,37276,0.011911234818398952,0.0012819224502891302,0.12450243532657623,-0.8103672862052917,0.004308258183300495,0.000970816588960588,0,7,-964,-801,5,2,0,22,126,230.0,90.0,1500.0
10:48:24.336,LAND,-35.363248,149.165273,37276,0.011911234818398952,0.0012819224502891302,0.12450243532657623,-0.8103672862052917,0.004308258183300495,0.000970816588960588,0,7,-964,-801,5,2,0,22,126,230.0,90.0,1500.0
10:48:24.538,LAND,-35.363248,149.165273,37276,0.011911234818398952,0.0012819224502891302,0.12450243532657623,-0.8103672862052917,0.004308258183300495,0.000970816588960588,0,7,-964,-801,5,2,0,22,126,230.0,90.0,1500.0
