time_stamp,MODE,lat,lon,alt,relative_alt,roll,pitch,yaw,rollspeed,pitchspeed,yawspeed,xacc,yacc,zacc,xgyro,ygyro,zgyro,vx,vy,vz
16:37:57.989,STABILIZE,-35.3632621,149.1652375,583990,4,-3.664439282147214e-05,0.001548144267871976,0.027310725301504135,0.00045721192145720124,0.0003068526566494256,0.0021488601341843605,0,1,-1000,0,0,0,-1,2,0
16:37:58.192,STABILIZE,-35.3632621,149.1652375,583990,4,-3.664439282147214e-05,0.001548144267871976,0.027310725301504135,0.00045721192145720124,0.0003068526566494256,0.0021488601341843605,0,2,-1000,0,0,0,-1,2,0
16:37:58.393,STABILIZE,-35.3632621,149.1652375,583990,4,-3.664439282147214e-05,0.001548144267871976,0.027310725301504135,0.00045721192145720124,0.0003068526566494256,0.0021488601341843605,0,2,-1000,0,0,0,-1,2,0
16:37:58.600,STABILIZE,-35.3632621,149.1652375,583990,4,-3.664439282147214e-05,0.001548144267871976,0.027310725301504135,0.00045721192145720124,0.0003068526566494256,0.0021488601341843605,0,2,-1000,0,0,0,-1,2,0
16:37:58.808,STABILIZE,-35.3632621,149.1652375,583990,4,-3.664439282147214e-05,0.001548144267871976,0.027310725301504135,0.00045721192145720124,0.0003068526566494256,0.0021488601341843605,0,2,-1000,0,0,0,-1,2,0
16:37:59.014,STABILIZE,-35.3632621,149.1652375,583990,4,-3.664439282147214e-05,0.001548144267871976,0.027310725301504135,0.00045721192145720124,0.0003068526566494256,0.0021488601341843605,0,2,-1000,0,0,0,-1,2,0
16:37:59.218,STABILIZE,-35.3632621,149.1652375,583990,4,-3.664439282147214e-05,0.001548144267871976,0.027310725301504135,0.00045721192145720124,0.0003068526566494256,0.0021488601341843605,0,2,-1000,0,0,0,-1,2,0
16:37:59.425,STABILIZE,-35.3632621,149.1652375,583990,4,-3.664439282147214e-05,0.001548144267871976,0.027310725301504135,0.00045721192145720124,0.0003068526566494256,0.0021488601341843605,0,2,-1000,0,0,0,-1,2,0
16:37:59.634,STABILIZE,-35.3632621,149.1652375,583990,4,-3.664439282147214e-05,0.001548144267871976,0.027310725301504135,0.00045721192145720124,0.0003068526566494256,0.0021488601341843605,0,2,-1000,0,0,0,-1,2,0
16:37:59.841,STABILIZE,-35.3632621,149.1652375,583990,4,-3.664439282147214e-05,0.001548144267871976,0.027310725301504135,0.00045721192145720124,0.0003068526566494256,0.0021488601341843605,0,2,-1000,0,0,0,-1,2,0
16:38:00.053,STABILIZE,-35.3632622,149.1652375,583980,0,-3.664439282147214e-05,0.001548144267871976,0.027310725301504135,0.00045721192145720124,0.0003068526566494256,0.0021488601341843605,0,2,-1000,0,0,0,-1,2,1
16:38:00.255,STABILIZE,-35.3632622,149.1652375,583980,0,-0.0006713477778248489,0.001075295265763998,0.02580723725259304,0.00032186327734962106,0.00021656090393662453,0.0020408090204000473,0,2,-1000,0,0,0,-1,2,1
16:38:00.459,STABILIZE,-35.3632622,149.1652375,583980,0,-0.0008330710115842521,0.0010178601369261742,0.0255973469465971,0.00026417901972308755,0.00025202182587236166,0.002018837258219719,0,2,-1000,0,0,0,-1,1,0
16:38:00.661,STABILIZE,-35.3632622,149.1652375,583980,0,-0.0008330710115842521,0.0010178601369261742,0.0255973469465971,0.00026417901972308755,0.00025202182587236166,0.002018837258219719,0,2,-1000,0,0,0,-1,1,0
16:38:00.866,STABILIZE,-35.3632622,149.1652375,583980,0,-0.0008330710115842521,0.0010178601369261742,0.0255973469465971,0.00026417901972308755,0.00025202182587236166,0.002018837258219719,0,2,-1000,0,0,0,-1,1,0
16:38:01.070,STABILIZE,-35.3632622,149.1652375,583980,0,-0.0008330710115842521,0.0010178601369261742,0.0255973469465971,0.00026417901972308755,0.00025202182587236166,0.002018837258219719,0,2,-1000,0,0,0,-1,1,0
16:38:01.280,STABILIZE,-35.3632622,149.1652375,583980,0,-0.0008330710115842521,0.0010178601369261742,0.0255973469465971,0.00026417901972308755,0.00025202182587236166,0.002018837258219719,0,2,-1000,0,0,0,-1,1,0
16:38:01.482,STABILIZE,-35.3632622,149.1652375,583980,0,-0.0008330710115842521,0.0010178601369261742,0.0255973469465971,0.00026417901972308755,0.00025202182587236166,0.002018837258219719,0,2,-1000,0,0,0,-1,1,0
16:38:01.685,STABILIZE,-35.3632622,149.1652375,583980,0,-0.0008330710115842521,0.0010178601369261742,0.0255973469465971,0.00026417901972308755,0.00025202182587236166,0.002018837258219719,0,2,-1000,0,0,0,-1,1,0
16:38:01.887,STABILIZE,-35.3632622,149.1652375,583980,0,-0.0008330710115842521,0.0010178601369261742,0.0255973469465971,0.00026417901972308755,0.00025202182587236166,0.002018837258219719,0,2,-1000,0,0,0,-1,1,0
16:38:02.093,STABILIZE,-35.3632622,149.1652375,583980,0,-0.001066769240424037,0.0009360430995002389,0.025202346965670586,0.00020857801428064704,0.0001160578103736043,0.001988109201192856,0,2,-1000,0,0,0,-1,1,0
16:38:02.301,STABILIZE,-35.3632622,149.1652375,583980,0,-0.00104719668161124,0.0009164374205283821,0.024854930117726326,0.00021726189879700541,0.00021887384355068207,0.0018587735248729587,0,1,-1000,0,0,1,-1,1,1
16:38:02.512,STABILIZE,-35.3632622,149.1652375,583980,0,-0.00104719668161124,0.0009164374205283821,0.024854930117726326,0.00021726189879700541,0.00021887384355068207,0.0018587735248729587,0,1,-1000,0,0,1,-1,1,1
16:38:02.716,STABILIZE,-35.3632622,149.1652375,583980,0,-0.00104719668161124,0.0009164374205283821,0.024854930117726326,0.00021726189879700541,0.00021887384355068207,0.0018587735248729587,0,1,-1000,0,0,1,-1,1,1
16:38:02.921,STABILIZE,-35.3632622,149.1652375,583980,0,-0.00104719668161124,0.0009164374205283821,0.024854930117726326,0.00021726189879700541,0.00021887384355068207,0.0018587735248729587,0,1,-1000,0,0,1,-1,1,1
16:38:03.123,STABILIZE,-35.3632622,149.1652375,583980,0,-0.00104719668161124,0.0009164374205283821,0.024854930117726326,0.00021726189879700541,0.00021887384355068207,0.0018587735248729587,0,1,-1000,0,0,1,-1,1,1
16:38:03.337,STABILIZE,-35.3632622,149.1652375,583980,0,-0.00104719668161124,0.0009164374205283821,0.024854930117726326,0.00021726189879700541,0.00021887384355068207,0.0018587735248729587,0,1,-1000,0,0,1,-1,1,1
16:38:03.541,STABILIZE,-35.3632622,149.1652375,583980,0,-0.00104719668161124,0.0009164374205283821,0.024854930117726326,0.00021726189879700541,0.00021887384355068207,0.0018587735248729587,0,1,-1000,0,0,1,-1,1,1
16:38:03.749,STABILIZE,-35.3632622,149.1652375,583980,0,-0.00104719668161124,0.0009164374205283821,0.024854930117726326,0.00021726189879700541,0.00021887384355068207,0.0018587735248729587,0,1,-1000,0,0,1,-1,1,1
16:38:03.951,STABILIZE,-35.3632622,149.1652375,583980,0,-0.00104719668161124,0.0009164374205283821,0.024854930117726326,0.00021726189879700541,0.00021887384355068207,0.0018587735248729587,0,1,-1000,0,0,1,-1,1,1
16:38:04.157,STABILIZE,-35.3632622,149.1652375,583980,0,-0.0011845403350889683,0.0009253218886442482,0.02444630116224289,0.00019542599329724908,0.00023880333174020052,0.0018885242752730846,0,1,-1000,0,0,0,-1,1,0
16:38:04.359,STABILIZE,-35.3632622,149.1652375,583980,0,-0.0012077086139470339,0.0009447823977097869,0.024309663102030754,0.0003092503175139427,0.00016960309585556388,0.0018630842678248882,0,2,-1000,0,0,0,-1,1,0
16:38:04.565,STABILIZE,-35.3632622,149.1652375,583980,0,-0.0012077086139470339,0.0009447823977097869,0.024309663102030754,0.0003092503175139427,0.00016960309585556388,0.0018630842678248882,0,2,-1000,0,0,0,-1,1,0
16:38:04.772,STABILIZE,-35.3632622,149.1652375,583980,0,-0.0012077086139470339,0.0009447823977097869,0.024309663102030754,0.0003092503175139427,0.00016960309585556388,0.0018630842678248882,0,2,-1000,0,0,0,-1,1,0
16:38:04.976,STABILIZE,-35.3632622,149.1652375,583980,0,-0.0012077086139470339,0.0009447823977097869,0.024309663102030754,0.0003092503175139427,0.00016960309585556388,0.0018630842678248882,0,2,-1000,0,0,0,-1,1,0
16:38:05.178,STABILIZE,-35.3632622,149.1652375,583980,0,-0.0012077086139470339,0.0009447823977097869,0.024309663102030754,0.0003092503175139427,0.00016960309585556388,0.0018630842678248882,0,2,-1000,0,0,0,-1,1,0
16:38:06.503,STABILIZE,-35.3632622,149.1652375,583980,0,-0.0012077086139470339,0.0009447823977097869,0.024309663102030754,0.0003092503175139427,0.00016960309585556388,0.0018630842678248882,0,2,-1000,0,0,0,-1,1,0
16:38:06.710,STABILIZE,-35.3632622,149.1652375,583980,0,-0.0012077086139470339,0.0009447823977097869,0.024309663102030754,0.0003092503175139427,0.00016960309585556388,0.0018630842678248882,0,2,-1000,0,0,0,-1,1,0
16:38:06.917,STABILIZE,-35.3632622,149.1652375,583980,0,-0.0012077086139470339,0.0009447823977097869,0.024309663102030754,0.0003092503175139427,0.00016960309585556388,0.0018630842678248882,0,2,-1000,0,0,0,-1,1,0
16:38:07.134,STABILIZE,-35.3632622,149.1652375,583980,0,-0.0012077086139470339,0.0009447823977097869,0.024309663102030754,0.0003092503175139427,0.00016960309585556388,0.0018630842678248882,0,2,-1000,0,0,0,-1,1,0
16:38:07.336,STABILIZE,-35.3632622,149.1652374,584000,13,-0.0012324126437306404,0.0009784040739759803,0.023942051455378532,0.00023224740289151669,0.00026880326913669705,0.0017613443778827786,0,2,-1000,0,0,0,-1,-1,-4
16:38:07.538,STABILIZE,-35.3632622,149.1652374,584000,13,-0.0012324126437306404,0.0009784040739759803,0.023942051455378532,0.00023224740289151669,0.00026880326913669705,0.0017613443778827786,0,2,-1000,0,0,0,-1,-1,-4
16:38:07.757,STABILIZE,-35.3632622,149.1652374,584000,13,-0.0012324126437306404,0.0009784040739759803,0.023942051455378532,0.00023224740289151669,0.00026880326913669705,0.0017613443778827786,0,2,-1000,0,0,0,-1,-1,-4
16:38:07.965,STABILIZE,-35.3632622,149.1652374,584000,13,-0.0012324126437306404,0.0009784040739759803,0.023942051455378532,0.00023224740289151669,0.00026880326913669705,0.0017613443778827786,0,2,-1000,0,0,0,-1,-1,-4
16:38:08.167,STABILIZE,-35.3632622,149.1652374,584000,13,-0.0012324126437306404,0.0009784040739759803,0.023942051455378532,0.00023224740289151669,0.00026880326913669705,0.0017613443778827786,0,2,-1000,0,0,0,-1,-1,-4
16:38:08.371,STABILIZE,-35.3632622,149.1652374,584000,13,-0.0012324126437306404,0.0009784040739759803,0.023942051455378532,0.00023224740289151669,0.00026880326913669705,0.0017613443778827786,0,2,-1000,0,0,0,-1,-1,-4
16:38:08.578,STABILIZE,-35.3632622,149.1652374,584000,13,-0.0012324126437306404,0.0009784040739759803,0.023942051455378532,0.00023224740289151669,0.00026880326913669705,0.0017613443778827786,0,2,-1000,0,0,0,-1,-1,-4
16:38:08.780,STABILIZE,-35.3632622,149.1652374,584000,13,-0.0012324126437306404,0.0009784040739759803,0.023942051455378532,0.00023224740289151669,0.00026880326913669705,0.0017613443778827786,0,2,-1000,0,0,0,-1,-1,-4
16:38:08.982,STABILIZE,-35.3632622,149.1652374,584000,13,-0.0012324126437306404,0.0009784040739759803,0.023942051455378532,0.00023224740289151669,0.00026880326913669705,0.0017613443778827786,0,2,-1000,0,0,0,-1,-1,-4
16:38:09.188,STABILIZE,-35.3632622,149.1652374,584000,13,-0.0004727324703708291,0.0009900357108563185,0.0231576319783926,0.00029145547887310386,0.0001985509879887104,0.0016078015323728323,0,2,-1000,1,0,0,-1,-1,-4
16:38:09.390,STABILIZE,-35.3632622,149.1652374,584000,13,-0.0004727324703708291,0.0009900357108563185,0.0231576319783926,0.00029145547887310386,0.0001985509879887104,0.0016078015323728323,0,2,-1000,1,0,0,-1,-1,-4
16:38:09.593,STABILIZE,-35.3632622,149.1652374,584000,13,-0.0004727324703708291,0.0009900357108563185,0.0231576319783926,0.00029145547887310386,0.0001985509879887104,0.0016078015323728323,0,2,-1000,1,0,0,-1,-1,-4
16:38:09.799,STABILIZE,-35.3632622,149.1652374,584000,13,-0.0004727324703708291,0.0009900357108563185,0.0231576319783926,0.00029145547887310386,0.0001985509879887104,0.0016078015323728323,0,2,-1000,1,0,0,-1,-1,-4
16:38:10.001,STABILIZE,-35.3632622,149.1652374,584000,13,-0.0004727324703708291,0.0009900357108563185,0.0231576319783926,0.00029145547887310386,0.0001985509879887104,0.0016078015323728323,0,2,-1000,1,0,0,-1,-1,-4
16:38:10.210,STABILIZE,-35.3632622,149.1652374,584000,13,-0.0004727324703708291,0.0009900357108563185,0.0231576319783926,0.00029145547887310386,0.0001985509879887104,0.0016078015323728323,0,2,-1000,1,0,0,-1,-1,-4
16:38:10.416,STABILIZE,-35.3632622,149.1652374,584000,13,-0.0004727324703708291,0.0009900357108563185,0.0231576319783926,0.00029145547887310386,0.0001985509879887104,0.0016078015323728323,0,2,-1000,1,0,0,-1,-1,-4
16:38:10.620,STABILIZE,-35.3632622,149.1652374,584000,13,-0.0004727324703708291,0.0009900357108563185,0.0231576319783926,0.00029145547887310386,0.0001985509879887104,0.0016078015323728323,0,2,-1000,1,0,0,-1,-1,-4
16:38:10.826,STABILIZE,-35.3632622,149.1652374,584000,13,-0.0004727324703708291,0.0009900357108563185,0.0231576319783926,0.00029145547887310386,0.0001985509879887104,0.0016078015323728323,0,2,-1000,1,0,0,-1,-1,-4
16:38:11.030,STABILIZE,-35.3632622,149.1652375,584010,24,-0.000125252190628089,0.0009744542767293751,0.022703243419528008,0.000374782073777169,0.00034443946788087487,0.0015290509909391403,0,1,-1000,0,0,1,-1,3,0
16:38:11.238,STABILIZE,-35.3632622,149.1652375,584010,24,-0.00026858175988309085,0.0009718431392684579,0.02241068333387375,0.00032909680157899857,0.0003004681202583015,0.0016417414881289005,0,1,-1000,0,0,1,-1,3,0
16:38:11.451,STABILIZE,-35.3632622,149.1652375,584010,24,-0.00026858175988309085,0.0009718431392684579,0.02241068333387375,0.00032909680157899857,0.0003004681202583015,0.0016417414881289005,0,1,-1000,0,0,1,-1,3,0
16:38:11.658,STABILIZE,-35.3632622,149.1652375,584010,24,-0.00026858175988309085,0.0009718431392684579,0.02241068333387375,0.00032909680157899857,0.0003004681202583015,0.0016417414881289005,0,1,-1000,0,0,1,-1,3,0
16:38:11.864,STABILIZE,-35.3632622,149.1652375,584010,24,-0.00026858175988309085,0.0009718431392684579,0.02241068333387375,0.00032909680157899857,0.0003004681202583015,0.0016417414881289005,0,1,-1000,0,0,1,-1,3,0
16:38:12.070,STABILIZE,-35.3632622,149.1652375,584010,24,-0.00026858175988309085,0.0009718431392684579,0.02241068333387375,0.00032909680157899857,0.0003004681202583015,0.0016417414881289005,0,1,-1000,0,0,1,-1,3,0
16:38:12.278,STABILIZE,-35.3632622,149.1652375,584010,24,-0.00026858175988309085,0.0009718431392684579,0.02241068333387375,0.00032909680157899857,0.0003004681202583015,0.0016417414881289005,0,1,-1000,0,0,1,-1,3,0
16:38:12.481,STABILIZE,-35.3632622,149.1652375,584010,24,-0.00026858175988309085,0.0009718431392684579,0.02241068333387375,0.00032909680157899857,0.0003004681202583015,0.0016417414881289005,0,1,-1000,0,0,1,-1,3,0
16:38:12.691,STABILIZE,-35.3632622,149.1652375,584010,24,-0.00026858175988309085,0.0009718431392684579,0.02241068333387375,0.00032909680157899857,0.0003004681202583015,0.0016417414881289005,0,1,-1000,0,0,1,-1,3,0
16:38:12.912,STABILIZE,-35.3632622,149.1652375,584000,10,-0.0006363295833580196,0.0009459931752644479,0.021889472380280495,0.00025608163559809327,0.00022210454335436225,0.0015169463586062193,0,2,-1000,1,1,1,-1,2,0
16:38:13.114,STABILIZE,-35.3632622,149.1652375,583990,8,-0.000687599997036159,0.0009529850212857127,0.021816054359078407,0.00031979806954041123,0.0002832868485711515,0.001528347609564662,0,2,-1000,1,1,1,-1,2,0
16:38:13.320,STABILIZE,-35.3632622,149.1652375,583990,8,-0.000687599997036159,0.0009529850212857127,0.021816054359078407,0.00031979806954041123,0.0002832868485711515,0.001528347609564662,0,2,-1000,1,1,1,-1,2,0
16:38:13.522,STABILIZE,-35.3632622,149.1652375,583990,8,-0.000687599997036159,0.0009529850212857127,0.021816054359078407,0.00031979806954041123,0.0002832868485711515,0.001528347609564662,0,2,-1000,1,1,1,-1,2,0
16:38:13.726,STABILIZE,-35.3632622,149.1652375,583990,8,-0.000687599997036159,0.0009529850212857127,0.021816054359078407,0.00031979806954041123,0.0002832868485711515,0.001528347609564662,0,2,-1000,1,1,1,-1,2,0
16:38:13.932,STABILIZE,-35.3632622,149.1652375,583990,8,-0.000687599997036159,0.0009529850212857127,0.021816054359078407,0.00031979806954041123,0.0002832868485711515,0.001528347609564662,0,2,-1000,1,1,1,-1,2,0
16:38:14.137,STABILIZE,-35.3632622,149.1652375,583990,8,-0.000687599997036159,0.0009529850212857127,0.021816054359078407,0.00031979806954041123,0.0002832868485711515,0.001528347609564662,0,2,-1000,1,1,1,-1,2,0
16:38:14.343,STABILIZE,-35.3632622,149.1652375,583990,8,-0.000687599997036159,0.0009529850212857127,0.021816054359078407,0.00031979806954041123,0.0002832868485711515,0.001528347609564662,0,2,-1000,1,1,1,-1,2,0
16:38:14.546,STABILIZE,-35.3632622,149.1652375,583990,4,-0.0006989436224102974,0.0009593360591679811,0.021554935723543167,0.00017171830404549837,0.0002930397749878466,0.0015783122507855296,0,1,-1000,0,0,0,-1,1,0
16:38:14.750,AUTO,-35.3632622,149.1652375,583990,3,-0.0007735155522823334,0.0009581961785443127,0.02145315892994404,0.0002829727600328624,0.0003244079416617751,0.001398259773850441,0,1,-1000,1,1,1,-1,1,0
16:38:14.954,AUTO,-35.3632622,149.1652375,583990,3,-0.0007735155522823334,0.0009581961785443127,0.02145315892994404,0.0002829727600328624,0.0003244079416617751,0.001398259773850441,0,1,-1000,1,1,1,-1,1,0
16:38:15.158,AUTO,-35.3632622,149.1652375,583990,3,-0.0007735155522823334,0.0009581961785443127,0.02145315892994404,0.0002829727600328624,0.0003244079416617751,0.001398259773850441,0,1,-1000,1,1,1,-1,1,0
16:38:15.362,AUTO,-35.3632622,149.1652375,583990,3,-0.0007735155522823334,0.0009581961785443127,0.02145315892994404,0.0002829727600328624,0.0003244079416617751,0.001398259773850441,0,1,-1000,1,1,1,-1,1,0
16:38:15.566,AUTO,-35.3632622,149.1652375,583990,3,-0.0007735155522823334,0.0009581961785443127,0.02145315892994404,0.0002829727600328624,0.0003244079416617751,0.001398259773850441,0,1,-1000,1,1,1,-1,1,0
16:38:15.770,AUTO,-35.3632622,149.1652375,583990,3,-0.0007735155522823334,0.0009581961785443127,0.02145315892994404,0.0002829727600328624,0.0003244079416617751,0.001398259773850441,0,1,-1000,1,1,1,-1,1,0
16:38:15.974,AUTO,-35.3632622,149.1652375,583990,3,-0.0007735155522823334,0.0009581961785443127,0.02145315892994404,0.0002829727600328624,0.0003244079416617751,0.001398259773850441,0,1,-1000,1,1,1,-1,1,0
16:38:16.182,AUTO,-35.3632622,149.1652375,583990,3,-0.0007735155522823334,0.0009581961785443127,0.02145315892994404,0.0002829727600328624,0.0003244079416617751,0.001398259773850441,0,1,-1000,1,1,1,-1,1,0
16:38:16.389,AUTO,-35.3632622,149.1652375,583990,1,-0.0007097579073160887,0.0011481462279334664,0.021174561232328415,0.0002910239854827523,0.0002322353539057076,0.001388530945405364,0,1,-1000,1,1,1,0,0,0
16:38:16.592,AUTO,-35.3632622,149.1652375,583990,0,-0.0006057741702534258,0.001275334507226944,0.021039828658103943,0.00032352935522794724,0.00029200268909335136,0.0014280923642218113,0,1,-1000,1,0,0,0,0,0
16:38:16.794,AUTO,-35.3632622,149.1652375,583990,0,-0.0006057741702534258,0.001275334507226944,0.021039828658103943,0.00032352935522794724,0.00029200268909335136,0.0014280923642218113,0,1,-1000,1,0,0,0,0,0
16:38:16.998,AUTO,-35.3632622,149.1652375,583990,0,-0.0006057741702534258,0.001275334507226944,0.021039828658103943,0.00032352935522794724,0.00029200268909335136,0.0014280923642218113,0,1,-1000,1,0,0,0,0,0
16:38:17.201,AUTO,-35.3632622,149.1652375,583990,0,-0.0006057741702534258,0.001275334507226944,0.021039828658103943,0.00032352935522794724,0.00029200268909335136,0.0014280923642218113,0,1,-1000,1,0,0,0,0,0
16:38:17.403,AUTO,-35.3632622,149.1652375,583990,0,-0.0006057741702534258,0.001275334507226944,0.021039828658103943,0.00032352935522794724,0.00029200268909335136,0.0014280923642218113,0,1,-1000,1,0,0,0,0,0
16:38:17.605,AUTO,-35.3632622,149.1652375,583990,0,-0.0006057741702534258,0.001275334507226944,0.021039828658103943,0.00032352935522794724,0.00029200268909335136,0.0014280923642218113,0,1,-1000,1,0,0,0,0,0
16:38:17.811,AUTO,-35.3632622,149.1652375,583990,0,-0.0006057741702534258,0.001275334507226944,0.021039828658103943,0.00032352935522794724,0.00029200268909335136,0.0014280923642218113,0,1,-1000,1,0,0,0,0,0
16:38:18.013,AUTO,-35.3632622,149.1652375,583990,0,-0.0006057741702534258,0.001275334507226944,0.021039828658103943,0.00032352935522794724,0.00029200268909335136,0.0014280923642218113,0,1,-1000,1,0,0,0,0,0
16:38:18.217,AUTO,-35.3632622,149.1652375,583980,0,-0.00010593698971206322,0.001580560114234686,0.020781705155968666,0.0003602844662964344,0.000279989093542099,0.001434855628758669,0,1,-1001,0,0,0,0,0,1
16:38:18.419,AUTO,-35.3632621,149.1652375,584110,129,0.002416598843410611,-0.0002796078333631158,0.020612629130482674,0.0013247504830360413,0.004270275589078665,0.0005155721446499228,0,0,-1136,2,5,0,0,0,-57
16:38:18.622,AUTO,-35.3632621,149.1652375,584110,129,0.002416598843410611,-0.0002796078333631158,0.020612629130482674,0.0013247504830360413,0.004270275589078665,0.0005155721446499228,0,0,-1136,2,5,0,0,0,-57
16:38:18.826,AUTO,-35.3632621,149.1652375,584110,129,0.002416598843410611,-0.0002796078333631158,0.020612629130482674,0.0013247504830360413,0.004270275589078665,0.0005155721446499228,0,0,-1136,2,5,0,0,0,-57
16:38:19.028,AUTO,-35.3632621,149.1652375,584110,129,0.002416598843410611,-0.0002796078333631158,0.020612629130482674,0.0013247504830360413,0.004270275589078665,0.0005155721446499228,0,0,-1136,2,5,0,0,0,-57
16:38:19.232,AUTO,-35.3632621,149.1652375,584110,129,0.002416598843410611,-0.0002796078333631158,0.020612629130482674,0.0013247504830360413,0.004270275589078665,0.0005155721446499228,0,0,-1136,2,5,0,0,0,-57
16:38:19.435,AUTO,-35.3632621,149.1652375,584110,129,0.002416598843410611,-0.0002796078333631158,0.020612629130482674,0.0013247504830360413,0.004270275589078665,0.0005155721446499228,0,0,-1136,2,5,0,0,0,-57
16:38:19.638,AUTO,-35.3632621,149.1652375,584110,129,0.002416598843410611,-0.0002796078333631158,0.020612629130482674,0.0013247504830360413,0.004270275589078665,0.0005155721446499228,0,0,-1136,2,5,0,0,0,-57
16:38:19.843,AUTO,-35.3632621,149.1652375,584110,129,0.002416598843410611,-0.0002796078333631158,0.020612629130482674,0.0013247504830360413,0.004270275589078665,0.0005155721446499228,0,0,-1136,2,5,0,0,0,-57
16:38:20.046,AUTO,-35.3632621,149.1652375,584110,129,0.002416598843410611,-0.0002796078333631158,0.020612629130482674,0.0013247504830360413,0.004270275589078665,0.0005155721446499228,0,0,-1136,2,5,0,0,0,-57
16:38:20.252,AUTO,-35.3632619,149.1652383,586380,2392,0.050941936671733856,-0.006136874668300152,0.02071259170770645,0.040568042546510696,-0.010517706163227558,0.003625540528446436,0,-2,-1004,44,-7,2,4,25,-148
16:38:20.455,AUTO,-35.3632617,149.1652391,586760,2776,0.06066422536969185,-0.00892408937215805,-0.006166289560496807,0.03722132369875908,-0.011627204716205597,0.0036524897441267967,1,-6,-999,37,-10,3,6,37,-147
16:38:20.660,AUTO,-35.3632617,149.1652391,586760,2776,0.06066422536969185,-0.00892408937215805,-0.006166289560496807,0.03722132369875908,-0.011627204716205597,0.0036524897441267967,1,-6,-999,37,-10,3,6,37,-147
16:38:20.864,AUTO,-35.3632617,149.1652391,586760,2776,0.06066422536969185,-0.00892408937215805,-0.006166289560496807,0.03722132369875908,-0.011627204716205597,0.0036524897441267967,1,-6,-999,37,-10,3,6,37,-147
16:38:21.067,AUTO,-35.3632617,149.1652391,586760,2776,0.06066422536969185,-0.00892408937215805,-0.006166289560496807,0.03722132369875908,-0.011627204716205597,0.0036524897441267967,1,-6,-999,37,-10,3,6,37,-147
16:38:21.270,AUTO,-35.3632617,149.1652391,586760,2776,0.06066422536969185,-0.00892408937215805,-0.006166289560496807,0.03722132369875908,-0.011627204716205597,0.0036524897441267967,1,-6,-999,37,-10,3,6,37,-147
16:38:21.478,AUTO,-35.3632617,149.1652391,586760,2776,0.06066422536969185,-0.00892408937215805,-0.006166289560496807,0.03722132369875908,-0.011627204716205597,0.0036524897441267967,1,-6,-999,37,-10,3,6,37,-147
16:38:21.681,AUTO,-35.3632617,149.1652391,586760,2776,0.06066422536969185,-0.00892408937215805,-0.006166289560496807,0.03722132369875908,-0.011627204716205597,0.0036524897441267967,1,-6,-999,37,-10,3,6,37,-147
16:38:21.885,AUTO,-35.3632617,149.1652391,586760,2776,0.06066422536969185,-0.00892408937215805,-0.006166289560496807,0.03722132369875908,-0.011627204716205597,0.0036524897441267967,1,-6,-999,37,-10,3,6,37,-147
16:38:22.089,AUTO,-35.3632611,149.1652431,587890,3903,-0.01637324132025242,0.02305563911795616,-0.058828771114349365,-0.09298655390739441,-0.0032844478264451027,-0.07055580615997314,4,-12,-1011,-92,-2,-70,4,52,-145
16:38:22.293,AUTO,-35.3632611,149.1652465,589430,5440,-0.0625428706407547,-0.001850041327998042,-0.09124576300382614,-0.07279442995786667,-0.05112553760409355,0.010818672366440296,2,-2,-999,-71,-50,10,-5,6,-148
16:38:22.495,AUTO,-35.3632611,149.1652465,589820,5831,-0.07567998021841049,-0.012329146265983582,-0.08823051303625107,-0.003623743774369359,-0.018450023606419563,-0.002336510457098484,0,1,-1004,-2,-17,-2,-4,-12,-148
16:38:22.698,AUTO,-35.3632611,149.1652465,589820,5831,-0.07567998021841049,-0.012329146265983582,-0.08823051303625107,-0.003623743774369359,-0.018450023606419563,-0.002336510457098484,0,1,-1004,-2,-17,-2,-4,-12,-148
16:38:22.901,AUTO,-35.3632611,149.1652465,589820,5831,-0.07567998021841049,-0.012329146265983582,-0.08823051303625107,-0.003623743774369359,-0.018450023606419563,-0.002336510457098484,0,1,-1004,-2,-17,-2,-4,-12,-148
16:38:23.104,AUTO,-35.3632611,149.1652465,589820,5831,-0.07567998021841049,-0.012329146265983582,-0.08823051303625107,-0.003623743774369359,-0.018450023606419563,-0.002336510457098484,0,1,-1004,-2,-17,-2,-4,-12,-148
16:38:23.309,AUTO,-35.3632611,149.1652465,589820,5831,-0.07567998021841049,-0.012329146265983582,-0.08823051303625107,-0.003623743774369359,-0.018450023606419563,-0.002336510457098484,0,1,-1004,-2,-17,-2,-4,-12,-148
16:38:23.514,AUTO,-35.3632611,149.1652465,589820,5831,-0.07567998021841049,-0.012329146265983582,-0.08823051303625107,-0.003623743774369359,-0.018450023606419563,-0.002336510457098484,0,1,-1004,-2,-17,-2,-4,-12,-148
16:38:23.720,AUTO,-35.3632611,149.1652465,589820,5831,-0.07567998021841049,-0.012329146265983582,-0.08823051303625107,-0.003623743774369359,-0.018450023606419563,-0.002336510457098484,0,1,-1004,-2,-17,-2,-4,-12,-148
16:38:23.924,AUTO,-35.3632611,149.1652465,589820,5831,-0.07567998021841049,-0.012329146265983582,-0.08823051303625107,-0.003623743774369359,-0.018450023606419563,-0.002336510457098484,0,1,-1004,-2,-17,-2,-4,-12,-148
16:38:24.128,AUTO,-35.3632613,149.165242,591350,7369,-0.023248957470059395,-0.008672252297401428,-0.0908680260181427,0.06426749378442764,0.013227658346295357,0.002596213947981596,-6,8,-1001,62,9,1,0,-60,-149
16:38:24.331,AUTO,-35.3632613,149.165237,592520,8535,0.02568955346941948,0.0030730783473700285,-0.08922144025564194,0.06525213271379471,0.015408793464303017,0.0038828696124255657,-7,11,-1004,65,16,3,-1,-52,-152
16:38:24.534,AUTO,-35.3632614,149.1652357,592910,8928,0.04165280610322952,0.0064310310408473015,-0.08817506581544876,0.06322991847991943,0.012113255448639393,0.004197666421532631,-6,10,-1003,64,12,4,-3,-42,-153
16:38:24.737,AUTO,-35.3632614,149.1652357,592910,8928,0.04165280610322952,0.0064310310408473015,-0.08817506581544876,0.06322991847991943,0.012113255448639393,0.004197666421532631,-6,10,-1003,64,12,4,-3,-42,-153
16:38:24.942,AUTO,-35.3632614,149.1652357,592910,8928,0.04165280610322952,0.0064310310408473015,-0.08817506581544876,0.06322991847991943,0.012113255448639393,0.004197666421532631,-6,10,-1003,64,12,4,-3,-42,-153
16:38:25.145,AUTO,-35.3632614,149.1652357,592910,8928,0.04165280610322952,0.0064310310408473015,-0.08817506581544876,0.06322991847991943,0.012113255448639393,0.004197666421532631,-6,10,-1003,64,12,4,-3,-42,-153
16:38:25.348,AUTO,-35.3632614,149.1652357,592910,8928,0.04165280610322952,0.0064310310408473015,-0.08817506581544876,0.06322991847991943,0.012113255448639393,0.004197666421532631,-6,10,-1003,64,12,4,-3,-42,-153
16:38:25.552,AUTO,-35.3632614,149.1652357,592910,8928,0.04165280610322952,0.0064310310408473015,-0.08817506581544876,0.06322991847991943,0.012113255448639393,0.004197666421532631,-6,10,-1003,64,12,4,-3,-42,-153
16:38:25.758,AUTO,-35.3632614,149.1652357,592910,8928,0.04165280610322952,0.0064310310408473015,-0.08817506581544876,0.06322991847991943,0.012113255448639393,0.004197666421532631,-6,10,-1003,64,12,4,-3,-42,-153
16:38:25.961,AUTO,-35.3632614,149.1652357,592910,8928,0.04165280610322952,0.0064310310408473015,-0.08817506581544876,0.06322991847991943,0.012113255448639393,0.004197666421532631,-6,10,-1003,64,12,4,-3,-42,-153
16:38:26.164,AUTO,-35.3632614,149.1652357,592910,8928,0.04165280610322952,0.0064310310408473015,-0.08817506581544876,0.06322991847991943,0.012113255448639393,0.004197666421532631,-6,10,-1003,64,12,4,-3,-42,-153
16:38:26.367,AUTO,-35.3632622,149.1652352,595250,11264,0.003870314219966531,-0.00013954985479358584,-0.09231433272361755,-0.06781070679426193,-0.018952108919620514,-0.0034610142465680838,4,-4,-1002,-67,-18,-3,-7,27,-149
16:38:26.569,AUTO,-35.3632624,149.1652364,596020,12034,-0.01748340018093586,-0.006121139973402023,-0.09868443757295609,-0.02295651100575924,-0.0046221232041716576,-0.017698856070637703,3,-3,-1003,-22,-4,-17,-3,18,-151
16:38:26.773,AUTO,-35.3632624,149.1652364,596020,12034,-0.01748340018093586,-0.006121139973402023,-0.09868443757295609,-0.02295651100575924,-0.0046221232041716576,-0.017698856070637703,3,-3,-1003,-22,-4,-17,-3,18,-151
16:38:26.978,AUTO,-35.3632624,149.1652364,596020,12034,-0.01748340018093586,-0.006121139973402023,-0.09868443757295609,-0.02295651100575924,-0.0046221232041716576,-0.017698856070637703,3,-3,-1003,-22,-4,-17,-3,18,-151
16:38:27.184,AUTO,-35.3632624,149.1652364,596020,12034,-0.01748340018093586,-0.006121139973402023,-0.09868443757295609,-0.02295651100575924,-0.0046221232041716576,-0.017698856070637703,3,-3,-1003,-22,-4,-17,-3,18,-151
16:38:27.387,AUTO,-35.3632624,149.1652364,596020,12034,-0.01748340018093586,-0.006121139973402023,-0.09868443757295609,-0.02295651100575924,-0.0046221232041716576,-0.017698856070637703,3,-3,-1003,-22,-4,-17,-3,18,-151
16:38:27.589,AUTO,-35.3632624,149.1652364,596020,12034,-0.01748340018093586,-0.006121139973402023,-0.09868443757295609,-0.02295651100575924,-0.0046221232041716576,-0.017698856070637703,3,-3,-1003,-22,-4,-17,-3,18,-151
16:38:27.793,AUTO,-35.3632624,149.1652364,596020,12034,-0.01748340018093586,-0.006121139973402023,-0.09868443757295609,-0.02295651100575924,-0.0046221232041716576,-0.017698856070637703,3,-3,-1003,-22,-4,-17,-3,18,-151
16:38:27.998,AUTO,-35.3632624,149.1652372,597030,13044,-0.017525339499115944,-0.005910144653171301,-0.11483152955770493,0.012866931967437267,0.004392674658447504,-0.025889748707413673,0,-1,-1001,13,5,-26,1,2,-152
16:38:28.200,AUTO,-35.3632622,149.1652367,598600,14610,0.0012866229517385364,0.0010169416200369596,-0.14075279235839844,0.018236562609672546,0.008077898994088173,-0.021947026252746582,-2,0,-1000,19,8,-21,3,-8,-152
16:38:28.402,AUTO,-35.3632621,149.1652364,598990,15001,0.004928276874125004,0.002671959111467004,-0.14596663415431976,0.014083574526011944,0.007713136728852987,-0.019863136112689972,-2,0,-1000,14,8,-20,3,-7,-153
16:38:28.606,AUTO,-35.3632621,149.1652364,598990,15001,0.004928276874125004,0.002671959111467004,-0.14596663415431976,0.014083574526011944,0.007713136728852987,-0.019863136112689972,-2,0,-1000,14,8,-20,3,-7,-153
16:38:28.808,AUTO,-35.3632621,149.1652364,598990,15001,0.004928276874125004,0.002671959111467004,-0.14596663415431976,0.014083574526011944,0.007713136728852987,-0.019863136112689972,-2,0,-1000,14,8,-20,3,-7,-153
16:38:29.011,AUTO,-35.3632621,149.1652364,598990,15001,0.004928276874125004,0.002671959111467004,-0.14596663415431976,0.014083574526011944,0.007713136728852987,-0.019863136112689972,-2,0,-1000,14,8,-20,3,-7,-153
16:38:29.214,AUTO,-35.3632621,149.1652364,598990,15001,0.004928276874125004,0.002671959111467004,-0.14596663415431976,0.014083574526011944,0.007713136728852987,-0.019863136112689972,-2,0,-1000,14,8,-20,3,-7,-153
16:38:29.417,AUTO,-35.3632621,149.1652364,598990,15001,0.004928276874125004,0.002671959111467004,-0.14596663415431976,0.014083574526011944,0.007713136728852987,-0.019863136112689972,-2,0,-1000,14,8,-20,3,-7,-153
16:38:29.620,AUTO,-35.3632621,149.1652364,598990,15001,0.004928276874125004,0.002671959111467004,-0.14596663415431976,0.014083574526011944,0.007713136728852987,-0.019863136112689972,-2,0,-1000,14,8,-20,3,-7,-153
16:38:29.823,AUTO,-35.3632621,149.1652364,598990,15001,0.004928276874125004,0.002671959111467004,-0.14596663415431976,0.014083574526011944,0.007713136728852987,-0.019863136112689972,-2,0,-1000,14,8,-20,3,-7,-153
16:38:30.029,AUTO,-35.3632621,149.1652364,598990,15001,0.004928276874125004,0.002671959111467004,-0.14596663415431976,0.014083574526011944,0.007713136728852987,-0.019863136112689972,-2,0,-1000,14,8,-20,3,-7,-153
16:38:30.231,AUTO,-35.3632617,149.1652356,600940,16957,0.009936927817761898,0.006552448961883783,-0.1654970645904541,-0.004343675449490547,0.0007856531301513314,-0.012802091427147388,-1,0,-1000,1,1,-13,0,0,-152
16:38:30.433,AUTO,-35.3632616,149.1652356,602120,18133,0.0068925293162465096,0.0056835804134607315,-0.17512179911136627,-0.004321879241615534,-0.0007211175397969782,-0.014169725589454174,0,0,-1000,-3,0,-14,-2,4,-153
16:38:30.636,AUTO,-35.3632616,149.1652356,602120,18133,0.0068925293162465096,0.0056835804134607315,-0.17512179911136627,-0.004321879241615534,-0.0007211175397969782,-0.014169725589454174,0,0,-1000,-3,0,-14,-2,4,-153
16:38:30.838,AUTO,-35.3632616,149.1652356,602120,18133,0.0068925293162465096,0.0056835804134607315,-0.17512179911136627,-0.004321879241615534,-0.0007211175397969782,-0.014169725589454174,0,0,-1000,-3,0,-14,-2,4,-153
16:38:31.040,AUTO,-35.3632616,149.1652356,602120,18133,0.0068925293162465096,0.0056835804134607315,-0.17512179911136627,-0.004321879241615534,-0.0007211175397969782,-0.014169725589454174,0,0,-1000,-3,0,-14,-2,4,-153
16:38:31.249,AUTO,-35.3632616,149.1652356,602120,18133,0.0068925293162465096,0.0056835804134607315,-0.17512179911136627,-0.004321879241615534,-0.0007211175397969782,-0.014169725589454174,0,0,-1000,-3,0,-14,-2,4,-153
16:38:31.453,AUTO,-35.3632616,149.1652356,602120,18133,0.0068925293162465096,0.0056835804134607315,-0.17512179911136627,-0.004321879241615534,-0.0007211175397969782,-0.014169725589454174,0,0,-1000,-3,0,-14,-2,4,-153
16:38:31.658,AUTO,-35.3632616,149.1652356,602120,18133,0.0068925293162465096,0.0056835804134607315,-0.17512179911136627,-0.004321879241615534,-0.0007211175397969782,-0.014169725589454174,0,0,-1000,-3,0,-14,-2,4,-153
16:38:31.863,AUTO,-35.3632616,149.1652356,602120,18133,0.0068925293162465096,0.0056835804134607315,-0.17512179911136627,-0.004321879241615534,-0.0007211175397969782,-0.014169725589454174,0,0,-1000,-3,0,-14,-2,4,-153
16:38:32.066,AUTO,-35.3632616,149.1652358,603290,19304,0.004172145389020443,0.004407953005284071,-0.1861516237258911,-0.0023952608462423086,0.0012946382630616426,-0.017681272700428963,0,0,-1000,-1,1,-17,-2,5,-153
16:38:32.269,AUTO,-35.3632617,149.1652362,604860,20871,0.002132565015926957,0.0035127359442412853,-0.2039213329553604,0.0016075079329311848,-0.00037759816041216254,-0.01903279311954975,0,0,-1000,2,0,-19,-3,5,-153
16:38:32.471,AUTO,-35.3632617,149.1652363,605250,21262,0.002241919981315732,0.0034310289192944765,-0.20879267156124115,-0.0005425760755315423,0.0017172228544950485,-0.020492492243647575,0,0,-1000,0,2,-20,-3,4,-153
16:38:32.678,AUTO,-35.3632617,149.1652363,605250,21262,0.002241919981315732,0.0034310289192944765,-0.20879267156124115,-0.0005425760755315423,0.0017172228544950485,-0.020492492243647575,0,0,-1000,0,2,-20,-3,4,-153
16:38:32.883,AUTO,-35.3632617,149.1652363,605250,21262,0.002241919981315732,0.0034310289192944765,-0.20879267156124115,-0.0005425760755315423,0.0017172228544950485,-0.020492492243647575,0,0,-1000,0,2,-20,-3,4,-153
16:38:33.086,AUTO,-35.3632617,149.1652363,605250,21262,0.002241919981315732,0.0034310289192944765,-0.20879267156124115,-0.0005425760755315423,0.0017172228544950485,-0.020492492243647575,0,0,-1000,0,2,-20,-3,4,-153
16:38:33.291,AUTO,-35.3632617,149.1652363,605250,21262,0.002241919981315732,0.0034310289192944765,-0.20879267156124115,-0.0005425760755315423,0.0017172228544950485,-0.020492492243647575,0,0,-1000,0,2,-20,-3,4,-153
16:38:33.495,AUTO,-35.3632617,149.1652363,605250,21262,0.002241919981315732,0.0034310289192944765,-0.20879267156124115,-0.0005425760755315423,0.0017172228544950485,-0.020492492243647575,0,0,-1000,0,2,-20,-3,4,-153
16:38:33.698,AUTO,-35.3632617,149.1652363,605250,21262,0.002241919981315732,0.0034310289192944765,-0.20879267156124115,-0.0005425760755315423,0.0017172228544950485,-0.020492492243647575,0,0,-1000,0,2,-20,-3,4,-153
16:38:33.902,AUTO,-35.3632617,149.1652363,605250,21262,0.002241919981315732,0.0034310289192944765,-0.20879267156124115,-0.0005425760755315423,0.0017172228544950485,-0.020492492243647575,0,0,-1000,0,2,-20,-3,4,-153
16:38:34.105,AUTO,-35.3632618,149.1652365,606810,22823,0.0020576331298798323,0.002868140349164605,-0.2279793620109558,0.0021232294384390116,0.00029306020587682724,-0.01988367736339569,0,0,-1000,3,1,-19,-2,3,-153
16:38:34.311,AUTO,-35.3632618,149.1652366,607980,23999,0.0018881253199651837,0.0028894178103655577,-0.24306389689445496,0.0025299694389104843,0.0009353387868031859,-0.022010404616594315,0,0,-1001,3,1,-22,-2,3,-153
16:38:34.513,AUTO,-35.3632618,149.1652367,608380,24390,0.0022638244554400444,0.0029269293881952763,-0.2480187565088272,0.0026660889852792025,9.306787978857756e-05,-0.01992099918425083,0,0,-1000,3,1,-19,-2,3,-153
16:38:34.718,AUTO,-35.3632618,149.1652367,608380,24390,0.0022638244554400444,0.0029269293881952763,-0.2480187565088272,0.0026660889852792025,9.306787978857756e-05,-0.01992099918425083,0,0,-1000,3,1,-19,-2,3,-153
16:38:34.924,AUTO,-35.3632618,149.1652367,608380,24390,0.0022638244554400444,0.0029269293881952763,-0.2480187565088272,0.0026660889852792025,9.306787978857756e-05,-0.01992099918425083,0,0,-1000,3,1,-19,-2,3,-153
16:38:35.127,AUTO,-35.3632618,149.1652367,608380,24390,0.0022638244554400444,0.0029269293881952763,-0.2480187565088272,0.0026660889852792025,9.306787978857756e-05,-0.01992099918425083,0,0,-1000,3,1,-19,-2,3,-153
16:38:35.331,AUTO,-35.3632618,149.1652367,608380,24390,0.0022638244554400444,0.0029269293881952763,-0.2480187565088272,0.0026660889852792025,9.306787978857756e-05,-0.01992099918425083,0,0,-1000,3,1,-19,-2,3,-153
16:38:35.539,AUTO,-35.3632618,149.1652367,608380,24390,0.0022638244554400444,0.0029269293881952763,-0.2480187565088272,0.0026660889852792025,9.306787978857756e-05,-0.01992099918425083,0,0,-1000,3,1,-19,-2,3,-153
16:38:35.742,AUTO,-35.3632618,149.1652367,608380,24390,0.0022638244554400444,0.0029269293881952763,-0.2480187565088272,0.0026660889852792025,9.306787978857756e-05,-0.01992099918425083,0,0,-1000,3,1,-19,-2,3,-153
16:38:35.945,AUTO,-35.3632618,149.1652367,608380,24390,0.0022638244554400444,0.0029269293881952763,-0.2480187565088272,0.0026660889852792025,9.306787978857756e-05,-0.01992099918425083,0,0,-1000,3,1,-19,-2,3,-153
16:38:36.148,AUTO,-35.3632619,149.1652367,609930,25946,-0.004148838575929403,0.005754136014729738,-0.25223127007484436,0.039840154349803925,-0.00023856956977397203,0.016072792932391167,0,0,-1003,40,0,15,-4,-2,-153
16:38:36.352,AUTO,-35.3632622,149.1652365,611100,27119,0.01179023738950491,0.0022206942085176706,-0.23415619134902954,0.005232668481767178,-0.0024824836291372776,0.024974379688501358,0,1,-999,6,-1,24,-5,1,-153
16:38:36.554,AUTO,-35.3632623,149.1652365,611490,27508,0.011810853146016598,0.0012996664736419916,-0.22794747352600098,-0.0007175267091952264,-0.0017833581659942865,0.02396899089217186,0,0,-999,0,0,23,-4,4,-153
16:38:36.757,AUTO,-35.3632623,149.1652365,611490,27508,0.011810853146016598,0.0012996664736419916,-0.22794747352600098,-0.0007175267091952264,-0.0017833581659942865,0.02396899089217186,0,0,-999,0,0,23,-4,4,-153
16:38:36.960,AUTO,-35.3632623,149.1652365,611490,27508,0.011810853146016598,0.0012996664736419916,-0.22794747352600098,-0.0007175267091952264,-0.0017833581659942865,0.02396899089217186,0,0,-999,0,0,23,-4,4,-153
16:38:37.163,AUTO,-35.3632623,149.1652365,611490,27508,0.011810853146016598,0.0012996664736419916,-0.22794747352600098,-0.0007175267091952264,-0.0017833581659942865,0.02396899089217186,0,0,-999,0,0,23,-4,4,-153
16:38:37.367,AUTO,-35.3632623,149.1652365,611490,27508,0.011810853146016598,0.0012996664736419916,-0.22794747352600098,-0.0007175267091952264,-0.0017833581659942865,0.02396899089217186,0,0,-999,0,0,23,-4,4,-153
16:38:37.572,AUTO,-35.3632623,149.1652365,611490,27508,0.011810853146016598,0.0012996664736419916,-0.22794747352600098,-0.0007175267091952264,-0.0017833581659942865,0.02396899089217186,0,0,-999,0,0,23,-4,4,-153
16:38:37.777,AUTO,-35.3632623,149.1652365,611490,27508,0.011810853146016598,0.0012996664736419916,-0.22794747352600098,-0.0007175267091952264,-0.0017833581659942865,0.02396899089217186,0,0,-999,0,0,23,-4,4,-153
16:38:37.980,AUTO,-35.3632623,149.1652365,611490,27508,0.011810853146016598,0.0012996664736419916,-0.22794747352600098,-0.0007175267091952264,-0.0017833581659942865,0.02396899089217186,0,0,-999,0,0,23,-4,4,-153
16:38:38.183,AUTO,-35.3632624,149.1652374,613830,29846,0.0013955938629806042,0.001740652252919972,-0.19543232023715973,-0.005623201839625835,0.00013555627083405852,0.02137516811490059,1,-1,-1000,-3,3,21,0,8,-153
16:38:38.387,AUTO,-35.3632624,149.1652376,614220,30235,-0.00016170793969649822,0.0018558904994279146,-0.1863640695810318,-0.00025570299476385117,-0.0002725623198784888,0.019041378051042557,0,-1,-1000,-1,2,17,0,7,-153
16:38:38.590,AUTO,-35.3632624,149.1652377,614610,30625,-0.00016170793969649822,0.0018558904994279146,-0.1863640695810318,-0.00025570299476385117,-0.0002725623198784888,0.019041378051042557,0,-1,-1000,0,0,19,0,6,-153
16:38:40.019,AUTO,-35.3632624,149.1652377,614610,30625,-0.00016170793969649822,0.0018558904994279146,-0.1863640695810318,-0.00025570299476385117,-0.0002725623198784888,0.019041378051042557,0,-1,-1000,0,0,19,0,6,-153
16:38:40.223,AUTO,-35.3632624,149.1652377,614610,30625,-0.00016170793969649822,0.0018558904994279146,-0.1863640695810318,-0.00025570299476385117,-0.0002725623198784888,0.019041378051042557,0,-1,-1000,0,0,19,0,6,-153
16:38:40.429,AUTO,-35.3632624,149.1652377,614610,30625,-0.00016170793969649822,0.0018558904994279146,-0.1863640695810318,-0.00025570299476385117,-0.0002725623198784888,0.019041378051042557,0,-1,-1000,0,0,19,0,6,-153
16:38:40.631,AUTO,-35.3632624,149.1652377,614610,30625,-0.00016170793969649822,0.0018558904994279146,-0.1863640695810318,-0.00025570299476385117,-0.0002725623198784888,0.019041378051042557,0,-1,-1000,0,0,19,0,6,-153
16:38:40.835,AUTO,-35.3632624,149.1652377,614610,30625,-0.00016170793969649822,0.0018558904994279146,-0.1863640695810318,-0.00025570299476385117,-0.0002725623198784888,0.019041378051042557,0,-1,-1000,0,0,19,0,6,-153
16:38:41.037,AUTO,-35.3632624,149.1652377,614610,30625,-0.00016170793969649822,0.0018558904994279146,-0.1863640695810318,-0.00025570299476385117,-0.0002725623198784888,0.019041378051042557,0,-1,-1000,0,0,19,0,6,-153
16:38:41.243,AUTO,-35.3632624,149.1652377,614610,30625,-0.00016170793969649822,0.0018558904994279146,-0.1863640695810318,-0.00025570299476385117,-0.0002725623198784888,0.019041378051042557,0,-1,-1000,0,0,19,0,6,-153
16:38:41.446,AUTO,-35.3632623,149.165238,617340,33351,0.0007737249252386391,0.0008455899660475552,-0.15875059366226196,0.005054115783423185,0.0010753703536465764,0.015041041187942028,0,0,-1000,0,-1,13,0,1,-153
16:38:41.651,AUTO,-35.3632623,149.165238,617340,33351,0.0007737249252386391,0.0008455899660475552,-0.15875059366226196,0.005054115783423185,0.0010753703536465764,0.015041041187942028,0,0,-1000,5,2,14,0,1,-153
16:38:41.855,AUTO,-35.3632623,149.165238,617340,33351,0.0007737249252386391,0.0008455899660475552,-0.15875059366226196,0.005054115783423185,0.0010753703536465764,0.015041041187942028,0,0,-1000,5,2,14,0,1,-153
16:38:42.059,AUTO,-35.3632623,149.165238,617340,33351,0.0007737249252386391,0.0008455899660475552,-0.15875059366226196,0.005054115783423185,0.0010753703536465764,0.015041041187942028,0,0,-1000,5,2,14,0,1,-153
16:38:42.260,AUTO,-35.3632623,149.165238,617340,33351,0.0007737249252386391,0.0008455899660475552,-0.15875059366226196,0.005054115783423185,0.0010753703536465764,0.015041041187942028,0,0,-1000,5,2,14,0,1,-153
16:38:42.467,AUTO,-35.3632623,149.165238,617340,33351,0.0007737249252386391,0.0008455899660475552,-0.15875059366226196,0.005054115783423185,0.0010753703536465764,0.015041041187942028,0,0,-1000,5,2,14,0,1,-153
16:38:42.671,AUTO,-35.3632623,149.165238,617340,33351,0.0007737249252386391,0.0008455899660475552,-0.15875059366226196,0.005054115783423185,0.0010753703536465764,0.015041041187942028,0,0,-1000,5,2,14,0,1,-153
16:38:42.875,AUTO,-35.3632623,149.165238,617340,33351,0.0007737249252386391,0.0008455899660475552,-0.15875059366226196,0.005054115783423185,0.0010753703536465764,0.015041041187942028,0,0,-1000,5,2,14,0,1,-153
16:38:43.078,AUTO,-35.3632623,149.165238,618660,34677,0.001788372523151338,0.0013801682507619262,-0.1477314680814743,0.0014329663245007396,5.6128716096282005e-05,0.009298664517700672,0,0,-1000,3,0,13,0,0,-153
16:38:43.280,AUTO,-35.3632622,149.1652379,619840,35852,0.0017336552264168859,0.0010826180223375559,-0.13915197551250458,0.0012670423602685332,0.0006252641323953867,0.011022130027413368,0,0,-1000,2,1,11,0,0,-153
16:38:43.483,AUTO,-35.3632622,149.1652379,619840,35852,0.0017336552264168859,0.0010826180223375559,-0.13915197551250458,0.0012670423602685332,0.0006252641323953867,0.011022130027413368,0,0,-1000,2,1,11,0,0,-153
16:38:43.688,AUTO,-35.3632622,149.1652379,619840,35852,0.0017336552264168859,0.0010826180223375559,-0.13915197551250458,0.0012670423602685332,0.0006252641323953867,0.011022130027413368,0,0,-1000,2,1,11,0,0,-153
16:38:43.892,AUTO,-35.3632622,149.1652379,619840,35852,0.0017336552264168859,0.0010826180223375559,-0.13915197551250458,0.0012670423602685332,0.0006252641323953867,0.011022130027413368,0,0,-1000,2,1,11,0,0,-153
16:38:44.095,AUTO,-35.3632622,149.1652379,619840,35852,0.0017336552264168859,0.0010826180223375559,-0.13915197551250458,0.0012670423602685332,0.0006252641323953867,0.011022130027413368,0,0,-1000,2,1,11,0,0,-153
16:38:44.298,AUTO,-35.3632622,149.1652379,619840,35852,0.0017336552264168859,0.0010826180223375559,-0.13915197551250458,0.0012670423602685332,0.0006252641323953867,0.011022130027413368,0,0,-1000,2,1,11,0,0,-153
16:38:44.503,AUTO,-35.3632622,149.1652379,619840,35852,0.0017336552264168859,0.0010826180223375559,-0.13915197551250458,0.0012670423602685332,0.0006252641323953867,0.011022130027413368,0,0,-1000,2,1,11,0,0,-153
16:38:44.705,AUTO,-35.3632622,149.1652379,619840,35852,0.0017336552264168859,0.0010826180223375559,-0.13915197551250458,0.0012670423602685332,0.0006252641323953867,0.011022130027413368,0,0,-1000,2,1,11,0,0,-153
16:38:44.909,AUTO,-35.3632622,149.1652377,621860,37875,0.002724345773458481,0.0014878843212500215,-0.12621307373046875,0.0017743377247825265,-0.0012404717272147536,0.01073282677680254,0,0,-1000,2,0,10,0,0,-153
16:38:45.111,AUTO,-35.3632621,149.1652376,622640,38658,0.0028711655177176,0.0013545418623834848,-0.12169075757265091,0.0012678161729127169,0.0032367000821977854,0.009715009480714798,0,0,-1000,2,4,9,0,0,-153
16:38:45.314,AUTO,-35.3632621,149.1652376,622640,38658,0.0028711655177176,0.0013545418623834848,-0.12169075757265091,0.0012678161729127169,0.0032367000821977854,0.009715009480714798,0,0,-1000,2,4,9,0,0,-153
16:38:45.517,AUTO,-35.3632621,149.1652376,622640,38658,0.0028711655177176,0.0013545418623834848,-0.12169075757265091,0.0012678161729127169,0.0032367000821977854,0.009715009480714798,0,0,-1000,2,4,9,0,0,-153
16:38:45.721,AUTO,-35.3632621,149.1652376,622640,38658,0.0028711655177176,0.0013545418623834848,-0.12169075757265091,0.0012678161729127169,0.0032367000821977854,0.009715009480714798,0,0,-1000,2,4,9,0,0,-153
16:38:45.926,AUTO,-35.3632621,149.1652376,622640,38658,0.0028711655177176,0.0013545418623834848,-0.12169075757265091,0.0012678161729127169,0.0032367000821977854,0.009715009480714798,0,0,-1000,2,4,9,0,0,-153
16:38:46.129,AUTO,-35.3632621,149.1652376,622640,38658,0.0028711655177176,0.0013545418623834848,-0.12169075757265091,0.0012678161729127169,0.0032367000821977854,0.009715009480714798,0,0,-1000,2,4,9,0,0,-153
16:38:46.334,AUTO,-35.3632621,149.1652376,622640,38658,0.0028711655177176,0.0013545418623834848,-0.12169075757265091,0.0012678161729127169,0.0032367000821977854,0.009715009480714798,0,0,-1000,2,4,9,0,0,-153
16:38:46.540,AUTO,-35.3632621,149.1652376,622640,38658,0.0028711655177176,0.0013545418623834848,-0.12169075757265091,0.0012678161729127169,0.0032367000821977854,0.009715009480714798,0,0,-1000,2,4,9,0,0,-153
16:38:46.745,AUTO,-35.3632621,149.1652375,623880,39896,0.0024706253316253424,0.001564541133120656,-0.11536935716867447,0.00032408698461949825,0.0012931739911437035,0.008809663355350494,0,0,-1000,1,2,8,0,0,-153
16:38:46.949,AUTO,-35.3632621,149.1652374,625830,41847,0.002413255162537098,0.0015430750790983438,-0.10662893950939178,-0.0015645995736122131,0.001399321248754859,0.008721193298697472,0,0,-999,0,2,8,-1,0,-153
16:38:47.151,AUTO,-35.3632621,149.1652374,625830,41847,0.002413255162537098,0.0015430750790983438,-0.10662893950939178,-0.0015645995736122131,0.001399321248754859,0.008721193298697472,0,0,-999,0,2,8,-1,0,-153
16:38:47.356,AUTO,-35.3632621,149.1652374,625830,41847,0.002413255162537098,0.0015430750790983438,-0.10662893950939178,-0.0015645995736122131,0.001399321248754859,0.008721193298697472,0,0,-999,0,2,8,-1,0,-153
16:38:47.562,AUTO,-35.3632621,149.1652374,625830,41847,0.002413255162537098,0.0015430750790983438,-0.10662893950939178,-0.0015645995736122131,0.001399321248754859,0.008721193298697472,0,0,-999,0,2,8,-1,0,-153
16:38:47.765,AUTO,-35.3632621,149.1652374,625830,41847,0.002413255162537098,0.0015430750790983438,-0.10662893950939178,-0.0015645995736122131,0.001399321248754859,0.008721193298697472,0,0,-999,0,2,8,-1,0,-153
16:38:47.969,AUTO,-35.3632621,149.1652374,625830,41847,0.002413255162537098,0.0015430750790983438,-0.10662893950939178,-0.0015645995736122131,0.001399321248754859,0.008721193298697472,0,0,-999,0,2,8,-1,0,-153
16:38:48.172,AUTO,-35.3632621,149.1652374,625830,41847,0.002413255162537098,0.0015430750790983438,-0.10662893950939178,-0.0015645995736122131,0.001399321248754859,0.008721193298697472,0,0,-999,0,2,8,-1,0,-153
16:38:48.374,AUTO,-35.3632621,149.1652374,625830,41847,0.002413255162537098,0.0015430750790983438,-0.10662893950939178,-0.0015645995736122131,0.001399321248754859,0.008721193298697472,0,0,-999,0,2,8,-1,0,-153
16:38:48.579,AUTO,-35.363262,149.1652374,627240,43252,0.0020505057182163,0.0014606538461521268,-0.10059201717376709,0.00045423407573252916,-0.0008540837443433702,0.005501937586814165,0,0,-1000,1,0,5,-1,1,-153
16:38:48.783,AUTO,-35.363262,149.1652374,628800,44810,0.0023197168484330177,0.0011698051821440458,-0.09461309015750885,0.00144473765976727,-0.0010961256921291351,0.006728281266987324,0,0,-999,-1,1,6,-1,1,-153
16:38:48.990,AUTO,-35.363262,149.1652374,628800,44810,0.0023197168484330177,0.0011698051821440458,-0.09461309015750885,0.00144473765976727,-0.0010961256921291351,0.006728281266987324,0,0,-1001,2,0,6,-1,1,-153
16:38:49.192,AUTO,-35.363262,149.1652374,628800,44810,0.0023197168484330177,0.0011698051821440458,-0.09461309015750885,0.00144473765976727,-0.0010961256921291351,0.006728281266987324,0,0,-1001,2,0,6,-1,1,-153
16:38:49.398,AUTO,-35.363262,149.1652374,628800,44810,0.0023197168484330177,0.0011698051821440458,-0.09461309015750885,0.00144473765976727,-0.0010961256921291351,0.006728281266987324,0,0,-1001,2,0,6,-1,1,-153
16:38:49.603,AUTO,-35.363262,149.1652374,628800,44810,0.0023197168484330177,0.0011698051821440458,-0.09461309015750885,0.00144473765976727,-0.0010961256921291351,0.006728281266987324,0,0,-1001,2,0,6,-1,1,-153
16:38:49.806,AUTO,-35.363262,149.1652374,628800,44810,0.0023197168484330177,0.0011698051821440458,-0.09461309015750885,0.00144473765976727,-0.0010961256921291351,0.006728281266987324,0,0,-1001,2,0,6,-1,1,-153
16:38:50.009,AUTO,-35.363262,149.1652374,628800,44810,0.0023197168484330177,0.0011698051821440458,-0.09461309015750885,0.00144473765976727,-0.0010961256921291351,0.006728281266987324,0,0,-1001,2,0,6,-1,1,-153
16:38:50.211,AUTO,-35.363262,149.1652374,628800,44810,0.0023197168484330177,0.0011698051821440458,-0.09461309015750885,0.00144473765976727,-0.0010961256921291351,0.006728281266987324,0,0,-1001,2,0,6,-1,1,-153
16:38:50.414,AUTO,-35.363262,149.1652373,631210,47222,-0.0056093777529895306,0.00796849001199007,-0.07178428024053574,-0.07684669643640518,0.07740602642297745,0.16434064507484436,0,0,-971,-75,78,164,-1,0,-149
16:38:50.617,AUTO,-35.363262,149.1652373,631580,47592,-0.032523781061172485,0.038187362253665924,0.0027883800212293863,-0.1404130756855011,0.13158361613750458,0.42374885082244873,0,0,-971,-139,132,424,-6,-4,-142
16:38:50.819,AUTO,-35.363262,149.1652373,631580,47592,-0.032523781061172485,0.038187362253665924,0.0027883800212293863,-0.1404130756855011,0.13158361613750458,0.42374885082244873,0,0,-971,-139,132,424,-6,-4,-142
16:38:51.021,AUTO,-35.363262,149.1652373,631580,47592,-0.032523781061172485,0.038187362253665924,0.0027883800212293863,-0.1404130756855011,0.13158361613750458,0.42374885082244873,0,0,-971,-139,132,424,-6,-4,-142
16:38:51.223,AUTO,-35.363262,149.1652373,631580,47592,-0.032523781061172485,0.038187362253665924,0.0027883800212293863,-0.1404130756855011,0.13158361613750458,0.42374885082244873,0,0,-971,-139,132,424,-6,-4,-142
16:38:51.426,AUTO,-35.363262,149.1652373,631580,47592,-0.032523781061172485,0.038187362253665924,0.0027883800212293863,-0.1404130756855011,0.13158361613750458,0.42374885082244873,0,0,-971,-139,132,424,-6,-4,-142
16:38:51.628,AUTO,-35.363262,149.1652373,631580,47592,-0.032523781061172485,0.038187362253665924,0.0027883800212293863,-0.1404130756855011,0.13158361613750458,0.42374885082244873,0,0,-971,-139,132,424,-6,-4,-142
16:38:51.831,AUTO,-35.363262,149.1652373,631580,47592,-0.032523781061172485,0.038187362253665924,0.0027883800212293863,-0.1404130756855011,0.13158361613750458,0.42374885082244873,0,0,-971,-139,132,424,-6,-4,-142
16:38:52.034,AUTO,-35.363262,149.1652373,631580,47592,-0.032523781061172485,0.038187362253665924,0.0027883800212293863,-0.1404130756855011,0.13158361613750458,0.42374885082244873,0,0,-971,-139,132,424,-6,-4,-142
16:38:52.237,AUTO,-35.363262,149.1652373,631580,47592,-0.032523781061172485,0.038187362253665924,0.0027883800212293863,-0.1404130756855011,0.13158361613750458,0.42374885082244873,0,0,-971,-139,132,424,-6,-4,-142
16:38:52.439,AUTO,-35.3632647,149.1652327,633200,49212,0.035153135657310486,-0.05504399910569191,0.3060738444328308,0.04079475626349449,0.006116033066064119,-0.019843818619847298,2,8,-959,61,-32,8,-5,-15,-71
16:38:52.641,AUTO,-35.3632645,149.1652324,633520,49532,0.039386946707963943,-0.04038698598742485,0.29026052355766296,-0.041241180151700974,0.0405113585293293,-0.03557039052248001,-2,-3,-974,-39,41,-35,10,8,-55
16:38:52.845,AUTO,-35.3632645,149.1652324,633520,49532,0.039386946707963943,-0.04038698598742485,0.29026052355766296,-0.041241180151700974,0.0405113585293293,-0.03557039052248001,-2,-3,-974,-39,41,-35,10,8,-55
16:38:53.052,AUTO,-35.3632645,149.1652324,633520,49532,0.039386946707963943,-0.04038698598742485,0.29026052355766296,-0.041241180151700974,0.0405113585293293,-0.03557039052248001,-2,-3,-974,-39,41,-35,10,8,-55
16:38:53.254,AUTO,-35.3632645,149.1652324,633520,49532,0.039386946707963943,-0.04038698598742485,0.29026052355766296,-0.041241180151700974,0.0405113585293293,-0.03557039052248001,-2,-3,-974,-39,41,-35,10,8,-55
16:38:53.457,AUTO,-35.3632645,149.1652324,633520,49532,0.039386946707963943,-0.04038698598742485,0.29026052355766296,-0.041241180151700974,0.0405113585293293,-0.03557039052248001,-2,-3,-974,-39,41,-35,10,8,-55
16:38:53.663,AUTO,-35.3632645,149.1652324,633520,49532,0.039386946707963943,-0.04038698598742485,0.29026052355766296,-0.041241180151700974,0.0405113585293293,-0.03557039052248001,-2,-3,-974,-39,41,-35,10,8,-55
16:38:53.867,AUTO,-35.3632645,149.1652324,633520,49532,0.039386946707963943,-0.04038698598742485,0.29026052355766296,-0.041241180151700974,0.0405113585293293,-0.03557039052248001,-2,-3,-974,-39,41,-35,10,8,-55
16:38:54.070,AUTO,-35.3632645,149.1652324,633520,49532,0.039386946707963943,-0.04038698598742485,0.29026052355766296,-0.041241180151700974,0.0405113585293293,-0.03557039052248001,-2,-3,-974,-39,41,-35,10,8,-55
16:38:54.274,AUTO,-35.3632645,149.1652324,633520,49532,0.039386946707963943,-0.04038698598742485,0.29026052355766296,-0.041241180151700974,0.0405113585293293,-0.03557039052248001,-2,-3,-974,-39,41,-35,10,8,-55
16:38:54.479,AUTO,-35.3632617,149.1652369,634130,50140,-0.0030884011648595333,0.015644166618585587,0.23086580634117126,-0.5034708380699158,0.00910714827477932,-0.02393692173063755,-1,-13,-989,262,21,-30,13,26,-15
16:38:54.686,LOITER,-35.3632614,149.1652376,634150,50168,-0.017800578847527504,0.018723510205745697,0.22366760671138763,-0.8145968914031982,0.05329936370253563,-0.02609182335436344,0,-35,-949,-813,54,-25,10,23,-8
16:38:54.890,LOITER,-35.3632614,149.1652376,634150,50168,-0.017800578847527504,0.018723510205745697,0.22366760671138763,-0.8145968914031982,0.05329936370253563,-0.02609182335436344,0,-35,-949,-813,54,-25,10,23,-8
16:38:55.094,LOITER,-35.3632614,149.1652376,634150,50168,-0.017800578847527504,0.018723510205745697,0.22366760671138763,-0.8145968914031982,0.05329936370253563,-0.02609182335436344,0,-35,-949,-813,54,-25,10,23,-8
16:38:55.303,LOITER,-35.3632614,149.1652376,634150,50168,-0.017800578847527504,0.018723510205745697,0.22366760671138763,-0.8145968914031982,0.05329936370253563,-0.02609182335436344,0,-35,-949,-813,54,-25,10,23,-8
16:38:55.508,LOITER,-35.3632614,149.1652376,634150,50168,-0.017800578847527504,0.018723510205745697,0.22366760671138763,-0.8145968914031982,0.05329936370253563,-0.02609182335436344,0,-35,-949,-813,54,-25,10,23,-8
16:38:55.711,LOITER,-35.3632614,149.1652376,634150,50168,-0.017800578847527504,0.018723510205745697,0.22366760671138763,-0.8145968914031982,0.05329936370253563,-0.02609182335436344,0,-35,-949,-813,54,-25,10,23,-8
16:38:55.921,LOITER,-35.3632614,149.1652376,634150,50168,-0.017800578847527504,0.018723510205745697,0.22366760671138763,-0.8145968914031982,0.05329936370253563,-0.02609182335436344,0,-35,-949,-813,54,-25,10,23,-8
16:38:56.123,LOITER,-35.3632614,149.1652376,634150,50168,-0.017800578847527504,0.018723510205745697,0.22366760671138763,-0.8145968914031982,0.05329936370253563,-0.02609182335436344,0,-35,-949,-813,54,-25,10,23,-8
16:38:56.328,LOITER,-35.363261,149.1652388,633910,49926,-0.025086643174290657,0.010613245889544487,0.20562124252319336,-0.5641279816627502,-0.016976214945316315,-0.022120067849755287,0,-35,-949,-813,54,-25,0,8,88
16:38:56.531,LOITER,-35.363261,149.1652399,632430,48448,0.0190438125282526,-0.00023619695275556296,0.18568331003189087,-0.17871862649917603,-0.007555350661277771,-0.015087811276316643,2,-69,-947,-188,-6,-14,0,4,181
16:38:56.733,LOITER,-35.363261,149.1652402,631960,47978,0.02850160002708435,-0.0007438902393914759,0.18033842742443085,1.6659599542617798,-0.009696846827864647,-0.0507836751639843,2,25,-1001,1661,-8,-50,0,5,185
16:38:56.937,LOITER,-35.363261,149.1652402,631960,47978,0.02850160002708435,-0.0007438902393914759,0.18033842742443085,1.6659599542617798,-0.009696846827864647,-0.0507836751639843,2,25,-1001,1661,-8,-50,0,5,185
16:38:57.140,LOITER,-35.363261,149.1652402,631960,47978,0.02850160002708435,-0.0007438902393914759,0.18033842742443085,1.6659599542617798,-0.009696846827864647,-0.0507836751639843,2,25,-1001,1661,-8,-50,0,5,185
16:38:57.344,LOITER,-35.363261,149.1652402,631960,47978,0.02850160002708435,-0.0007438902393914759,0.18033842742443085,1.6659599542617798,-0.009696846827864647,-0.0507836751639843,2,25,-1001,1661,-8,-50,0,5,185
16:38:57.548,LOITER,-35.363261,149.1652402,631960,47978,0.02850160002708435,-0.0007438902393914759,0.18033842742443085,1.6659599542617798,-0.009696846827864647,-0.0507836751639843,2,25,-1001,1661,-8,-50,0,5,185
16:38:57.755,LOITER,-35.363261,149.1652402,631960,47978,0.02850160002708435,-0.0007438902393914759,0.18033842742443085,1.6659599542617798,-0.009696846827864647,-0.0507836751639843,2,25,-1001,1661,-8,-50,0,5,185
16:38:57.959,LOITER,-35.363261,149.1652402,631960,47978,0.02850160002708435,-0.0007438902393914759,0.18033842742443085,1.6659599542617798,-0.009696846827864647,-0.0507836751639843,2,25,-1001,1661,-8,-50,0,5,185
