time_stamp,RTL_ALT,roll,pitch,yaw,rollspeed,pitchspeed,yawspeed,lat,lon,relative_alt,vx,vy,vz,xacc,yacc,zacc,xgyro,ygyro,zgyro,MODE
11:21:29,1500.0,-0.00028134300373494625,0.001410802360624075,0.025787318125367165,0.00018657659529708326,0.00023024342954158783,0.002028013113886118,-35.3632622,149.1652375,0.0,-2.0,2.0,0.0,0.0,1.0,-1000.0,0.0,1.0,0.0,STABILIZE
11:21:37,1500.0,-0.0008728227112442255,0.0009392639040015638,0.022952204570174217,0.0003444522153586149,0.0001780054299160838,0.0016849505482241511,-35.3632622,149.1652375,0.0,-1.0,0.0,0.0,0.0,1.0,-1000.0,0.0,0.0,0.0,STABILIZE
11:21:41,1500.0,-0.0005172268720343709,0.0009905921760946512,0.021760929375886917,0.00023522262927144766,0.0002959256526082754,0.0014857539208605886,-35.3632621,149.1652375,6.0,-1.0,1.0,-1.0,0.0,2.0,-1000.0,0.0,0.5,0.5,AUTO
11:21:43,12578.0,-0.00016670431068632752,0.0013937667827121913,0.02115313522517681,0.00030171062098816037,0.00022754209931008518,0.0015332602197304368,-35.3632621,149.1652375,5.5,0.0,0.0,0.0,0.0,1.0,-1000.0,0.5,0.0,0.0,AUTO
11:21:45,23656.0,0.0021018998231738806,0.0012694585602730513,0.02052995190024376,-0.0021964593324810266,0.0030093970708549023,0.0018823913997039199,-35.3632621,149.1652375,317.5,0.0,0.0,-88.0,0.0,0.0,-1118.0,-4.5,4.0,1.0,AUTO
11:21:47,23656.0,0.05071636848151684,0.003178724553436041,-0.021023899782449007,-0.0855938047170639,0.06254536658525467,-0.0787558201700449,-35.363261449999996,149.16524045,3125.0,8.5,49.0,-145.5,2.0,-9.0,-991.0,-84.5,63.0,-79.0,AUTO
11:21:48,175958.0,-0.06018268279731274,0.004442915914114565,-0.08257845044136047,-0.03436950016766786,0.006435929657891392,-0.04308817349374294,-35.36326061999999,149.165246,5210.8,2.4,6.8,-147.6,1.0,-3.8,-1001.8,-33.6,7.0,-43.0,AUTO
11:21:49,175958.0,-0.06049218028783798,0.007781773805618286,-0.11268575489521027,0.057615529745817184,0.002873882884159684,-0.02155584655702114,-35.3632605,149.165245,6357.0,-6.0,-44.0,-147.0,-4.0,7.0,-1000.0,58.0,3.0,-21.0,AUTO
11:21:51,175958.0,0.06227380782365799,0.01326229702681303,-0.11404796689748764,0.030758296139538288,-0.03639654256403446,0.03365145088173449,-35.36326405,149.16523389999998,9260.5,-32.0,-20.5,-151.5,0.5,10.5,-999.5,31.5,-35.0,32.5,AUTO
11:21:53,175958.0,-0.039031099528074265,0.0012281890958547592,-0.09047769755125046,-0.049660845659673214,0.08473480865359306,-0.1247924156486988,-35.3632621,149.165238,12321.0,54.5,21.5,-148.0,-7.5,-13.0,-1010.5,-48.5,85.0,-124.5,AUTO
11:21:54,195329.0,-0.01477002230240032,0.04115116875618696,-0.1890132650732994,0.04896179772913456,0.012803452555090189,-0.035659223794937134,-35.3632583,149.16523697499997,14276.5,6.5,-23.25,-152.0,-6.0,1.5,-1001.0,49.5,13.0,-35.75,AUTO
11:21:55,195329.0,0.024513463489711285,0.04532846063375473,-0.20411375910043716,0.05691089853644371,-0.003538529999786988,-0.010440458543598652,-35.36325855,149.165235,15458.5,-24.5,-14.5,-152.0,-1.0,6.0,-1000.0,57.0,-3.0,-10.5,AUTO
11:21:57,195329.0,-0.019866688642650843,-0.00954549782909453,-0.1692928969860077,-0.05350642558187246,0.021714190021157265,-0.05494654178619385,-35.3632622,149.165237,18707.0,1.0,8.0,-151.0,0.5,-2.0,-996.5,-52.0,21.5,-55.0,AUTO
11:21:59,195329.0,0.0733475498855114,-0.03602776862680912,0.02173585817217827,0.01659051259048283,-0.0011077020317316055,-0.03476732783019543,-35.36326445,149.16523055,21127.5,-12.5,-11.0,-67.5,0.0,5.0,-958.0,17.5,0.0,-34.5,AUTO
11:22:00,7337.0,0.025379979982972145,-0.0033431557967560366,0.01033621677197516,-0.054104339331388474,0.027581972535699606,0.0016262527060462162,-35.363263875,149.165233075,21722.5,14.5,41.25,-30.0,1.25,-9.25,-977.75,-53.0,28.25,1.0,AUTO
11:22:01,7337.0,-0.00266424345318228,0.011804177891463041,0.008580357301980257,-0.00445159524679184,0.010452742222696543,0.00015581463230773807,-35.3632627,149.1652363,21898.0,14.0,38.5,-13.0,1.5,-11.5,-975.0,-3.5,10.5,0.0,AUTO
11:22:03,7337.0,-0.02388274483382702,-0.045522309839725494,0.0017111984197981656,-0.17219508439302444,-0.03926856070756912,-0.007754170335829258,-35.36326105,149.16523725000002,21681.0,19.5,-25.0,4.5,-8.5,6.0,-1017.5,-170.5,-38.0,-7.5,AUTO
11:22:05,7337.0,0.03438981901854277,-0.11612331867218018,-0.5429222583770752,-0.2622140944004059,-0.04401625320315361,0.12310776486992836,-35.36324875,149.16522485000002,21677.0,133.0,-74.5,-3.0,-32.0,-37.5,-999.5,-261.0,-43.0,122.5,AUTO
11:22:06,204667.0,0.05304248258471489,-0.1632324792444706,-0.5161169618368149,0.02127118781208992,-0.017826631665229797,0.017364706232910976,-35.363228150000005,149.165208225,21704.25,246.0,-131.75,-3.5,-59.5,-31.25,-1009.0,22.5,-16.75,17.0,AUTO
11:22:07,204667.0,0.05830403231084347,-0.17297624051570892,-0.521132618188858,-0.13298808224499226,-0.031034628860652447,0.03452054597437382,-35.363209999999995,149.16519435,21735.0,315.5,-168.0,-5.5,-72.5,-46.0,-999.5,-131.0,-29.5,34.0,AUTO
11:22:09,204667.0,0.05799906700849533,-0.19076761603355408,-0.5190856754779816,0.01886753924190998,0.010977000696584582,0.006384932668879628,-35.363137949999995,149.16514205,21856.5,494.0,-271.0,-11.5,-106.5,-47.5,-997.5,20.0,11.5,6.0,AUTO
11:22:11,204667.0,0.06837327405810356,-0.15815050899982452,-0.5178518891334534,-0.003922370495274663,0.03304253611713648,-0.005332914995960891,-35.3630413,149.16507185,22173.5,575.0,-329.0,-15.0,-139.5,-60.0,-994.5,-1.5,33.5,-4.5,AUTO
11:22:12,56292.0,0.07461975887417793,-0.12686534598469734,-0.5186517387628555,7.220543920993805e-05,-0.01012536440975964,-0.019790170714259148,-35.362976175,149.1650241,22384.75,581.25,-335.5,-12.75,-130.25,-58.75,-974.0,1.75,-9.25,-19.5,AUTO
11:22:13,56292.0,0.07491965591907501,-0.14083952456712723,-0.5202153623104095,-0.01273830677382648,-0.014515060349367559,-0.015125942416489124,-35.362937200000005,149.16499555000001,22468.5,582.0,-336.5,-4.5,-142.0,-69.5,-984.5,-10.5,-13.5,-15.0,AUTO
11:22:15,56292.0,0.06602368876338005,-0.12106074020266533,-0.5247679948806763,0.0082395626232028,0.05785438232123852,-0.004315753059927374,-35.3628316,149.1649191,22658.5,589.5,-348.5,-10.5,-138.0,-74.0,-997.5,10.5,57.5,-4.5,AUTO
11:22:17,56292.0,0.0687706470489502,-0.020050367806106806,-0.5260011851787567,0.012372598052024841,0.03854711074382067,-0.004194575361907482,-35.36273215,149.16484645,23004.5,490.5,-295.5,-8.0,-123.5,-63.5,-988.5,15.0,38.5,-4.5,AUTO
11:22:18,3247.0,0.05916102137416601,0.03787451144307852,-0.5241168439388275,0.1903173066675663,0.04122269246727228,-0.008917936123907566,-35.362682925,149.16481062500003,23085.0,378.5,-226.75,0.5,-93.75,-47.25,-994.5,192.75,41.5,-9.0,AUTO
11:22:19,3247.0,0.04232082515954971,0.05274120718240738,-0.524459719657898,-0.5391086041927338,-0.00684236828237772,0.007727094925940037,-35.362659550000004,149.16479364999998,23093.0,301.0,-179.5,3.0,-76.5,-62.5,-994.0,-536.0,-6.0,7.5,AUTO
11:22:21,3247.0,0.023580304346978664,0.07988795638084412,-0.5266310572624207,0.5807406008243561,-0.026868788991123438,-0.006367341615259647,-35.3626219,149.16476705000002,23090.0,113.0,-68.0,1.0,-27.5,5.0,-1007.0,582.5,-25.5,-6.5,AUTO
11:22:23,11714.5,-3.0428986065089703e-05,0.032606848515570164,-0.5284780859947205,0.095755934715271,-0.02317813318222761,0.0002286644303239882,-35.362612999999996,149.16476,23085.5,10.0,-7.0,0.5,-2.0,17.5,-1004.5,99.0,-22.0,0.5,AUTO
11:22:25,20182.0,0.0016206168220378458,-0.008461492718197405,-0.5302750468254089,-0.4533289670944214,-0.036997225135564804,-0.0005995643768983427,-35.362613749999994,149.16475975,23087.0,1.5,-3.0,0.0,0.0,-23.5,-994.5,-451.0,-36.0,0.0,RTL
11:22:27,20182.0,0.00604457943700254,0.011708843987435102,-0.5324678122997284,0.15343929827213287,-0.0029895592015236616,8.661914034746587e-05,-35.36261275,149.16475865,23240.0,7.0,-1.0,-29.5,-1.5,-1.0,-1042.5,155.5,-2.5,0.0,RTL
11:22:29,86155.0,0.004440369782969356,0.0062826406210660934,-0.5341846942901611,-0.0066177439875900745,-0.0010464338847668841,0.0011098597315140069,-35.3626128,149.1647582,24804.0,2.0,4.0,-121.5,0.0,0.0,-1044.5,-3.5,-0.5,1.0,RTL
11:22:31,86155.0,0.00896784057840705,0.02686555590480566,-0.5733271539211273,-0.1694481298327446,0.04288203828036785,-0.0833851583302021,-35.3626102,149.164762,27762.5,35.0,43.0,-145.0,4.5,-13.5,-997.5,-166.5,43.5,-82.5,RTL
11:22:33,86155.0,-0.034789145924150944,0.01049717329442501,-0.62309131026268,0.060915011912584305,0.009837498422712088,-0.0037304116412997246,-35.362610000000004,149.16476195,30825.0,-38.5,-46.0,-149.5,-5.5,10.0,-1001.5,63.0,10.5,-3.0,RTL
11:22:34,49757.0,0.04200911754742265,0.01710792281664908,-0.6180769205093384,0.04021992860361934,-0.016510172048583627,0.02134771487908438,-35.362613525,149.16475685,32776.25,-33.0,-17.75,-152.5,-1.5,8.0,-1000.5,42.25,-16.0,21.25,RTL
11:22:35,49757.0,0.03176805842667818,-0.0159007147885859,-0.5882179737091064,-0.0860883928835392,-0.024948148522526026,0.032920890022069216,-35.3626145,149.16475665000002,33948.5,-5.5,12.0,-149.5,2.5,-0.5,-996.0,-83.0,-24.0,33.0,RTL
11:22:37,49757.0,-0.011032764334231615,0.015358979348093271,-0.6571857035160065,0.01757822558283806,0.007893015164881945,-0.02838284056633711,-35.36261265,149.16475739999998,37210.5,-3.5,-11.0,-152.0,-2.0,0.0,-1000.0,19.5,8.5,-27.0,RTL
11:22:39,49757.0,0.0005512109928531572,0.013407343532890081,-0.6874330341815948,-0.007464750669896603,-0.003404104500077665,-0.01270171394571662,-35.3626126,149.1647568,40331.5,-8.5,3.5,-152.0,0.0,0.0,-999.5,-4.5,-2.0,-12.0,RTL
11:22:40,140775.0,-0.004309307667426765,0.009148459415882826,-0.7079431563615799,-0.0032147838501259685,-0.000498328372486867,-0.019386920612305403,-35.3626127,149.16475755,42276.75,-6.75,4.25,-152.25,1.0,0.0,-1000.25,-1.0,0.5,-18.5,RTL
11:22:41,140775.0,-0.005244413856416941,0.008519257418811321,-0.7240003347396851,-0.002518958644941449,0.002021823253016919,-0.02259120251983404,-35.3626127,149.16475795000002,43445.5,-6.0,2.5,-153.0,0.0,0.0,-999.5,-0.5,2.0,-21.5,RTL
11:22:43,140775.0,-0.0023669705260545015,0.009609588421881199,-0.7686581015586853,-0.00011568423360586166,0.001145492831710726,-0.021684328094124794,-35.3626127,149.1647583,46568.0,-5.0,0.0,-153.0,0.0,0.0,-999.5,1.5,1.5,-21.0,RTL
11:22:45,140775.0,-0.00271265534684062,0.009096225257962942,-0.8069619238376617,0.00024211884010583162,0.0014145822788123041,-0.018023422919213772,-35.3626127,149.1647586,49682.5,-4.0,1.0,-153.0,0.0,0.0,-1000.0,1.5,2.0,-17.0,RTL
11:22:46,69533.0,0.000925655840546824,0.010810981737449765,-0.7983466386795044,0.00040507741505280137,-0.0009457887208554894,0.0238698055036366,-35.3626127,149.16475885,51628.25,-3.75,3.25,-152.0,0.0,0.0,-1000.0,2.25,0.75,24.0,RTL
11:22:47,69533.0,-0.0007591374524054118,0.009006889536976814,-0.7788946628570557,-0.006480471463873982,-0.0025567549746483564,0.026674972847104073,-35.3626127,149.16475915,52796.5,-3.0,5.0,-152.0,0.0,0.0,-999.5,-4.0,-1.0,27.0,RTL
11:22:49,69533.0,-0.0030072059016674757,0.007851444883272052,-0.7339022755622864,-0.0005869138985872269,0.0016223560669459403,0.020025736652314663,-35.3626127,149.1647596,55891.5,-3.0,0.5,-152.0,0.0,0.0,-1000.0,1.0,2.5,20.0,RTL
11:22:51,69533.0,-0.0007605964201502502,0.008335375227034092,-0.7002135217189789,0.0026356104644946754,-0.00011434679618105292,0.016189364716410637,-35.3626127,149.16475945000002,58996.0,-3.0,0.0,-152.5,0.0,0.0,-1000.0,4.5,1.5,16.0,RTL
11:22:52,122776.0,0.0004877477331319824,0.007935889530926943,-0.6840168833732605,-0.0015521644963882864,-8.625580812804401e-05,0.012771287001669407,-35.3626127,149.16475922499998,60943.5,-2.25,0.0,-152.0,0.0,0.0,-999.75,0.0,1.0,12.75,RTL
11:22:53,122776.0,0.0002470549661666155,0.007925075478851795,-0.675153374671936,-0.0003379650879651308,1.712184166535735e-05,0.012765503954142332,-35.3626127,149.1647591,62109.0,-2.0,0.0,-152.0,0.0,0.0,-1000.0,1.0,1.0,13.0,RTL
11:22:55,122776.0,0.0005466878646984696,0.008159561082720757,-0.6566711366176605,-0.0012978169252164662,0.0005989698111079633,0.00999200763180852,-35.3626128,149.1647589,65218.0,-1.0,1.0,-152.0,0.0,0.0,-999.5,0.5,2.0,10.5,RTL
11:22:57,122776.0,-2.7781707501617348e-05,0.008041702210903168,-0.6423889398574829,0.0007248676847666502,0.0006470914231613278,0.010059299413114786,-35.3626128,149.1647589,68319.5,-1.0,1.0,-152.0,0.0,0.0,-999.5,2.5,1.5,10.5,RTL
11:22:58,97872.0,6.229260452528251e-05,0.008319933665916324,-0.6346691399812698,0.0006134872965048999,0.0008425957639701664,0.007212708704173565,-35.3626128,149.1647589,70259.5,-1.0,1.0,-152.0,0.0,0.0,-1000.25,1.75,2.0,8.0,RTL
11:22:59,97872.0,-9.309018423664384e-05,0.00842904020100832,-0.6304868161678314,-0.0010709116468206048,-0.00047250249190256,0.00673473090864718,-35.3626128,149.1647589,71424.0,-1.0,1.0,-152.0,0.0,0.0,-999.5,0.5,0.5,7.0,RTL
11:23:01,97872.0,3.7954106119286735e-05,0.007994578685611486,-0.6196568310260773,0.001311899395659566,0.0023057335056364536,0.00659275590442121,-35.3626128,149.1647589,74534.0,-1.0,1.0,-152.0,0.0,0.0,-1000.0,3.0,3.5,7.0,RTL
11:23:03,97872.0,0.0002463835844537243,0.0072285819333046675,-0.6098105013370514,0.0018691267468966544,-0.00015754136256873608,0.0070028884802013636,-35.3626128,149.1647588,77639.0,-1.0,1.0,-152.0,0.0,0.0,-1000.0,3.5,1.0,7.5,RTL
11:23:04,19603.0,3.835557436104864e-06,0.007701185764744878,-0.6047762036323547,0.0010019043693318963,0.0004595732025336474,0.005177255778107792,-35.3626128,149.1647588,79576.75,-1.0,1.0,-152.0,0.0,0.0,-1000.25,2.5,1.75,6.0,RTL
11:23:05,19603.0,0.00027788284205598757,0.007390879560261965,-0.6021282970905304,-0.0008789043640717864,-0.0007649902836419642,0.006576884305104613,-35.3626128,149.1647588,80741.5,-1.0,1.0,-152.0,0.0,0.0,-999.0,1.0,0.5,7.0,RTL
11:23:07,19603.0,0.0006599195185117424,0.00790093606337905,-0.5948013961315155,-0.00026094168424606323,8.501892443746328e-05,0.004948281450197101,-35.3626128,149.1647588,83854.0,0.0,1.0,-152.0,0.0,0.0,-999.5,1.5,1.5,5.5,RTL
11:23:09,19603.0,7.301039397589193e-05,0.008120576851069927,-0.5891945362091064,-0.00227768428158015,-0.00019734696252271533,0.003939821966923773,-35.3626128,149.1647588,86956.5,-1.0,1.0,-152.0,0.0,0.0,-999.5,0.0,1.0,4.5,RTL
11:23:10,51015.0,0.00021085851039970294,0.007967458805069327,-0.5854137688875198,-0.00011372673907317221,-0.0004066459368914366,0.00372159801190719,-35.3626128,149.1647588,88897.25,-1.0,1.0,-152.0,0.0,0.0,-1000.0,1.5,1.0,4.75,RTL
11:23:11,51015.0,0.00032814017322380096,0.008002271875739098,-0.583582192659378,0.00046707026194781065,0.0004602159315254539,0.0028054730501025915,-35.3626128,149.1647588,90061.5,-1.0,1.0,-152.0,0.0,0.0,-1000.0,2.0,1.5,3.5,RTL
11:23:13,51015.0,0.00033233777503483,0.007852471666410565,-0.578953742980957,0.0011568391928449273,0.0007896517054177821,0.0029176140087656677,-35.3626128,149.1647588,93175.5,-1.0,1.0,-152.0,0.0,0.0,-1000.0,3.0,2.0,4.0,RTL
11:23:15,30267.5,0.0007233090582303703,0.007387868128716946,-0.5748677849769592,0.00036307796835899353,-0.00038467260310426354,0.0027079147985205054,-35.3626128,149.1647588,96284.0,-1.0,1.0,-152.0,0.0,0.0,-999.5,2.0,1.0,3.5,RTL
11:23:17,9520.0,0.0004251066129654646,0.007721925154328346,-0.5713839530944824,0.000958134070970118,0.0004476559115573764,0.003630767110735178,-35.3626128,149.1647588,99389.0,0.0,1.0,-152.0,0.0,0.0,-999.5,2.5,2.0,4.5,RTL
11:23:19,9520.0,0.0005732181307394058,0.00762647669762373,-0.5677202641963959,-1.6782316379249096e-05,-0.0005666899960488081,0.00037790811620652676,-35.3626128,149.1647588,102494.0,-0.5,1.0,-152.0,0.0,0.0,-1000.0,2.0,1.0,2.0,RTL
11:23:20,107189.0,0.00043072741391370073,0.007714478182606399,-0.5657977759838104,0.0003092419356107712,0.0009345641301479191,0.0028430302627384663,-35.3626128,149.1647588,104436.0,0.0,1.0,-152.0,0.0,0.0,-999.5,2.0,2.5,4.0,RTL
11:23:21,107189.0,0.0005124699382577091,0.0078011921141296625,-0.5650523900985718,0.0007782498141750693,-8.288002572953701e-05,0.0016741421422921121,-35.3626128,149.1647588,105604.0,0.0,1.0,-152.0,0.0,0.0,-1000.5,2.5,1.0,2.5,RTL
11:23:23,107189.0,0.0005965344898868352,0.007773864548653364,-0.5625342130661011,-0.0005957236862741411,0.0007280035642907023,0.0011694233980961144,-35.3626128,149.1647588,108707.0,0.0,1.0,-152.0,0.0,0.0,-1000.0,1.5,2.5,2.5,RTL
11:23:25,107189.0,-6.211813342815731e-05,0.007453558500856161,-0.5608020722866058,0.0021749790757894516,0.00045534828677773476,0.004261753289029002,-35.3626128,149.1647588,111813.0,0.0,1.0,-152.0,0.0,0.0,-999.5,4.0,2.0,5.0,RTL
11:23:26,233385.0,0.0003671618178486824,0.007647034479305148,-0.5596649199724197,0.000289204646833241,-0.0002048254245892167,0.0017323244828730822,-35.3626128,149.1647588,113757.25,0.0,1.0,-152.0,0.0,0.0,-1000.0,2.25,1.5,3.0,RTL
11:23:27,233385.0,0.0005822839739266783,0.007681806106120348,-0.5590363442897797,-0.00012117973528802395,-0.0002188057405874133,0.0011641602031886578,-35.3626128,149.1647588,114923.0,0.0,1.0,-152.0,0.0,0.0,-1000.0,2.0,1.5,2.0,RTL
11:23:29,233385.0,0.0008077169768512249,0.0073487109038978815,-0.557578980922699,0.0006714371265843511,0.0013567947316914797,0.001711556047666818,-35.3626129,149.1647588,118031.0,0.0,1.0,-152.0,0.0,0.0,-999.5,2.5,3.0,3.0,RTL
11:23:31,233385.0,0.0005827381974086165,0.00767506193369627,-0.5561659336090088,0.00034892826806753874,0.0006919894367456436,0.0015278601204045117,-35.3626129,149.1647588,121141.0,0.0,1.0,-152.0,0.0,0.0,-1000.0,2.5,2.5,2.5,RTL
11:23:32,112952.0,0.0009513924596831203,0.007707743206992745,-0.5553915947675705,0.0013750274083577096,0.0007817809528205544,0.0026222813758067787,-35.3626129,149.1647588,123079.5,0.0,1.0,-152.0,0.0,0.0,-1000.0,3.25,2.5,4.0,RTL
11:23:33,112952.0,0.0009662345109973103,0.007845226908102632,-0.5552121102809906,-0.00010078569175675511,-0.00041190022602677345,0.0010203456040471792,-35.3626129,149.1647588,124248.0,0.0,1.0,-152.0,0.0,0.0,-1000.0,2.0,1.5,2.5,RTL
11:23:35,112952.0,0.0005785771063528955,0.007968743797391653,-0.5533531606197357,0.0022085834061726928,-0.000374090566765517,0.0010806231875903904,-35.3626129,149.1647588,127363.0,-1.0,1.0,-152.0,0.0,0.0,-1000.5,4.0,1.5,2.5,RTL
11:23:37,112952.0,0.0006288668373599648,0.007781856693327427,-0.552646279335022,-0.0002839908702298999,0.00018210907001048326,-0.00020135223167017102,-35.3626129,149.1647588,130469.0,0.0,1.0,-152.0,0.0,0.0,-1000.0,2.6666666666666665,2.3333333333333335,2.6666666666666665,RTL
11:23:38,196995.0,0.0002419963687619505,0.00772192111859719,-0.5521424810091654,0.0001518594411512216,0.0003051265763739745,0.0007443194432804982,-35.3626129,149.1647588,132362.66666666666,0.0,1.0,-152.0,0.0,0.0,-1000.3333333333334,2.0,2.0,2.3333333333333335,RTL
11:23:39,196995.0,0.00040709911748611677,0.007233334239572287,-0.5520730415980021,0.0006064872723072767,-0.00046017059745887917,0.0020028805204977593,-35.3626129,149.1647588,133528.0,0.0,1.0,-152.0,0.0,0.0,-999.6666666666666,2.6666666666666665,1.6666666666666667,3.6666666666666665,RTL
11:23:41,196995.0,0.0005762960257319113,0.007566703793903192,-0.551369845867157,-0.000322518249352773,1.248624175786972e-05,0.0010598069832970698,-35.3626129,149.1647588,136642.33333333334,0.0,1.0,-152.0,0.0,0.0,-1000.0,1.6666666666666667,2.0,2.6666666666666665,RTL
11:23:43,196995.0,0.0006540149915963411,0.007580755433688561,-0.5507871905962626,0.00015916547272354364,0.00012744776904582977,0.001852648992401858,-35.3626129,149.1647588,139752.66666666666,0.0,1.0,-152.0,0.0,0.0,-999.6666666666666,1.6666666666666667,1.6666666666666667,3.3333333333333335,RTL
11:23:44,105311.0,0.0006677238270640373,0.0077132550068199635,-0.5504225095113119,0.0009527023260792097,0.0008247347238163153,0.0014637305866926908,-35.3626129,149.1647588,141691.66666666666,0.0,1.0,-152.0,0.0,0.0,-1000.0,2.6666666666666665,3.0,3.0,RTL
11:23:45,105311.0,0.0008557159259604911,0.007904581104715666,-0.5504720012346903,-0.0011348039067039888,9.491263578335444e-06,-0.0008575357884789506,-35.3626129,149.1647588,142859.33333333334,0.0,1.0,-152.0,0.0,0.0,-1000.3333333333334,1.0,1.6666666666666667,1.0,RTL
11:23:47,105311.0,0.0007550861531247696,0.007750857155770063,-0.5499304533004761,0.00024710750828186673,0.0011419620520124834,0.00013963800544540086,-35.3626129,149.1647588,145965.33333333334,0.0,1.0,-152.0,0.0,0.0,-999.3333333333334,2.3333333333333335,3.0,2.0,RTL
11:23:49,105311.0,0.0005107138325305035,0.00808720321704944,-0.5494747757911682,0.0007306719974925121,-5.392753519117832e-05,0.0004929165200640758,-35.3626129,149.1647588,149072.0,0.0,1.0,-152.0,0.0,0.0,-1000.0,3.0,2.3333333333333335,2.0,RTL
11:23:50,189942.0,0.00037410793205102283,0.007868586108088493,-0.5488480726877848,-0.00042793271131813526,-0.0002990060020238161,0.002604917467882236,-35.3626129,149.1647588,151015.33333333334,-0.6666666666666666,1.0,-152.0,0.0,0.0,-999.6666666666666,2.3333333333333335,1.6666666666666667,4.0,RTL
11:23:51,189942.0,0.0003793776947228859,0.0074317130881051225,-0.5485000014305115,-0.00028206431306898594,-0.0010828895028680563,0.0005236799673487743,-35.3626129,149.1647588,152182.66666666666,-0.3333333333333333,1.0,-152.0,0.0,0.0,-999.6666666666666,1.6666666666666667,1.3333333333333333,2.3333333333333335,RTL
11:23:53,189942.0,0.000575618197520574,0.0076311480564375716,-0.5484131574630737,-0.0006623899098485708,0.000699013393993179,-0.0003586110348502795,-35.3626129,149.1647588,155286.33333333334,0.0,1.0,-152.0,0.0,0.0,-1000.0,1.6666666666666667,2.3333333333333335,1.3333333333333333,RTL
11:23:55,189942.0,0.0006198604629995922,0.007540072935322921,-0.5482949415842692,0.00013828215499718985,0.00026616322187085945,0.0009447427000850439,-35.3626129,149.1647588,158403.66666666666,0.0,1.0,-152.0,0.0,0.0,-1000.0,2.0,2.3333333333333335,2.6666666666666665,RTL
11:23:56,34287.0,0.0008040589358036717,0.007599876262247562,-0.5480479598045349,0.0005842150809864203,0.00013261171989142895,0.0007663064170628786,-35.3626129,149.1647588,160338.33333333334,0.0,1.0,-152.0,0.0,0.0,-1000.0,3.0,2.3333333333333335,2.3333333333333335,RTL
11:23:57,34287.0,0.0008422166380720834,0.007947053449849287,-0.548036257425944,0.0011676837069292862,0.0008730288439740738,0.0007532621190572778,-35.3626129,149.1647588,161506.66666666666,0.0,1.0,-152.0,0.0,0.0,-1000.0,3.3333333333333335,3.0,2.3333333333333335,RTL
11:23:59,34287.0,0.0007774020195938647,0.007686921705802281,-0.5480234424273173,0.00013042796247949204,-0.00011407405448456605,0.0005205706305180987,-35.3626129,149.1647588,164609.33333333334,0.0,2.0,-152.0,0.0,0.0,-999.6666666666666,2.3333333333333335,2.3333333333333335,2.0,RTL
11:24:01,47758.5,0.000693288592932125,0.007812800351530313,-0.5479777455329895,-0.00035994274852176506,0.0009407321146378914,3.589647045979897e-05,-35.3626129,149.1647588,167724.0,0.0,1.0,-152.0,0.0,0.0,-999.3333333333334,2.3333333333333335,3.3333333333333335,1.6666666666666667,RTL
11:24:03,61230.0,0.0005413771529371539,0.007706954299161832,-0.5478941400845846,-0.0004648701287806034,0.00020576252912481627,-0.00035371767201771337,-35.3626129,149.1647588,170833.66666666666,0.0,1.0,-152.0,0.0,0.0,-1000.0,2.0,2.6666666666666665,1.3333333333333333,RTL
11:24:05,61230.0,0.0004829413762005667,0.007680131898572047,-0.5478622515996298,0.0015086456357191007,0.0005428344787408909,0.0006591864706327518,-35.3626129,149.1647588,173937.33333333334,0.0,1.0,-152.0,0.0,0.0,-999.6666666666666,4.0,3.0,2.6666666666666665,RTL
11:24:06,93106.0,0.0006781994015909731,0.007800427731126547,-0.5472311576207479,0.0013071448386957247,0.0007802304656555256,0.001976835929478208,-35.3626129,149.1647588,175879.0,0.0,1.0,-152.0,0.0,0.0,-1000.6666666666666,3.6666666666666665,3.0,4.0,RTL
11:24:07,93106.0,0.0007170669074791173,0.0076629652952154475,-0.5467009941736857,-0.0004765791818499565,-0.0009070067511250576,-0.00028557955132176477,-35.3626129,149.1647588,177043.0,0.0,1.0,-152.0,0.0,0.0,-1000.0,1.6666666666666667,1.3333333333333333,1.3333333333333333,RTL
11:24:09,93106.0,0.001052179024554789,0.007857326107720533,-0.5470804770787557,-0.0003351753888030847,-9.689169625441233e-06,-0.0010926003257433574,-35.3626129,149.1647588,180153.33333333334,0.0,1.0,-152.0,0.0,0.0,-1000.0,2.0,2.0,1.0,RTL
11:24:11,93106.0,0.0008232293766923249,0.007681850188722213,-0.546880821386973,-0.0002550845965743065,0.0001323018999149402,0.0009449073113501072,-35.3626129,149.1647588,183261.0,0.0,2.0,-152.0,0.0,0.0,-999.6666666666666,2.0,2.6666666666666665,3.0,RTL
11:24:12,160288.0,0.0007197599237163862,0.007761424407362938,-0.5471530556678772,-0.0004937478806823492,8.788821287453175e-05,-0.0003297574585303664,-35.3626129,149.1647588,185199.0,0.0,2.0,-152.0,0.0,0.0,-1000.0,2.0,2.3333333333333335,1.6666666666666667,RTL
11:24:13,160288.0,0.001038651680573821,0.007320430129766464,-0.547160824139913,0.0003450758910427491,-0.0014867513673380017,-9.779081058998902e-05,-35.3626129,149.1647588,186363.66666666666,0.0,2.0,-152.0,0.0,0.0,-1000.0,2.3333333333333335,0.6666666666666666,2.0,RTL
11:24:15,160288.0,0.0009073136413159469,0.007743834983557463,-0.5468650062878927,-0.000905571000960966,0.00046118554503967363,0.0011726656618217628,-35.362613,149.1647588,189479.66666666666,0.0,1.3333333333333333,-152.0,0.0,0.0,-999.6666666666666,1.3333333333333333,2.6666666666666665,3.3333333333333335,RTL
11:24:17,160288.0,0.0003762900111420701,0.008255100498596827,-0.547175923983256,5.552285195638736e-05,-4.723435267806053e-06,-6.0345977544784546e-05,-35.3626129,149.1647588,192582.0,0.0,1.0,-152.0,0.0,0.0,-1000.3333333333334,2.6666666666666665,2.3333333333333335,1.6666666666666667,RTL
11:24:18,140097.0,0.0004304122073032583,0.0076038882446785765,-0.5471007426579794,-0.0017525088042020798,-0.0007932370062917471,-0.0003700994420796633,-35.3626129,149.1647588,194523.66666666666,-0.3333333333333333,1.6666666666666667,-152.0,0.0,0.0,-1000.0,1.0,1.6666666666666667,1.6666666666666667,RTL
11:24:19,140097.0,0.0002550767045856143,0.007626018021255732,-0.5471811890602112,0.0007572049895922343,0.0015760611277073622,0.0003473383840173483,-35.3626129,149.1647588,195689.33333333334,0.0,1.0,-152.0,0.0,0.0,-999.6666666666666,3.0,4.0,2.3333333333333335,RTL
11:24:21,140097.0,-0.0013235879984373848,0.07147529224554698,-0.547092854976654,-0.0008703768641377488,0.032982620100180306,0.0004585642988483111,-35.36261486666667,149.16476020000002,198777.66666666666,-40.333333333333336,26.333333333333332,-148.66666666666666,6.666666666666667,3.3333333333333335,-997.3333333333334,2.0,35.333333333333336,2.6666666666666665,RTL
11:24:23,140097.0,-0.02590658717478315,0.20543546477953592,-0.27123159170150757,-0.014143152550483743,-0.007256000613172849,0.4446049928665161,-35.36263333333333,149.164773,201515.33333333334,-198.0,95.0,-93.0,42.0,15.0,-937.6666666666666,-11.0,-4.0,447.0,RTL
11:24:24,123027.0,0.08046187212069829,0.09930886328220367,-0.0029486846954872212,0.006525098656614621,-0.009347841143608093,0.063467043141524,-35.362661833333334,149.16478916666668,202193.0,-280.3333333333333,164.0,-15.333333333333334,74.0,4.0,-945.3333333333334,9.666666666666666,-6.0,65.66666666666667,RTL
11:24:25,123027.0,0.05671510969599088,0.11109751959641774,0.019365621109803517,-0.24135404080152512,0.032569381718834244,0.010756869800388813,-35.362681333333335,149.1648043,202174.66666666666,-290.6666666666667,211.0,16.333333333333332,82.33333333333333,-10.0,-963.3333333333334,-237.66666666666666,35.0,13.0,RTL
11:24:27,123027.0,-0.00975469732657075,0.12921951214472452,-0.05149449656407038,-0.08196414510409038,-0.03320753636459509,-0.05863418181737264,-35.36273983333333,149.16485516666668,201806.0,-357.3333333333333,238.33333333333334,2.3333333333333335,101.33333333333333,-6.666666666666667,-1005.3333333333334,-78.66666666666667,-29.666666666666668,-55.666666666666664,RTL
11:24:29,123027.0,-0.019285383944710095,0.11579946428537369,-0.13618711133797964,-0.060410877068837486,-0.012025169096887112,-0.04963638757665952,-35.3628066,149.16490566666667,201782.0,-380.6666666666667,218.0,-2.3333333333333335,98.66666666666667,8.666666666666666,-995.3333333333334,-57.333333333333336,-9.0,-46.666666666666664,RTL
11:24:30,138492.0,-0.01660853686432044,0.10286715626716614,-0.17981721460819244,-0.10797451188166936,-0.019007093583544094,-0.031978560611605644,-35.3628498,149.16493576666667,201782.0,-384.3333333333333,221.66666666666666,-3.0,96.0,18.0,-990.0,-105.0,-16.0,-29.333333333333332,RTL
11:24:31,138492.0,-0.013468057848513126,0.10459154099225998,-0.20141788820425668,-0.02122430255015691,0.014710985744992891,-0.03713716628650824,-35.36287573333333,149.16495393333335,201789.0,-380.6666666666667,223.66666666666666,-2.3333333333333335,105.0,18.333333333333332,-993.0,-18.0,17.333333333333332,-34.0,RTL
11:24:33,138492.0,-0.02351830837627252,0.10749289145072301,-0.2486881216367086,-9.794098635514577e-05,0.007167262025177479,-0.03236942598596215,-35.362944133333336,149.16500340000002,201792.0,-377.0,229.0,-2.3333333333333335,101.66666666666667,19.666666666666668,-995.0,2.6666666666666665,9.666666666666666,-29.666666666666668,RTL
11:24:35,138492.0,-0.027591271946827572,0.10299248496691386,-0.28417620062828064,0.06044992804527283,0.003503080690279603,-0.026618235434095066,-35.3630126,149.16505363333332,201793.66666666666,-375.3333333333333,226.66666666666666,-2.3333333333333335,103.66666666666667,29.0,-993.0,63.666666666666664,6.0,-24.0,RTL
11:24:36,193029.0,-0.030126602699359257,0.10486680269241333,-0.3018100957075755,-0.10508822401364644,-0.007090046691397826,-0.025070479450126488,-35.3630552,149.16508463333332,201788.33333333334,-373.3333333333333,227.0,-2.0,102.33333333333333,26.0,-999.6666666666666,-102.0,-3.6666666666666665,-21.666666666666668,RTL
11:24:37,193029.0,-0.027626887584726017,0.10252593706051509,-0.30890881021817523,0.1787964627146721,-0.00459926916907231,-0.002154372942944368,-35.363080733333334,149.16510333333332,201786.0,-373.6666666666667,227.33333333333334,-2.3333333333333335,102.66666666666667,34.0,-998.0,182.0,-1.3333333333333333,0.0,RTL
11:24:39,193029.0,-0.04254032547275225,0.10467984527349472,-0.3305792311827342,0.12548286964495978,-0.006853927858173847,0.0027495063841342926,-35.363148233333334,149.16515463333334,201790.66666666666,-375.3333333333333,220.66666666666666,-2.0,102.33333333333333,33.0,-994.3333333333334,128.33333333333334,-4.333333333333333,5.333333333333333,RTL
11:24:41,193029.0,-0.0627261536816756,0.005741914423803489,-0.3416973153750102,-0.20998660723368326,-0.05690107742945353,0.013134249796470007,-35.3632121,149.1652019,201841.66666666666,-309.3333333333333,171.0,-1.3333333333333333,79.0,34.666666666666664,-994.3333333333334,-206.0,-53.666666666666664,15.666666666666666,RTL
11:24:42,83301.0,-0.056720140079657234,-0.05432737867037455,-0.34603744745254517,-0.4007740418116252,-0.04622191066543261,-0.028004225343465805,-35.363241699999996,149.1652233,201836.66666666666,-209.33333333333334,108.66666666666667,0.3333333333333333,52.333333333333336,-8.0,-993.6666666666666,-398.3333333333333,-42.666666666666664,-24.666666666666668,RTL
11:24:43,83301.0,-0.052466630935668945,-0.07733238240083058,-0.34882768988609314,0.2947086344162623,0.004816771484911442,0.01599516502271096,-35.3632532,149.16523166666667,201825.66666666666,-135.0,62.333333333333336,2.0,33.0,43.0,-995.6666666666666,298.6666666666667,7.333333333333333,18.333333333333332,RTL
11:24:45,83301.0,-0.0122956158593297,-0.024960046634078026,-0.36324580510457355,0.21419514218966165,0.017215733726819355,-0.008651022178431353,-35.36326483333333,149.1652397,201806.0,-21.0,-4.666666666666667,0.0,3.6666666666666665,3.6666666666666665,-1003.3333333333334,216.0,19.333333333333332,-5.666666666666667,RTL
11:24:47,83301.0,-0.009666962859531244,0.00542863761074841,-0.3749481936295827,-0.13591395815213522,-0.018125775270164013,0.0032353155159701905,-35.3632653,149.1652409666667,201817.66666666666,-3.0,-14.333333333333334,0.0,-0.3333333333333333,-19.333333333333332,-995.6666666666666,-134.66666666666666,-15.333333333333334,5.333333333333333,RTL
11:24:48,110817.0,-0.0004562985268421471,-0.006460120125363271,-0.37951446572939557,0.3114021420478821,0.004841358323271076,0.0038473138120025396,-35.3632652,149.16524063333335,201825.66666666666,2.3333333333333335,-17.0,0.0,-1.6666666666666667,4.0,-995.3333333333334,313.0,6.666666666666667,6.0,RTL
11:24:49,110817.0,-0.004304637278740604,-0.00339158670976758,-0.3815382222334544,-0.4692060053348541,0.0019492501548180978,0.00318077951669693,-35.3632649,149.16523983333335,201827.66666666666,6.333333333333333,-16.0,0.3333333333333333,-3.6666666666666665,-18.0,-992.6666666666666,-466.3333333333333,4.333333333333333,5.666666666666667,RTL
11:24:51,110817.0,0.005190651630982757,0.004350098470846812,-0.38860951860745746,0.38405407468477887,-0.0004036468453705311,0.0004632244041810433,-35.36326373333333,149.16523816666668,201825.33333333334,8.666666666666666,-4.666666666666667,0.0,-0.6666666666666666,19.666666666666668,-998.6666666666666,386.3333333333333,2.0,2.6666666666666665,RTL
11:24:53,110817.0,-0.019430799409747124,0.005627720306317012,-0.3945477406183879,0.0028933783372243247,-0.00412024666244785,-0.00028754957020282745,-35.36326263333333,149.16523843333331,201344.66666666666,3.0,-3.6666666666666665,75.33333333333333,0.0,34.666666666666664,-929.0,6.666666666666667,-1.3333333333333333,2.6666666666666665,RTL
11:24:54,12538.0,-0.013815315129856268,0.0033074188977479935,-0.39881375432014465,0.7301030953725179,-0.00010520654420057933,0.008057924297948679,-35.3632624,149.16523866666668,199897.66666666666,0.6666666666666666,-5.333333333333333,110.66666666666667,-1.0,77.33333333333333,-984.6666666666666,733.6666666666666,2.3333333333333335,10.333333333333334,RTL
11:24:55,12538.0,-0.012580867546300093,0.0020732651076590023,-0.4013538360595703,0.482594758272171,0.0017732343015571435,0.004923018083597223,-35.3632624,149.16523866666668,199074.66666666666,0.0,-6.0,100.33333333333333,-1.6666666666666667,64.33333333333333,-993.6666666666666,486.6666666666667,4.0,7.666666666666667,RTL
11:24:57,12538.0,-0.018170574369529884,0.0024688408399621644,-0.40479626258214313,-0.8189158141613007,0.004159200858945648,-0.011197406565770507,-35.3632626,149.1652376,196999.0,2.6666666666666665,-0.6666666666666666,98.33333333333333,-0.3333333333333333,6.0,-978.6666666666666,-814.6666666666666,6.666666666666667,-8.0,RTL
11:24:59,12538.0,-0.015900106790165108,0.0026026833802461624,-0.40991833806037903,-1.0806688070297241,-0.001683162913347284,0.003719440350929896,-35.3632626,149.16523716666669,194955.66666666666,2.0,0.3333333333333333,95.66666666666667,-0.6666666666666666,-25.333333333333332,-1018.0,-1077.6666666666667,0.6666666666666666,6.333333333333333,RTL
11:25:00,152753.0,-0.013513487142821154,0.00412978899354736,-0.41167669494946796,-0.9154441754023234,0.0006858288931349913,-0.0006802516678969065,-35.3632626,149.16523676666668,193682.33333333334,3.0,3.6666666666666665,97.66666666666667,-0.3333333333333333,-5.0,-985.0,-911.3333333333334,3.0,2.0,RTL
11:25:01,152753.0,-0.014971436622242132,0.004950817674398422,-0.412506898244222,-1.1257599989573162,-0.00032164397028585273,0.0011539929546415806,-35.3632626,149.1652366333333,192906.66666666666,3.3333333333333335,4.666666666666667,97.66666666666667,0.3333333333333333,-16.666666666666668,-1022.3333333333334,-1122.3333333333333,1.3333333333333333,4.0,RTL
11:25:03,152753.0,-0.031127726038297016,0.006643123924732208,-0.41569726665814716,-1.1168107986450195,-0.0021154077257961035,0.001508487155660987,-35.36326209999999,149.1652379,190878.33333333334,1.3333333333333333,1.0,96.66666666666667,2.0,-23.666666666666668,-996.6666666666666,-1113.3333333333333,0.0,4.0,RTL
11:25:05,152753.0,-0.03533731773495674,0.004581802214185397,-0.4190615514914195,-1.4088976780573528,0.0037148180805767574,-0.004568465209255616,-35.3632614,149.16523986666664,188841.66666666666,-7.0,-16.0,96.66666666666667,-1.0,-66.0,-994.6666666666666,-1407.0,5.333333333333333,-1.0,RTL
11:25:06,242236.0,-0.01965898958345254,0.002569652938594421,-0.4196160634358724,-1.1733331282933552,-0.0027489229881515107,0.002252262240896622,-35.363261533333336,149.16523966666668,187578.33333333334,-8.0,-19.0,97.0,-0.6666666666666666,-66.0,-1039.3333333333333,-1173.0,-0.3333333333333333,5.0,RTL
11:25:07,242236.0,-0.013649487557510534,0.003578594420105219,-0.4204586644967397,-1.3022899627685547,0.0020054991667469344,-0.00296243365543584,-35.3632617,149.16523913333333,186816.0,-7.0,-17.0,98.66666666666667,-0.6666666666666666,-73.33333333333333,-979.6666666666666,-1302.3333333333333,4.0,0.3333333333333333,RTL
11:25:09,242236.0,-0.013754901786645254,0.0023344047367572784,-0.42328036824862164,-1.3732311725616455,0.0008676132808128992,-0.000715767266228795,-35.36326210000001,149.16523816666665,184778.66666666666,-3.6666666666666665,-10.666666666666666,98.33333333333333,-1.3333333333333333,-63.333333333333336,-1010.0,-1372.3333333333333,2.6666666666666665,2.3333333333333335,RTL
11:25:11,242236.0,-0.010197902408738932,0.0024367105991890035,-0.4248264729976654,-1.3530650933583577,-0.0032874966661135354,-0.006324759994943936,-35.3632625,149.16523723333333,182749.0,1.0,-1.0,99.33333333333333,-0.3333333333333333,-65.33333333333333,-1001.6666666666666,-1352.0,-1.0,-3.0,RTL
11:25:12,90927.0,0.0030842377648999295,0.0027394927262018123,-0.4253500998020172,-1.1639960606892903,0.003710813820362091,-0.007445952699830134,-35.3632627,149.1652368,181476.66666666666,2.3333333333333335,1.3333333333333333,99.33333333333333,-1.0,-72.0,-982.3333333333334,-1164.3333333333333,5.333333333333333,-4.0,RTL
11:25:13,90927.0,0.0066020785210033255,0.004655053528646628,-0.42589718103408813,-0.9999570846557617,-2.6017427444458008e-05,-0.0033068828051909804,-35.3632627,149.16523656666664,180718.0,3.6666666666666665,4.333333333333333,100.0,0.3333333333333333,-68.0,-1009.3333333333334,-1000.3333333333334,1.6666666666666667,-0.3333333333333333,RTL
11:25:15,90927.0,0.017374951702853043,0.0036090532472978034,-0.42680756251017254,0.004327171171704928,-0.0038282263558357954,0.0023584115163733563,-35.36326256666667,149.16523683333332,178685.33333333334,2.6666666666666665,4.666666666666667,102.66666666666667,-0.6666666666666666,-39.333333333333336,-969.0,3.0,-2.0,5.0,RTL
11:25:17,21470.0,0.030490070581436157,0.005633355933241546,-0.42805926501750946,1.2095894664525986,0.003433031786698848,0.0010654727229848504,-35.3632626,149.165236325,176767.5,3.25,7.25,101.75,0.25,30.75,-1000.5,1210.0,5.25,4.0,RTL
11:25:19,21470.0,0.002542048692703247,0.007428755362828572,-0.4294491112232208,1.4389076232910156,-0.0027840858480582633,0.0052300184809913235,-35.36326193333333,149.1652379,174607.0,0.6666666666666666,3.3333333333333335,101.66666666666667,-1.3333333333333333,70.0,-994.0,1440.6666666666667,-0.3333333333333333,8.0,RTL
11:25:21,21470.0,0.03076814115047455,0.0030093243500838676,-0.43018823862075806,1.4583014647165935,0.003976982474947969,0.0016442595515400171,-35.3632623,149.16523693333332,172563.33333333334,-0.6666666666666666,2.0,101.33333333333333,-1.3333333333333333,68.33333333333333,-995.3333333333334,1460.3333333333333,5.666666666666667,4.333333333333333,RTL
11:25:22,32142.0,0.036149248480796814,0.0029547502441952624,-0.4306411345799764,1.3935231765111287,0.0044473991729319096,0.005305963025117914,-35.36326283333333,149.1652356666667,171302.0,3.0,10.333333333333334,102.0,-2.3333333333333335,70.66666666666667,-1002.0,1395.6666666666667,6.0,8.0,RTL
11:25:23,32142.0,0.042232838769753776,0.0035538546120127044,-0.43180954456329346,1.409048040707906,0.0027864330913871527,0.0038843981456011534,-35.363263133333334,149.1652349,170539.33333333334,6.333333333333333,16.333333333333332,103.0,-1.3333333333333333,58.666666666666664,-1029.6666666666667,1411.3333333333333,4.0,7.0,RTL
11:25:25,32142.0,0.029477669547001522,0.00650006424014767,-0.43165536721547443,1.395497719446818,0.0014277184382081032,0.0004574559473743041,-35.36326313333333,149.16523476666666,168501.66666666666,10.666666666666666,25.0,104.0,1.6666666666666667,58.0,-1009.3333333333334,1398.0,3.3333333333333335,3.0,RTL
11:25:27,32142.0,0.015003095070521036,0.005252691451460123,-0.4329516390959422,1.1499229669570923,-0.0021078039814407625,0.003642759673918287,-35.36326276666667,149.16523576666668,166451.33333333334,6.333333333333333,18.333333333333332,103.0,0.0,75.66666666666667,-1014.3333333333334,1154.3333333333333,0.0,6.666666666666667,RTL
11:25:28,150155.0,0.01617321775605281,0.00306354439817369,-0.4323953191439311,0.6452014247576395,0.003929993836209178,0.003633213695138693,-35.36326303333333,149.1652352,165176.33333333334,7.333333333333333,19.333333333333332,105.66666666666667,-1.0,70.33333333333333,-981.6666666666666,650.3333333333334,6.0,6.666666666666667,RTL
11:25:29,150155.0,0.009724062557021776,0.0018381559445212285,-0.4332559108734131,-0.023621809979279835,-0.0017195668381949265,0.004277350613847375,-35.363263233333335,149.16523476666666,164409.66666666666,9.0,22.333333333333332,101.66666666666667,-2.3333333333333335,47.666666666666664,-984.3333333333334,-17.666666666666668,0.3333333333333333,7.666666666666667,RTL
11:25:31,150155.0,0.035478523621956505,0.001412862096913159,-0.4334494074185689,0.12184638778368632,0.00295096585371842,0.004449992052589853,-35.36326436666666,149.16523203333333,162361.33333333334,18.666666666666668,39.666666666666664,103.0,-2.3333333333333335,44.333333333333336,-999.6666666666666,129.0,4.333333333333333,7.666666666666667,RTL
11:25:33,150155.0,0.025042758633693058,0.0067197053382794065,-0.43257826566696167,-0.02472218374411265,-0.002338605156789223,0.011472360929474235,-35.363264466666664,149.16523143333333,160311.33333333334,25.333333333333332,52.333333333333336,102.33333333333333,1.6666666666666667,34.333333333333336,-997.0,-17.0,0.0,14.666666666666666,RTL
11:25:34,95863.0,0.00792881497181952,0.008898778508106867,-0.4324522217114766,-0.14918051908413568,0.0026774329598993063,0.0069566840926806135,-35.36326386666667,149.16523273333334,159017.33333333334,22.0,47.333333333333336,98.66666666666667,2.6666666666666665,29.666666666666668,-965.6666666666666,-140.66666666666666,4.666666666666667,10.0,RTL
11:25:35,95863.0,-0.009416511452097135,0.00938766666998466,-0.43258363008499146,-0.13307212541500726,0.002761947767188152,-0.00012749309341112772,-35.3632633,149.16523406666667,158237.33333333334,18.333333333333332,40.333333333333336,99.66666666666667,2.0,32.333333333333336,-990.6666666666666,-124.33333333333333,4.666666666666667,3.3333333333333335,RTL
11:25:37,95863.0,-0.026126140728592873,0.009827667536834875,-0.43303756912549335,-0.7918058236440023,-4.803005140274763e-05,-0.0005672552312413851,-35.3632622,149.16523693333332,156168.66666666666,5.333333333333333,15.0,97.66666666666667,2.0,-5.0,-1008.0,-783.3333333333334,2.0,3.0,RTL
11:25:39,95863.0,-0.04073099419474602,0.00833180546760559,-0.43309326966603595,-0.8222721815109253,0.007351722878714402,-0.005618444799135129,-35.36326123333333,149.1652395,154131.0,-5.0,-7.333333333333333,98.0,1.0,-3.0,-1007.6666666666666,-813.6666666666666,9.333333333333334,-1.6666666666666667,RTL
11:25:40,230133.0,-0.033930459370215736,0.007497536639372508,-0.4333604375521342,0.5503742595513662,-0.0018341807493319113,0.005720244410137336,-35.3632608,149.1652408,152867.0,-9.333333333333334,-17.333333333333332,96.66666666666667,1.6666666666666667,63.666666666666664,-974.0,558.0,0.6666666666666666,8.666666666666666,RTL
11:25:41,230133.0,-0.0320756658911705,0.005736933400233586,-0.43429362773895264,0.7115312218666077,-0.0014942309353500605,0.004297798266634345,-35.3632607,149.16524123333332,152096.33333333334,-13.0,-24.0,96.66666666666667,-0.6666666666666666,61.333333333333336,-1019.6666666666666,719.0,1.0,7.333333333333333,RTL
11:25:43,230133.0,-0.002140251046512276,-0.0015851619731013973,-0.43476346135139465,-0.7675332725048065,-0.0018332228064537048,0.007175797907014688,-35.3632619,149.16523853333334,150075.66666666666,-11.333333333333334,-18.666666666666668,98.66666666666667,-6.333333333333333,4.0,-1014.6666666666666,-760.3333333333334,0.3333333333333333,10.333333333333334,RTL
11:25:45,230133.0,0.0266464464366436,-0.00032281065796269104,-0.4344177767634392,-1.211136132478714,0.002778236463200301,0.0031773517839610577,-35.36326390000001,149.16523317500003,148192.0,8.75,19.25,99.5,-4.0,-28.5,-1008.0,-1204.25,4.75,6.5,RTL
11:25:46,105620.0,0.011513162249078354,0.007466645445674658,-0.43288732568422955,-0.8889411290486654,-0.0006394554705669483,0.006194420624524355,-35.363264066666666,149.16523226666666,146803.33333333334,20.0,39.666666666666664,102.0,2.6666666666666665,-10.333333333333334,-1007.0,-880.6666666666666,1.6666666666666667,9.333333333333334,RTL
11:25:47,105620.0,-0.007154458052051875,0.01033938800295194,-0.43266888459523517,-0.43836643298467,0.004666525249679883,0.007813404314219952,-35.363263466666666,149.1652337,146045.0,19.0,38.0,102.33333333333333,4.0,15.333333333333334,-989.6666666666666,-429.6666666666667,6.666666666666667,11.333333333333334,RTL
11:25:50,105620.0,-0.029400737956166267,0.0019327015810025234,-0.4345348874727885,-1.1381985743840535,-0.004685736261308193,0.001186762781192859,-35.363261550000004,149.1652391,142846.0,-5.5,-7.5,99.5,-2.0,-19.0,-1012.0,-1058.5,-2.0,4.0,RTL
11:25:52,105620.0,0.0037396245170384645,0.0016143467122068007,-0.4348415732383728,-1.326276421546936,0.00027408404275774956,0.005030792361746232,-35.3632627,149.1652366,140671.66666666666,0.6666666666666666,1.6666666666666667,100.66666666666667,-1.0,-63.333333333333336,-1022.6666666666666,-1320.3333333333333,2.3333333333333335,8.333333333333334,RTL
11:25:53,84988.0,0.010511612985283136,0.0025168280117213726,-0.433793971935908,-1.2728360096613567,-0.00022019930959989628,-0.003292418240259091,-35.36326293333333,149.16523586666665,139905.33333333334,4.0,7.0,102.0,-1.3333333333333333,-72.0,-988.0,-1267.0,1.6666666666666667,1.0,RTL
11:25:54,84988.0,-0.005671535851433873,0.0037363249575719237,-0.434047594666481,-1.3597264289855957,0.0005973487277515233,0.002963103586807847,-35.3632632,149.16523515,138637.5,8.5,15.0,100.5,1.0,-27.5,-1001.5,-1351.5,2.5,6.0,RTL
11:25:56,84988.0,-0.013836224097758532,0.006411903304979205,-0.4342605918645859,-1.3246231079101562,-0.00301069940906018,-0.006618033163249493,-35.36326245,149.165237,136591.0,4.5,8.0,99.5,2.0,-84.5,-996.5,-1318.5,0.0,-2.0,RTL
11:25:58,84988.0,0.008179870201274753,0.0048631033860147,-0.434222087264061,0.43727490305900574,-0.0027378284139558673,-0.0024949549697339535,-35.3632619,149.16523834999998,134556.0,-1.0,-2.0,98.5,0.0,-17.5,-963.5,441.5,-0.5,1.5,RTL
11:25:59,112405.0,0.017560665146447718,0.0027604741626419127,-0.43440598249435425,0.693643219769001,-0.004251885926350951,0.0020667262142524123,-35.363261975,149.16523825,133798.25,-2.5,-5.5,101.5,0.0,-12.0,-971.0,698.25,-1.75,6.0,RTL
11:26:00,112405.0,0.02819606475532055,0.0014619688736274838,-0.4337509423494339,0.9639341235160828,-0.0031655929633416235,-0.0002819383516907692,-35.36326235,149.16523734999998,132521.0,0.0,-0.5,99.0,-1.5,7.0,-990.5,968.5,-0.5,4.0,RTL
11:26:02,112405.0,0.044161660596728325,0.0011562964646145701,-0.4346630871295929,1.119341492652893,-0.0006828168407082558,0.0013742907904088497,-35.3632632,149.16523515,130481.5,6.0,13.0,97.5,-3.0,28.0,-1014.5,1125.0,1.5,5.0,RTL
11:26:04,72739.5,0.05576865002512932,0.002022039901930839,-0.43345141410827637,1.4361277222633362,0.006886717863380909,-0.0003758184611797333,-35.36326425,149.1652323,128441.0,17.5,35.5,101.5,-0.5,67.5,-1022.5,1444.5,8.5,3.5,RTL
11:26:06,33074.0,0.029275563545525074,0.007712645456194878,-0.4337395876646042,1.3664984107017517,0.0003043438773602247,0.004108116263523698,-35.363263599999996,149.1652338,126407.0,18.5,37.0,98.5,2.5,55.0,-1014.5,1375.0,2.0,7.5,RTL
11:26:08,33074.0,0.017143109813332558,0.00684202485717833,-0.43340182304382324,1.3985586762428284,-0.0016925312811508775,0.002787917386740446,-35.36326255,149.1652368,124371.0,7.5,15.0,101.0,1.5,43.5,-1001.5,1406.5,1.0,7.0,RTL
11:26:09,58279.0,0.003881831158651039,0.00636161956936121,-0.43387217074632645,1.3875820636749268,-0.0010142001556232572,0.005027838284149766,-35.363262125000006,149.165237825,123595.0,4.0,8.0,101.5,1.25,59.75,-1025.5,1396.75,1.75,8.75,RTL
11:26:10,58279.0,-0.003803459636401385,0.003759454586543143,-0.43397076427936554,1.2098509967327118,-0.0020703625632449985,0.00286907353438437,-35.3632619,149.1652387,122317.0,-0.5,-3.0,100.0,0.0,65.5,-1059.0,1220.0,0.5,6.5,RTL
11:26:12,58279.0,0.0025997940683737397,0.0025335224345326424,-0.43375806510448456,0.9660301208496094,0.00444019609130919,0.0054990132339298725,-35.363262,149.1652386,120271.0,-1.5,-7.0,96.0,-0.5,65.5,-1023.0,976.5,6.5,9.0,RTL
11:26:14,58279.0,-0.003300422104075551,0.0025515725137665868,-0.434135302901268,0.831333726644516,0.0065019570756703615,0.006296552484855056,-35.36326215,149.1652383,118232.5,0.0,-5.0,98.5,0.0,72.0,-976.5,842.0,8.5,9.5,RTL
11:26:15,96646.0,-0.002128887688741088,0.0032784833456389606,-0.43392597883939743,1.0077232271432877,0.004759579198434949,0.003022856544703245,-35.3632621,149.1652385,117467.5,0.0,-5.75,99.25,0.0,70.5,-998.5,1018.0,6.75,6.5,RTL
11:26:16,96646.0,-0.008808851474896073,0.0038616658421233296,-0.4350336790084839,0.7465604841709137,0.006214819615706801,-0.0034876096760854125,-35.363262,149.16523890000002,116197.5,0.0,-8.0,99.5,1.0,63.0,-1031.5,756.5,8.0,0.5,RTL
11:26:18,96646.0,-0.010675766970962286,0.000584348730626516,-0.4349810779094696,-0.10199094610288739,-0.0038586672162637115,0.00294766784645617,-35.36326215,149.16523819999998,114157.5,-2.0,-8.0,101.0,-5.0,38.5,-997.5,-91.0,-1.0,6.5,RTL
11:26:20,96646.0,0.008819635258987546,0.0031706427689641714,-0.4341803789138794,-0.6894018948078156,0.013429272454231977,-0.005551671143621206,-35.36326335,149.165235,112117.5,8.5,11.5,105.0,-1.5,-2.0,-996.5,-678.0,15.0,-1.0,RTL
11:26:21,43112.0,-0.014222066209185869,0.00861325766891241,-0.4326726943254471,-0.8789224177598953,0.005690819351002574,0.006647441303357482,-35.363262975,149.16523565,111348.5,11.25,15.75,98.75,6.0,-10.0,-983.25,-867.75,7.75,10.0,RTL
11:26:22,43112.0,-0.06495455093681812,0.013199289795011282,-0.4340192377567291,-0.8450426161289215,-0.002446671947836876,0.0010659422259777784,-35.3632612,149.1652397,110063.0,1.5,-2.0,99.0,4.5,-11.5,-1001.5,-834.5,0.0,4.5,RTL
11:26:24,43112.0,-0.0711902566254139,0.006172326160594821,-0.43300849199295044,-1.2385315299034119,-0.003636672394350171,0.0034115624148398638,-35.36325975,149.1652441,108025.0,-21.5,-45.5,98.0,2.0,-31.5,-1003.0,-1230.0,-1.5,6.5,RTL
11:26:26,56563.5,-0.062270743772387505,0.003143077134154737,-0.43256697058677673,-1.1056068539619446,-0.0026848483830690384,0.0024314250331372023,-35.36325965,149.16524475,106008.5,-27.5,-61.5,98.5,1.0,-25.0,-984.5,-1098.0,-0.5,6.0,RTL
11:26:28,70015.0,-0.057929353788495064,0.0015562710468657315,-0.4334366172552109,-1.466427505016327,-0.004605595953762531,-0.002979882527142763,-35.363259850000006,149.16524425,103960.5,-27.0,-61.5,102.5,-1.5,-62.5,-1015.0,-1461.5,-2.0,1.0,RTL
11:26:30,70015.0,-0.023806149140000343,0.00024410277546849102,-0.4336725026369095,-0.6642636656761169,-0.003397926571778953,-0.003635497414506972,-35.3632606,149.1652426,101906.0,-20.5,-50.0,99.0,-2.5,-59.5,-1007.0,-662.0,-1.0,0.5,RTL
11:26:31,47832.0,-0.008602591638918966,-0.000405113554734271,-0.43412647396326065,-0.3820584826171398,-0.0006222477531991899,-0.005897400202229619,-35.363260975,149.165241575,101137.25,-18.5,-46.0,99.75,-1.5,-49.0,-976.0,-380.75,1.25,-1.5,RTL
11:26:32,47832.0,0.01289577130228281,0.0003290375279902946,-0.43332917988300323,0.16169853508472443,0.0009430197533220053,-0.0028486131923273206,-35.36326165,149.16523975,99868.5,-11.0,-30.5,99.0,-2.5,-29.5,-979.0,162.5,3.0,1.0,RTL
11:26:34,47832.0,0.018727115355432034,0.0013381234020926058,-0.43284304440021515,1.4165798425674438,0.00021066959016025066,0.009940327145159245,-35.3632621,149.165238,97821.5,-3.0,-10.5,99.5,-3.0,60.0,-1016.0,1419.5,2.0,13.5,RTL
11:26:36,47832.0,0.02076504472643137,0.005798603408038616,-0.4332014471292496,0.4481171667575836,0.0030538252904079854,-0.0036865517031401396,-35.3632627,149.1652363,95680.5,4.0,4.5,99.5,0.5,-19.5,-1020.5,449.0,4.5,0.0,RTL
11:26:37,63018.0,0.012556794798001647,0.0039552508387714624,-0.4328475594520569,0.4501286447048187,-0.0038054765318520367,-0.005917131784372032,-35.363262549999995,149.16523677499998,94914.75,3.5,4.5,101.0,0.75,-18.75,-1001.25,451.0,-1.25,-2.0,RTL
11:26:38,63018.0,0.0058127837255597115,0.0042096818797290325,-0.43283499777317047,1.235066294670105,0.004186309641227126,0.003637115703895688,-35.3632624,149.16523725000002,93723.0,2.5,3.0,96.5,0.0,75.0,-990.0,1240.0,5.5,7.0,RTL
11:26:40,63018.0,0.017133008688688278,0.004810939310118556,-0.43308137357234955,1.0014548301696777,-0.0002354298485442996,-0.008008266100659966,-35.3632622,149.1652375,91565.5,0.0,-0.5,96.0,0.5,14.0,-1020.5,1003.0,1.5,-3.5,RTL
11:26:42,63018.0,0.012781756231561303,0.006685335887596011,-0.43270212411880493,0.92060187458992,0.001570719527080655,-0.0016719633713364601,-35.3632619,149.16523834999998,89537.0,0.0,-3.0,95.5,1.0,14.0,-1030.0,922.0,4.0,2.5,RTL
11:26:43,169234.0,0.005181207667192211,0.006165085476823151,-0.43273162841796875,1.3643039464950562,-0.0028351115179248154,-0.001364216732326895,-35.36326165,149.165238925,88776.5,-2.5,-7.0,98.75,0.75,43.75,-989.75,1366.5,-0.75,2.0,RTL
11:26:44,169234.0,0.0063561752904206514,0.003470113151706755,-0.43250569701194763,1.4590917229652405,-0.006776529480703175,-0.009791502496227622,-35.3632615,149.1652394,87502.5,-6.0,-13.0,99.5,1.0,65.0,-999.0,1462.0,-5.0,-6.0,RTL
11:26:46,169234.0,0.025259665213525295,-0.00019294799130875617,-0.4330819994211197,1.4662286639213562,4.809634992852807e-05,-0.0005748871481046081,-35.3632621,149.16523834999998,85466.5,-3.5,-9.0,98.5,-1.0,56.5,-994.5,1468.5,1.5,3.0,RTL
11:26:48,169234.0,0.03532153181731701,0.0020227196509949863,-0.43307162821292877,1.3800766468048096,0.007122128794435412,-0.0008001724490895867,-35.363263149999995,149.1652358,83450.5,7.0,7.5,100.5,-0.5,66.5,-998.0,1384.0,8.5,2.5,RTL
11:26:49,47403.0,0.028553112410008907,0.003301596676465124,-0.43281495571136475,1.439501017332077,-0.00033588949008844793,-0.004953701281920075,-35.363263125,149.1652358,82687.75,9.25,12.75,102.0,0.25,66.75,-997.75,1442.75,1.25,-1.0,RTL
11:26:50,47403.0,0.01484361570328474,0.0031884467462077737,-0.4328044354915619,1.1772424578666687,0.0039893402718007565,0.0034651244059205055,-35.3632629,149.16523615,81418.5,8.0,11.0,100.0,-0.5,74.0,-971.0,1182.0,5.0,7.0,RTL
11:26:52,47403.0,0.02526715863496065,0.0016827554791234434,-0.4334989935159683,0.6324994415044785,0.004623610177077353,-0.0041881914949044585,-35.3632634,149.16523465,79365.5,10.0,19.5,106.0,-3.0,64.0,-1036.5,638.5,6.0,-0.5,RTL
11:26:54,47403.0,-0.004719808232039213,0.005321861011907458,-0.4326315075159073,-1.270017683506012,0.002436194976326078,-0.007054465357214212,-35.36326355,149.16523425,77340.5,14.5,26.5,103.0,1.0,-28.0,-964.5,-1264.0,3.5,-3.0,RTL
11:26:55,57434.0,-0.013064443628536537,0.00787123222835362,-0.43198245763778687,-1.4083592891693115,0.0029931710741948336,-0.005305362865328789,-35.3632631,149.165235325,76574.25,13.25,22.25,102.0,4.0,-61.75,-1032.25,-1403.75,4.5,-1.5,RTL
11:26:56,57434.0,-0.04043064825236797,0.010381285101175308,-0.4330894947052002,-1.3169605731964111,-0.00714275217615068,-0.0073933706153184175,-35.363261800000004,149.16523855,75316.5,4.0,4.0,102.0,4.0,-74.5,-1002.0,-1313.0,-4.5,-3.5,RTL
11:26:58,57434.0,-0.04417568817734718,0.0032462639501318336,-0.43245217204093933,-1.3121687769889832,-0.002990355947986245,-0.00038768514059484005,-35.363261,149.16524105000002,73279.5,-10.5,-23.5,104.5,0.0,-34.5,-995.0,-1307.5,-1.0,3.0,RTL
11:27:00,57434.0,0.0012077954597771168,0.0020297043956816196,-0.432876855134964,0.5272845178842545,-0.00555445026839152,-0.0005354315508157015,-35.363261249999994,149.16524049999998,71230.0,-10.0,-25.0,104.0,-1.5,-23.0,-924.0,527.5,-4.0,3.0,RTL
11:27:01,41283.0,0.016973334597423673,0.00022078802430769429,-0.4330509454011917,1.0307363718748093,-0.005345503595890477,-0.0033174078562296927,-35.363261625,149.16523965,70461.5,-8.5,-21.5,102.25,-3.5,21.5,-996.25,1032.0,-3.5,-0.25,RTL
11:27:02,41283.0,0.04073517769575119,-0.00228850229177624,-0.4332364797592163,1.4540966749191284,-0.00017903780099004507,0.002373051131144166,-35.3632626,149.16523719999998,69197.5,-2.5,-8.5,104.0,-5.0,57.5,-1000.5,1457.0,1.5,5.5,RTL
11:27:04,41283.0,0.04613025486469269,0.0007168375814217143,-0.43226563930511475,1.3547594547271729,0.0035936887143179774,0.0023970556212589145,-35.3632638,149.16523385,67161.0,14.0,22.5,104.0,-1.0,75.0,-1023.5,1359.0,5.0,5.5,RTL
11:27:06,27507.5,0.015393864829093218,0.004838659660890698,-0.43153703212738037,0.9849351644515991,0.0022956461180001497,0.0010043198708444834,-35.36326355,149.16523435,65113.0,17.0,29.5,102.0,1.0,68.0,-1012.0,991.0,4.0,4.5,RTL
11:27:08,13732.0,-0.005660743685439229,0.003996555344201624,-0.4326617419719696,-0.37066487967967987,-0.0037557194591499865,0.011922119650989771,-35.3632631,149.1652357,63058.0,10.0,18.0,102.0,0.0,25.5,-978.0,-363.5,-2.5,15.5,RTL
11:27:10,13732.0,0.01321955444291234,0.0021476064575836062,-0.43256255984306335,-1.4078112840652466,-0.0028038527234457433,-0.004762326716445386,-35.363263450000005,149.1652348,61008.0,10.5,18.0,99.5,-1.0,-67.0,-1022.0,-1404.0,-1.0,-1.0,RTL
11:27:11,7550.0,0.004281388071831316,0.0019280116830486804,-0.4321104735136032,-1.3664797246456146,-0.0013051646965323016,-0.002054828481050208,-35.3632636,149.1652346,60252.25,12.75,22.5,101.5,0.25,-53.75,-1000.25,-1360.5,0.25,1.0,RTL
11:27:12,7550.0,-0.0044553501065820456,0.00327470141928643,-0.4318723827600479,-1.371929109096527,4.708999767899513e-06,-0.004872612655162811,-35.36326355,149.16523485,58966.5,14.0,23.0,102.0,1.0,-47.5,-998.0,-1365.5,1.5,-1.5,RTL
11:27:14,7550.0,-0.00761756650172174,0.003029770217835903,-0.43161194026470184,-1.3882250785827637,-0.003961498965509236,0.0013001789338886738,-35.3632631,149.16523585,56913.5,9.0,14.5,98.5,-0.5,-56.5,-1015.0,-1382.5,-2.5,5.0,RTL
11:27:16,7550.0,0.0007913975277915597,0.0060578708071261644,-0.4307844489812851,-1.3876881003379822,0.009228390641510487,0.00039854180067777634,-35.36326305,149.16523565,54885.0,10.0,15.5,103.5,0.5,-71.5,-981.5,-1382.5,10.0,4.0,RTL
11:27:17,48962.0,0.0028480803011916578,0.005718495813198388,-0.43225328624248505,-0.8061715960502625,-0.0034386479237582535,-0.0033230669796466827,-35.363262775,149.1652363,54109.5,7.5,12.75,100.5,1.5,-68.0,-995.0,-801.5,-2.25,0.25,RTL
11:27:18,48962.0,-0.00864311563782394,0.006325734546408057,-0.4317023605108261,-0.8227496147155762,-0.00026478804647922516,-0.012694588862359524,-35.36326235,149.16523734999998,52842.0,4.0,5.5,100.5,3.0,-70.0,-995.0,-818.5,1.0,-8.5,RTL
11:27:20,48962.0,-0.01775385532528162,0.006560557289049029,-0.4324951767921448,-0.6200321018695831,-0.0025708326138556004,-0.00786555849481374,-35.363261449999996,149.16523975,50808.5,-4.5,-11.5,102.5,1.0,-67.5,-979.0,-616.0,-1.0,-4.5,RTL
11:27:22,48962.0,-0.0010329303331673145,0.0038276066770777106,-0.4319317489862442,0.7901695668697357,-0.0027852945495396852,-0.004862388828769326,-35.363261,149.16524095,48753.5,-10.0,-23.5,98.5,0.5,2.0,-1006.0,793.5,-1.0,-1.5,RTL
11:27:23,60486.0,0.0028570136055350304,0.001938321569468826,-0.4319956675171852,0.8844763785600662,-0.003768659575143829,-0.010070160729810596,-35.36326115,149.165240775,47987.25,-11.25,-25.5,103.25,-0.25,5.75,-966.0,887.5,-2.5,-6.25,RTL
11:27:24,60486.0,0.010579275898635387,5.256722215563059e-05,-0.431742399930954,-0.6967657208442688,-0.0035009582061320543,0.002260004635900259,-35.3632618,149.165239,46722.0,-9.0,-22.0,99.0,-3.0,-64.0,-964.0,-693.0,-2.0,5.0,RTL
11:27:26,60486.0,0.009629458654671907,0.0020979437394998968,-0.4321325421333313,-1.111558437347412,0.0011415357002988458,-0.0028493006248027086,-35.3632626,149.16523675000002,45065.5,0.5,-3.0,100.0,-1.5,-72.0,-995.5,-1107.5,2.0,0.5,RTL
11:27:28,60486.0,0.007714421022683382,0.0058560671750456095,-0.4312312752008438,-0.613168254494667,0.0006976283038966358,-2.2155698388814926e-05,-35.36326255,149.16523655,43028.0,3.5,5.0,99.0,0.5,-60.0,-1029.0,-609.5,1.5,3.0,RTL
11:27:29,3490.0,-0.0012483839127526153,0.006214703433215618,-0.4309625178575516,-0.6247027590870857,-0.003757518366910517,-0.00720521982293576,-35.3632623,149.165237175,42013.5,2.0,3.75,100.75,1.75,-64.5,-978.75,-621.0,-2.5,-3.75,RTL
11:27:30,3490.0,0.0008980794809758663,0.0057272654958069324,-0.4316987842321396,-0.262290358543396,-0.003689112578285858,-0.008254470652900636,-35.36326215,149.1652376,40989.0,0.0,0.0,101.0,0.5,-41.5,-993.5,-259.0,-2.5,-5.0,RTL
