time_stamp,RTL_ALT,roll,pitch,yaw,rollspeed,pitchspeed,yawspeed,lat,lon,relative_alt,vx,vy,vz,xacc,yacc,zacc,xgyro,ygyro,zgyro,MODE
04:11:40,22615.0,-0.00019474643340799958,0.001399619155563414,0.02658274956047535,0.0002768595586530864,0.0003069368831347674,0.0020585041493177414,-35.3632622,149.1652375,0.0,-2.0,1.0,0.0,0.0,1.0,-1000.0,1.0,0.0,1.0,STABILIZE
04:11:50,22615.0,-0.00026496333885006607,0.0009654369787313044,0.022665807977318764,0.00030402548145502806,0.00024186365772038698,0.0016784833278506994,-35.3632622,149.1652375,7.0,-1.0,3.0,1.0,0.0,1.0,-1000.0,1.0,0.0,1.0,STABILIZE
04:11:54,22615.0,-0.0006027632916811854,0.0011091087944805622,0.021483806893229485,0.00022134967730380595,0.0002677706361282617,0.001472875359468162,-35.3632621,149.1652375,0.0,0.0,0.0,4.5,0.0,1.5,-1000.0,0.0,0.5,0.5,AUTO
04:11:55,89602.0,-0.0003692351674544625,0.0014450821036007255,0.021181967575103045,0.0002975792303914204,0.0002678972523426637,0.001452123571652919,-35.3632621,149.1652374,0.0,0.0,-1.0,3.0,0.0,1.5,-1000.0,0.25,0.5,0.75,AUTO
04:11:56,89602.0,-0.00019345934560988098,0.0016638105153106153,0.020970230922102928,0.00037555009475909173,0.0002686688385438174,0.0014409801224246621,-35.3632621,149.1652374,0.0,0.0,-1.0,2.0,0.0,1.0,-1000.0,0.5,0.5,0.5,AUTO
04:11:58,89602.0,0.025052763521671295,-0.001490171649493277,0.020429272204637527,0.046124281361699104,-0.007669701706618071,0.002341826446354389,-35.363262,149.1652376,1518.0,0.5,6.0,-144.5,0.0,-0.5,-1014.0,46.0,-6.5,1.5,AUTO
04:11:59,15347.0,0.022961706039495766,0.010313562117516994,-0.034640571917407215,-0.08506137877702713,0.02338741230778396,-0.06199137889780104,-35.363261325,149.165241525,3437.25,6.75,47.25,-145.5,2.5,-10.25,-998.75,-84.25,24.0,-62.0,AUTO
04:12:00,15347.0,-0.03779744543135166,0.011542208958417177,-0.07540380582213402,-0.025450428016483784,-0.01673842966556549,-0.03899607993662357,-35.3632609,149.16524514999998,4581.5,0.0,31.0,-148.5,4.0,-7.0,-1004.5,-24.0,-15.5,-38.5,AUTO
04:12:02,15347.0,-0.004579007509164512,0.0007193209312390536,-0.09777984768152237,0.06577485054731369,0.0120979193598032,0.0015270894509740174,-35.363261249999994,149.1652402,7668.0,-5.5,-57.5,-150.5,-6.5,11.0,-1002.5,66.0,12.0,1.0,AUTO
04:12:03,200.0,0.055214972235262394,-0.001420053537003696,-0.08405304700136185,-0.013788788579404354,-0.023098491365090013,0.027055676211602986,-35.36326235,149.165234775,9623.25,-9.5,-7.75,-152.0,-0.25,4.0,-997.0,-13.25,-22.25,26.25,AUTO
04:12:04,200.0,0.010778362629935145,-0.012320871464908123,-0.07316792756319046,-0.06410816498100758,0.016666289418935776,-0.017658993136137724,-35.3632627,149.16523510000002,10782.5,1.5,18.0,-149.5,1.5,-2.5,-1001.5,-63.0,16.5,-17.5,AUTO
04:12:06,200.0,0.0015967222570907325,0.006312394747510552,-0.13495057076215744,0.01612658752128482,0.005652825580909848,-0.019577987492084503,-35.36326165,149.165236,13890.0,3.5,-5.5,-153.0,-2.0,0.0,-1000.0,16.0,5.5,-19.0,AUTO
04:12:07,300000.0,0.009766275063157082,0.00657229486387223,-0.1536879502236843,-0.0010373376426286995,-0.0020714903075713664,-0.009803952649235725,-35.363261425,149.165235325,16001.5,-2.25,1.25,-153.0,0.0,0.0,-999.75,0.0,-0.75,-9.5,AUTO
04:12:08,300000.0,0.00698041170835495,0.004678381839767098,-0.1625310257077217,-0.004962872480973601,-0.0018943175091408193,-0.013441607356071472,-35.363261550000004,149.16523535,17170.0,-3.0,5.0,-153.0,0.0,0.0,-999.5,-3.5,-0.5,-13.5,AUTO
04:12:10,300000.0,0.0025990272406488657,0.0029201742727309465,-0.1992310881614685,4.8854679334908724e-05,0.0003679814108181745,-0.019701313227415085,-35.3632618,149.16523604999998,20285.5,-2.5,4.0,-153.0,0.0,0.0,-1000.0,1.0,1.0,-19.5,AUTO
04:12:11,25493.0,0.0029909659060649574,0.0031440196908079088,-0.22518087550997734,0.0015426817699335515,0.0004161060569458641,-0.02016659639775753,-35.3632618,149.16523635000001,22236.25,-2.0,3.0,-153.0,0.0,0.0,-1000.0,2.0,0.5,-20.0,AUTO
04:12:12,25493.0,0.002855689381249249,0.0030094764661043882,-0.24013829976320267,9.569135727360845e-05,-0.0004985362174920738,-0.019455531612038612,-35.3632619,149.16523645,23407.5,-2.0,3.0,-153.0,0.0,0.0,-1000.0,0.5,0.5,-19.5,AUTO
04:12:14,25493.0,0.0066462436225265265,0.004501476418226957,-0.2448262795805931,0.022172843106091022,-0.0048474527429789305,0.026966236531734467,-35.36326215,149.16523654999997,26515.0,-5.0,-0.5,-153.0,0.0,0.5,-1000.5,22.5,-3.0,26.0,AUTO
04:12:15,89797.0,0.0024923878954723477,0.0063846176490187645,-0.20175637677311897,-0.038423780468292534,0.0316210096643772,0.10446804016828537,-35.3632624,149.16523669999998,28454.5,-2.25,6.5,-151.0,0.0,-0.5,-989.25,-37.0,32.0,104.0,AUTO
04:12:16,89797.0,-0.05166979506611824,0.05933966115117073,0.02054082788527012,-0.0755270867375657,7.536262273788452e-05,0.4962933361530304,-35.3632627,149.1652369,29561.5,-19.0,-7.0,-133.5,2.0,2.0,-960.5,-74.5,1.0,495.5,AUTO
04:12:18,89797.0,0.033797115087509155,-0.02743480447679758,0.1320827156305313,-0.023045888170599937,0.04097442142665386,-0.014496313873678446,-35.363265,149.1652337,31360.5,17.5,15.5,-54.5,-2.5,-3.0,-977.5,-22.0,41.0,-13.5,AUTO
04:12:19,26911.0,0.0032425051322206855,0.01044612773694098,0.11802235431969166,-0.12671688571572304,0.01659066553111188,-0.007174676051363349,-35.363262475,149.165236775,31856.75,20.0,24.75,-26.5,-1.75,-11.0,-977.25,-125.75,17.0,-6.75,AUTO
04:12:20,26911.0,-0.0015655868919566274,0.01603555027395487,0.11139333248138428,0.4696788787841797,-0.0006791503401473165,-0.0048340195789933205,-35.36326125,149.1652385,31985.0,10.5,17.0,-6.0,0.0,25.0,-967.0,470.5,0.0,-4.5,AUTO
04:12:22,26911.0,-0.02167351543903351,-0.03936812840402126,0.09527184069156647,-0.16144424676895142,-0.03687598370015621,-0.003505983157083392,-35.3632609,149.16523610000002,31800.5,15.5,-31.0,-0.5,-4.5,-11.0,-1017.5,-161.0,-35.5,-3.0,AUTO
04:12:23,300000.0,-0.015301631763577461,-0.10218368843197823,-0.4182735625654459,-0.05094614811241627,-0.043269609566777945,-0.7201999723911285,-35.363256325,149.16522955,31805.25,76.5,-76.0,-4.25,-22.75,-8.5,-1009.25,-49.75,-41.75,-719.75,AUTO
04:12:24,300000.0,0.02222631499171257,-0.13454005122184753,-0.7272208631038666,0.3158378601074219,-0.03550389222800732,0.04028807953000069,-35.363250050000005,149.1652221,31828.0,124.0,-121.0,-5.5,-32.5,-11.0,-1005.0,316.0,-34.0,40.5,AUTO
04:12:26,300000.0,0.033518111333251,-0.18521644920110703,-0.6844085156917572,-0.04775756597518921,-0.013429163955152035,-0.0008222279138863087,-35.3632142,149.16518085,31963.0,278.5,-270.5,-11.0,-77.0,-52.0,-1003.0,-47.0,-12.5,-1.0,AUTO
04:12:27,300000.0,0.05256734695285559,-0.2120867483317852,-0.6934385895729065,-0.018390812911093235,0.014896068722009659,-0.003264404251240194,-35.3631776,149.165137975,32105.0,375.5,-358.0,-14.25,-114.25,-49.0,-1010.0,-17.75,15.5,-3.0,AUTO
04:12:28,300000.0,0.06272896565496922,-0.19022073596715927,-0.6970326602458954,0.019354200456291437,0.03943993151187897,-0.01356210233643651,-35.3631507,149.1651066,32227.0,427.0,-401.0,-21.5,-124.5,-37.5,-1004.0,19.5,39.5,-12.5,AUTO
04:12:30,300000.0,0.08349300175905228,-0.058122329879552126,-0.7009648680686951,0.017574088647961617,0.36311233043670654,-0.025298903696238995,-35.3630673,149.1650101,32724.0,480.0,-442.0,-41.0,-137.5,-74.0,-1049.5,18.5,363.5,-24.5,AUTO
04:12:31,200.0,0.08515405096113682,0.046995650511235,-0.7006854116916656,0.5224087371025234,-0.06781255826354027,-0.02175492374226451,-35.363021024999995,149.16495785,33126.5,340.75,-306.0,-6.75,-93.0,-39.75,-973.75,523.25,-66.5,-21.5,AUTO
04:12:32,200.0,0.04710585996508598,0.016952269710600376,-0.7048491537570953,-0.6898238062858582,0.012336328043602407,0.009126384276896715,-35.3629998,149.16493465000002,33117.5,281.5,-248.5,1.0,-79.0,-79.0,-1008.0,-688.5,13.0,9.0,AUTO
04:12:34,200.0,0.03686339221894741,-0.25557029992341995,-0.7155027687549591,0.1568777495995164,-0.039477188140153885,-0.025238520465791225,-35.3629572,149.1648867,33087.0,278.5,-258.0,2.0,-74.5,-39.0,-1016.0,157.5,-38.5,-24.0,AUTO
04:12:35,141101.0,0.06326337065547705,-0.10869478061795235,-0.7203170657157898,-0.011259520426392555,-0.29761544801294804,0.01572750834748149,-35.362924125,149.16484724999998,33316.25,301.5,-283.25,-19.75,-75.5,-44.75,-952.75,-10.0,-296.25,15.75,AUTO
04:12:36,141101.0,0.054129837080836296,-0.2731538712978363,-0.7211280465126038,-0.04098446108400822,0.05428736284375191,-0.006722902879118919,-35.36290305,149.1648224,33342.0,365.0,-336.5,4.0,-100.5,-61.5,-1032.0,-39.5,55.0,-6.0,AUTO
04:12:38,141101.0,0.0510993879288435,-0.20097967982292175,-0.7216475605964661,-0.05132410116493702,0.30225779116153717,-0.00010442198254168034,-35.36283005,149.1647375,33602.0,478.0,-443.0,-5.5,-141.0,-61.5,-1088.5,-49.5,302.5,0.5,AUTO
04:12:39,282254.0,0.09992191009223461,-0.03339979035081342,-0.729000449180603,-0.0009966822690330446,0.22118350490927696,0.005341954063624144,-35.36277775,149.1646766,34110.0,459.25,-415.75,-42.5,-119.0,-74.25,-987.75,0.25,221.5,6.0,AUTO
04:12:40,282254.0,0.06281126663088799,0.13290897011756897,-0.7224949598312378,-0.4247947260737419,-0.045075285248458385,-0.03135715005919337,-35.362749,149.16464480000002,34437.5,372.0,-326.0,-27.0,-95.0,-63.5,-924.5,-422.5,-44.5,-30.5,AUTO
04:12:42,282254.0,0.02099509071558714,0.042198993265628815,-0.7305583953857422,0.336256667971611,-0.02453709300607443,-0.02396501088514924,-35.362702,149.1645949,34403.5,175.0,-159.0,1.0,-44.0,-1.0,-1010.0,337.5,-24.0,-22.5,AUTO
04:12:43,161557.0,0.012568469071993604,-0.163179200142622,-0.7324728220701218,-0.024532123235985637,-0.09752970235422254,-0.004804988988325931,-35.36268355,149.16457467499998,34398.5,181.5,-185.5,0.0,-48.25,-34.25,-1008.0,-23.25,-96.75,-4.0,AUTO
04:12:44,161557.0,0.034472948871552944,-0.138034638017416,-0.7358325123786926,0.06650182604789734,0.19356027990579605,-0.011334230657666922,-35.36266965,149.1645578,34424.0,236.0,-247.0,-10.0,-71.5,-35.5,-1031.5,68.5,193.5,-10.0,AUTO
04:12:46,161557.0,0.04935644567012787,0.11168638989329338,-0.7330894768238068,0.5167766064405441,0.06552454084157944,-0.019424994476139545,-35.3626292,149.1645084,34766.5,168.0,-161.5,-9.0,-48.0,2.0,-1001.0,518.0,65.0,-17.5,AUTO
04:12:47,188443.0,0.01333885733038187,0.034898658748716116,-0.7358729690313339,0.03932236414402723,-0.1409284621477127,-0.0010077696351800114,-35.362617099999994,149.164495325,34783.75,62.25,-51.5,2.75,-15.25,-7.75,-1001.0,40.5,-140.0,-0.25,AUTO
04:12:48,188443.0,0.0010885873343795538,-0.04673682153224945,-0.7361963093280792,-0.6069102585315704,-0.04102711100131273,0.0038638883270323277,-35.3626134,149.16449139999997,34764.0,55.5,-49.5,0.0,-15.0,-32.5,-1010.0,-606.0,-40.5,4.0,AUTO
04:12:50,188443.0,0.036010852083563805,0.048266731202602386,-0.7392997443675995,0.5424879044294357,0.023245126008987427,-0.0010709744528867304,-35.362604250000004,149.1644782,34807.5,40.0,-27.0,-1.0,-10.5,13.0,-997.5,543.0,23.0,0.0,AUTO
04:12:51,300000.0,0.011425408767536283,0.019276967301266268,-0.7403842210769653,0.18143301457166672,-0.046663603745400906,9.709055302664638e-05,-35.36260305,149.164476775,34812.75,3.75,15.0,0.0,1.25,5.0,-1003.25,182.5,-45.75,1.0,AUTO
04:12:52,300000.0,-4.91501996293664e-05,-0.013074679300189018,-0.7410975992679596,-0.21759247034788132,-0.03415323980152607,0.0025007054209709167,-35.3626035,149.1644774,34809.5,1.5,16.0,0.0,2.5,3.5,-994.0,-215.0,-33.0,3.0,RTL
04:12:54,300000.0,0.01609336631372571,-0.002202540053986013,-0.7433312833309174,-0.09161834418773651,0.00010337645653635263,0.002774389460682869,-35.362604250000004,149.1644772,34990.5,10.0,9.5,-38.5,-1.0,-10.5,-1052.0,-90.5,0.5,3.5,RTL
04:12:55,187112.0,0.016595633700489998,-0.0006974981079110876,-0.7443167269229889,0.010189090855419636,0.00038640211278107017,0.0023795012675691396,-35.362604475000005,149.16447702500002,35850.0,12.0,13.5,-87.0,-0.25,-0.75,-1021.25,12.0,0.5,3.25,RTL
04:12:56,187112.0,0.01151325786486268,0.000163934106240049,-0.7446030378341675,-0.014060672372579575,0.0039496239041909575,0.003000283148139715,-35.36260435,149.16447714999998,36554.5,12.0,14.0,-95.0,0.0,-1.0,-1001.0,-12.0,4.0,4.0,RTL
04:12:58,187112.0,0.006565510295331478,0.004021215718239546,-0.7453692555427551,-0.03401302266865969,0.0027559392619878054,0.0010275101521983743,-35.36260365,149.1644775,38273.5,6.5,12.0,-60.0,0.0,-2.5,-968.0,-31.5,3.0,2.0,RTL
04:12:59,300000.0,0.0025903580826707184,0.004520673071965575,-0.7456366419792175,-0.10324858222156763,0.0038601026171818376,-0.00027287707780487835,-35.362603225,149.1644778,38777.75,2.25,10.0,-17.25,0.0,-7.25,-965.25,-100.5,3.75,1.25,RTL
04:13:00,300000.0,-0.00018214085139334202,0.0059599787928164005,-0.7459321022033691,0.2296813577413559,0.0033926881151273847,0.0003645314136520028,-35.362603,149.164478,38840.5,0.0,9.0,2.0,0.5,20.0,-991.0,233.0,3.0,1.5,RTL
04:13:02,300000.0,-0.010318238520994782,0.0028375836554914713,-0.7468242347240448,-0.27526818588376045,0.0004004957154393196,-0.0018649953417479992,-35.3626022,149.16447935,38836.5,-8.5,0.5,-20.0,2.5,-23.0,-1038.0,-273.0,1.0,0.0,RTL
04:13:03,83035.0,-0.012865948723629117,0.00025881265162297495,-0.7475561797618866,-0.0027581872418522835,-0.002944565669167787,-0.000835868704598397,-35.362601925,149.16448015,39367.75,-11.75,-4.75,-53.5,0.25,-2.75,-1002.5,-0.5,-2.0,0.5,RTL
04:13:04,83035.0,-0.01565464586019516,-0.0014439611113630235,-0.7479898035526276,-0.14131593704223633,0.002709436521399766,0.0016121024382300675,-35.362602,149.16448035000002,39764.0,-13.0,-8.0,-42.5,0.0,0.0,-966.0,-139.0,3.0,3.0,RTL
04:13:06,83035.0,-0.009434864856302738,-0.002196742221713066,-0.7485997974872589,-0.6022555232048035,-0.0002949019835796207,0.00018180685583502054,-35.3626025,149.16448005,39993.0,-10.5,-9.0,4.5,0.0,-23.5,-999.5,-600.0,0.0,2.0,RTL
04:13:07,174116.0,-0.00024293072056025267,-0.0020087948068976402,-0.7490853369235992,0.025106258690357208,-0.0003853611269732937,-0.000964352599112317,-35.362602775,149.16447965,40066.5,-7.25,-6.25,-23.75,-0.25,-1.0,-1037.0,27.0,0.25,0.25,RTL
04:13:08,174116.0,0.0031948276446200907,-0.0024147110525518656,-0.7497327625751495,-0.08523692190647125,0.0007814478012733161,-0.0013051822897978127,-35.362602949999996,149.1644794,40339.5,-5.5,-5.0,-49.5,-1.0,-6.0,-1024.0,-84.0,1.0,0.5,RTL
04:13:10,174116.0,-0.0012874040112365037,-0.0014961509150452912,-0.7499929666519165,-0.37512143701314926,-0.0016470752889290452,0.0012835448142141104,-35.3626035,149.1644788,41173.5,0.0,0.0,-8.5,0.0,-5.5,-966.5,-372.5,-0.5,2.5,RTL
04:13:11,300000.0,0.0011488194286357611,-0.0006997863529250026,-0.7501929402351379,-0.05170774087309837,-0.00010010128607973456,-4.164897836744785e-05,-35.36260355,149.164478625,41168.25,0.75,1.25,2.25,0.0,-0.75,-1005.75,-49.5,0.25,1.25,RTL
04:13:12,300000.0,0.002926507091615349,-0.0004211229825159535,-0.7507946789264679,-0.19012392312288284,0.003612485248595476,-0.0023036831407807767,-35.362603449999995,149.16447875,41178.0,1.0,1.0,-11.0,0.5,-16.5,-1035.0,-189.0,4.0,-1.0,RTL
04:13:14,300000.0,-0.005109099438413978,-0.0014315357548184693,-0.7510278224945068,-0.10033561848104,-0.0035262767923995852,0.0003115945728495717,-35.3626031,149.16447925,42030.0,-2.0,-1.0,-51.0,0.0,-4.0,-977.0,-98.5,-2.5,1.5,RTL
04:13:15,300000.0,0.002369476656895131,-0.002039249666268006,-0.7513496577739716,0.057500505819916725,0.002210347098298371,-0.0006603588408324867,-35.36260315,149.16447925,42400.25,-2.25,-1.75,-6.75,-0.5,5.25,-970.75,59.25,2.25,0.75,RTL
04:13:16,300000.0,-0.0049938897136598825,-0.0010847438243217766,-0.7512411177158356,-0.6349682211875916,0.0039390278107021,-0.0018618599860928953,-35.3626032,149.1644791,42406.0,-1.5,-1.0,4.5,-0.5,-25.5,-998.5,-632.5,4.0,-0.5,RTL
04:13:18,300000.0,0.00889092218130827,-0.001803438935894519,-0.7517679929733276,-0.1706871436908841,0.002857741026673466,-0.0007761167362332344,-35.3626036,149.1644785,42628.0,0.5,1.5,-42.5,-0.5,-10.5,-1034.0,-169.0,3.0,1.0,RTL
04:13:19,102844.0,0.007513618562370539,-0.0012914590042782947,-0.7517187595367432,-0.028419388458132744,0.0016117488194140606,0.00021255359752103686,-35.3626038,149.16447825,43278.5,3.75,4.75,-45.25,0.0,-1.25,-972.75,-26.25,2.0,1.75,RTL
04:13:20,102844.0,-0.0017494455678388476,-0.0005631678213831037,-0.7521347403526306,-0.3079257868230343,0.0032266053021885455,0.0017444812692701817,-35.3626038,149.16447825,43550.0,4.0,5.0,-17.5,0.0,-5.0,-960.0,-305.0,3.5,3.5,RTL
04:13:22,102844.0,0.008525519398972392,0.0008460940152872354,-0.7518958151340485,0.2593378648161888,0.0025559442583471537,0.0010399518068879843,-35.3626034,149.16447855,43573.5,1.5,3.5,-1.0,0.0,-3.5,-1018.0,261.0,3.0,2.5,RTL
04:13:23,29149.0,-0.006698279234115034,0.0012737525103148073,-0.7525006383657455,0.08562902361154556,0.0007713486556895077,-0.0006897679122630507,-35.3626029,149.164479175,43880.0,-0.75,0.75,-44.5,1.0,1.5,-1028.25,87.75,1.0,0.75,RTL
04:13:24,29149.0,-0.01171885896474123,0.0007080285722622648,-0.7523320615291595,-0.1740844063460827,-0.002628801972605288,-2.9346643714234233e-05,-35.36260265,149.16447955,44275.5,-4.5,-2.0,-53.5,0.0,-9.5,-990.0,-172.0,-1.5,1.5,RTL
04:13:26,29149.0,-0.013786510564386845,-0.00032334468778572045,-0.7525609731674194,-0.5429989844560623,-0.0028757735854014754,0.002133813453838229,-35.3626023,149.1644801,44781.0,-10.0,-8.0,2.5,0.5,-24.0,-990.5,-541.0,-1.0,3.0,RTL
04:13:27,102165.0,-0.006546771037392318,-0.0005111354912514798,-0.7528816163539886,-0.07043728977441788,0.0010331884550396353,-0.000701216165907681,-35.3626024,149.16448,44760.5,-9.5,-7.5,-6.5,-0.25,-3.25,-1029.5,-69.0,2.0,0.75,RTL
04:13:28,102165.0,-0.0008299578330479562,-0.0013466918608173728,-0.7534642219543457,0.11780067533254623,-0.0029423664091154933,-0.001200694649014622,-35.36260245,149.1644799,44895.0,-9.0,-8.0,-32.5,-1.0,-0.5,-1036.0,119.0,-1.5,0.5,RTL
04:13:30,102165.0,-0.00172532579745166,-0.0022219318198040128,-0.7532656788825989,-0.3821437954902649,0.0013395531568676233,0.0010567035060375929,-35.362603050000004,149.16447935000002,45841.0,-5.5,-4.5,-27.5,-1.0,-14.5,-956.0,-380.5,2.0,2.5,RTL
04:13:31,183459.0,0.0021949699403194245,-6.379195838235319e-05,-0.7530742734670639,-0.12246592342853546,0.0009957606089301407,0.0012437744881026447,-35.36260325000001,149.164478875,45949.5,-2.25,-0.75,3.0,-0.25,-2.75,-990.5,-120.75,2.0,3.0,RTL
04:13:32,183459.0,0.010850482620298862,0.00038710900116711855,-0.7531000077724457,0.21607449650764465,-0.0006453779060393572,-0.003157575847581029,-35.3626033,149.1644788,45922.0,-1.0,0.5,3.0,-0.5,-4.5,-1007.0,216.5,0.0,-1.0,RTL
04:13:34,183459.0,0.01473540673032403,-0.0019121782970614731,-0.7532618641853333,0.11743635311722755,0.0010230448096990585,0.00030402542324736714,-35.362603750000005,149.16447825,46482.5,1.5,3.5,-53.0,-1.0,3.5,-1004.0,118.5,2.0,2.0,RTL
04:13:35,52230.0,0.013072356465272605,-0.000988894171314314,-0.7534250169992447,0.0587368942797184,0.0013705614546779543,0.00018667781841941178,-35.3626041,149.16447780000001,47006.25,5.5,7.5,-20.0,-0.25,5.0,-960.5,60.5,2.5,1.75,RTL
04:13:36,52230.0,0.01475102687254548,-0.0004644083892344497,-0.7532009482383728,-0.1621449887752533,0.0018073864630423486,0.0030643343343399465,-35.3626042,149.1644777,47083.0,6.5,8.5,1.0,0.0,-22.0,-976.5,-161.0,2.5,4.5,RTL
04:13:38,52230.0,0.012217879295349121,0.0009703048272058368,-0.7533509433269501,0.36696362495422363,0.001515096751973033,-0.000906889617908746,-35.3626039,149.1644778,47160.5,6.5,10.0,-28.5,0.0,18.5,-1035.0,368.5,2.0,1.0,RTL
04:13:39,243464.0,0.008327998802997172,-0.0005313185902195983,-0.7536134421825409,0.0034636296331882477,-0.00032341711630579084,0.0012922590540256351,-35.362603925,149.1644779,47757.25,5.5,9.25,-54.75,-0.25,0.75,-994.75,5.5,0.5,3.0,RTL
04:13:40,243464.0,0.011735531967133284,-0.0007423311471939087,-0.7534340918064117,0.11740145087242126,0.0018601079937070608,-0.0008203460020013154,-35.362604,149.1644779,48138.0,5.5,8.5,-37.5,0.0,0.0,-960.0,119.0,3.0,1.0,RTL
04:13:42,243464.0,0.0042055957310367376,0.0011850318987853825,-0.7535769939422607,0.4209337905049324,-0.0010325801849830896,0.0014586519682779908,-35.36260365,149.16447825,48293.0,5.5,8.0,2.5,1.5,27.5,-1005.5,423.5,0.0,3.0,RTL
04:13:43,300000.0,-0.0036170142266200855,0.000607082198257558,-0.7532405108213425,-0.012189764529466629,-0.0010301998117938638,-5.963581497780979e-05,-35.362603225,149.16447887500001,48436.75,1.5,3.75,-32.75,0.5,-1.5,-1038.5,-9.75,0.25,1.75,RTL
04:13:44,300000.0,-0.002478573616826907,-0.0002887445662054233,-0.7536353170871735,0.10974237695336342,-0.00017562200082466006,0.0011269233073107898,-35.3626031,149.16447914999998,48769.5,-0.5,0.5,-56.0,0.0,7.5,-1019.5,112.5,1.0,3.0,RTL
04:13:46,300000.0,0.011129050515592098,-0.0004475333116715774,-0.7541476190090179,0.49042943120002747,-0.0009522585896775126,0.0014440116356126964,-35.36260325000001,149.164479,49603.5,-1.0,0.0,-7.0,0.0,16.5,-971.0,492.0,0.5,3.0,RTL
04:13:47,47625.0,0.010640633176080883,-0.0016132794844452292,-0.7536440491676331,0.13274436444044113,0.0005606419290415943,0.0015503334725508466,-35.36260355,149.16447857499998,49592.0,0.25,2.0,1.5,-0.25,5.5,-1009.5,135.0,1.75,3.0,RTL
04:13:48,47625.0,0.004840989655349404,-0.00098588498076424,-0.7532815933227539,-0.033807069063186646,0.0002946283493656665,0.0034875477431342006,-35.3626037,149.1644784,49612.0,2.5,4.5,-14.5,0.0,12.0,-1038.5,-30.5,1.5,5.0,RTL
04:13:50,47625.0,0.002888099057599902,-0.00014811058736086125,-0.7537007331848145,0.13483602181077003,-0.0042871005134657025,-7.395399734377861e-06,-35.3626035,149.16447864999998,50528.5,1.5,3.5,-54.5,0.0,2.0,-979.5,137.0,-2.5,1.5,RTL
04:13:51,122395.0,0.002323294902453199,-0.0003545320469129365,-0.7540619522333145,-0.09596342593431473,0.0005395137850428,0.00143312884029001,-35.3626034,149.1644787,50924.25,0.0,1.5,-8.5,-0.75,-4.0,-971.25,-93.5,1.25,2.75,RTL
04:13:52,122395.0,0.012841521762311459,-0.00029230184736661613,-0.7540109753608704,0.5321806073188782,-0.00033722116495482624,0.0012894347310066223,-35.3626034,149.1644787,50938.0,0.0,1.5,3.5,0.0,14.0,-999.5,534.0,0.5,3.0,RTL
04:13:54,122395.0,0.00263932382222265,0.0007386661309283227,-0.7537018060684204,0.19790737889707088,0.0032129944302141666,0.0012703973334282637,-35.3626033,149.1644787,51146.5,0.0,2.5,-42.0,1.0,13.5,-1036.5,200.5,4.5,3.0,RTL
04:13:55,300000.0,-0.0014211147026799154,0.000677620446367655,-0.7539275586605072,0.10954503389075398,-0.002339666447369382,-0.0009110826649703085,-35.362603075,149.164478975,51818.0,-1.0,1.25,-51.0,0.0,5.75,-977.25,112.25,-1.0,1.0,RTL
04:13:56,300000.0,-0.0022559661883860826,-0.0003790047085203696,-0.7534823417663574,-0.20472809672355652,0.0028758246917277575,0.0025844648480415344,-35.362603,149.1644791,52130.5,-3.0,0.0,-23.5,0.0,-20.5,-949.5,-203.0,3.5,4.5,RTL
04:13:58,300000.0,0.011156423948705196,-0.0010181306861341,-0.7537614405155182,0.5491353869438171,-0.00024052796652540565,0.00026375195011496544,-35.36260335,149.16447875,52183.5,-0.5,1.0,-0.5,0.0,26.0,-1023.5,551.5,1.0,2.0,RTL
04:13:59,246793.0,0.0005515527736861259,-0.00022233649701774993,-0.7537617683410645,-0.030642652418464422,0.00037627332494594157,0.00020820752251893282,-35.362603375,149.16447875,52446.5,0.25,1.5,-43.0,0.5,-3.25,-1035.25,-27.75,1.25,2.25,RTL
04:14:00,246793.0,-0.0016370629891753197,0.0005075472581665963,-0.7537184059619904,0.16889970004558563,0.0005109311605338007,0.0007637788075953722,-35.3626032,149.16447895,52841.0,0.0,0.5,-59.0,0.5,7.0,-1005.5,171.0,1.5,2.5,RTL
04:14:02,246793.0,0.003156771883368492,-0.0006511968094855547,-0.7538845241069794,0.5074633210897446,-0.003000168246217072,-0.0012954897247254848,-35.3626027,149.1644796,53551.5,-4.5,-3.5,-1.0,0.0,12.5,-988.5,509.0,-1.5,0.5,RTL
04:14:03,221446.0,0.00013379118172451854,-0.0013069184788037091,-0.7536831498146057,0.12803504057228565,0.0012399016413837671,0.0007303909223992378,-35.3626028,149.1644796,53522.0,-5.0,-4.25,0.25,0.0,0.75,-1011.25,130.0,2.0,2.25,RTL
04:14:04,221446.0,-0.005373706866521388,-0.0008443875412922353,-0.7531788349151611,0.11221377551555634,0.0008694464340806007,-0.00021181843476369977,-35.36260274999999,149.1644796,53579.5,-4.0,-4.0,-21.0,0.0,10.0,-1042.0,114.5,1.5,1.5,RTL
04:14:06,221446.0,-0.007817299338057637,-0.0009859645506367087,-0.7539852559566498,0.10731945931911469,-0.0026460849039722234,-0.00038764195051044226,-35.3626023,149.16448015,54521.0,-8.5,-7.5,-42.5,0.0,-4.5,-962.5,109.0,-1.5,1.5,RTL
04:14:07,67461.0,-0.004447970197361428,-0.0009661479271017015,-0.75416199862957,-0.08965687081217766,-0.0002642651670612395,-0.000207282486371696,-35.362602475,149.16447995000001,54766.5,-9.5,-8.5,-1.0,-0.25,-5.75,-983.75,-87.75,1.25,1.75,RTL
04:14:08,67461.0,0.0034825408220058307,-0.0010011915874201804,-0.7534914016723633,0.5312428921461105,0.0022699956316500902,0.002218443085439503,-35.36260265,149.16447964999998,54753.0,-7.5,-6.0,4.0,-0.5,29.0,-1002.0,533.5,3.0,4.0,RTL
04:14:10,67461.0,0.0044082131498726085,-0.002134505193680525,-0.754199743270874,0.08240683376789093,0.0021427798201330006,0.002657705219462514,-35.36260325000001,149.16447895,55086.0,-2.5,-1.0,-48.0,-1.5,9.5,-1026.5,84.5,3.0,4.5,RTL
04:14:11,200.0,0.0065164248226210475,-0.0017352221766486764,-0.754038080573082,-0.10898763407021761,0.001648715406190604,0.00046875589760020375,-35.362603625,149.164478525,55730.0,0.25,1.75,-38.0,-0.75,-2.75,-964.25,-107.0,3.0,2.5,RTL
04:14:12,200.0,0.01509656896814704,-0.0007564016996184364,-0.754273384809494,0.5261046290397644,0.001506882137618959,0.0007645860314369202,-35.3626037,149.1644783,55932.5,2.0,3.0,-9.5,0.0,23.0,-970.0,528.0,2.5,2.5,RTL
04:14:14,200.0,0.0031190075678750873,-0.0005073385109426454,-0.7537257075309753,-0.46150507032871246,-0.0007837277662474662,0.0018638521432876587,-35.3626038,149.1644781,55936.5,3.5,6.0,-8.0,0.0,-17.0,-1029.0,-458.5,0.0,4.0,RTL
04:14:15,73227.0,0.010382330743595958,-0.0014803440135437995,-0.7538477331399918,0.0035726502537727356,5.344246164895594e-05,0.0005793427117168903,-35.36260395,149.164477975,56340.25,5.0,7.25,-49.25,0.0,-1.0,-1019.25,5.75,1.25,2.5,RTL
04:14:16,73227.0,0.009426562581211329,-0.0015059205470606685,-0.7539499402046204,-0.20048433914780617,-0.0020169500494375825,0.0014378363266587257,-35.3626041,149.1644778,56743.5,6.0,8.5,-50.5,-0.5,-5.0,-980.0,-197.5,-0.5,3.5,RTL
04:14:18,73227.0,0.0031246449798345566,3.913361706509022e-05,-0.7540952265262604,-0.5760267376899719,-0.00014802534133195877,-0.0020543643040582538,-35.3626042,149.16447775,57123.0,7.0,9.0,3.5,0.0,-28.0,-992.0,-572.5,1.5,0.5,RTL
04:14:19,300000.0,0.006027237919624895,0.001267742132768035,-0.7538565993309021,-0.018306915648281574,0.0016922168724704534,-0.0010765795304905623,-35.36260385,149.164477975,57144.75,7.0,9.0,-16.0,0.25,-3.25,-1033.0,-16.0,3.0,1.25,RTL
04:14:20,300000.0,-0.00037062319461256266,0.001026017009280622,-0.75385782122612,-0.20215693302452564,-0.0014398290077224374,-0.001722953631542623,-35.36260365,149.16447825,57360.0,5.0,7.5,-43.5,0.5,-13.5,-1033.0,-199.5,0.0,0.5,RTL
04:14:22,300000.0,-0.004306881077354774,-0.00022087461547926068,-0.7535727620124817,-0.05265943706035614,0.00114555680193007,0.0025652096373960376,-35.3626032,149.16447905,58304.5,0.0,1.0,-19.5,0.0,5.5,-963.5,-49.5,2.5,4.5,RTL
04:14:23,63208.0,-0.007783235429087654,0.0008192363893613219,-0.7540733814239502,-0.2890774756669998,-0.0010917996114585549,0.0007323153549805284,-35.362602925,149.164479325,58348.25,-2.25,-0.25,3.5,0.25,-8.5,-995.5,-286.25,1.0,2.75,RTL
04:14:24,63208.0,0.0005833151517435908,0.0007206260634120554,-0.7539985775947571,0.34761790558695793,-0.0036913484800606966,0.001516631687991321,-35.3626028,149.1644795,58330.5,-4.0,-2.0,-3.0,0.5,5.0,-1026.0,349.5,-1.5,4.0,RTL
04:14:26,63208.0,-0.007925480138510466,9.70162873272784e-05,-0.7541095614433289,0.08988115191459656,0.000850064039696008,0.0012438335688784719,-35.3626023,149.1644801,59064.0,-8.5,-6.5,-57.0,0.0,-2.0,-993.0,92.5,2.0,3.0,RTL
04:14:27,190963.0,-0.004776312154717743,-0.0012864024756709114,-0.754015639424324,0.08499100990593433,0.0022062264033593237,0.0017691836110316217,-35.362602425,149.164480075,59571.25,-9.5,-8.0,-16.75,-0.5,7.75,-961.0,87.25,3.5,4.0,RTL
04:14:28,190963.0,0.003040346025954932,-0.0009160850313492119,-0.7538987994194031,0.15868067741394043,-0.001100064255297184,0.003304673940874636,-35.3626026,149.16447985000002,59626.0,-9.0,-7.0,1.5,-1.0,-1.5,-986.0,160.0,0.5,5.5,RTL
04:14:30,190963.0,0.003720222539413953,-0.0011557044927030802,-0.7538169920444489,0.10953531414270401,-0.00013323553139343858,0.0008011750178411603,-35.3626032,149.1644789,59728.0,-2.5,-0.5,-32.5,-1.0,8.5,-1039.0,112.5,1.5,3.0,RTL
04:14:31,285160.0,-8.16520769149065e-05,-0.0004133228649152443,-0.7539324462413788,0.027198669034987688,0.0007120154914446175,0.00042258837493136525,-35.3626032,149.1644789,60342.75,-1.0,0.0,-53.0,0.0,3.5,-991.0,29.25,2.0,2.5,RTL
04:14:32,285160.0,0.003769942035432905,-0.0002820137597154826,-0.7541343569755554,0.152985081076622,-0.00045567017514258623,-0.0015648597036488354,-35.3626032,149.164479,60699.5,-1.5,0.0,-31.5,0.0,-3.0,-954.5,154.5,1.0,0.5,RTL
04:14:34,285160.0,0.002036907011643052,-0.0002990950906678336,-0.7539661526679993,0.36301029473543167,-0.0006885449984110892,-0.00035226671025156975,-35.3626031,149.164479,60813.0,-2.0,0.0,2.5,-1.5,29.5,-1008.5,365.5,1.0,1.0,RTL
04:14:35,7125.0,0.006790958112105727,-0.0015577972517348826,-0.7542712837457657,-0.04947672039270401,-0.00040343511500395834,0.0012305548298172653,-35.362603375000006,149.164478675,60990.5,-1.0,1.0,-35.75,-1.0,2.25,-1040.25,-47.5,1.25,3.5,RTL
04:14:36,7125.0,0.014532433822751045,-0.0026796149322763085,-0.753898948431015,0.11495207622647285,-0.001129918615333736,0.0007365521742030978,-35.36260385,149.16447814999998,61341.0,0.5,3.5,-56.5,-1.5,9.0,-1013.0,117.5,0.5,3.0,RTL
04:14:38,7125.0,0.02394128404557705,-0.0001120200176956132,-0.7535658776760101,0.1449306756258011,0.0023869554279372096,-0.00016272289212793112,-35.3626047,149.164477,62110.0,11.0,13.0,-2.5,0.0,-11.5,-978.5,146.5,4.0,2.0,RTL
04:14:39,300000.0,0.013048633671132848,0.001961790898349136,-0.7534318566322327,0.0576932467520237,0.0003383459406904876,0.0017447116551920772,-35.362604450000006,149.16447714999998,62081.5,12.0,14.5,1.25,0.5,-4.25,-1005.25,60.25,2.0,4.5,RTL
04:14:40,300000.0,0.00450984321651049,0.001438321778550744,-0.7533018887042999,0.09019004553556442,-0.00025736959651112556,0.0025998440105468035,-35.362604149999996,149.16447755000002,62117.0,10.5,13.5,-17.5,1.5,9.0,-1043.0,93.5,1.5,5.0,RTL
04:14:42,300000.0,-0.010513261426240206,0.0021139599848538637,-0.7537819445133209,0.17472957074642181,0.0004502660594880581,0.0007345902267843485,-35.36260265,149.16447945,63032.0,-0.5,2.0,-47.0,1.0,10.0,-970.5,178.0,1.5,3.0,RTL
04:14:43,198869.0,-0.009476035949774086,0.00031430056696990505,-0.7536688894033432,0.15767350792884827,-0.0020341960480436683,-0.0007814313285052776,-35.3626022,149.164480225,63334.0,-8.0,-5.75,-3.25,0.75,3.5,-976.0,159.75,-0.5,1.75,RTL
04:14:44,198869.0,-0.016201649326831102,-0.00047829972754698247,-0.7535924315452576,-0.4883352518081665,-0.0005396028282120824,0.003296322072856128,-35.3626022,149.1644803,63326.0,-10.0,-8.0,4.5,0.5,-10.5,-996.5,-485.0,1.5,5.5,RTL
04:14:46,198869.0,-0.009624684927985072,-0.0013394478592090309,-0.753870964050293,-0.17806540243327618,-0.0005292938440106809,0.00039819604717195034,-35.36260215,149.1644804,63633.0,-12.0,-11.0,-46.5,-0.5,-8.5,-1027.0,-175.5,1.0,2.5,RTL
04:14:47,145117.0,0.000457864924101159,-0.002573917037807405,-0.7539037615060806,-0.0019431337714195251,-0.00040100555634126067,0.00021335930796340108,-35.362602575,149.164479925,64266.75,-9.75,-8.75,-39.0,-0.75,-3.0,-964.5,0.0,1.5,2.75,RTL
04:14:48,145117.0,0.0009964555501937866,-0.0023858780041337013,-0.7538001537322998,-0.038496196269989014,0.0017451007151976228,0.0032857692567631602,-35.362602949999996,149.1644795,64474.0,-7.0,-6.0,-10.0,-2.5,12.0,-970.0,-35.5,3.0,6.0,RTL
04:14:50,145117.0,0.012745941989123821,-0.0019402531906962395,-0.753868579864502,-0.3590638190507889,-0.0037425889167934656,0.002190393512137234,-35.3626039,149.16447805,64482.5,0.5,3.0,-8.5,-2.0,-23.5,-1027.0,-357.0,-1.5,4.5,RTL
04:14:51,68799.0,0.014951255405321717,0.0001650913036428392,-0.7539322078227997,0.02037277352064848,0.0019042342028114945,6.69700384605676e-05,-35.36260425,149.1644775,64898.5,7.25,9.25,-50.5,0.0,-1.0,-1018.5,22.5,3.5,2.5,RTL
04:14:52,68799.0,0.005955757573246956,0.0015706625417806208,-0.7536383271217346,-0.16084936633706093,0.002303300076164305,0.0018384538125246763,-35.3626041,149.16447755000002,65316.0,8.0,10.5,-52.5,0.0,-2.5,-981.5,-158.0,3.5,4.0,RTL
04:14:54,68799.0,0.00804547662846744,5.9572552345343865e-05,-0.753892183303833,-0.42771637439727783,-0.0008809257997199893,-0.0005704545183107257,-35.36260385,149.1644779,65725.5,4.0,8.0,3.5,0.0,-31.5,-991.5,-425.5,1.0,2.5,RTL
04:14:55,181090.0,0.007065106328809634,0.0008258945745183155,-0.7533363699913025,-0.004166869446635246,-0.0005149381468072534,0.0013739397982135415,-35.36260375,149.16447805,65731.0,4.5,8.25,-11.75,0.0,-5.5,-1030.0,-1.5,1.5,4.25,RTL
04:14:56,181090.0,0.005041614407673478,0.0006399489648174495,-0.7534885704517365,0.27261368930339813,0.0015565954381600022,-0.00015865068417042494,-35.3626036,149.1644782,65915.0,3.5,7.5,-39.5,0.0,14.5,-1038.0,275.0,3.0,2.5,RTL
04:14:58,181090.0,-0.004299052758142352,0.0005450258031487465,-0.7534509301185608,-0.29555912618525326,0.0048429393209517,-0.001382676069624722,-35.3626033,149.1644788,66868.5,0.5,3.0,-22.5,-1.0,-19.5,-958.5,-293.0,7.0,1.5,RTL
04:14:59,300000.0,-0.004919443279504776,0.000849962467327714,-0.7537501007318497,-0.131234273314476,0.00031613506143912673,0.0023746665683574975,-35.362602975,149.1644792,66937.0,-1.75,0.25,2.25,0.0,-8.0,-996.5,-128.5,2.25,4.75,RTL
04:15:00,300000.0,0.003996789455413818,0.0003231587145364756,-0.7536742389202118,0.4431571140885353,-0.0011346457758918405,0.0007329939398914576,-35.3626028,149.1644793,66914.5,-3.5,-0.5,-0.5,0.0,9.0,-1021.0,445.5,1.0,3.0,RTL
04:15:02,300000.0,0.0011614708928391337,-0.0012640620116144419,-0.7540218830108643,-0.049142226576805115,-0.0031004513148218393,0.0007799073355272412,-35.362603,149.1644793,67590.5,-4.0,-2.0,-57.5,0.5,-7.0,-998.5,-47.0,-0.5,3.5,RTL
04:15:03,98283.0,0.003966898962971754,-0.0021279991779010743,-0.7538341134786606,0.08915122598409653,0.00022958064801059663,-0.0009930107626132667,-35.3626032,149.16447914999998,68142.25,-1.75,-1.25,-21.25,0.0,4.75,-962.0,91.75,2.0,1.75,RTL
04:15:04,98283.0,-0.0018585523357614875,-0.0003543379352777265,-0.7539843022823334,-0.47367729246616364,0.0011951848864555359,0.0009343820856884122,-35.3626032,149.164479,68223.0,-1.0,-0.5,0.0,-0.5,-24.0,-987.5,-470.5,3.5,4.0,RTL
04:15:06,98283.0,0.00197098512823383,-0.0004538179879697661,-0.7536366184552511,-0.09036644299825032,-0.0005987215942392746,0.0013063094423462946,-35.3626032,149.16447893333333,68278.33333333333,-0.6666666666666666,0.0,-26.0,-0.3333333333333333,-8.333333333333334,-1042.3333333333333,-88.0,1.3333333333333333,4.0,RTL
04:15:07,234101.0,0.005060907336883247,-0.0014971275037775438,-0.753846009572347,0.0077749888102213545,-0.0019180585319797199,0.0007510997044543425,-35.36260336666667,149.16447876666666,68852.33333333333,0.0,1.0,-56.666666666666664,0.0,1.0,-999.6666666666666,10.0,0.6666666666666666,3.3333333333333335,RTL
04:15:08,234101.0,0.008061996505906185,-0.002302654553204775,-0.7537828882535299,0.05254379908243815,-0.001947493835662802,0.0015387859117860596,-35.36260356666667,149.16447853333332,69247.0,0.6666666666666666,2.0,-41.666666666666664,0.0,4.0,-962.3333333333334,55.666666666666664,0.3333333333333333,4.333333333333333,RTL
04:15:10,234101.0,0.001862697225684921,8.478846818131085e-05,-0.753422200679779,-0.3705521101752917,0.00017787582085778317,9.369004207352798e-05,-35.3626037,149.16447833333334,69460.66666666667,3.0,4.333333333333333,2.6666666666666665,0.0,-21.0,-994.6666666666666,-367.3333333333333,2.0,2.6666666666666665,RTL
04:15:11,47567.0,0.000987353385426104,0.00024047076779728135,-0.7536124587059021,-0.1876795788606008,-0.0011632002036397655,0.0007196656273057064,-35.3626035,149.16447853333332,69563.0,2.0,4.333333333333333,-28.0,0.0,-7.666666666666667,-1036.6666666666667,-185.0,1.0,4.0,RTL
04:15:12,47567.0,0.0020716674625873566,-0.0006796586288449665,-0.7538206577301025,-0.01658026874065399,0.00013937498442828655,0.0011989985747883718,-35.3626035,149.1644786,69877.33333333333,1.3333333333333333,3.3333333333333335,-52.0,-0.3333333333333333,0.3333333333333333,-1021.0,-13.666666666666666,2.0,4.0,RTL
04:15:14,47567.0,0.007421310408972204,-0.0014869497390463948,-0.7535763382911682,-0.10465594132741292,0.0003868731049199899,-0.0005016444095720848,-35.3626036,149.1644786,70720.0,1.3333333333333333,2.6666666666666665,-9.0,-0.3333333333333333,-11.333333333333334,-967.3333333333334,-101.66666666666667,2.6666666666666665,2.3333333333333335,RTL
04:15:15,63009.0,0.011769700446166098,-0.0013128788753723104,-0.7536144057909647,-0.06080568085114161,-0.00018187185438970724,0.0004604783995697896,-35.3626037,149.1644784,70718.33333333333,3.0,4.333333333333333,3.3333333333333335,0.0,-11.333333333333334,-1003.3333333333334,-58.333333333333336,2.0,3.3333333333333335,RTL
04:15:16,63009.0,0.01145765402664741,-0.0018085823006307085,-0.7537452578544617,0.27664509415626526,0.00024357150929669538,0.0011619179664800565,-35.3626039,149.1644782,70732.0,4.0,6.0,-9.666666666666666,-0.6666666666666666,18.333333333333332,-1035.0,280.0,2.0,4.0,RTL
04:15:18,63009.0,0.012326380548377832,-0.0014361806291465957,-0.7536850571632385,-0.05118695894877116,0.0007894278193513552,-0.00013838871382176876,-35.362604366666666,149.16447773333334,71572.66666666667,9.0,9.666666666666666,-51.0,-0.3333333333333333,-4.0,-980.0,-47.666666666666664,2.6666666666666665,2.6666666666666665,RTL
04:15:19,155995.0,0.008009503595530987,-0.00013378551617885628,-0.753655751546224,-0.3240724553664525,0.0012463205493986607,-0.0015608166189243395,-35.3626043,149.1644777,71956.33333333333,9.333333333333334,10.333333333333334,-6.333333333333333,0.0,-13.333333333333334,-962.0,-320.0,3.3333333333333335,1.6666666666666667,RTL
04:15:20,155995.0,0.014067585114389658,0.0002880381701591735,-0.7531541387240092,0.13591529925664267,-0.000861557045330604,-0.001195394666865468,-35.3626042,149.1644777333333,71964.66666666667,9.0,10.333333333333334,3.0,0.0,-8.666666666666666,-991.6666666666666,139.0,1.6666666666666667,1.6666666666666667,RTL
04:15:22,155995.0,0.002317639999091625,0.00029332875662172836,-0.753464420636495,0.08408837020397186,-0.0004177442751824856,0.0015748524262259405,-35.362603666666665,149.1644783,72178.0,5.333333333333333,7.0,-41.666666666666664,0.3333333333333333,7.0,-1038.3333333333333,88.33333333333333,1.6666666666666667,4.333333333333333,RTL
04:15:23,112606.0,0.006615498568862677,-0.0010251918477782358,-0.7537155548731486,-0.017372995459785063,-0.002605235204100609,0.0014610621922959883,-35.3626037,149.1644784,72850.33333333333,2.6666666666666665,5.0,-51.333333333333336,0.0,-1.0,-977.0,-13.333333333333334,0.0,4.333333333333333,RTL
04:15:24,112606.0,0.009049626843382915,-0.0012960969082390268,-0.753465473651886,-0.14159342646598816,0.001637016733487447,0.0007484368203828732,-35.36260373333334,149.16447833333336,73153.33333333333,3.0,4.333333333333333,-23.666666666666668,-0.3333333333333333,-9.666666666666666,-954.0,-137.66666666666666,3.6666666666666665,3.6666666666666665,RTL
04:15:26,112606.0,-0.005693769965243216,0.0026092655025422573,-0.7535012165705363,0.05301701029141744,0.002057715862368544,0.0007846774533390999,-35.36260326666667,149.1644788,73211.66666666667,3.0,4.333333333333333,-1.0,0.6666666666666666,13.333333333333334,-1025.6666666666667,57.666666666666664,4.333333333333333,4.0,RTL
04:15:27,192292.0,-0.009780111412207285,0.0009535531086536745,-0.7534289558728536,0.05255697046717008,-0.0018251026049256325,-9.259597087899844e-05,-35.36260256666667,149.16447966666667,73470.33333333333,-3.6666666666666665,-1.3333333333333333,-42.333333333333336,0.6666666666666666,0.3333333333333333,-1031.6666666666667,57.0,0.6666666666666666,2.6666666666666665,RTL
04:15:28,192292.0,-0.009624811044583717,-0.0002349619462620467,-0.7538347840309143,-0.016848837335904438,-0.002120490923213462,0.0013784794912983973,-35.362602466666665,149.16447993333335,73860.66666666667,-7.0,-4.333333333333333,-54.333333333333336,0.0,-1.3333333333333333,-998.0,-12.666666666666666,0.6666666666666666,4.333333333333333,RTL
04:15:30,192292.0,0.0037873790909846625,-0.0017793042352423072,-0.7536581158638,0.23874167601267496,0.0009315761271864176,0.0007224321986238161,-35.362602833333334,149.16447959999996,74430.0,-6.666666666666667,-5.333333333333333,1.0,-0.6666666666666666,18.666666666666668,-988.6666666666666,242.66666666666666,3.0,3.6666666666666665,RTL
04:15:31,226719.0,-0.0034556553388635316,0.0006689236906822771,-0.7533976833025614,0.16247292359670004,0.0004629561056693395,0.001709581275160114,-35.36260286666666,149.16447936666668,74406.33333333333,-3.6666666666666665,-2.6666666666666665,-3.3333333333333335,0.6666666666666666,15.333333333333334,-1030.3333333333333,166.66666666666666,3.0,4.666666666666667,RTL
04:15:32,226719.0,-0.006775696063414216,0.00047081887411574524,-0.753466010093689,-0.14562121033668518,-0.00027785333804786205,-3.2925745472311974e-05,-35.36260276666666,149.16447946666668,74528.0,-4.0,-3.0,-30.0,0.3333333333333333,-8.0,-1038.3333333333333,-142.0,2.3333333333333335,3.3333333333333335,RTL
04:15:34,226719.0,-0.011656084718803564,-0.0004593596434763943,-0.7536907394727071,0.023652441799640656,-0.0018079422103861968,0.002187405014410615,-35.36260226666666,149.16448013333334,75477.33333333333,-9.333333333333334,-7.333333333333333,-32.666666666666664,0.0,3.0,-958.3333333333334,27.333333333333332,0.6666666666666666,5.333333333333333,RTL
04:15:35,136097.0,7.514686634143193e-05,-0.0009791705524548888,-0.753462572892507,0.43477997680505115,-0.0015137461790194113,-0.001345416996628046,-35.36260236666667,149.16448006666667,75633.66666666667,-10.0,-8.666666666666666,2.0,-0.3333333333333333,20.666666666666668,-990.3333333333334,438.0,0.6666666666666666,2.3333333333333335,RTL
04:15:36,136097.0,-0.00718656360792617,-0.0008039745540979008,-0.7540062864621481,-0.2394877870877584,0.0009908091742545366,0.0032054600305855274,-35.36260253333334,149.1644798,75607.66666666667,-9.666666666666666,-8.0,2.6666666666666665,-1.0,-4.333333333333333,-1009.3333333333334,-235.66666666666666,3.3333333333333335,6.333333333333333,RTL
04:15:38,136097.0,0.00749924515063564,-0.0026534678569684425,-0.753592312335968,-0.0077041685581207275,0.000895384776716431,0.0010442407801747322,-35.362603400000005,149.1644787666667,76116.66666666667,-2.3333333333333335,-0.6666666666666666,-54.0,-0.3333333333333333,1.0,-1012.3333333333334,-4.333333333333333,3.0,4.333333333333333,RTL
04:15:39,51285.0,0.009749988637243709,-0.0013312739320099354,-0.7537969946861267,-0.028624961773554485,0.002002971557279428,-0.00014920121369262537,-35.36260376666667,149.16447836666669,76735.33333333333,1.3333333333333333,2.0,-30.0,0.0,-4.333333333333333,-955.6666666666666,-26.0,4.333333333333333,3.0,RTL
04:15:40,51285.0,0.009974273387342691,0.00020530202406613776,-0.7537022034327189,0.2771756127476692,0.0011517086920017998,0.0007064418556789557,-35.3626038,149.1644782666667,76863.0,3.0,4.0,-3.3333333333333335,-0.3333333333333333,14.0,-977.0,281.0,3.3333333333333335,3.6666666666666665,RTL
04:15:42,51285.0,0.01333649487545093,-0.0019658798119053245,-0.7535643378893534,-0.13226025799910227,-0.0010217254360516865,0.0013957178064932425,-35.36260406666667,149.16447783333334,76882.33333333333,5.0,8.0,-17.0,-1.0,-3.6666666666666665,-1035.6666666666667,-129.0,1.0,4.333333333333333,RTL
04:15:43,200.0,0.01662513054907322,-0.001784130426434179,-0.7533880273501078,-0.04191859314839045,0.0007276092655956745,0.0014884769916534424,-35.36260453333333,149.16447736666666,77371.33333333333,10.0,11.666666666666666,-52.333333333333336,0.0,1.6666666666666667,-1007.0,-38.333333333333336,3.0,4.666666666666667,RTL
04:15:44,200.0,0.014965897736450037,-0.0011829606955870986,-0.753524661064148,-0.018089865644772846,0.0014832215383648872,0.001385786725829045,-35.3626046,149.1644773,77755.33333333333,11.666666666666666,12.666666666666666,-42.0,0.0,-0.6666666666666666,-969.0,-14.0,4.0,4.666666666666667,RTL
04:15:46,200.0,0.00621968787163496,0.0020017733719820776,-0.7531328996022543,-0.28301893671353656,0.002689631345371405,-0.0011260503282149632,-35.362604000000005,149.16447780000001,77992.0,9.0,10.666666666666666,3.6666666666666665,0.0,-21.333333333333332,-1002.6666666666666,-279.3333333333333,4.666666666666667,2.3333333333333335,RTL
04:15:47,300000.0,4.841464882095655e-05,0.00017227904754690826,-0.7528387109438578,-0.13944915930430093,-0.002656429074704647,-0.0007826669607311487,-35.362603533333335,149.1644784,78073.0,4.333333333333333,7.333333333333333,-25.666666666666668,1.0,-7.666666666666667,-1041.3333333333333,-135.33333333333334,0.3333333333333333,2.3333333333333335,RTL
04:15:48,300000.0,-0.0001509226228032882,0.0006001795991323888,-0.7534292737642924,0.024387116233507793,0.0005335803143680096,-7.479723232487838e-06,-35.36260336666667,149.1644787,78370.0,2.0,4.666666666666667,-50.666666666666664,0.0,-1.0,-1024.6666666666667,28.666666666666668,3.0,3.3333333333333335,RTL
04:15:50,300000.0,-0.0038802955144395432,0.000589476854656823,-0.7531001369158427,-0.06186704834302267,0.0005165284965187311,-0.0007397205724070469,-35.3626031,149.16447903333332,79243.0,-1.0,1.0,-11.333333333333334,-0.3333333333333333,7.333333333333333,-964.0,-57.0,3.0,2.6666666666666665,RTL
04:15:51,214506.0,-0.0022277666915518544,-0.0001692582736723125,-0.7530813415845236,-0.34544917941093445,-0.0016180378540108602,0.0009916364215314388,-35.3626031,149.16447903333335,79250.33333333333,-1.6666666666666667,0.3333333333333333,3.0,-0.6666666666666666,-7.666666666666667,-1004.0,-341.3333333333333,1.6666666666666667,4.0,RTL
04:15:52,214506.0,0.008217511543383202,-0.0009730730477410058,-0.7536391615867615,0.16294066111246744,0.0013027626555413008,-0.00014942054015894732,-35.362603266666675,149.16447883333333,79261.0,-1.0,1.0,-10.333333333333334,-0.6666666666666666,3.6666666666666665,-1037.0,166.33333333333334,4.0,3.0,RTL
04:15:54,214506.0,0.010974334087222815,-0.0015768656351914008,-0.7535119454065958,0.013561099767684937,0.0017530863794187705,0.0005721297735969225,-35.36260383333334,149.1644782,80098.0,3.0,5.0,-51.333333333333336,0.0,0.6666666666666666,-980.6666666666666,18.0,4.333333333333333,4.0,RTL
04:15:55,104375.0,0.0068976431066403165,0.0005563362331789298,-0.7536158959070841,0.15965292851130167,0.002343009070803722,0.0001495559699833393,-35.36260386666667,149.16447813333332,80491.66666666667,5.333333333333333,6.333333333333333,-7.0,0.0,12.0,-969.3333333333334,164.0,4.666666666666667,3.6666666666666665,RTL
04:15:56,104375.0,-0.0029874502991636596,0.0021508280963947377,-0.7530782421429952,-0.2828361342350642,0.0004638508738329013,0.0019304837721089523,-35.362603533333335,149.16447843333336,80499.66666666667,4.0,5.333333333333333,3.0,0.6666666666666666,-14.0,-990.6666666666666,-278.0,2.6666666666666665,5.333333333333333,RTL
04:15:58,104375.0,-0.010465239019443592,-0.00014276050690871975,-0.7533596952756246,-0.0569712370634079,-0.0026930381233493486,-0.001461903564631939,-35.3626025,149.16447983333333,80699.66666666667,-5.666666666666667,-3.3333333333333335,-39.666666666666664,1.0,-9.666666666666666,-1037.3333333333333,-52.666666666666664,0.3333333333333333,2.0,RTL
04:15:59,297945.0,-0.010262724943459034,-0.0014814802755912144,-0.7534558176994324,-0.012603888909022013,-0.0017583735364799697,0.00010899741513033707,-35.362602333333335,149.1644803,81358.33333333333,-8.666666666666666,-7.333333333333333,-50.0,0.0,0.6666666666666666,-978.3333333333334,-8.333333333333334,1.0,3.3333333333333335,RTL
04:16:00,297945.0,-0.009607284795492887,-0.0021467097103595734,-0.7537545760472616,-0.17706643541653952,0.003172459468866388,-0.001663840686281522,-35.36260236666667,149.16448033333336,81655.0,-9.333333333333334,-9.0,-22.0,-0.3333333333333333,-6.333333333333333,-952.6666666666666,-172.66666666666666,5.666666666666667,2.0,RTL
04:16:02,297945.0,0.005557308749606212,-0.003195118081445495,-0.753524382909139,0.24248873690764108,-0.005560570474093159,0.0011175454904635747,-35.36260303333333,149.1644795,81703.0,-5.666666666666667,-5.666666666666667,0.0,-1.0,17.666666666666668,-1016.0,246.66666666666666,-2.3333333333333335,4.666666666666667,RTL
04:16:03,200.0,0.01586156866202752,-0.004408979943643014,-0.7534626126289368,0.07836627960205078,0.001451098903392752,0.0006141719253112873,-35.36260386666667,149.16447846666665,81952.0,0.6666666666666666,0.0,-41.333333333333336,-1.6666666666666667,3.3333333333333335,-1032.0,82.33333333333333,4.333333333333333,4.0,RTL
04:16:04,200.0,0.01644527881095807,-0.0034247596437732377,-0.7536125977834066,-0.0026544034481048584,0.00014901564766963324,0.0018943887359152238,-35.3626042,149.16447803333332,82332.0,5.0,4.0,-52.666666666666664,-1.0,1.0,-997.3333333333334,1.6666666666666667,3.0,5.333333333333333,RTL
04:16:06,200.0,0.01765039035429557,-0.0008139690229048332,-0.7535893321037292,0.3147449592749278,0.0010112153831869364,-0.0007400107569992542,-35.36260443333334,149.16447756666668,82877.33333333333,10.666666666666666,10.333333333333334,2.0,0.0,5.333333333333333,-988.6666666666666,318.3333333333333,3.3333333333333335,2.6666666666666665,RTL
04:16:07,64440.0,0.00960670318454504,0.00029384712979663163,-0.7530622482299805,0.3164033790429433,-0.0006753501947969198,-0.0008957867200175921,-35.36260413333333,149.16447776666666,82855.33333333333,9.333333333333334,10.666666666666666,-5.333333333333333,0.0,16.333333333333332,-1029.3333333333333,321.0,2.3333333333333335,2.6666666666666665,RTL
04:16:08,64440.0,0.0061297073649863405,-0.00039167754584923387,-0.7535593708356222,-0.14491180578867593,0.00044050773916145164,0.0007488823806246122,-35.362604,149.16447793333336,82995.0,8.0,9.0,-32.0,0.0,-8.0,-1035.0,-140.0,3.0,4.333333333333333,RTL
04:16:10,64440.0,0.011543884097288052,-0.0016783965208257239,-0.7531343301137289,0.12463195125261943,0.0008339131406197945,0.0007466583823164304,-35.362604,149.16447803333332,83943.66666666667,6.666666666666667,7.666666666666667,-30.333333333333332,0.0,5.666666666666667,-958.6666666666666,129.33333333333334,3.6666666666666665,4.333333333333333,RTL
04:16:11,200.0,0.010179023219582936,-0.0012637911325631042,-0.7532384792963663,0.4143455723921458,-0.001019701788512369,-0.00011210360874732335,-35.36260393333333,149.1644782666667,84072.66666666667,6.333333333333333,6.666666666666667,2.6666666666666665,1.0,20.0,-993.3333333333334,419.3333333333333,1.6666666666666667,3.3333333333333335,RTL
04:16:12,200.0,0.00044804858043789864,-0.0020459549268707633,-0.7532772421836853,-0.3676760320862134,-0.0036141352417568364,0.0012225335619101922,-35.3626039,149.16447843333333,84049.33333333333,5.333333333333333,5.0,1.0,0.0,-13.333333333333334,-1013.3333333333334,-362.3333333333333,-0.6666666666666666,4.666666666666667,RTL
04:16:14,200.0,0.00986511850108703,-0.0028031601880987487,-0.7531459331512451,0.019400242095192272,-2.8761026139060657e-05,-0.0006592114611218373,-35.362604,149.1644784,84618.0,6.666666666666667,5.0,-54.0,0.0,1.0,-1007.6666666666666,24.666666666666668,2.6666666666666665,3.0,RTL
04:16:15,69612.0,0.012636184537162384,-0.002031736192293465,-0.7534996271133423,0.30975723018248874,0.0017925742237518232,-0.0009309064286450545,-35.362604166666664,149.1644782666667,85194.66666666667,8.0,6.0,-23.666666666666668,-0.6666666666666666,13.666666666666666,-957.3333333333334,314.6666666666667,4.333333333333333,2.6666666666666665,RTL
04:16:16,69612.0,0.0034794400756557784,-0.0013070548108468454,-0.7536502679189047,-0.4673260897397995,0.0010939664207398891,0.0006545387829343478,-35.3626041,149.1644782,85286.0,7.333333333333333,5.666666666666667,-1.0,-0.3333333333333333,-18.0,-981.0,-462.0,3.6666666666666665,4.333333333333333,RTL
04:16:18,69612.0,0.010851582512259483,-0.0026300015548865,-0.7533740202585856,0.17022919654846191,-0.0007978812015304962,0.0008150429154435793,-35.3626041,149.1644782,85342.0,7.0,6.333333333333333,-22.666666666666668,0.0,5.666666666666667,-1042.0,175.33333333333334,2.0,4.666666666666667,RTL
04:16:19,225491.0,0.010038176861902079,-0.0027546968000630536,-0.7533022960027059,-0.028237732748190563,-0.0019001476466655731,0.0010378890049954255,-35.36260413333333,149.16447816666667,85881.33333333333,8.0,6.333333333333333,-51.666666666666664,0.0,0.3333333333333333,-997.0,-22.333333333333332,1.0,4.666666666666667,RTL
04:16:20,225491.0,0.010645851182440916,-0.0034155649288247028,-0.7532955408096313,-0.14481754104296365,0.000986957224085927,-0.00027592961365977925,-35.362604233333336,149.1644781,86239.33333333333,8.333333333333334,7.0,-34.0,0.0,-5.666666666666667,-959.3333333333334,-138.66666666666666,3.3333333333333335,3.0,RTL
04:16:22,225491.0,0.01277214785416921,-0.0006133700371719897,-0.7530750632286072,0.49702049295107525,-0.0002588860224932432,0.0009070502904554208,-35.362604166666664,149.16447796666668,86395.33333333333,9.666666666666666,8.666666666666666,3.6666666666666665,0.6666666666666666,19.666666666666668,-1011.6666666666666,503.0,2.3333333333333335,4.666666666666667,RTL
04:16:23,300000.0,0.004108917821819584,-0.0007801966664070884,-0.7528645992279053,0.08746250470479329,-0.00021453500570108494,-0.0013961046934127808,-35.3626039,149.1644784,86521.33333333333,7.666666666666667,6.666666666666667,-30.666666666666668,1.0,1.0,-1040.0,93.33333333333333,2.3333333333333335,2.6666666666666665,RTL
04:16:24,300000.0,-0.003105521279697617,-0.0006424491875804961,-0.7531394163767496,0.049760885536670685,-0.0013190395353982847,-0.0005735509718457857,-35.362603533333335,149.16447883333333,86845.66666666667,5.0,3.6666666666666665,-50.0,1.3333333333333333,2.6666666666666665,-1012.0,55.666666666666664,1.3333333333333333,3.6666666666666665,RTL
04:16:26,300000.0,-0.006426192839474727,-3.488356621043446e-05,-0.7531080643335978,0.3674582988023758,0.0017867292820786436,0.0005629054891566435,-35.36260266666667,149.16448003333332,87515.66666666667,-3.0,-5.0,-1.3333333333333333,0.0,15.0,-980.6666666666666,373.6666666666667,4.333333333333333,4.0,RTL
04:16:27,300000.0,-0.015740608641256888,-0.00014645795454271138,-0.7529935836791992,0.13310795029004416,-0.001990710152313113,0.0008418056337783734,-35.3626022,149.16448056666667,87492.0,-8.0,-9.333333333333334,1.3333333333333333,0.6666666666666666,12.666666666666666,-1016.0,139.0,0.6666666666666666,4.666666666666667,RTL
04:16:28,300000.0,-0.016946779564023018,-0.0013064151668610673,-0.7535338401794434,-0.20268217970927557,-0.0028649032271156707,0.00037343474105000496,-35.362602,149.16448086666668,87557.66666666667,-11.666666666666666,-12.666666666666666,-20.0,0.0,-10.666666666666666,-1034.6666666666667,-197.0,0.3333333333333333,3.6666666666666665,RTL
04:16:30,300000.0,-0.005250219100465377,-0.004351235615710418,-0.753312885761261,0.00809070219596227,-0.0008078051420549551,0.00014030281454324722,-35.36260240000001,149.16448056666667,88465.33333333333,-11.333333333333334,-13.333333333333334,-39.0,-1.0,3.6666666666666665,-966.0,13.666666666666666,2.0,3.6666666666666665,RTL
04:16:31,79758.0,0.004580924442658822,-0.003324765944853425,-0.7530935208002726,0.3794159119327863,0.0025942018255591393,0.001658883411437273,-35.362602900000006,149.16447989999998,88688.0,-6.333333333333333,-9.333333333333334,0.3333333333333333,0.0,18.666666666666668,-991.0,385.0,4.666666666666667,5.666666666666667,RTL
04:16:32,79758.0,-0.005565254328151544,-0.0016537950141355395,-0.7532341877619425,-0.23893781503041586,0.001743518669779102,4.6170937518278755e-05,-35.362603,149.1644798,88667.33333333333,-4.0,-7.333333333333333,3.3333333333333335,0.0,-7.666666666666667,-1000.6666666666666,-233.66666666666666,4.333333333333333,3.3333333333333335,RTL
04:16:34,79758.0,-0.011934684899946054,-0.0013261435475821297,-0.7532744407653809,-0.04732870062192281,-0.0006700944310675064,-0.0012124181569864352,-35.36260253333334,149.16448023333336,89064.66666666667,-7.333333333333333,-9.666666666666666,-51.0,0.3333333333333333,-3.3333333333333335,-1022.3333333333334,-42.666666666666664,2.0,2.3333333333333335,RTL
04:16:35,7219.0,-0.007200659640754263,-0.0037989154613266387,-0.753493865331014,0.0938863530755043,-0.0009922556734333436,-0.00013821253863473734,-35.3626025,149.1644804,89724.0,-9.0,-11.666666666666666,-37.666666666666664,-0.3333333333333333,0.6666666666666666,-961.0,98.66666666666667,1.3333333333333333,3.0,RTL
04:16:36,7219.0,-0.010573223698884249,-0.0028717146875957647,-0.7529215614000956,-0.0397338072458903,0.0016371850700428088,0.000645084772258997,-35.3626025,149.1644804,89908.66666666667,-8.333333333333334,-11.333333333333334,-8.0,0.0,6.666666666666667,-963.3333333333334,-34.333333333333336,3.6666666666666665,4.333333333333333,RTL
04:16:38,7219.0,0.0030129030346870422,-0.0030201716193308434,-0.7533503572146097,0.14738014340400696,-0.0012020665841797988,-0.0007659420371055603,-35.362602833333334,149.16447989999998,89913.33333333333,-6.666666666666667,-8.666666666666666,-9.0,0.0,1.3333333333333333,-1042.3333333333333,151.33333333333334,1.3333333333333333,2.6666666666666665,RTL
04:16:39,185519.0,-0.002144172011564175,-0.003022999269887805,-0.7532982230186462,-0.03733839234337211,-0.0006331714491049448,1.5677340949575107e-05,-35.362603,149.1644797,90319.33333333333,-3.6666666666666665,-6.666666666666667,-51.666666666666664,0.0,-1.0,-1022.6666666666666,-33.333333333333336,1.6666666666666667,3.6666666666666665,RTL
04:16:40,185519.0,-0.004275156689497332,-0.0025740913891543946,-0.7531805634498596,-0.011655063678820929,-0.0011207871915151675,0.0010534444979081552,-35.362603,149.1644797,90738.66666666667,-3.0,-6.0,-51.666666666666664,0.0,1.0,-980.0,-7.666666666666667,1.3333333333333333,4.333333333333333,RTL
04:16:42,185519.0,-0.005347413631776969,-0.0019997027702629566,-0.7531182368596395,-0.2929307321707408,0.0002399630999813477,0.0012692596452931564,-35.362603,149.1644797,91149.0,-3.0,-6.0,3.3333333333333335,0.0,-18.666666666666668,-987.0,-289.3333333333333,3.0,5.0,RTL
04:16:43,27462.0,-0.00017469283193349838,-0.0028498563915491104,-0.7529172499974569,-0.08691019813219707,-0.0018998209852725267,-0.0004459073922286431,-35.36260306666667,149.16447959999996,91147.33333333333,-3.3333333333333335,-5.666666666666667,-13.666666666666666,-0.6666666666666666,-9.666666666666666,-1035.3333333333333,-83.0,0.6666666666666666,3.0,RTL
04:16:44,27462.0,0.004719299303057293,-0.0036016161708782115,-0.7532907128334045,0.0960435817639033,-0.000937695304552714,-0.0017884235518674056,-35.3626033,149.1644793,91352.33333333333,-2.0,-4.0,-41.333333333333336,-0.6666666666666666,6.0,-1035.6666666666667,100.0,1.3333333333333333,2.0,RTL
04:16:46,27462.0,0.0030665575371434293,-0.0026484051874528327,-0.7528199950853983,-0.19878282149632773,0.0014931408998866875,0.00022147169026235738,-35.3626037,149.1644788,92331.33333333333,1.6666666666666667,0.0,-25.333333333333332,0.0,-8.666666666666666,-950.3333333333334,-194.66666666666666,3.6666666666666665,3.6666666666666665,RTL
04:16:47,300000.0,-0.004087204268823068,-0.00022086006113871312,-0.7526802023251852,-0.32921595498919487,-0.00048588371525208157,-0.0005791138391941786,-35.3626035,149.16447883333333,92425.0,2.3333333333333335,0.3333333333333333,2.6666666666666665,0.6666666666666666,-16.0,-992.6666666666666,-324.6666666666667,1.6666666666666667,3.0,RTL
04:16:48,300000.0,-0.0005173557619476318,-0.0003494168340694159,-0.7527504563331604,0.31427791714668274,-0.0013071799573178093,0.0006781020977844795,-35.36260323333334,149.1644791,92400.33333333333,1.0,0.0,-0.3333333333333333,0.6666666666666666,8.666666666666666,-1013.6666666666666,318.0,1.3333333333333333,4.0,RTL
04:16:50,300000.0,-0.0005613470857497305,-0.0031369115070750317,-0.7531283299128214,0.03254994253317515,-0.001006580734004577,0.00019203048820296922,-35.36260313333333,149.16447956666664,93036.33333333333,-2.0,-3.6666666666666665,-57.333333333333336,-0.3333333333333333,1.3333333333333333,-1003.6666666666666,36.666666666666664,1.3333333333333333,3.6666666666666665,RTL
