time_stamp,MODE,lat,lon,relative_alt,roll,pitch,yaw,rollspeed,pitchspeed,yawspeed,xacc,yacc,zacc,xgyro,ygyro,zgyro,vx,vy,vz,LAND_SPEED_HIGH,WPNAV_SPEED_DN,RTL_ALT
11:30:45.430,GUIDED,-35.3632621,149.1652374,3,-3.926277349819429e-05,0.0015779802342876792,0.028427235782146454,0.00038810374098829925,0.0003433816891629249,0.002363471547141671,0,1,-1000,0,0,0,-1,1,-1,0.0,150.0,1500.0
11:30:45.632,GUIDED,-35.3632621,149.1652374,0,-3.7842321034986526e-05,0.0016064813826233149,0.028248321264982224,0.0002772571169771254,0.0003385702148079872,0.002371771028265357,0,1,-1000,0,0,0,-1,1,-1,0.0,150.0,1500.0
11:30:45.833,GUIDED,-35.3632621,149.1652374,0,-3.7842321034986526e-05,0.0016064813826233149,0.028248321264982224,0.0002772571169771254,0.0003385702148079872,0.002371771028265357,0,1,-1000,0,0,0,-1,1,-1,0.0,150.0,1500.0
11:30:46.039,GUIDED,-35.3632621,149.1652374,0,-3.7842321034986526e-05,0.0016064813826233149,0.028248321264982224,0.0002772571169771254,0.0003385702148079872,0.002371771028265357,0,1,-1000,0,0,0,-1,1,-1,0.0,150.0,1500.0
11:30:46.240,GUIDED,-35.3632621,149.1652374,0,-3.7842321034986526e-05,0.0016064813826233149,0.028248321264982224,0.0002772571169771254,0.0003385702148079872,0.002371771028265357,0,1,-1000,0,0,0,-1,1,-1,0.0,150.0,1500.0
11:30:46.447,GUIDED,-35.3632621,149.1652374,0,-3.7842321034986526e-05,0.0016064813826233149,0.028248321264982224,0.0002772571169771254,0.0003385702148079872,0.002371771028265357,0,1,-1000,0,0,0,-1,1,-1,0.0,150.0,1500.0
11:30:46.652,GUIDED,-35.3632621,149.1652374,0,-3.7842321034986526e-05,0.0016064813826233149,0.028248321264982224,0.0002772571169771254,0.0003385702148079872,0.002371771028265357,0,1,-1000,0,0,0,-1,1,-1,0.0,150.0,1500.0
11:30:46.858,GUIDED,-35.3632621,149.1652374,0,-3.7842321034986526e-05,0.0016064813826233149,0.028248321264982224,0.0002772571169771254,0.0003385702148079872,0.002371771028265357,0,1,-1000,0,0,0,-1,1,-1,0.0,150.0,1500.0
11:30:47.060,GUIDED,-35.3632621,149.1652374,0,-3.7842321034986526e-05,0.0016064813826233149,0.028248321264982224,0.0002772571169771254,0.0003385702148079872,0.002371771028265357,0,1,-1000,0,0,0,-1,1,-1,0.0,150.0,1500.0
11:30:47.265,GUIDED,-35.3632621,149.1652374,0,-3.7842321034986526e-05,0.0016064813826233149,0.028248321264982224,0.0002772571169771254,0.0003385702148079872,0.002371771028265357,0,1,-1000,0,0,0,-1,1,-1,0.0,150.0,1500.0
11:30:47.467,GUIDED,-35.3632622,149.1652375,0,-0.000360438774805516,0.0014354404993355274,0.02703366056084633,0.00022018782328814268,0.00031820774893276393,0.002238547895103693,0,1,-1000,0,0,0,-2,1,0,0.0,150.0,1500.0
11:30:47.670,GUIDED,-35.3632622,149.1652375,5,-0.00042911909986287355,0.00138436711858958,0.026885109022259712,0.000210446713026613,0.00020724398200400174,0.002240593545138836,0,1,-1000,0,0,0,-2,1,0,0.0,150.0,1500.0
11:30:47.871,GUIDED,-35.3632622,149.1652375,5,-0.00042911909986287355,0.00138436711858958,0.026885109022259712,0.000210446713026613,0.00020724398200400174,0.002240593545138836,0,1,-1000,0,0,0,-2,1,0,0.0,150.0,1500.0
11:30:48.073,GUIDED,-35.3632622,149.1652375,5,-0.00042911909986287355,0.00138436711858958,0.026885109022259712,0.000210446713026613,0.00020724398200400174,0.002240593545138836,0,1,-1000,0,0,0,-2,1,0,0.0,150.0,1500.0
11:30:48.276,GUIDED,-35.3632622,149.1652375,5,-0.00042911909986287355,0.00138436711858958,0.026885109022259712,0.000210446713026613,0.00020724398200400174,0.002240593545138836,0,1,-1000,0,0,0,-2,1,0,0.0,150.0,1500.0
11:30:48.480,GUIDED,-35.3632622,149.1652375,5,-0.00042911909986287355,0.00138436711858958,0.026885109022259712,0.000210446713026613,0.00020724398200400174,0.002240593545138836,0,1,-1000,0,0,0,-2,1,0,0.0,150.0,1500.0
11:30:48.684,GUIDED,-35.3632622,149.1652375,5,-0.00042911909986287355,0.00138436711858958,0.026885109022259712,0.000210446713026613,0.00020724398200400174,0.002240593545138836,0,1,-1000,0,0,0,-2,1,0,0.0,150.0,1500.0
11:30:48.886,GUIDED,-35.3632622,149.1652375,5,-0.00042911909986287355,0.00138436711858958,0.026885109022259712,0.000210446713026613,0.00020724398200400174,0.002240593545138836,0,1,-1000,0,0,0,-2,1,0,0.0,150.0,1500.0
11:30:49.088,GUIDED,-35.3632622,149.1652375,5,-0.00042911909986287355,0.00138436711858958,0.026885109022259712,0.000210446713026613,0.00020724398200400174,0.002240593545138836,0,1,-1000,0,0,0,-2,1,0,0.0,150.0,1500.0
11:30:49.291,GUIDED,-35.3632622,149.1652375,5,-0.0006516813882626593,0.0012784120626747608,0.02607610821723938,0.00017452903557568789,0.00023709816741757095,0.0021800347603857517,0,1,-1000,0,0,0,0,0,0,0.0,150.0,1500.0
11:30:49.492,GUIDED,-35.3632622,149.1652375,5,-0.0005965097225271165,0.0013940647477284074,0.02580617554485798,0.00024062092415988445,0.00026277772849425673,0.0020441324450075626,0,1,-1000,0,0,1,0,0,0,0.0,150.0,1500.0
11:30:49.694,GUIDED,-35.3632622,149.1652375,5,-0.0005965097225271165,0.0013940647477284074,0.02580617554485798,0.00024062092415988445,0.00026277772849425673,0.0020441324450075626,0,1,-1000,0,0,1,0,0,0,0.0,150.0,1500.0
11:30:49.897,GUIDED,-35.3632622,149.1652375,5,-0.0005965097225271165,0.0013940647477284074,0.02580617554485798,0.00024062092415988445,0.00026277772849425673,0.0020441324450075626,0,1,-1000,0,0,1,0,0,0,0.0,150.0,1500.0
11:30:50.099,GUIDED,-35.3632622,149.1652375,5,-0.0005965097225271165,0.0013940647477284074,0.02580617554485798,0.00024062092415988445,0.00026277772849425673,0.0020441324450075626,0,1,-1000,0,0,1,0,0,0,0.0,150.0,1500.0
11:30:50.301,GUIDED,-35.3632622,149.1652375,5,-0.0005965097225271165,0.0013940647477284074,0.02580617554485798,0.00024062092415988445,0.00026277772849425673,0.0020441324450075626,0,1,-1000,0,0,1,0,0,0,0.0,150.0,1500.0
11:30:50.504,GUIDED,-35.3632622,149.1652375,5,-0.0005965097225271165,0.0013940647477284074,0.02580617554485798,0.00024062092415988445,0.00026277772849425673,0.0020441324450075626,0,1,-1000,0,0,1,0,0,0,0.0,150.0,1500.0
11:30:50.707,GUIDED,-35.3632622,149.1652375,5,-0.0005965097225271165,0.0013940647477284074,0.02580617554485798,0.00024062092415988445,0.00026277772849425673,0.0020441324450075626,0,1,-1000,0,0,1,0,0,0,0.0,150.0,1500.0
11:30:50.910,GUIDED,-35.3632622,149.1652375,5,-0.0005965097225271165,0.0013940647477284074,0.02580617554485798,0.00024062092415988445,0.00026277772849425673,0.0020441324450075626,0,1,-1000,0,0,1,0,0,0,0.0,150.0,1500.0
11:30:51.112,GUIDED,-35.3632622,149.1652375,5,-0.0005965097225271165,0.0013940647477284074,0.02580617554485798,0.00024062092415988445,0.00026277772849425673,0.0020441324450075626,0,1,-1000,0,0,1,0,0,0,0.0,150.0,1500.0
11:30:51.315,GUIDED,-35.3632622,149.1652374,3,-0.0003076692228205502,0.0018025411991402507,0.024999704211950302,0.0002758895861916244,0.0002981936850119382,0.0018991369288414717,0,2,-1000,1,0,0,0,0,0,0.0,150.0,1500.0
11:30:51.518,GUIDED,-35.3632622,149.1652374,9,0.0015020770952105522,0.0012533641420304775,0.02482156828045845,0.013055898249149323,-0.011335526593029499,0.0031050126999616623,0,0,-1092,13,-10,1,0,0,-7,0.0,150.0,1500.0
11:30:51.720,GUIDED,-35.3632622,149.1652374,9,0.0015020770952105522,0.0012533641420304775,0.02482156828045845,0.013055898249149323,-0.011335526593029499,0.0031050126999616623,0,0,-1092,13,-10,1,0,0,-7,0.0,150.0,1500.0
11:30:51.923,GUIDED,-35.3632622,149.1652374,9,0.0015020770952105522,0.0012533641420304775,0.02482156828045845,0.013055898249149323,-0.011335526593029499,0.0031050126999616623,0,0,-1092,13,-10,1,0,0,-7,0.0,150.0,1500.0
11:30:52.125,GUIDED,-35.3632622,149.1652374,9,0.0015020770952105522,0.0012533641420304775,0.02482156828045845,0.013055898249149323,-0.011335526593029499,0.0031050126999616623,0,0,-1092,13,-10,1,0,0,-7,0.0,150.0,1500.0
11:30:52.328,GUIDED,-35.3632622,149.1652374,9,0.0015020770952105522,0.0012533641420304775,0.02482156828045845,0.013055898249149323,-0.011335526593029499,0.0031050126999616623,0,0,-1092,13,-10,1,0,0,-7,0.0,150.0,1500.0
11:30:52.531,GUIDED,-35.3632622,149.1652374,9,0.0015020770952105522,0.0012533641420304775,0.02482156828045845,0.013055898249149323,-0.011335526593029499,0.0031050126999616623,0,0,-1092,13,-10,1,0,0,-7,0.0,150.0,1500.0
11:30:52.736,GUIDED,-35.3632622,149.1652374,9,0.0015020770952105522,0.0012533641420304775,0.02482156828045845,0.013055898249149323,-0.011335526593029499,0.0031050126999616623,0,0,-1092,13,-10,1,0,0,-7,0.0,150.0,1500.0
11:30:52.941,GUIDED,-35.3632622,149.1652374,9,0.0015020770952105522,0.0012533641420304775,0.02482156828045845,0.013055898249149323,-0.011335526593029499,0.0031050126999616623,0,0,-1092,13,-10,1,0,0,-7,0.0,150.0,1500.0
11:30:53.142,GUIDED,-35.3632622,149.1652374,9,0.0015020770952105522,0.0012533641420304775,0.02482156828045845,0.013055898249149323,-0.011335526593029499,0.0031050126999616623,0,0,-1092,13,-10,1,0,0,-7,0.0,150.0,1500.0
11:30:53.345,GUIDED,-35.3632621,149.1652375,324,0.002726535080000758,0.0009993468411266804,0.024666661396622658,0.0053224642761051655,0.003987469710409641,0.002597108483314514,0,0,-1117,5,4,1,0,1,-91,0.0,150.0,1500.0
11:30:53.548,GUIDED,-35.3632619,149.165238,2011,0.040920767933130264,-0.004316653124988079,0.02468002960085869,0.043280228972435,-0.008688632398843765,0.004012808203697205,0,-2,-1004,43,-8,3,2,17,-149,0.0,150.0,1500.0
11:30:53.752,GUIDED,-35.3632619,149.165238,2011,0.040920767933130264,-0.004316653124988079,0.02468002960085869,0.043280228972435,-0.008688632398843765,0.004012808203697205,0,-2,-1004,43,-8,3,2,17,-149,0.0,150.0,1500.0
11:30:53.956,GUIDED,-35.3632619,149.165238,2011,0.040920767933130264,-0.004316653124988079,0.02468002960085869,0.043280228972435,-0.008688632398843765,0.004012808203697205,0,-2,-1004,43,-8,3,2,17,-149,0.0,150.0,1500.0
11:30:54.160,GUIDED,-35.3632619,149.165238,2011,0.040920767933130264,-0.004316653124988079,0.02468002960085869,0.043280228972435,-0.008688632398843765,0.004012808203697205,0,-2,-1004,43,-8,3,2,17,-149,0.0,150.0,1500.0
11:30:54.361,GUIDED,-35.3632619,149.165238,2011,0.040920767933130264,-0.004316653124988079,0.02468002960085869,0.043280228972435,-0.008688632398843765,0.004012808203697205,0,-2,-1004,43,-8,3,2,17,-149,0.0,150.0,1500.0
11:30:54.562,GUIDED,-35.3632619,149.165238,2011,0.040920767933130264,-0.004316653124988079,0.02468002960085869,0.043280228972435,-0.008688632398843765,0.004012808203697205,0,-2,-1004,43,-8,3,2,17,-149,0.0,150.0,1500.0
11:30:54.764,GUIDED,-35.3632619,149.165238,2011,0.040920767933130264,-0.004316653124988079,0.02468002960085869,0.043280228972435,-0.008688632398843765,0.004012808203697205,0,-2,-1004,43,-8,3,2,17,-149,0.0,150.0,1500.0
11:30:54.967,GUIDED,-35.3632619,149.165238,2011,0.040920767933130264,-0.004316653124988079,0.02468002960085869,0.043280228972435,-0.008688632398843765,0.004012808203697205,0,-2,-1004,43,-8,3,2,17,-149,0.0,150.0,1500.0
11:30:55.168,GUIDED,-35.3632614,149.1652406,3156,0.051370732486248016,0.0035748686641454697,-0.021395357325673103,-0.09016715735197067,0.10668662190437317,-0.11475098878145218,0,-2,-1004,43,-8,3,10,50,-146,0.0,150.0,1500.0
11:30:55.370,GUIDED,-35.363261,149.1652456,4671,-0.044955216348171234,0.023260265588760376,-0.09665649384260178,-0.059446025639772415,-0.06069875881075859,-0.013028659857809544,6,-6,-1001,-58,-60,-13,-7,28,-149,0.0,150.0,1500.0
11:30:55.572,GUIDED,-35.3632611,149.1652461,5056,-0.061690736562013626,0.001306477701291442,-0.0891154482960701,-0.06914759427309036,-0.10394670814275742,0.04726814851164818,4,-3,-1001,-68,-103,46,-10,13,-149,0.0,150.0,1500.0
11:30:55.774,GUIDED,-35.3632611,149.1652461,5056,-0.061690736562013626,0.001306477701291442,-0.0891154482960701,-0.06914759427309036,-0.10394670814275742,0.04726814851164818,4,-3,-1001,-68,-103,46,-10,13,-149,0.0,150.0,1500.0
11:30:55.976,GUIDED,-35.3632611,149.1652461,5056,-0.061690736562013626,0.001306477701291442,-0.0891154482960701,-0.06914759427309036,-0.10394670814275742,0.04726814851164818,4,-3,-1001,-68,-103,46,-10,13,-149,0.0,150.0,1500.0
11:30:56.180,GUIDED,-35.3632611,149.1652461,5056,-0.061690736562013626,0.001306477701291442,-0.0891154482960701,-0.06914759427309036,-0.10394670814275742,0.04726814851164818,4,-3,-1001,-68,-103,46,-10,13,-149,0.0,150.0,1500.0
11:30:56.382,GUIDED,-35.3632611,149.1652461,5056,-0.061690736562013626,0.001306477701291442,-0.0891154482960701,-0.06914759427309036,-0.10394670814275742,0.04726814851164818,4,-3,-1001,-68,-103,46,-10,13,-149,0.0,150.0,1500.0
11:30:56.584,GUIDED,-35.3632611,149.1652461,5056,-0.061690736562013626,0.001306477701291442,-0.0891154482960701,-0.06914759427309036,-0.10394670814275742,0.04726814851164818,4,-3,-1001,-68,-103,46,-10,13,-149,0.0,150.0,1500.0
11:30:56.786,GUIDED,-35.3632611,149.1652461,5056,-0.061690736562013626,0.001306477701291442,-0.0891154482960701,-0.06914759427309036,-0.10394670814275742,0.04726814851164818,4,-3,-1001,-68,-103,46,-10,13,-149,0.0,150.0,1500.0
11:30:56.988,GUIDED,-35.3632611,149.1652461,5056,-0.061690736562013626,0.001306477701291442,-0.0891154482960701,-0.06914759427309036,-0.10394670814275742,0.04726814851164818,4,-3,-1001,-68,-103,46,-10,13,-149,0.0,150.0,1500.0
11:30:57.190,GUIDED,-35.3632611,149.1652461,5056,-0.061690736562013626,0.001306477701291442,-0.0891154482960701,-0.06914759427309036,-0.10394670814275742,0.04726814851164818,4,-3,-1001,-68,-103,46,-10,13,-149,0.0,150.0,1500.0
11:30:57.393,GUIDED,-35.3632615,149.165241,7364,-0.012763695791363716,-0.009652131237089634,-0.07921751588582993,0.06404747068881989,0.015465445816516876,0.004049739334732294,-8,10,-1003,64,15,2,4,-59,-150,0.0,150.0,1500.0
11:30:57.595,GUIDED,-35.3632614,149.1652377,8141,0.01938807964324951,-0.00112887192517519,-0.07797840237617493,0.06466646492481232,0.01726127788424492,0.004380873404443264,-8,11,-1004,65,18,3,3,-53,-151,0.0,150.0,1500.0
11:30:57.797,GUIDED,-35.3632614,149.1652377,8141,0.01938807964324951,-0.00112887192517519,-0.07797840237617493,0.06466646492481232,0.01726127788424492,0.004380873404443264,-8,11,-1004,65,18,3,3,-53,-151,0.0,150.0,1500.0
11:30:58.005,GUIDED,-35.3632614,149.1652377,8141,0.01938807964324951,-0.00112887192517519,-0.07797840237617493,0.06466646492481232,0.01726127788424492,0.004380873404443264,-8,11,-1004,65,18,3,3,-53,-151,0.0,150.0,1500.0
11:30:58.208,GUIDED,-35.3632614,149.1652377,8141,0.01938807964324951,-0.00112887192517519,-0.07797840237617493,0.06466646492481232,0.01726127788424492,0.004380873404443264,-8,11,-1004,65,18,3,3,-53,-151,0.0,150.0,1500.0
11:30:58.410,GUIDED,-35.3632614,149.1652377,8141,0.01938807964324951,-0.00112887192517519,-0.07797840237617493,0.06466646492481232,0.01726127788424492,0.004380873404443264,-8,11,-1004,65,18,3,3,-53,-151,0.0,150.0,1500.0
11:30:58.616,GUIDED,-35.3632614,149.1652377,8141,0.01938807964324951,-0.00112887192517519,-0.07797840237617493,0.06466646492481232,0.01726127788424492,0.004380873404443264,-8,11,-1004,65,18,3,3,-53,-151,0.0,150.0,1500.0
11:30:58.821,GUIDED,-35.3632614,149.1652377,8141,0.01938807964324951,-0.00112887192517519,-0.07797840237617493,0.06466646492481232,0.01726127788424492,0.004380873404443264,-8,11,-1004,65,18,3,3,-53,-151,0.0,150.0,1500.0
11:30:59.023,GUIDED,-35.3632614,149.1652377,8141,0.01938807964324951,-0.00112887192517519,-0.07797840237617493,0.06466646492481232,0.01726127788424492,0.004380873404443264,-8,11,-1004,65,18,3,3,-53,-151,0.0,150.0,1500.0
11:30:59.226,GUIDED,-35.3632614,149.165234,10099,0.047867871820926666,0.026616832241415977,-0.0969029888510704,-0.06273937970399857,-0.03485049307346344,0.004487441852688789,1,0,-995,-62,-34,3,-10,8,-150,0.0,150.0,1500.0
11:30:59.429,GUIDED,-35.3632619,149.1652347,10867,0.012741836719214916,0.00492086773738265,-0.09135998785495758,-0.061635930091142654,-0.03373163193464279,0.012113847769796848,4,-1,-1001,-61,-33,11,-13,21,-149,0.0,150.0,1500.0
11:30:59.631,GUIDED,-35.3632622,149.1652352,11251,-5.9015681472374126e-05,-0.0019588777795434,-0.08939956873655319,-0.04162232205271721,-0.022840728983283043,0.005874198395758867,4,-2,-1002,-41,-22,4,-12,21,-149,0.0,150.0,1500.0
11:30:59.833,GUIDED,-35.3632622,149.1652352,11251,-5.9015681472374126e-05,-0.0019588777795434,-0.08939956873655319,-0.04162232205271721,-0.022840728983283043,0.005874198395758867,4,-2,-1002,-41,-22,4,-12,21,-149,0.0,150.0,1500.0
11:31:00.036,GUIDED,-35.3632622,149.1652352,11251,-5.9015681472374126e-05,-0.0019588777795434,-0.08939956873655319,-0.04162232205271721,-0.022840728983283043,0.005874198395758867,4,-2,-1002,-41,-22,4,-12,21,-149,0.0,150.0,1500.0
11:31:00.239,GUIDED,-35.3632622,149.1652352,11251,-5.9015681472374126e-05,-0.0019588777795434,-0.08939956873655319,-0.04162232205271721,-0.022840728983283043,0.005874198395758867,4,-2,-1002,-41,-22,4,-12,21,-149,0.0,150.0,1500.0
11:31:00.443,GUIDED,-35.3632622,149.1652352,11251,-5.9015681472374126e-05,-0.0019588777795434,-0.08939956873655319,-0.04162232205271721,-0.022840728983283043,0.005874198395758867,4,-2,-1002,-41,-22,4,-12,21,-149,0.0,150.0,1500.0
11:31:00.647,GUIDED,-35.3632622,149.1652352,11251,-5.9015681472374126e-05,-0.0019588777795434,-0.08939956873655319,-0.04162232205271721,-0.022840728983283043,0.005874198395758867,4,-2,-1002,-41,-22,4,-12,21,-149,0.0,150.0,1500.0
11:31:00.850,GUIDED,-35.3632622,149.1652352,11251,-5.9015681472374126e-05,-0.0019588777795434,-0.08939956873655319,-0.04162232205271721,-0.022840728983283043,0.005874198395758867,4,-2,-1002,-41,-22,4,-12,21,-149,0.0,150.0,1500.0
11:31:01.051,GUIDED,-35.3632622,149.1652352,11251,-5.9015681472374126e-05,-0.0019588777795434,-0.08939956873655319,-0.04162232205271721,-0.022840728983283043,0.005874198395758867,4,-2,-1002,-41,-22,4,-12,21,-149,0.0,150.0,1500.0
11:31:01.253,GUIDED,-35.3632622,149.1652352,11251,-5.9015681472374126e-05,-0.0019588777795434,-0.08939956873655319,-0.04162232205271721,-0.022840728983283043,0.005874198395758867,4,-2,-1002,-41,-22,4,-12,21,-149,0.0,150.0,1500.0
11:31:01.455,GUIDED,-35.3632626,149.1652366,13978,-0.003356460714712739,-0.004155964590609074,-0.12030942738056183,0.014067012816667557,0.009154463186860085,-0.02443188615143299,-1,0,-1000,14,9,-25,4,-4,-152,0.0,150.0,1500.0
11:31:01.657,GUIDED,-35.3632625,149.1652364,14368,0.000209033940336667,-0.0018117284635081887,-0.12687966227531433,0.015032093971967697,0.010325467213988304,-0.023710185661911964,-2,0,-1000,15,10,-24,5,-5,-152,0.0,150.0,1500.0
11:31:01.858,GUIDED,-35.3632625,149.1652364,14368,0.000209033940336667,-0.0018117284635081887,-0.12687966227531433,0.015032093971967697,0.010325467213988304,-0.023710185661911964,-2,0,-1000,15,10,-24,5,-5,-152,0.0,150.0,1500.0
11:31:02.061,GUIDED,-35.3632625,149.1652364,14368,0.000209033940336667,-0.0018117284635081887,-0.12687966227531433,0.015032093971967697,0.010325467213988304,-0.023710185661911964,-2,0,-1000,15,10,-24,5,-5,-152,0.0,150.0,1500.0
11:31:02.263,GUIDED,-35.3632625,149.1652364,14368,0.000209033940336667,-0.0018117284635081887,-0.12687966227531433,0.015032093971967697,0.010325467213988304,-0.023710185661911964,-2,0,-1000,15,10,-24,5,-5,-152,0.0,150.0,1500.0
11:31:02.465,GUIDED,-35.3632625,149.1652364,14368,0.000209033940336667,-0.0018117284635081887,-0.12687966227531433,0.015032093971967697,0.010325467213988304,-0.023710185661911964,-2,0,-1000,15,10,-24,5,-5,-152,0.0,150.0,1500.0
11:31:02.669,GUIDED,-35.3632625,149.1652364,14368,0.000209033940336667,-0.0018117284635081887,-0.12687966227531433,0.015032093971967697,0.010325467213988304,-0.023710185661911964,-2,0,-1000,15,10,-24,5,-5,-152,0.0,150.0,1500.0
11:31:02.873,GUIDED,-35.3632625,149.1652364,14368,0.000209033940336667,-0.0018117284635081887,-0.12687966227531433,0.015032093971967697,0.010325467213988304,-0.023710185661911964,-2,0,-1000,15,10,-24,5,-5,-152,0.0,150.0,1500.0
11:31:03.074,GUIDED,-35.3632625,149.1652364,14368,0.000209033940336667,-0.0018117284635081887,-0.12687966227531433,0.015032093971967697,0.010325467213988304,-0.023710185661911964,-2,0,-1000,15,10,-24,5,-5,-152,0.0,150.0,1500.0
11:31:03.277,GUIDED,-35.3632619,149.1652357,15927,0.008491621352732182,0.0061333272606134415,-0.149407759308815,0.003997134976089001,0.006810725666582584,-0.019489947706460953,-2,0,-1000,4,7,-20,4,-3,-152,0.0,150.0,1500.0
11:31:03.479,GUIDED,-35.3632616,149.1652354,17490,0.008245830424129963,0.007520141080021858,-0.16475167870521545,-0.0034437477588653564,-0.0016577590722590685,-0.011362421326339245,0,0,-1000,-2,-1,-12,0,3,-152,0.0,150.0,1500.0
11:31:03.682,GUIDED,-35.3632616,149.1652354,17490,0.008245830424129963,0.007520141080021858,-0.16475167870521545,-0.0034437477588653564,-0.0016577590722590685,-0.011362421326339245,0,0,-1000,-2,-1,-12,0,3,-152,0.0,150.0,1500.0
11:31:03.885,GUIDED,-35.3632616,149.1652354,17490,0.008245830424129963,0.007520141080021858,-0.16475167870521545,-0.0034437477588653564,-0.0016577590722590685,-0.011362421326339245,0,0,-1000,-2,-1,-12,0,3,-152,0.0,150.0,1500.0
11:31:04.087,GUIDED,-35.3632616,149.1652354,17490,0.008245830424129963,0.007520141080021858,-0.16475167870521545,-0.0034437477588653564,-0.0016577590722590685,-0.011362421326339245,0,0,-1000,-2,-1,-12,0,3,-152,0.0,150.0,1500.0
11:31:04.291,GUIDED,-35.3632616,149.1652354,17490,0.008245830424129963,0.007520141080021858,-0.16475167870521545,-0.0034437477588653564,-0.0016577590722590685,-0.011362421326339245,0,0,-1000,-2,-1,-12,0,3,-152,0.0,150.0,1500.0
11:31:04.495,GUIDED,-35.3632616,149.1652354,17490,0.008245830424129963,0.007520141080021858,-0.16475167870521545,-0.0034437477588653564,-0.0016577590722590685,-0.011362421326339245,0,0,-1000,-2,-1,-12,0,3,-152,0.0,150.0,1500.0
11:31:04.698,GUIDED,-35.3632616,149.1652354,17490,0.008245830424129963,0.007520141080021858,-0.16475167870521545,-0.0034437477588653564,-0.0016577590722590685,-0.011362421326339245,0,0,-1000,-2,-1,-12,0,3,-152,0.0,150.0,1500.0
11:31:04.900,GUIDED,-35.3632616,149.1652354,17490,0.008245830424129963,0.007520141080021858,-0.16475167870521545,-0.0034437477588653564,-0.0016577590722590685,-0.011362421326339245,0,0,-1000,-2,-1,-12,0,3,-152,0.0,150.0,1500.0
11:31:05.103,GUIDED,-35.3632616,149.1652354,17490,0.008245830424129963,0.007520141080021858,-0.16475167870521545,-0.0034437477588653564,-0.0016577590722590685,-0.011362421326339245,0,0,-1000,-2,-1,-12,0,3,-152,0.0,150.0,1500.0
11:31:05.305,GUIDED,-35.3632615,149.1652358,19442,0.003861392615363002,0.005093241110444069,-0.18195459246635437,-0.0002645141794346273,0.00047351920511573553,-0.01875019073486328,0,0,-1000,-1,-2,-15,-3,6,-152,0.0,150.0,1500.0
11:31:05.506,GUIDED,-35.3632616,149.1652361,20614,0.0017880043014883995,0.003882583463564515,-0.1943739652633667,-0.003852937603369355,-0.0015110117383301258,-0.019119102507829666,0,0,-999,-3,0,-19,-3,5,-152,0.0,150.0,1500.0
11:31:05.709,GUIDED,-35.3632616,149.1652361,20614,0.0017880043014883995,0.003882583463564515,-0.1943739652633667,-0.003852937603369355,-0.0015110117383301258,-0.019119102507829666,0,0,-999,-3,0,-19,-3,5,-152,0.0,150.0,1500.0
11:31:05.910,GUIDED,-35.3632616,149.1652361,20614,0.0017880043014883995,0.003882583463564515,-0.1943739652633667,-0.003852937603369355,-0.0015110117383301258,-0.019119102507829666,0,0,-999,-3,0,-19,-3,5,-152,0.0,150.0,1500.0
11:31:06.112,GUIDED,-35.3632616,149.1652361,20614,0.0017880043014883995,0.003882583463564515,-0.1943739652633667,-0.003852937603369355,-0.0015110117383301258,-0.019119102507829666,0,0,-999,-3,0,-19,-3,5,-152,0.0,150.0,1500.0
11:31:06.315,GUIDED,-35.3632616,149.1652361,20614,0.0017880043014883995,0.003882583463564515,-0.1943739652633667,-0.003852937603369355,-0.0015110117383301258,-0.019119102507829666,0,0,-999,-3,0,-19,-3,5,-152,0.0,150.0,1500.0
11:31:06.518,GUIDED,-35.3632616,149.1652361,20614,0.0017880043014883995,0.003882583463564515,-0.1943739652633667,-0.003852937603369355,-0.0015110117383301258,-0.019119102507829666,0,0,-999,-3,0,-19,-3,5,-152,0.0,150.0,1500.0
11:31:06.723,GUIDED,-35.3632616,149.1652361,20614,0.0017880043014883995,0.003882583463564515,-0.1943739652633667,-0.003852937603369355,-0.0015110117383301258,-0.019119102507829666,0,0,-999,-3,0,-19,-3,5,-152,0.0,150.0,1500.0
11:31:06.925,GUIDED,-35.3632616,149.1652361,20614,0.0017880043014883995,0.003882583463564515,-0.1943739652633667,-0.003852937603369355,-0.0015110117383301258,-0.019119102507829666,0,0,-999,-3,0,-19,-3,5,-152,0.0,150.0,1500.0
11:31:07.127,GUIDED,-35.3632616,149.1652361,20614,0.0017880043014883995,0.003882583463564515,-0.1943739652633667,-0.003852937603369355,-0.0015110117383301258,-0.019119102507829666,0,0,-999,-3,0,-19,-3,5,-152,0.0,150.0,1500.0
11:31:07.333,GUIDED,-35.3632617,149.1652365,22568,0.0011587615590542555,0.002871982753276825,-0.21808995306491852,-0.001198737183585763,-7.586367428302765e-05,-0.020128730684518814,0,0,-1000,0,0,-21,-3,3,-153,0.0,150.0,1500.0
11:31:07.537,GUIDED,-35.3632618,149.1652367,23745,0.0017037440557032824,0.0026800232008099556,-0.23291391134262085,0.0015354149509221315,0.0004254463128745556,-0.021075131371617317,0,0,-1000,2,1,-21,-2,3,-153,0.0,150.0,1500.0
11:31:07.740,GUIDED,-35.3632618,149.1652367,23745,0.0017037440557032824,0.0026800232008099556,-0.23291391134262085,0.0015354149509221315,0.0004254463128745556,-0.021075131371617317,0,0,-1000,2,1,-21,-2,3,-153,0.0,150.0,1500.0
11:31:07.942,GUIDED,-35.3632618,149.1652367,23745,0.0017037440557032824,0.0026800232008099556,-0.23291391134262085,0.0015354149509221315,0.0004254463128745556,-0.021075131371617317,0,0,-1000,2,1,-21,-2,3,-153,0.0,150.0,1500.0
11:31:08.145,GUIDED,-35.3632618,149.1652367,23745,0.0017037440557032824,0.0026800232008099556,-0.23291391134262085,0.0015354149509221315,0.0004254463128745556,-0.021075131371617317,0,0,-1000,2,1,-21,-2,3,-153,0.0,150.0,1500.0
11:31:08.346,GUIDED,-35.3632618,149.1652367,23745,0.0017037440557032824,0.0026800232008099556,-0.23291391134262085,0.0015354149509221315,0.0004254463128745556,-0.021075131371617317,0,0,-1000,2,1,-21,-2,3,-153,0.0,150.0,1500.0
11:31:08.547,GUIDED,-35.3632618,149.1652367,23745,0.0017037440557032824,0.0026800232008099556,-0.23291391134262085,0.0015354149509221315,0.0004254463128745556,-0.021075131371617317,0,0,-1000,2,1,-21,-2,3,-153,0.0,150.0,1500.0
11:31:08.749,GUIDED,-35.3632618,149.1652367,23745,0.0017037440557032824,0.0026800232008099556,-0.23291391134262085,0.0015354149509221315,0.0004254463128745556,-0.021075131371617317,0,0,-1000,2,1,-21,-2,3,-153,0.0,150.0,1500.0
11:31:08.952,GUIDED,-35.3632618,149.1652367,23745,0.0017037440557032824,0.0026800232008099556,-0.23291391134262085,0.0015354149509221315,0.0004254463128745556,-0.021075131371617317,0,0,-1000,2,1,-21,-2,3,-153,0.0,150.0,1500.0
11:31:09.155,GUIDED,-35.3632618,149.1652367,23745,0.0017037440557032824,0.0026800232008099556,-0.23291391134262085,0.0015354149509221315,0.0004254463128745556,-0.021075131371617317,0,0,-1000,2,1,-21,-2,3,-153,0.0,150.0,1500.0
11:31:09.358,GUIDED,-35.363262,149.1652365,26472,0.007466359995305538,0.004481886513531208,-0.24415968358516693,0.02086915262043476,-0.005700739100575447,0.021316401660442352,0,0,-1001,37,0,14,-5,-2,-153,0.0,150.0,1500.0
11:31:09.560,GUIDED,-35.3632621,149.1652365,26863,0.011274476535618305,0.0030188087839633226,-0.23827093839645386,0.012457571923732758,-0.004269808065146208,0.024787884205579758,0,1,-999,13,-3,24,-5,0,-153,0.0,150.0,1500.0
11:31:09.762,GUIDED,-35.3632621,149.1652365,26863,0.011274476535618305,0.0030188087839633226,-0.23827093839645386,0.012457571923732758,-0.004269808065146208,0.024787884205579758,0,1,-999,13,-3,24,-5,0,-153,0.0,150.0,1500.0
11:31:09.965,GUIDED,-35.3632621,149.1652365,26863,0.011274476535618305,0.0030188087839633226,-0.23827093839645386,0.012457571923732758,-0.004269808065146208,0.024787884205579758,0,1,-999,13,-3,24,-5,0,-153,0.0,150.0,1500.0
11:31:10.167,GUIDED,-35.3632621,149.1652365,26863,0.011274476535618305,0.0030188087839633226,-0.23827093839645386,0.012457571923732758,-0.004269808065146208,0.024787884205579758,0,1,-999,13,-3,24,-5,0,-153,0.0,150.0,1500.0
11:31:10.370,GUIDED,-35.3632621,149.1652365,26863,0.011274476535618305,0.0030188087839633226,-0.23827093839645386,0.012457571923732758,-0.004269808065146208,0.024787884205579758,0,1,-999,13,-3,24,-5,0,-153,0.0,150.0,1500.0
11:31:10.572,GUIDED,-35.3632621,149.1652365,26863,0.011274476535618305,0.0030188087839633226,-0.23827093839645386,0.012457571923732758,-0.004269808065146208,0.024787884205579758,0,1,-999,13,-3,24,-5,0,-153,0.0,150.0,1500.0
11:31:10.774,GUIDED,-35.3632621,149.1652365,26863,0.011274476535618305,0.0030188087839633226,-0.23827093839645386,0.012457571923732758,-0.004269808065146208,0.024787884205579758,0,1,-999,13,-3,24,-5,0,-153,0.0,150.0,1500.0
11:31:10.975,GUIDED,-35.3632621,149.1652365,26863,0.011274476535618305,0.0030188087839633226,-0.23827093839645386,0.012457571923732758,-0.004269808065146208,0.024787884205579758,0,1,-999,13,-3,24,-5,0,-153,0.0,150.0,1500.0
11:31:11.180,GUIDED,-35.3632621,149.1652365,26863,0.011274476535618305,0.0030188087839633226,-0.23827093839645386,0.012457571923732758,-0.004269808065146208,0.024787884205579758,0,1,-999,13,-3,24,-5,0,-153,0.0,150.0,1500.0
11:31:11.382,GUIDED,-35.3632624,149.1652367,28426,0.0074194953776896,0.001087449723854661,-0.2139429748058319,-0.008051878772675991,0.0008742846548557281,0.02318059653043747,0,0,-999,-11,0,23,-2,8,-152,0.0,150.0,1500.0
11:31:11.586,GUIDED,-35.3632623,149.1652374,29981,0.0007701924769207835,0.001988278003409505,-0.19330249726772308,-0.001403943169862032,0.0005980884889140725,0.02162180468440056,0,-1,-1001,0,1,21,0,8,-152,0.0,150.0,1500.0
11:31:11.787,GUIDED,-35.3632623,149.1652374,29981,0.0007701924769207835,0.001988278003409505,-0.19330249726772308,-0.001403943169862032,0.0005980884889140725,0.02162180468440056,0,-1,-1001,0,1,21,0,8,-152,0.0,150.0,1500.0
11:31:11.991,GUIDED,-35.3632623,149.1652374,29981,0.0007701924769207835,0.001988278003409505,-0.19330249726772308,-0.001403943169862032,0.0005980884889140725,0.02162180468440056,0,-1,-1001,0,1,21,0,8,-152,0.0,150.0,1500.0
11:31:12.193,GUIDED,-35.3632623,149.1652374,29981,0.0007701924769207835,0.001988278003409505,-0.19330249726772308,-0.001403943169862032,0.0005980884889140725,0.02162180468440056,0,-1,-1001,0,1,21,0,8,-152,0.0,150.0,1500.0
11:31:12.394,GUIDED,-35.3632623,149.1652374,29981,0.0007701924769207835,0.001988278003409505,-0.19330249726772308,-0.001403943169862032,0.0005980884889140725,0.02162180468440056,0,-1,-1001,0,1,21,0,8,-152,0.0,150.0,1500.0
11:31:12.596,GUIDED,-35.3632623,149.1652374,29981,0.0007701924769207835,0.001988278003409505,-0.19330249726772308,-0.001403943169862032,0.0005980884889140725,0.02162180468440056,0,-1,-1001,0,1,21,0,8,-152,0.0,150.0,1500.0
11:31:12.801,GUIDED,-35.3632623,149.1652374,29981,0.0007701924769207835,0.001988278003409505,-0.19330249726772308,-0.001403943169862032,0.0005980884889140725,0.02162180468440056,0,-1,-1001,0,1,21,0,8,-152,0.0,150.0,1500.0
11:31:13.003,GUIDED,-35.3632623,149.1652374,29981,0.0007701924769207835,0.001988278003409505,-0.19330249726772308,-0.001403943169862032,0.0005980884889140725,0.02162180468440056,0,-1,-1001,0,1,21,0,8,-152,0.0,150.0,1500.0
11:31:13.205,GUIDED,-35.3632623,149.1652374,29981,0.0007701924769207835,0.001988278003409505,-0.19330249726772308,-0.001403943169862032,0.0005980884889140725,0.02162180468440056,0,-1,-1001,0,1,21,0,8,-152,0.0,150.0,1500.0
11:31:13.408,GUIDED,-35.3632623,149.165238,32553,-0.00040639302460476756,0.001305019250139594,-0.1651572734117508,0.006432616151869297,0.0012750730384141207,0.01573791541159153,0,0,-1001,7,2,15,0,2,-153,0.0,150.0,1500.0
11:31:13.609,GUIDED,-35.3632623,149.165238,32944,6.743313861079514e-06,0.0011852973839268088,-0.16140328347682953,-0.0007758707506582141,0.00039794290205463767,0.015065706335008144,0,0,-999,0,1,14,0,1,-153,0.0,150.0,1500.0
11:31:13.811,GUIDED,-35.3632623,149.165238,32944,6.743313861079514e-06,0.0011852973839268088,-0.16140328347682953,-0.0007758707506582141,0.00039794290205463767,0.015065706335008144,0,0,-999,0,1,14,0,1,-153,0.0,150.0,1500.0
11:31:14.017,GUIDED,-35.3632623,149.165238,32944,6.743313861079514e-06,0.0011852973839268088,-0.16140328347682953,-0.0007758707506582141,0.00039794290205463767,0.015065706335008144,0,0,-999,0,1,14,0,1,-153,0.0,150.0,1500.0
11:31:14.219,GUIDED,-35.3632623,149.165238,32944,6.743313861079514e-06,0.0011852973839268088,-0.16140328347682953,-0.0007758707506582141,0.00039794290205463767,0.015065706335008144,0,0,-999,0,1,14,0,1,-153,0.0,150.0,1500.0
11:31:14.420,GUIDED,-35.3632623,149.165238,32944,6.743313861079514e-06,0.0011852973839268088,-0.16140328347682953,-0.0007758707506582141,0.00039794290205463767,0.015065706335008144,0,0,-999,0,1,14,0,1,-153,0.0,150.0,1500.0
11:31:14.622,GUIDED,-35.3632623,149.165238,32944,6.743313861079514e-06,0.0011852973839268088,-0.16140328347682953,-0.0007758707506582141,0.00039794290205463767,0.015065706335008144,0,0,-999,0,1,14,0,1,-153,0.0,150.0,1500.0
11:31:14.824,GUIDED,-35.3632623,149.165238,32944,6.743313861079514e-06,0.0011852973839268088,-0.16140328347682953,-0.0007758707506582141,0.00039794290205463767,0.015065706335008144,0,0,-999,0,1,14,0,1,-153,0.0,150.0,1500.0
11:31:15.025,GUIDED,-35.3632623,149.165238,32944,6.743313861079514e-06,0.0011852973839268088,-0.16140328347682953,-0.0007758707506582141,0.00039794290205463767,0.015065706335008144,0,0,-999,0,1,14,0,1,-153,0.0,150.0,1500.0
11:31:15.227,GUIDED,-35.3632623,149.165238,34502,0.0014212237438187003,0.0015858859987929463,-0.14758960902690887,0.0026466127019375563,0.0015075961127877235,0.014764636754989624,0,0,-1000,3,2,14,0,0,-153,0.0,150.0,1500.0
11:31:15.429,GUIDED,-35.3632622,149.1652379,35679,0.001176756341010332,0.0011601464357227087,-0.13890030980110168,-0.0003013384994119406,0.00012085429625585675,0.009256532415747643,0,0,-1000,0,0,8,0,0,-153,0.0,150.0,1500.0
11:31:15.631,GUIDED,-35.3632622,149.1652379,36068,0.0012426003813743591,0.0011097426759079099,-0.1360781192779541,0.0012703125830739737,0.0006995099829509854,0.011870146729052067,0,0,-1000,2,1,11,0,0,-153,0.0,150.0,1500.0
11:31:15.832,GUIDED,-35.3632622,149.1652379,36068,0.0012426003813743591,0.0011097426759079099,-0.1360781192779541,0.0012703125830739737,0.0006995099829509854,0.011870146729052067,0,0,-1000,2,1,11,0,0,-153,0.0,150.0,1500.0
11:31:16.035,GUIDED,-35.3632622,149.1652379,36068,0.0012426003813743591,0.0011097426759079099,-0.1360781192779541,0.0012703125830739737,0.0006995099829509854,0.011870146729052067,0,0,-1000,2,1,11,0,0,-153,0.0,150.0,1500.0
11:31:16.238,GUIDED,-35.3632622,149.1652379,36068,0.0012426003813743591,0.0011097426759079099,-0.1360781192779541,0.0012703125830739737,0.0006995099829509854,0.011870146729052067,0,0,-1000,2,1,11,0,0,-153,0.0,150.0,1500.0
11:31:16.442,GUIDED,-35.3632622,149.1652379,36068,0.0012426003813743591,0.0011097426759079099,-0.1360781192779541,0.0012703125830739737,0.0006995099829509854,0.011870146729052067,0,0,-1000,2,1,11,0,0,-153,0.0,150.0,1500.0
11:31:16.644,GUIDED,-35.3632622,149.1652379,36068,0.0012426003813743591,0.0011097426759079099,-0.1360781192779541,0.0012703125830739737,0.0006995099829509854,0.011870146729052067,0,0,-1000,2,1,11,0,0,-153,0.0,150.0,1500.0
11:31:16.846,GUIDED,-35.3632622,149.1652379,36068,0.0012426003813743591,0.0011097426759079099,-0.1360781192779541,0.0012703125830739737,0.0006995099829509854,0.011870146729052067,0,0,-1000,2,1,11,0,0,-153,0.0,150.0,1500.0
11:31:17.050,GUIDED,-35.3632622,149.1652379,36068,0.0012426003813743591,0.0011097426759079099,-0.1360781192779541,0.0012703125830739737,0.0006995099829509854,0.011870146729052067,0,0,-1000,2,1,11,0,0,-153,0.0,150.0,1500.0
11:31:17.258,GUIDED,-35.3632621,149.1652376,38398,0.002441046293824911,0.001553880050778389,-0.12125720828771591,0.0013357308926060796,-0.00044156541116535664,0.010381357744336128,0,0,-1000,2,0,10,0,0,-153,0.0,150.0,1500.0
11:31:17.460,GUIDED,-35.3632621,149.1652376,39178,0.0021381359547376633,0.0015538712032139301,-0.11690691113471985,0.0006354053039103746,-0.0003457986458670348,0.01275616604834795,0,0,-999,2,2,11,0,0,-153,0.0,150.0,1500.0
11:31:17.662,GUIDED,-35.3632621,149.1652376,39178,0.0021381359547376633,0.0015538712032139301,-0.11690691113471985,0.0006354053039103746,-0.0003457986458670348,0.01275616604834795,0,0,-1000,1,0,12,0,0,-153,0.0,150.0,1500.0
11:31:17.863,GUIDED,-35.3632621,149.1652376,39178,0.0021381359547376633,0.0015538712032139301,-0.11690691113471985,0.0006354053039103746,-0.0003457986458670348,0.01275616604834795,0,0,-1000,1,0,12,0,0,-153,0.0,150.0,1500.0
11:31:18.066,GUIDED,-35.3632621,149.1652376,39178,0.0021381359547376633,0.0015538712032139301,-0.11690691113471985,0.0006354053039103746,-0.0003457986458670348,0.01275616604834795,0,0,-1000,1,0,12,0,0,-153,0.0,150.0,1500.0
11:31:18.268,GUIDED,-35.3632621,149.1652376,39178,0.0021381359547376633,0.0015538712032139301,-0.11690691113471985,0.0006354053039103746,-0.0003457986458670348,0.01275616604834795,0,0,-1000,1,0,12,0,0,-153,0.0,150.0,1500.0
11:31:18.470,GUIDED,-35.3632621,149.1652376,39178,0.0021381359547376633,0.0015538712032139301,-0.11690691113471985,0.0006354053039103746,-0.0003457986458670348,0.01275616604834795,0,0,-1000,1,0,12,0,0,-153,0.0,150.0,1500.0
11:31:18.673,GUIDED,-35.3632621,149.1652376,39178,0.0021381359547376633,0.0015538712032139301,-0.11690691113471985,0.0006354053039103746,-0.0003457986458670348,0.01275616604834795,0,0,-1000,1,0,12,0,0,-153,0.0,150.0,1500.0
11:31:18.876,GUIDED,-35.3632621,149.1652376,39178,0.0021381359547376633,0.0015538712032139301,-0.11690691113471985,0.0006354053039103746,-0.0003457986458670348,0.01275616604834795,0,0,-1000,1,0,12,0,0,-153,0.0,150.0,1500.0
11:31:19.078,GUIDED,-35.3632621,149.1652376,39178,0.0021381359547376633,0.0015538712032139301,-0.11690691113471985,0.0006354053039103746,-0.0003457986458670348,0.01275616604834795,0,0,-1000,1,0,12,0,0,-153,0.0,150.0,1500.0
11:31:19.280,GUIDED,-35.3632621,149.1652375,40354,0.0018958566943183541,0.00144393730442971,-0.11127804964780807,-0.0014842310920357704,0.00031394866527989507,0.008487970568239689,0,0,-1000,1,0,12,0,0,-152,0.0,150.0,1500.0
11:31:19.482,GUIDED,-35.363262,149.1652374,42301,0.0016682477435097098,0.0016853048000484705,-0.10241886973381042,-0.0023303627967834473,-0.00019429810345172882,0.007365328259766102,0,0,-1000,4,2,9,-1,0,-152,0.0,150.0,1500.0
11:31:19.685,GUIDED,-35.363262,149.1652374,42301,0.0016682477435097098,0.0016853048000484705,-0.10241886973381042,-0.0023303627967834473,-0.00019429810345172882,0.007365328259766102,0,0,-1000,-1,0,7,-1,0,-152,0.0,90.0,1500.0
11:31:19.888,GUIDED,-35.363262,149.1652374,42301,0.0016682477435097098,0.0016853048000484705,-0.10241886973381042,-0.0023303627967834473,-0.00019429810345172882,0.007365328259766102,0,0,-1000,-1,0,7,-1,0,-152,0.0,90.0,1500.0
11:31:20.090,GUIDED,-35.363262,149.1652374,42301,0.0016682477435097098,0.0016853048000484705,-0.10241886973381042,-0.0023303627967834473,-0.00019429810345172882,0.007365328259766102,0,0,-1000,-1,0,7,-1,0,-152,0.0,90.0,1500.0
11:31:20.291,GUIDED,-35.363262,149.1652374,42301,0.0016682477435097098,0.0016853048000484705,-0.10241886973381042,-0.0023303627967834473,-0.00019429810345172882,0.007365328259766102,0,0,-1000,-1,0,7,-1,0,-152,0.0,90.0,1500.0
11:31:20.492,GUIDED,-35.363262,149.1652374,42301,0.0016682477435097098,0.0016853048000484705,-0.10241886973381042,-0.0023303627967834473,-0.00019429810345172882,0.007365328259766102,0,0,-1000,-1,0,7,-1,0,-152,0.0,90.0,1500.0
11:31:20.695,GUIDED,-35.363262,149.1652374,42301,0.0016682477435097098,0.0016853048000484705,-0.10241886973381042,-0.0023303627967834473,-0.00019429810345172882,0.007365328259766102,0,0,-1000,-1,0,7,-1,0,-152,0.0,90.0,1500.0
11:31:20.898,GUIDED,-35.363262,149.1652374,42301,0.0016682477435097098,0.0016853048000484705,-0.10241886973381042,-0.0023303627967834473,-0.00019429810345172882,0.007365328259766102,0,0,-1000,-1,0,7,-1,0,-152,0.0,90.0,1500.0
11:31:21.101,GUIDED,-35.363262,149.1652374,42301,0.0016682477435097098,0.0016853048000484705,-0.10241886973381042,-0.0023303627967834473,-0.00019429810345172882,0.007365328259766102,0,0,-1000,-1,0,7,-1,0,-152,0.0,90.0,1500.0
11:31:21.304,GUIDED,-35.363262,149.1652374,45032,0.0013689385959878564,0.0011526232119649649,-0.09167303144931793,-0.0012491249945014715,-0.00016387022333219647,0.0062531051225960255,0,0,-1000,0,0,6,-1,0,-152,0.0,90.0,1500.0
11:31:21.506,GUIDED,-35.363262,149.1652374,45422,0.0016810898669064045,0.0012287889840081334,-0.09025087207555771,0.00399204483255744,0.0008699941681697965,0.00714311096817255,0,0,-1000,4,2,7,-1,0,-153,0.0,90.0,1500.0
11:31:21.710,GUIDED,-35.363262,149.1652374,45422,0.0016810898669064045,0.0012287889840081334,-0.09025087207555771,0.00399204483255744,0.0008699941681697965,0.00714311096817255,0,0,-1000,4,2,7,-1,0,-153,0.0,90.0,1500.0
11:31:21.912,GUIDED,-35.363262,149.1652374,45422,0.0016810898669064045,0.0012287889840081334,-0.09025087207555771,0.00399204483255744,0.0008699941681697965,0.00714311096817255,0,0,-1000,4,2,7,-1,0,-153,0.0,90.0,1500.0
11:31:22.114,GUIDED,-35.363262,149.1652374,45422,0.0016810898669064045,0.0012287889840081334,-0.09025087207555771,0.00399204483255744,0.0008699941681697965,0.00714311096817255,0,0,-1000,4,2,7,-1,0,-153,0.0,90.0,1500.0
11:31:22.318,GUIDED,-35.363262,149.1652374,45422,0.0016810898669064045,0.0012287889840081334,-0.09025087207555771,0.00399204483255744,0.0008699941681697965,0.00714311096817255,0,0,-1000,4,2,7,-1,0,-153,0.0,90.0,1500.0
11:31:22.522,GUIDED,-35.363262,149.1652374,45422,0.0016810898669064045,0.0012287889840081334,-0.09025087207555771,0.00399204483255744,0.0008699941681697965,0.00714311096817255,0,0,-1000,4,2,7,-1,0,-153,0.0,90.0,1500.0
11:31:22.723,GUIDED,-35.363262,149.1652374,45422,0.0016810898669064045,0.0012287889840081334,-0.09025087207555771,0.00399204483255744,0.0008699941681697965,0.00714311096817255,0,0,-1000,4,2,7,-1,0,-153,0.0,90.0,1500.0
11:31:22.927,GUIDED,-35.363262,149.1652374,45422,0.0016810898669064045,0.0012287889840081334,-0.09025087207555771,0.00399204483255744,0.0008699941681697965,0.00714311096817255,0,0,-1000,4,2,7,-1,0,-153,0.0,90.0,1500.0
11:31:23.131,GUIDED,-35.363262,149.1652374,45422,0.0016810898669064045,0.0012287889840081334,-0.09025087207555771,0.00399204483255744,0.0008699941681697965,0.00714311096817255,0,0,-1000,4,2,7,-1,0,-153,0.0,90.0,1500.0
11:31:23.335,GUIDED,-35.363262,149.1652374,46586,0.0018331120954826474,0.001086695003323257,-0.0860443189740181,0.003774675540626049,0.0010829039383679628,0.00738039193674922,0,0,-1000,4,2,7,-1,1,-152,0.0,90.0,1500.0
11:31:23.537,GUIDED,-35.363262,149.1652373,48535,0.001461543026380241,0.0009739205706864595,-0.07948747277259827,0.000944022904150188,-0.0008098284597508609,0.009553077630698681,0,0,-999,0,1,5,-1,1,-152,90.0,90.0,1500.0
11:31:23.739,GUIDED,-35.363262,149.1652373,48535,0.001461543026380241,0.0009739205706864595,-0.07948747277259827,0.000944022904150188,-0.0008098284597508609,0.009553077630698681,0,0,-1000,1,0,9,-1,1,-152,90.0,90.0,1500.0
11:31:23.941,GUIDED,-35.363262,149.1652373,48535,0.001461543026380241,0.0009739205706864595,-0.07948747277259827,0.000944022904150188,-0.0008098284597508609,0.009553077630698681,0,0,-1000,1,0,9,-1,1,-152,90.0,90.0,1500.0
11:31:24.142,GUIDED,-35.363262,149.1652373,48535,0.001461543026380241,0.0009739205706864595,-0.07948747277259827,0.000944022904150188,-0.0008098284597508609,0.009553077630698681,0,0,-1000,1,0,9,-1,1,-152,90.0,90.0,1500.0
11:31:24.344,GUIDED,-35.363262,149.1652373,48535,0.001461543026380241,0.0009739205706864595,-0.07948747277259827,0.000944022904150188,-0.0008098284597508609,0.009553077630698681,0,0,-1000,1,0,9,-1,1,-152,90.0,90.0,1500.0
11:31:24.546,GUIDED,-35.363262,149.1652373,48535,0.001461543026380241,0.0009739205706864595,-0.07948747277259827,0.000944022904150188,-0.0008098284597508609,0.009553077630698681,0,0,-1000,1,0,9,-1,1,-152,90.0,90.0,1500.0
11:31:24.749,GUIDED,-35.363262,149.1652373,48535,0.001461543026380241,0.0009739205706864595,-0.07948747277259827,0.000944022904150188,-0.0008098284597508609,0.009553077630698681,0,0,-1000,1,0,9,-1,1,-152,90.0,90.0,1500.0
11:31:24.951,GUIDED,-35.363262,149.1652373,48535,0.001461543026380241,0.0009739205706864595,-0.07948747277259827,0.000944022904150188,-0.0008098284597508609,0.009553077630698681,0,0,-1000,1,0,9,-1,1,-152,90.0,90.0,1500.0
11:31:25.153,GUIDED,-35.363262,149.1652373,48535,0.001461543026380241,0.0009739205706864595,-0.07948747277259827,0.000944022904150188,-0.0008098284597508609,0.009553077630698681,0,0,-1000,1,0,9,-1,1,-152,90.0,90.0,1500.0
11:31:25.357,GUIDED,-35.363262,149.1652373,50482,0.0012316495412960649,0.0014196940464898944,-0.07307802885770798,-0.001086318981833756,0.003013791749253869,0.0073063247837126255,0,0,-999,0,3,7,-1,1,-152,90.0,90.0,1500.0
11:31:25.558,GUIDED,-35.363262,149.1652373,51651,0.00130736012943089,0.0009100481402128935,-0.06946719437837601,-0.00167652009986341,-0.00042096071410924196,0.004624993074685335,0,0,-1000,0,0,4,-1,0,-153,90.0,90.0,1500.0
11:31:25.761,LAND,-35.363262,149.1652373,51651,0.00130736012943089,0.0009100481402128935,-0.06946719437837601,-0.00167652009986341,-0.00042096071410924196,0.004624993074685335,0,0,-1000,0,0,4,-1,0,-153,90.0,90.0,1500.0
11:31:25.964,LAND,-35.363262,149.1652373,51651,0.00130736012943089,0.0009100481402128935,-0.06946719437837601,-0.00167652009986341,-0.00042096071410924196,0.004624993074685335,0,0,-1000,0,0,4,-1,0,-153,90.0,90.0,1500.0
11:31:26.169,LAND,-35.363262,149.1652373,51651,0.00130736012943089,0.0009100481402128935,-0.06946719437837601,-0.00167652009986341,-0.00042096071410924196,0.004624993074685335,0,0,-1000,0,0,4,-1,0,-153,90.0,90.0,1500.0
11:31:26.373,LAND,-35.363262,149.1652373,51651,0.00130736012943089,0.0009100481402128935,-0.06946719437837601,-0.00167652009986341,-0.00042096071410924196,0.004624993074685335,0,0,-1000,0,0,4,-1,0,-153,90.0,90.0,1500.0
11:31:26.574,LAND,-35.363262,149.1652373,51651,0.00130736012943089,0.0009100481402128935,-0.06946719437837601,-0.00167652009986341,-0.00042096071410924196,0.004624993074685335,0,0,-1000,0,0,4,-1,0,-153,90.0,90.0,1500.0
11:31:26.781,LAND,-35.363262,149.1652373,51651,0.00130736012943089,0.0009100481402128935,-0.06946719437837601,-0.00167652009986341,-0.00042096071410924196,0.004624993074685335,0,0,-1000,0,0,4,-1,0,-153,90.0,90.0,1500.0
11:31:26.982,LAND,-35.363262,149.1652373,51651,0.00130736012943089,0.0009100481402128935,-0.06946719437837601,-0.00167652009986341,-0.00042096071410924196,0.004624993074685335,0,0,-1000,0,0,4,-1,0,-153,90.0,90.0,1500.0
11:31:27.185,LAND,-35.363262,149.1652373,51651,0.00130736012943089,0.0009100481402128935,-0.06946719437837601,-0.00167652009986341,-0.00042096071410924196,0.004624993074685335,0,0,-1000,0,0,4,-1,0,-153,500.0,90.0,1500.0
11:31:27.389,LAND,-35.3632621,149.1652372,53954,-0.05574823543429375,0.06547971814870834,0.09664932638406754,-0.19861698150634766,0.18116703629493713,0.662323534488678,1,0,-952,-197,182,662,-11,-9,-134,500.0,90.0,1500.0
11:31:27.590,LAND,-35.363263,149.1652358,54528,-0.036724455654621124,0.01918613538146019,0.29420024156570435,0.10489363968372345,-0.21977241337299347,0.20359881222248077,5,9,-909,105,-218,203,-30,-37,-89,500.0,90.0,1500.0
11:31:27.794,LAND,-35.363263,149.1652358,54528,-0.036724455654621124,0.01918613538146019,0.29420024156570435,0.10489363968372345,-0.21977241337299347,0.20359881222248077,5,9,-909,105,-218,203,-30,-37,-89,500.0,90.0,1500.0
11:31:27.998,LAND,-35.363263,149.1652358,54528,-0.036724455654621124,0.01918613538146019,0.29420024156570435,0.10489363968372345,-0.21977241337299347,0.20359881222248077,5,9,-909,105,-218,203,-30,-37,-89,500.0,90.0,1500.0
11:31:28.202,LAND,-35.363263,149.1652358,54528,-0.036724455654621124,0.01918613538146019,0.29420024156570435,0.10489363968372345,-0.21977241337299347,0.20359881222248077,5,9,-909,105,-218,203,-30,-37,-89,500.0,90.0,1500.0
11:31:28.405,LAND,-35.363263,149.1652358,54528,-0.036724455654621124,0.01918613538146019,0.29420024156570435,0.10489363968372345,-0.21977241337299347,0.20359881222248077,5,9,-909,105,-218,203,-30,-37,-89,500.0,90.0,1500.0
11:31:28.608,LAND,-35.363263,149.1652358,54528,-0.036724455654621124,0.01918613538146019,0.29420024156570435,0.10489363968372345,-0.21977241337299347,0.20359881222248077,5,9,-909,105,-218,203,-30,-37,-89,500.0,90.0,1500.0
11:31:28.811,LAND,-35.363263,149.1652358,54528,-0.036724455654621124,0.01918613538146019,0.29420024156570435,0.10489363968372345,-0.21977241337299347,0.20359881222248077,5,9,-909,105,-218,203,-30,-37,-89,500.0,90.0,1500.0
11:31:29.012,LAND,-35.363263,149.1652358,54528,-0.036724455654621124,0.01918613538146019,0.29420024156570435,0.10489363968372345,-0.21977241337299347,0.20359881222248077,5,9,-909,105,-218,203,-30,-37,-89,500.0,90.0,1500.0
11:31:29.214,LAND,-35.363263,149.1652358,54528,-0.036724455654621124,0.01918613538146019,0.29420024156570435,0.10489363968372345,-0.21977241337299347,0.20359881222248077,5,9,-909,105,-218,203,-30,-37,-89,500.0,90.0,1500.0
11:31:29.416,LAND,-35.3632645,149.1652323,55032,0.029200371354818344,-0.0422184057533741,0.32473963499069214,-0.7345893383026123,0.04185307025909424,-0.038629621267318726,0,-13,-943,-730,42,-38,10,9,14,500.0,90.0,1500.0
11:31:29.620,LAND,-35.3632638,149.1652331,54908,0.023779675364494324,-0.018083294853568077,0.3046380281448364,0.30646994709968567,0.04687516391277313,-0.03437772020697594,-4,37,-959,313,48,-34,18,26,33,480.0,90.0,1500.0
11:31:29.822,LAND,-35.3632638,149.1652331,54908,0.023779675364494324,-0.018083294853568077,0.3046380281448364,0.30646994709968567,0.04687516391277313,-0.03437772020697594,-4,37,-959,313,48,-34,18,26,33,480.0,90.0,1500.0
11:31:30.024,LAND,-35.3632638,149.1652331,54908,0.023779675364494324,-0.018083294853568077,0.3046380281448364,0.30646994709968567,0.04687516391277313,-0.03437772020697594,-4,37,-959,313,48,-34,18,26,33,480.0,90.0,1500.0
11:31:30.228,LAND,-35.3632638,149.1652331,54908,0.023779675364494324,-0.018083294853568077,0.3046380281448364,0.30646994709968567,0.04687516391277313,-0.03437772020697594,-4,37,-959,313,48,-34,18,26,33,480.0,90.0,1500.0
11:31:30.433,LAND,-35.3632638,149.1652331,54908,0.023779675364494324,-0.018083294853568077,0.3046380281448364,0.30646994709968567,0.04687516391277313,-0.03437772020697594,-4,37,-959,313,48,-34,18,26,33,480.0,90.0,1500.0
11:31:30.636,LAND,-35.3632638,149.1652331,54908,0.023779675364494324,-0.018083294853568077,0.3046380281448364,0.30646994709968567,0.04687516391277313,-0.03437772020697594,-4,37,-959,313,48,-34,18,26,33,480.0,90.0,1500.0
11:31:30.839,LAND,-35.3632638,149.1652331,54908,0.023779675364494324,-0.018083294853568077,0.3046380281448364,0.30646994709968567,0.04687516391277313,-0.03437772020697594,-4,37,-959,313,48,-34,18,26,33,480.0,90.0,1500.0
11:31:31.041,LAND,-35.3632638,149.1652331,54908,0.023779675364494324,-0.018083294853568077,0.3046380281448364,0.30646994709968567,0.04687516391277313,-0.03437772020697594,-4,37,-959,313,48,-34,18,26,33,480.0,90.0,1500.0
11:31:31.243,LAND,-35.3632618,149.1652372,54168,0.007869352586567402,0.01583320088684559,0.2620379626750946,1.2714056968688965,0.009275341406464577,-0.03585111349821091,1,66,-959,1276,10,-35,14,27,81,480.0,90.0,1500.0
11:31:31.444,LAND,-35.3632614,149.1652388,53675,-0.0060918256640434265,0.017370864748954773,0.24680928885936737,1.4598627090454102,0.02024638094007969,-0.02125031314790249,0,92,-853,1469,21,-20,8,19,125,480.0,90.0,1500.0
11:31:31.647,LAND,-35.3632613,149.1652395,53300,-0.019975541159510612,0.018251636996865273,0.24065236747264862,0.47504156827926636,0.00415080925449729,-0.017376629635691643,1,75,-821,485,5,-17,6,17,166,480.0,90.0,1500.0
11:31:31.848,LAND,-35.3632613,149.1652395,53300,-0.019975541159510612,0.018251636996865273,0.24065236747264862,0.47504156827926636,0.00415080925449729,-0.017376629635691643,1,75,-821,485,5,-17,6,17,166,480.0,90.0,1500.0
11:31:32.050,LAND,-35.3632613,149.1652395,53300,-0.019975541159510612,0.018251636996865273,0.24065236747264862,0.47504156827926636,0.00415080925449729,-0.017376629635691643,1,75,-821,485,5,-17,6,17,166,480.0,90.0,1500.0
11:31:32.252,LAND,-35.3632613,149.1652395,53300,-0.019975541159510612,0.018251636996865273,0.24065236747264862,0.47504156827926636,0.00415080925449729,-0.017376629635691643,1,75,-821,485,5,-17,6,17,166,480.0,90.0,1500.0
11:31:32.455,LAND,-35.3632613,149.1652395,53300,-0.019975541159510612,0.018251636996865273,0.24065236747264862,0.47504156827926636,0.00415080925449729,-0.017376629635691643,1,75,-821,485,5,-17,6,17,166,480.0,90.0,1500.0
11:31:32.658,LAND,-35.3632613,149.1652395,53300,-0.019975541159510612,0.018251636996865273,0.24065236747264862,0.47504156827926636,0.00415080925449729,-0.017376629635691643,1,75,-821,485,5,-17,6,17,166,480.0,90.0,1500.0
11:31:32.860,LAND,-35.3632613,149.1652395,53300,-0.019975541159510612,0.018251636996865273,0.24065236747264862,0.47504156827926636,0.00415080925449729,-0.017376629635691643,1,75,-821,485,5,-17,6,17,166,480.0,90.0,1500.0
11:31:33.063,LAND,-35.3632613,149.1652395,53300,-0.019975541159510612,0.018251636996865273,0.24065236747264862,0.47504156827926636,0.00415080925449729,-0.017376629635691643,1,75,-821,485,5,-17,6,17,166,370.0,90.0,1500.0
11:31:33.265,LAND,-35.3632613,149.1652395,53300,-0.019975541159510612,0.018251636996865273,0.24065236747264862,0.47504156827926636,0.00415080925449729,-0.017376629635691643,1,75,-821,485,5,-17,6,17,166,370.0,90.0,1500.0
11:31:33.469,LAND,-35.3632618,149.165242,48070,-0.03544178232550621,-0.0024213173892349005,0.19439499080181122,-2.262648820877075,-0.018927250057458878,-0.014797377400100231,1,-121,-1037,-2268,-17,-14,0,-15,274,370.0,90.0,1500.0
11:31:33.670,LAND,-35.3632619,149.1652419,47370,-0.04101686552166939,-0.004254289902746677,0.18783320486545563,-1.4591436386108398,-0.01862684078514576,-0.015699107199907303,0,-104,-1029,-1469,-17,-15,1,-19,267,370.0,90.0,1500.0
11:31:33.873,LAND,-35.3632619,149.1652419,47370,-0.04101686552166939,-0.004254289902746677,0.18783320486545563,-1.4591436386108398,-0.01862684078514576,-0.015699107199907303,0,-104,-1029,-1469,-17,-15,1,-19,267,370.0,90.0,1500.0
11:31:34.078,LAND,-35.3632619,149.1652419,47370,-0.04101686552166939,-0.004254289902746677,0.18783320486545563,-1.4591436386108398,-0.01862684078514576,-0.015699107199907303,0,-104,-1029,-1469,-17,-15,1,-19,267,370.0,90.0,1500.0
11:31:34.279,LAND,-35.3632619,149.1652419,47370,-0.04101686552166939,-0.004254289902746677,0.18783320486545563,-1.4591436386108398,-0.01862684078514576,-0.015699107199907303,0,-104,-1029,-1469,-17,-15,1,-19,267,370.0,90.0,1500.0
11:31:34.481,LAND,-35.3632619,149.1652419,47370,-0.04101686552166939,-0.004254289902746677,0.18783320486545563,-1.4591436386108398,-0.01862684078514576,-0.015699107199907303,0,-104,-1029,-1469,-17,-15,1,-19,267,370.0,90.0,1500.0
11:31:34.684,LAND,-35.3632619,149.1652419,47370,-0.04101686552166939,-0.004254289902746677,0.18783320486545563,-1.4591436386108398,-0.01862684078514576,-0.015699107199907303,0,-104,-1029,-1469,-17,-15,1,-19,267,370.0,90.0,1500.0
11:31:34.885,LAND,-35.3632619,149.1652419,47370,-0.04101686552166939,-0.004254289902746677,0.18783320486545563,-1.4591436386108398,-0.01862684078514576,-0.015699107199907303,0,-104,-1029,-1469,-17,-15,1,-19,267,370.0,90.0,1500.0
11:31:35.088,LAND,-35.3632619,149.1652419,47370,-0.04101686552166939,-0.004254289902746677,0.18783320486545563,-1.4591436386108398,-0.01862684078514576,-0.015699107199907303,0,-104,-1029,-1469,-17,-15,1,-19,267,370.0,90.0,1500.0
11:31:35.289,LAND,-35.3632622,149.1652392,43469,-0.016654793173074722,-0.004792440216988325,0.16250276565551758,-1.3931840658187866,0.01019997801631689,-0.03956020623445511,0,66,-967,-25,5,-2,5,-13,245,370.0,90.0,1500.0
11:31:35.490,LAND,-35.3632623,149.1652388,42215,-0.01794683374464512,-0.0037771177012473345,0.15883439779281616,-1.9400341510772705,0.0018133046105504036,-0.002466925187036395,0,6,-980,-1384,11,-39,5,-5,240,360.0,90.0,1500.0
11:31:35.692,LAND,-35.3632623,149.1652388,42215,-0.01794683374464512,-0.0037771177012473345,0.15883439779281616,-1.9400341510772705,0.0018133046105504036,-0.002466925187036395,2,-42,-1012,-1935,2,-2,5,-5,240,360.0,90.0,1500.0
11:31:35.893,LAND,-35.3632623,149.1652388,42215,-0.01794683374464512,-0.0037771177012473345,0.15883439779281616,-1.9400341510772705,0.0018133046105504036,-0.002466925187036395,2,-42,-1012,-1935,2,-2,5,-5,240,360.0,90.0,1500.0
11:31:36.096,LAND,-35.3632623,149.1652388,42215,-0.01794683374464512,-0.0037771177012473345,0.15883439779281616,-1.9400341510772705,0.0018133046105504036,-0.002466925187036395,2,-42,-1012,-1935,2,-2,5,-5,240,360.0,90.0,1500.0
11:31:36.298,LAND,-35.3632623,149.1652388,42215,-0.01794683374464512,-0.0037771177012473345,0.15883439779281616,-1.9400341510772705,0.0018133046105504036,-0.002466925187036395,2,-42,-1012,-1935,2,-2,5,-5,240,360.0,90.0,1500.0
11:31:36.500,LAND,-35.3632623,149.1652388,42215,-0.01794683374464512,-0.0037771177012473345,0.15883439779281616,-1.9400341510772705,0.0018133046105504036,-0.002466925187036395,2,-42,-1012,-1935,2,-2,5,-5,240,360.0,90.0,1500.0
11:31:36.703,LAND,-35.3632623,149.1652388,42215,-0.01794683374464512,-0.0037771177012473345,0.15883439779281616,-1.9400341510772705,0.0018133046105504036,-0.002466925187036395,2,-42,-1012,-1935,2,-2,5,-5,240,360.0,90.0,1500.0
11:31:36.910,LAND,-35.3632623,149.1652388,42215,-0.01794683374464512,-0.0037771177012473345,0.15883439779281616,-1.9400341510772705,0.0018133046105504036,-0.002466925187036395,2,-42,-1012,-1935,2,-2,5,-5,240,360.0,90.0,1500.0
11:31:37.113,LAND,-35.3632623,149.1652388,42215,-0.01794683374464512,-0.0037771177012473345,0.15883439779281616,-1.9400341510772705,0.0018133046105504036,-0.002466925187036395,2,-42,-1012,-1935,2,-2,5,-5,240,360.0,90.0,1500.0
11:31:37.315,LAND,-35.3632625,149.1652389,39802,0.02058238908648491,-0.0029410659335553646,0.1459246277809143,0.6091864705085754,-0.0019099467899650335,-0.016970083117485046,1,-39,-1002,599,0,-16,6,-7,234,360.0,90.0,1500.0
11:31:37.519,LAND,-35.3632626,149.1652389,37405,-0.028535611927509308,-0.004687231034040451,0.1317228078842163,0.48933145403862,0.012519863434135914,-0.010691133327782154,-2,88,-983,501,13,-10,7,-7,234,360.0,90.0,1500.0
11:31:37.720,LAND,-35.3632626,149.1652389,37405,-0.028535611927509308,-0.004687231034040451,0.1317228078842163,0.48933145403862,0.012519863434135914,-0.010691133327782154,-2,88,-983,501,13,-10,7,-7,234,360.0,90.0,1500.0
11:31:37.922,LAND,-35.3632626,149.1652389,37405,-0.028535611927509308,-0.004687231034040451,0.1317228078842163,0.48933145403862,0.012519863434135914,-0.010691133327782154,-2,88,-983,501,13,-10,7,-7,234,360.0,90.0,1500.0
11:31:38.123,LAND,-35.3632626,149.1652389,37405,-0.028535611927509308,-0.004687231034040451,0.1317228078842163,0.48933145403862,0.012519863434135914,-0.010691133327782154,-2,88,-983,501,13,-10,7,-7,234,360.0,90.0,1500.0
11:31:38.325,LAND,-35.3632626,149.1652389,37405,-0.028535611927509308,-0.004687231034040451,0.1317228078842163,0.48933145403862,0.012519863434135914,-0.010691133327782154,-2,88,-983,501,13,-10,7,-7,234,360.0,90.0,1500.0
11:31:38.526,LAND,-35.3632626,149.1652389,37405,-0.028535611927509308,-0.004687231034040451,0.1317228078842163,0.48933145403862,0.012519863434135914,-0.010691133327782154,-2,88,-983,501,13,-10,7,-7,234,360.0,90.0,1500.0
11:31:38.728,LAND,-35.3632626,149.1652389,37405,-0.028535611927509308,-0.004687231034040451,0.1317228078842163,0.48933145403862,0.012519863434135914,-0.010691133327782154,-2,88,-983,501,13,-10,7,-7,234,500.0,90.0,1500.0
11:31:38.931,LAND,-35.3632626,149.1652389,37405,-0.028535611927509308,-0.004687231034040451,0.1317228078842163,0.48933145403862,0.012519863434135914,-0.010691133327782154,-2,88,-983,501,13,-10,7,-7,234,500.0,90.0,1500.0
11:31:39.134,LAND,-35.3632626,149.1652389,37405,-0.028535611927509308,-0.004687231034040451,0.1317228078842163,0.48933145403862,0.012519863434135914,-0.010691133327782154,-2,88,-983,501,13,-10,7,-7,234,500.0,90.0,1500.0
11:31:39.335,LAND,-35.3632627,149.1652378,33220,-0.010541332885622978,-0.005948204547166824,0.11557593941688538,-0.5832578539848328,0.006763020530343056,0.002900661900639534,-1,14,-947,-574,7,3,6,-3,353,500.0,90.0,1500.0
11:31:39.539,LAND,-35.3632626,149.1652374,31396,0.007693607825785875,-0.003558365860953927,0.11077240854501724,0.18539001047611237,0.05894582346081734,-0.009198126383125782,-5,69,-1038,196,59,-8,6,2,359,500.0,90.0,1500.0
11:31:39.740,LAND,-35.3632626,149.1652374,31396,0.007693607825785875,-0.003558365860953927,0.11077240854501724,0.18539001047611237,0.05894582346081734,-0.009198126383125782,-5,69,-1038,196,59,-8,6,2,359,500.0,90.0,1500.0
