time_stamp,RTL_ALT,roll,pitch,yaw,rollspeed,pitchspeed,yawspeed,lat,lon,relative_alt,vx,vy,vz,MODE,xacc,yacc,zacc,xgyro,ygyro,zgyro
14:46:07,1500.0,-0.000641917809844017,0.000924525607842952,0.024608006700873375,0.00043755193473771214,0.00035787041997537017,0.0018839847762137651,-35.3632621,149.1652375,12.5,-1.0,1.5,1.0,STABILIZE,0.0,1.0,-1000.0,0.5,0.5,0.0
14:46:15,1500.0,-0.0009294067858718336,0.0011218258878216147,0.022335619665682316,0.0003129044489469379,0.0002555263345129788,0.0015563194756396115,-35.3632621,149.1652375,13.0,0.0,0.0,-1.0,AUTO,0.0,2.0,-1000.0,0.0,0.5,0.0
14:46:17,1500.0,-0.00043021695455536246,0.001675992039963603,0.021787685342133045,0.00024237402249127626,0.00031412625685334206,0.0014421447413042188,-35.3632621,149.1652375,16.0,0.0,1.0,0.0,AUTO,0.0,1.5,-1000.0,0.5,1.0,0.5
14:46:18,159546.0,0.004083611274836585,0.0008855296837282367,0.02148696966469288,0.012345186929451302,8.333357254741713e-05,0.0013288344925967976,-35.3632621,149.1652375,610.0,0.0,1.25,-109.75,AUTO,0.0,0.0,-1090.75,13.0,0.5,0.5
14:46:19,159546.0,0.0289140734821558,-0.0020116649102419615,0.02144018281251192,0.04609200172126293,-0.007369732717052102,0.0027414641808718443,-35.36326205,149.1652376,1616.5,0.5,9.0,-146.0,AUTO,0.0,-0.5,-1011.5,46.5,-6.0,2.0
14:46:21,159546.0,-0.035789757035672665,0.006046273396350443,-0.07026919722557068,-0.04400085750967264,-0.016711599193513393,-0.03288234397768974,-35.36326085,149.16524545,4663.0,1.5,32.5,-148.5,AUTO,4.0,-8.5,-1001.5,-43.0,-15.5,-33.0
14:46:23,159546.0,-0.006016511237248778,0.006564757088199258,-0.10709536820650101,0.06814922392368317,0.01219702698290348,-0.0012936640559928492,-35.36326135,149.16523985,7733.5,-11.0,-61.0,-149.5,AUTO,-6.0,14.0,-1003.5,68.5,12.5,-1.0
14:46:24,43727.0,0.06648254487663507,0.003499627811834216,-0.09594162553548813,0.01648624724475667,-0.047075962473172694,0.04519671481102705,-35.36326325,149.1652341,9683.5,-19.75,-6.25,-151.0,AUTO,1.25,5.75,-998.5,17.25,-46.25,44.5
14:46:25,43727.0,0.030190647579729557,-0.056907081976532936,-0.044413693249225616,-0.12157338485121727,-0.024385983124375343,0.04356929287314415,-35.3632642,149.16523504999998,10840.5,3.0,34.5,-147.0,AUTO,3.0,-4.5,-996.5,-120.5,-23.5,43.0
14:46:27,43727.0,-0.0055680419245618396,0.022254934534430504,-0.16768458485603333,0.04518814571201801,0.012652731966227293,-0.03231422416865826,-35.36326015,149.16523675,13939.5,9.0,-17.5,-152.0,AUTO,-5.5,0.0,-1001.0,45.5,13.0,-32.0
14:46:29,43727.0,0.00710385967977345,0.004138494958169758,-0.17156387120485306,-0.013025655411183834,-0.009813806973397732,-0.003582760225981474,-35.363261,149.1652354,17049.0,-13.5,8.5,-151.0,AUTO,2.0,0.0,-1000.0,-11.5,-8.5,-3.5
14:46:30,41940.0,-0.0011736970336642116,-0.0026139598339796066,-0.18942105397582054,0.00019012077245861292,0.0003646213299361989,-0.022526231594383717,-35.363261949999995,149.165236275,18992.0,-6.25,6.0,-151.75,AUTO,1.5,0.0,-1000.5,0.75,0.75,-22.75
14:46:31,41940.0,-0.00023213661188492551,-0.0012317765795160085,-0.20839360356330872,0.0044897994957864285,0.004121290287002921,-0.02764742821455002,-35.36326215,149.1652365,20161.0,-2.5,2.5,-152.0,AUTO,0.0,0.0,-1000.0,5.0,4.5,-27.5
14:46:33,41940.0,0.003779413178563118,0.0034596436889842153,-0.25649790465831757,0.0011405754485167563,-7.8380893683061e-05,-0.017862562090158463,-35.3632622,149.1652365,23286.0,-0.5,2.5,-152.0,AUTO,0.0,0.0,-1000.0,1.5,0.0,-18.0
14:46:35,41940.0,0.00621910160407424,0.005156307015568018,-0.2606039196252823,0.018830446060746908,-0.002134276437573135,0.025407749228179455,-35.3632622,149.1652366,26395.5,-4.0,0.0,-152.0,AUTO,0.0,0.5,-1000.0,19.0,-1.0,24.5
14:46:36,129803.0,0.006268715369515121,0.0017708173545543104,-0.2292984500527382,-0.006418810982722789,3.1749310437589884e-05,0.02264065807685256,-35.3632624,149.16523692500002,28339.0,-1.75,7.5,-152.0,AUTO,0.75,-0.5,-999.75,-4.75,0.75,21.75
14:46:37,129803.0,0.0010887566459132358,0.0015743213007226586,-0.2134539857506752,-0.004913531825877726,0.0003819649282377213,0.02027956210076809,-35.3632624,149.16523745,29502.0,0.0,8.0,-152.0,AUTO,1.0,-1.0,-1000.0,-4.0,0.5,19.5
14:46:39,129803.0,-0.00020617216068785638,0.0010863446514122188,-0.17952842265367508,0.0034803167800419033,0.0015553985722362995,0.015572134405374527,-35.36326235,149.1652381,32612.5,0.0,1.5,-152.0,AUTO,0.0,0.0,-999.5,4.0,2.0,15.0
14:46:41,129803.0,-0.051800766959786415,0.05909738689661026,0.029330812394618988,-0.09081432782113552,0.03496995009481907,0.4735025018453598,-35.36326245,149.16523769999998,35666.5,-15.0,-13.5,-134.0,AUTO,1.0,2.0,-957.5,-89.5,36.0,473.0
14:46:42,113849.0,0.03042409406043589,-0.04792079981416464,0.20002781972289085,0.0444350850302726,-0.012475093826651573,-0.023653353346162476,-35.363264900000004,149.16523370000002,36968.75,-9.25,-17.5,-75.0,AUTO,0.75,5.75,-964.0,45.0,-11.25,-23.5
14:46:43,113849.0,0.03667764365673065,-0.030513479374349117,0.17603182047605515,-0.04610416013747454,0.042052216827869415,-0.025601639412343502,-35.36326475,149.16523325,37462.5,15.5,13.0,-52.0,AUTO,-2.5,-3.5,-977.0,-45.0,43.0,-25.0
14:46:45,113849.0,-0.014218018390238285,0.016486722975969315,0.1380077749490738,-0.4104864373803139,0.0013518083724193275,-0.012991070747375488,-35.3632612,149.1652381,38066.5,10.0,19.5,-6.0,AUTO,0.0,-14.0,-965.0,-408.5,2.0,-12.5
14:46:47,113849.0,-0.04797112010419369,0.04289126768708229,0.10650290548801422,-0.08160676062107086,0.01245107315480709,0.003943038289435208,-35.36326425,149.16523740000002,37884.5,-46.0,-34.0,-1.0,AUTO,9.5,28.5,-1012.5,-80.0,13.0,3.5
14:46:48,130477.0,-0.10178887285292149,0.00748501974157989,-0.639453113079071,-0.060506194829940796,0.0044916445622220635,-0.7903976887464523,-35.363272949999995,149.16523135,37924.25,-102.25,-77.5,-6.0,AUTO,-7.0,29.75,-1007.5,-59.5,5.25,-789.5
14:46:49,130477.0,-0.12755391746759415,-0.058369193226099014,-1.202610731124878,-0.27436551079154015,-0.015070441411808133,-0.7118530869483948,-35.3632817,149.16522455,37978.5,-154.5,-111.5,-9.5,AUTO,-30.5,23.5,-1009.0,-273.0,-13.5,-711.0
14:46:51,130477.0,0.042222632095217705,-0.19100384414196014,-2.52634859085083,0.005229182541370392,-0.016142982756718993,-0.19175457768142223,-35.36332565,149.16518915,38263.5,-332.5,-224.5,-19.0,AUTO,-81.0,-38.0,-1006.5,6.0,-14.5,-191.0
14:46:53,130477.0,0.05290079116821289,-0.17730513215065002,-2.4920427799224854,0.014284764416515827,0.05436697416007519,-0.016690257471054792,-35.363402050000005,149.1651266,38810.5,-493.0,-328.5,-37.0,AUTO,-107.5,-60.5,-999.5,14.5,55.0,-16.0
14:46:54,73168.0,0.06297510396689177,-0.16540717333555222,-2.4970797300338745,0.010347089963033795,0.021762674557976425,-0.004697339027188718,-35.363460775,149.1650788,39310.0,-539.75,-357.25,-39.25,AUTO,-128.75,-64.75,-987.5,10.75,22.25,-4.0
14:46:55,73168.0,0.06837775930762291,-0.14125294983386993,-2.5007901191711426,-0.013073824346065521,0.0260361535474658,-0.013089947635307908,-35.36349825,149.16504824999998,39618.5,-556.5,-367.0,-43.0,AUTO,-140.5,-58.0,-993.0,-12.5,26.5,-12.5
14:46:57,73168.0,0.07562151923775673,-0.1436578631401062,-2.5092588663101196,0.01629518624395132,-0.004573891870677471,-0.007057228940539062,-35.36359975,149.1649663,40386.0,-562.5,-369.5,-32.0,AUTO,-126.5,-75.0,-981.0,16.5,-3.5,-6.5
14:46:59,73168.0,0.0796024277806282,-0.07379100099205971,-2.514839768409729,0.009521080646663904,0.040641870349645615,-0.007651017978787422,-35.363702,149.16488379999998,41149.5,-547.0,-361.5,-45.0,AUTO,-140.5,-70.5,-991.5,10.5,41.5,-7.0
14:47:00,16509.0,0.07475145347416401,-0.01570135820657015,-2.5163925290107727,-0.10954862460494041,0.048605124931782484,-0.013917714590206742,-35.363763825,149.16483395,41675.25,-461.5,-309.75,-29.75,AUTO,-114.25,-69.25,-983.25,-108.75,49.5,-13.5
14:47:01,16509.0,0.079820916056633,0.018354812171310186,-2.520759701728821,0.566033199429512,0.029015373438596725,-0.02734749484807253,-35.363793400000006,149.1648099,41876.5,-397.0,-268.0,-21.5,AUTO,-102.5,-28.5,-992.5,567.0,30.0,-27.0
14:47:03,16509.0,0.04695603127280871,0.06143690397342046,-2.520961046218872,-0.5062968730926514,0.02531285770237446,0.008917609074463448,-35.363845833333336,149.16476703333333,42166.666666666664,-213.0,-151.66666666666666,-9.0,AUTO,-52.333333333333336,-62.0,-993.0,-505.6666666666667,26.0,8.666666666666666
14:47:05,16509.0,0.024964756021897,0.05574456602334976,-2.5256528854370117,0.09584924578666687,-0.02401430842777093,-0.010235856287181377,-35.36386986666667,149.16474789999998,42285.0,-45.333333333333336,-47.333333333333336,-2.3333333333333335,AUTO,-14.0,6.0,-1002.0,97.66666666666667,-22.0,-10.0
14:47:06,295131.0,0.01379639438043038,0.0317237147440513,-2.5307130813598633,-0.15149836242198944,-0.02306108921766281,-0.00014233724990238747,-35.36387333333333,149.1647457,42295.333333333336,3.6666666666666665,-16.333333333333332,0.0,AUTO,-2.0,5.333333333333333,-1001.3333333333334,-149.33333333333334,-21.333333333333332,-0.6666666666666666
14:47:07,295131.0,0.01288740693901976,0.01409507216885686,-2.5321211020151773,0.05602831393480301,-0.02610211322704951,0.005359201303993662,-35.363873399999996,149.1647456,42293.666666666664,15.0,-8.0,0.0,AUTO,1.3333333333333333,-3.6666666666666665,-1006.6666666666666,56.666666666666664,-24.333333333333332,4.666666666666667
14:47:09,295131.0,0.0028737590570623675,0.0032917140051722527,-2.536275625228882,0.2746035307645798,0.0426085963845253,0.005247201770544052,-35.36387283333334,149.16474466666668,42294.0,0.0,-10.333333333333334,-2.0,RTL,-0.3333333333333333,21.333333333333332,-1012.0,277.0,43.666666666666664,4.666666666666667
14:47:11,295131.0,0.0037698817242623286,0.006638647677997748,-2.5381222565968833,-0.013934652010599772,-0.0011015553027391434,0.00019870722947719818,-35.3638731,149.16474353333334,42894.333333333336,4.666666666666667,3.0,-69.33333333333333,RTL,0.0,1.3333333333333333,-1044.3333333333333,-12.333333333333334,0.6666666666666666,0.0
14:47:12,6441.0,0.007946084253489971,0.003448840870987624,-2.5397871136665344,0.027743844082579017,-0.0026102866395376623,0.0006230373401194811,-35.3638731,149.16474395,44282.25,6.25,1.75,-127.25,RTL,0.0,1.5,-1039.0,29.25,-0.75,0.5
14:47:13,6441.0,0.02989962976425886,-0.0011097901260654908,-2.5406945943832397,0.048018090426921844,-0.00871089706197381,0.0021429804619401693,-35.3638731,149.1647442,45343.0,9.0,-4.0,-147.0,RTL,0.0,0.5,-1008.5,49.5,-6.5,1.5
14:47:15,6441.0,-0.05503444435695807,0.01355612805734078,-2.608602523803711,-0.0993698239326477,-0.025998398040731747,-0.038878305504719414,-35.363870666666664,149.1647384,48188.666666666664,21.666666666666668,-29.666666666666668,-146.66666666666666,RTL,4.666666666666667,-6.666666666666667,-1007.6666666666666,-97.0,-24.0,-38.0
14:47:17,6441.0,0.009578991370896498,0.002937517788571616,-2.6377333799997964,0.06455813596645991,0.007037072908133268,0.0005877404473721981,-35.3638723,149.164744,51267.0,-16.666666666666668,47.0,-150.66666666666666,RTL,-4.666666666666667,11.0,-1003.0,66.0,8.333333333333334,0.6666666666666666
14:47:18,39968.0,0.03577145398594439,-0.025265970616601408,-2.605863630771637,-0.053938464261591434,-0.018992848228663206,0.02881845796946436,-35.36387285,149.16474825,53420.0,5.25,-4.5,-149.5,RTL,1.0,2.0,-996.0,-49.0,-41.333333333333336,51.0
14:47:19,39968.0,-0.004743961035273969,-0.007996251923032105,-2.620512843132019,-0.02669939398765564,0.03547597769647837,-0.05301620252430439,-35.363872900000004,149.16474725,54583.0,-6.0,-19.0,-149.5,RTL,-0.6666666666666666,-3.6666666666666665,-1002.3333333333334,-35.666666666666664,43.0,-47.0
14:47:21,39968.0,0.006325851505001386,0.011599519290030003,-2.6888617674509683,0.008328637651478251,-0.0029376808864374957,-0.013897929961482683,-35.363874466666665,149.1647458,57499.0,-1.3333333333333333,1.0,-151.66666666666666,RTL,-0.3333333333333333,0.0,-999.3333333333334,9.666666666666666,-1.0,-13.0
14:47:23,39968.0,0.0019761380196238556,0.0008699983591213822,-2.716719150543213,-0.004499704887469609,-0.004071716219186783,-0.017825276280442875,-35.36387356666667,149.16474559999997,60616.333333333336,7.666666666666667,-1.6666666666666667,-151.0,RTL,1.3333333333333333,0.0,-1000.0,-2.0,-1.6666666666666667,-17.0
14:47:24,146018.0,0.0008718777486744026,-0.0012044046306982636,-2.7443838119506836,0.0018072748401512702,0.00010909469953427713,-0.022523257260521252,-35.3638729,149.16474526666664,62566.666666666664,3.0,-1.0,-152.0,RTL,0.0,0.0,-1000.0,3.3333333333333335,1.3333333333333333,-21.666666666666668
14:47:25,146018.0,0.0023716665261114636,-0.00040282496229337994,-2.762779712677002,0.0013454818011571963,0.0019386066123843193,-0.02381947698692481,-35.36387273333333,149.1647452,63741.666666666664,1.3333333333333333,-1.0,-152.0,RTL,0.0,0.0,-1000.0,3.0,3.0,-23.0
14:47:27,146018.0,0.003536710593228539,0.0019325773852566879,-2.8087387084960938,-0.001511641622831424,-0.0001568570345019301,-0.018354885280132294,-35.36387263333334,149.1647449666667,66861.33333333333,1.0,-1.0,-152.0,RTL,0.0,0.0,-999.6666666666666,0.3333333333333333,1.3333333333333333,-17.666666666666668
14:47:29,146018.0,0.00573879216487209,0.00367725834560891,-2.8162789344787598,-0.0029456807921330133,-0.001549390881943206,0.023601965357859928,-35.3638724,149.16474463333333,69972.0,3.6666666666666665,-2.3333333333333335,-151.33333333333334,RTL,0.0,-0.3333333333333333,-1000.0,-0.6666666666666666,0.0,23.666666666666668
14:47:30,202842.0,0.0017133769191180666,0.0008937192227070531,-2.7840033372243247,-0.0017556993989273906,-0.0014006186587115128,0.02800213483472665,-35.363871966666665,149.16474426666664,71911.0,3.6666666666666665,-2.3333333333333335,-152.0,RTL,0.0,0.0,-1000.0,0.0,0.0,28.333333333333332
14:47:31,202842.0,0.001379111238444845,8.322061785293045e-05,-2.765751043955485,0.0018135212982694309,-9.311553246031205e-05,0.0240911270181338,-35.36387183333333,149.16474413333333,73074.0,2.0,-1.3333333333333333,-152.0,RTL,0.0,0.0,-1000.0,3.3333333333333335,1.3333333333333333,24.333333333333332
14:47:33,202842.0,0.002948921794692675,0.00027588838323329884,-2.7277172406514487,0.002119558242460092,0.000296636950224638,0.018109281236926716,-35.3638718,149.1647441,76184.66666666667,0.0,0.0,-152.0,RTL,0.0,0.0,-1000.3333333333334,3.6666666666666665,2.0,18.666666666666668
14:47:35,202842.0,0.004066622893636425,0.0010316770834227402,-2.700189193089803,-8.379000549515088e-05,0.00017012807074934244,0.012740942339102427,-35.36387203333334,149.1647442,79288.33333333333,0.0,0.0,-152.0,RTL,0.0,0.0,-1000.0,1.3333333333333333,1.3333333333333333,13.0
14:47:36,59548.0,0.004276058015724023,0.0015962740872055292,-2.686476548512777,-0.0006968468272437652,0.0005245591746643186,0.010807329167922338,-35.3638722,149.1647443,81227.66666666667,0.0,0.0,-152.0,RTL,0.0,0.0,-1000.0,1.3333333333333333,1.6666666666666667,11.333333333333334
14:47:37,59548.0,0.003999970930938919,0.0015739860634009044,-2.6793357531229653,-0.0005415416089817882,2.9072980396449566e-05,0.010492979859312376,-35.36387226666667,149.1647443,82392.66666666667,0.0,0.0,-152.0,RTL,0.0,0.0,-1000.0,1.0,1.6666666666666667,11.0
14:47:39,59548.0,0.00442446597541372,0.0011156426820283134,-2.6641034285227456,0.003352721454575658,-0.0005995941658814748,0.009220145953198275,-35.3638724,149.16474436666667,85502.66666666667,1.0,-0.3333333333333333,-152.0,RTL,0.0,0.0,-1000.0,5.0,1.0,9.666666666666666
14:47:41,59548.0,0.0039219669221589966,0.0012558995513245463,-2.651008208592733,-0.0010277365799993277,-0.0003981577465310693,0.007966219137112299,-35.3638724,149.1647444,88608.0,1.0,-1.0,-152.0,RTL,0.0,0.0,-999.6666666666666,1.0,1.0,9.0
14:47:42,26704.0,0.00398144048328201,0.0013787409213061135,-2.6440226236979165,0.000690265636270245,-0.00022178469225764275,0.00746347972502311,-35.3638724,149.1647444,90555.0,1.0,-1.0,-152.0,RTL,0.0,0.0,-1000.0,2.0,1.3333333333333333,8.0
14:47:43,26704.0,0.003542861590782801,0.0014905653273065884,-2.6399134000142417,-0.00118138260828952,0.0008811817582075795,0.005907099383572738,-35.3638724,149.1647444,91722.0,1.0,-1.0,-152.0,RTL,0.0,0.0,-1000.0,0.6666666666666666,2.6666666666666665,6.666666666666667
14:47:45,26704.0,0.003943535964936018,0.0016434402205049992,-2.6303844451904297,0.0013755795080214739,0.0004242551901067297,0.007118939887732267,-35.3638724,149.1647444,94828.0,1.0,0.0,-152.0,RTL,0.0,0.0,-999.6666666666666,3.3333333333333335,2.0,7.666666666666667
14:47:47,26704.0,0.004419461823999882,0.0011752105395620067,-2.621800422668457,0.0019522225484251976,-0.00018424839557458958,0.004509330339108904,-35.3638724,149.1647444,97934.33333333333,1.0,0.0,-152.0,RTL,0.0,0.0,-1000.3333333333334,3.3333333333333335,1.3333333333333333,5.0
14:47:48,75907.0,0.0042933012979726,0.0014017772239943345,-2.617182413736979,6.0261848072210945e-05,0.001779289993767937,0.006574289718021949,-35.3638724,149.1647444,99876.0,1.0,-1.0,-152.0,RTL,0.0,0.0,-999.3333333333334,1.6666666666666667,3.0,7.666666666666667
14:47:49,75907.0,0.0038829438854008913,0.001659876628157993,-2.613842248916626,0.00039841226922969025,-0.00021875649690628052,0.004681527381762862,-35.3638724,149.1647444,101040.66666666667,1.0,-1.0,-152.0,RTL,0.0,0.0,-1000.0,2.0,1.3333333333333333,5.666666666666667
14:47:51,75907.0,0.004087763838469982,0.001511320083712538,-2.6074052651723227,-0.0003463840112090111,0.0010866875915477674,0.004298213869333267,-35.3638724,149.1647444,104151.0,1.0,-1.0,-152.0,RTL,0.0,0.0,-1000.0,1.6666666666666667,2.6666666666666665,5.333333333333333
14:47:53,75907.0,0.003808267181739211,0.0017379643395543098,-2.6017090479532876,-0.00031851006982227165,0.0006304348353296518,0.003766165735820929,-35.3638724,149.1647444,107257.0,1.0,0.0,-152.0,RTL,0.0,0.0,-999.3333333333334,1.3333333333333333,2.3333333333333335,4.666666666666667
14:47:54,188658.0,0.004061884557207425,0.0016231901245191693,-2.5988131364186606,0.0007230672830094894,0.000353453370432059,0.003549996375416716,-35.3638724,149.1647444,109195.33333333333,1.0,0.0,-152.0,RTL,0.0,0.0,-1000.0,2.3333333333333335,2.0,5.0
14:47:55,188658.0,0.004440383209536473,0.0019148816742623846,-2.597010533014933,0.0014236756445219119,0.0003080331565191348,0.003975301592921217,-35.3638725,149.1647444,110360.0,1.3333333333333333,0.0,-152.0,RTL,0.0,0.0,-1000.0,3.0,2.0,5.0
14:47:57,188658.0,0.004538145537177722,0.0014301110835125048,-2.5928731759389243,-0.00013239371279875437,0.0007488812164713939,0.0025354869042833648,-35.3638725,149.1647444,113466.33333333333,2.0,-1.0,-152.0,RTL,0.0,0.0,-999.6666666666666,1.6666666666666667,2.0,3.6666666666666665
14:47:59,188658.0,0.0041904823544124765,0.0017298486006135743,-2.5890857378641763,0.0007122769796599945,0.0008014393194268147,0.003483384381979704,-35.3638725,149.1647444,116577.0,2.0,-1.0,-152.0,RTL,0.0,0.0,-999.6666666666666,3.0,2.3333333333333335,4.666666666666667
14:48:00,35891.0,0.003335044408837954,0.001730910036712885,-2.5868608156840005,-0.0009691341159244379,0.0006893352062130967,0.0031288908794522285,-35.3638725,149.1647444,118518.33333333333,1.3333333333333333,0.0,-152.0,RTL,0.0,0.0,-999.6666666666666,1.0,2.3333333333333335,4.333333333333333
14:48:01,35891.0,0.003659628409271439,0.0017315463240568836,-2.5860721270243325,0.0023380257189273834,0.0007125920383259654,0.0027258119468266764,-35.3638725,149.1647444,119683.0,1.0,0.0,-152.0,RTL,0.0,0.0,-1000.3333333333334,4.333333333333333,2.3333333333333335,4.0
14:48:03,35891.0,0.0039407725756367045,0.0015982193096230428,-2.5830806891123452,0.00018909332963327566,-0.0006176496778304378,0.0014301351426790159,-35.3638725,149.1647444,122797.66666666667,1.0,0.0,-152.0,RTL,0.0,0.0,-1000.6666666666666,2.0,1.0,2.3333333333333335
14:48:05,35891.0,0.004079422447830439,0.0016823187082385023,-2.5803746382395425,0.0005658486237128576,-8.392609500636657e-05,0.002714821952395141,-35.3638725,149.1647444,125899.33333333333,1.0,0.0,-152.0,RTL,0.0,0.0,-1000.3333333333334,2.3333333333333335,1.6666666666666667,4.0
14:48:06,22149.0,0.004640334906677405,0.0012449543767919142,-2.5785609086354575,0.0009035783975074688,0.000606672295058767,0.0025908120442181826,-35.3638725,149.1647444,127846.33333333333,1.0,-1.0,-152.0,RTL,0.0,0.0,-1000.0,3.0,2.3333333333333335,4.0
14:48:07,22149.0,0.004574805032461882,0.0017737500990430515,-2.57759682337443,0.0013612587936222553,0.002309454372152686,0.0030575821486612162,-35.3638725,149.1647444,129011.33333333333,1.0,-1.0,-152.0,RTL,0.0,0.0,-999.6666666666666,3.3333333333333335,3.6666666666666665,4.333333333333333
14:48:09,22149.0,0.003944253005708258,0.0021887108062704406,-2.5758728981018066,-0.00028792206042756635,0.0010645367826024692,0.0018354217754676938,-35.3638725,149.1647444,132271.66666666666,2.0,-1.0,-152.0,RTL,0.0,0.0,-1000.0,1.6666666666666667,3.0,3.3333333333333335
14:48:11,22149.0,0.004186496914674838,0.0019117365591228008,-2.57436736424764,-0.0005459655076265335,2.9298942536115646e-05,0.0013515288786341746,-35.3638725,149.1647444,135376.66666666666,2.0,0.0,-152.0,RTL,0.0,0.0,-1000.0,1.3333333333333333,2.0,2.6666666666666665
14:48:12,3012.0,0.004089585039764643,0.001837779573785762,-2.573502858479818,0.0005366521654650569,2.45488869647185e-06,0.00027656900541236,-35.3638725,149.1647444,137327.0,2.0,0.0,-152.0,RTL,0.0,0.0,-1000.3333333333334,2.3333333333333335,1.6666666666666667,1.6666666666666667
14:48:13,3012.0,0.004054228309541941,0.0019480020661527913,-2.5730160077412925,-0.00010770423493037622,0.0014075146367152531,0.001156974855499963,-35.3638725,149.1647444,138491.66666666666,2.0,0.0,-152.0,RTL,0.0,0.0,-999.6666666666666,2.0,3.3333333333333335,2.6666666666666665
14:48:15,3012.0,0.004691068548709154,0.0014104215273012717,-2.5721069971720376,0.0003650335129350424,8.757971227169037e-05,-9.830303800602754e-05,-35.3638725,149.1647444,141602.33333333334,2.0,0.0,-152.0,RTL,0.0,0.0,-1000.0,2.3333333333333335,2.0,1.3333333333333333
14:48:17,3012.0,0.004198036622256041,0.0015359599298487108,-2.5707970460255942,-0.0008918020563820998,-5.372505014141401e-05,5.139460942397515e-05,-35.3638725,149.1647444,144707.0,1.0,-1.0,-152.0,RTL,0.0,0.0,-1000.0,1.3333333333333333,2.0,1.6666666666666667
14:48:18,119550.0,0.0038884240202605724,0.0020010011503472924,-2.570505460103353,0.00048681457216540974,0.0010149096293995778,-0.0002519918295244376,-35.3638725,149.1647444,146647.66666666666,1.0,-0.6666666666666666,-152.0,RTL,0.0,0.0,-1000.3333333333334,2.6666666666666665,3.0,1.6666666666666667
14:48:19,119550.0,0.0036830215249210596,0.0021839413481454053,-2.5699894428253174,-0.0004515359178185463,0.00015036753999690214,0.0011815893619010847,-35.3638725,149.1647444,147812.33333333334,1.6666666666666667,0.0,-152.0,RTL,0.0,0.0,-1000.0,1.6666666666666667,2.0,3.0
14:48:21,119550.0,0.004097586342444022,0.0021781975713868937,-2.5687381426493325,-0.000775908314002057,0.0007699691535284122,0.0026121768557156124,-35.3638725,149.1647444,150919.66666666666,2.0,0.0,-152.0,RTL,0.0,0.0,-999.6666666666666,1.3333333333333333,2.6666666666666665,4.0
14:48:23,119550.0,0.004054915780822436,0.0017000566391895215,-2.568002541859945,0.0005069744462768236,-0.0005694372036183873,0.0003545274958014488,-35.3638725,149.1647444,154030.0,2.0,0.0,-152.0,RTL,0.0,0.0,-1000.3333333333334,3.0,1.6666666666666667,2.3333333333333335
14:48:24,189271.0,0.004067490653445323,0.0018674127059057355,-2.5674758752187095,0.000852840564524134,0.0005969680690517029,0.0017979093827307224,-35.3638725,149.1647444,155967.33333333334,2.0,0.0,-152.0,RTL,0.0,0.0,-1000.0,3.0,2.6666666666666665,3.6666666666666665
14:48:25,189271.0,0.004051576058069865,0.001994296326301992,-2.5673739910125732,-0.0004902627551928163,-0.00019362778402864933,-4.93534995863835e-05,-35.3638725,149.1647444,157132.66666666666,2.0,0.0,-152.0,RTL,0.0,0.0,-1000.0,1.6666666666666667,2.0,2.0
14:48:27,189271.0,0.004279462310175101,0.0013526314869523048,-2.5668416817982993,-3.6624648297826448e-06,0.0009878240525722504,0.0004930950235575438,-35.3638725,149.1647444,160251.33333333334,1.6666666666666667,-1.0,-152.0,RTL,0.0,0.0,-999.6666666666666,2.0,3.0,2.0
14:48:29,117654.0,0.0036209189177801213,0.002052562738147875,-2.5663884480794272,-4.641090830167135e-05,0.00018630200065672398,0.0004808589195211728,-35.3638725,149.1647444,163350.0,1.0,0.0,-152.0,RTL,0.0,0.0,-1000.0,2.0,2.6666666666666665,2.0
14:48:31,46037.0,0.004077272955328226,0.0017173105540374916,-2.5662612915039062,0.0007283956898997227,0.0006510176075001558,0.0004091727702567975,-35.3638725,149.1647444,166457.66666666666,1.0,0.0,-152.0,RTL,0.0,0.0,-1000.0,3.0,2.6666666666666665,2.3333333333333335
14:48:33,46037.0,0.004381007049232721,0.0019581757951527834,-2.566021203994751,0.0018421598554899294,0.0009280800974617401,0.001197985839098692,-35.3638725,149.1647444,169573.0,2.0,0.0,-152.0,RTL,0.0,0.0,-1000.0,4.0,3.0,2.6666666666666665
14:48:34,52403.0,0.004157875664532185,0.002000477941085895,-2.5657597382863364,-0.001095349551178515,-0.00033384708998103935,3.4815360171099506e-05,-35.3638725,149.1647444,171514.66666666666,2.0,0.0,-152.0,RTL,0.0,0.0,-1000.0,1.0,2.0,1.6666666666666667
14:48:35,52403.0,0.004056445478151242,0.0018407129294549425,-2.5656723181406655,0.0004395714107279976,0.0006688219339897236,0.00020688438477615514,-35.3638725,149.1647444,172682.0,2.0,0.0,-152.0,RTL,0.0,0.0,-1000.0,3.0,2.3333333333333335,2.0
14:48:37,52403.0,0.00431796396151185,0.0018341041868552566,-2.564993063608805,0.0007413028894613186,0.0022124132762352624,0.0024666943742583194,-35.3638725,149.1647444,175786.33333333334,2.0,-1.0,-152.0,RTL,0.0,0.0,-1000.0,3.0,4.333333333333333,4.0
14:48:39,52403.0,0.004103728414823611,0.0019480841777597864,-2.564579486846924,-0.0002624037442728877,0.0019253910674403112,0.0005399432654182116,-35.3638725,149.1647444,178893.66666666666,2.0,-1.0,-152.0,RTL,0.0,0.0,-999.3333333333334,2.3333333333333335,4.333333333333333,2.3333333333333335
14:48:40,255642.0,0.0034645570752521357,0.00163404344736288,-2.5645527839660645,-0.0006378236770009001,-0.000481597186687092,0.00017657030063370863,-35.3638725,149.1647444,180836.33333333334,2.0,0.0,-152.0,RTL,0.0,0.0,-999.6666666666666,1.6666666666666667,1.6666666666666667,2.0
14:48:41,255642.0,0.0039460603923847275,0.0014831339940428734,-2.564603090286255,0.0008213850669562817,0.0004639939870685339,0.001449063653126359,-35.3638725,149.1647444,182004.0,1.0,0.0,-152.0,RTL,0.0,0.0,-999.6666666666666,3.0,2.6666666666666665,3.6666666666666665
14:48:43,255642.0,0.004036436788737774,0.0017599780888607104,-2.5643698374430337,-2.6163218232492607e-05,0.0003838456856707732,0.0011831535181651514,-35.3638725,149.1647444,185108.66666666666,1.0,0.0,-152.0,RTL,0.0,0.0,-999.6666666666666,2.3333333333333335,2.3333333333333335,3.3333333333333335
14:48:45,255642.0,0.00433482959245642,0.0018859323657428224,-2.564169724782308,0.0015911480877548456,0.0009134431214382251,0.0013172284234315157,-35.3638725,149.1647444,188216.0,1.3333333333333333,0.0,-152.0,RTL,0.0,0.0,-1000.0,3.6666666666666665,3.0,3.0
14:48:46,123078.0,0.004584873716036479,0.0018354516942054033,-2.56425412495931,0.0007359675752619902,-7.114943582564592e-05,0.0010379154700785875,-35.3638725,149.1647444,190161.66666666666,2.0,0.0,-152.0,RTL,0.0,0.0,-1000.0,3.3333333333333335,2.0,3.0
14:48:47,123078.0,0.0048229265958070755,0.0016033299810563524,-2.5643763542175293,0.0007472322322428226,1.856754533946514e-05,0.0011511857931812604,-35.3638725,149.1647444,191329.66666666666,2.0,-0.3333333333333333,-152.0,RTL,0.0,0.0,-1000.0,3.3333333333333335,2.3333333333333335,3.0
14:48:49,123078.0,0.004225167911499739,0.0020530743058770895,-2.5643409887949624,-0.00014124500254789987,0.001180414343252778,0.0005528517843534549,-35.3638725,149.1647444,194434.0,2.0,-1.0,-152.0,RTL,0.0,0.0,-1000.0,2.6666666666666665,3.6666666666666665,2.6666666666666665
14:48:51,123078.0,0.003977000325297316,0.0020328836205104985,-2.5642444292704263,0.0005756032963593801,0.00014362131090213856,0.0015534314637382824,-35.3638725,149.1647444,197540.33333333334,2.0,0.0,-152.0,RTL,0.0,0.0,-999.6666666666666,3.3333333333333335,2.6666666666666665,3.6666666666666665
14:48:52,231724.0,0.004061591811478138,0.001692507687645654,-2.564150015513102,0.00038237714519103366,0.0006366814486682415,-5.389323147634665e-05,-35.3638725,149.1647444,199482.0,2.0,0.0,-152.0,RTL,0.0,0.0,-1000.3333333333334,3.0,3.0,1.6666666666666667
14:48:53,231724.0,0.0037372019918014607,0.001538565110725661,-2.56396476427714,-0.0008865412867938479,0.0003722583254178365,0.001426498716076215,-35.3638725,149.1647444,200655.33333333334,2.0,0.0,-152.0,RTL,0.0,0.0,-1000.0,1.6666666666666667,2.6666666666666665,3.3333333333333335
14:48:55,231724.0,0.00411223666742444,0.001509265702528258,-2.563568592071533,0.0011150296777486801,5.2335516860087715e-05,0.0022328054377188287,-35.3638725,149.1647444,203763.33333333334,1.0,0.0,-152.0,RTL,0.0,0.0,-999.6666666666666,3.6666666666666665,2.3333333333333335,4.333333333333333
14:48:57,231724.0,0.0046318043023347855,0.0013657439267262816,-2.563648223876953,0.0019979075877927244,-0.0005654034321196377,0.0006708708824589849,-35.3638725,149.1647444,206831.25,1.0,0.0,-152.0,RTL,0.0,0.0,-1000.0,4.75,2.0,2.75
14:48:58,33264.0,0.004488381091505289,0.0015902482361222308,-2.56351629892985,-0.00028241185160974663,0.0007670281920582056,0.0007301546478023132,-35.3638725,149.1647444,208961.66666666666,1.0,-1.0,-152.0,RTL,0.0,0.0,-1000.0,2.3333333333333335,3.3333333333333335,2.6666666666666665
14:49:00,33264.0,0.003670353597650925,0.0024146396511544785,-2.5636866092681885,0.0002509310531119506,0.00015512442526717982,0.00018045065614084402,-35.3638725,149.1647444,212076.0,2.0,0.0,-152.0,RTL,0.0,0.0,-1000.0,2.5,3.0,2.5
14:49:02,33264.0,0.004129291977733374,0.001822338594744603,-2.5635763009389243,-0.00035123721075554687,0.0006912360743929943,0.0008919852940986553,-35.3638725,149.1647444,215183.33333333334,2.0,0.0,-152.0,RTL,0.0,0.0,-999.6666666666666,2.3333333333333335,3.6666666666666665,3.3333333333333335
14:49:03,70483.0,0.004020515674104293,0.0019096108541513483,-2.563646078109741,-0.0008396675499776999,-0.0006378265873839458,0.00016577766897777715,-35.3638725,149.1647444,216348.0,2.0,0.0,-152.0,RTL,0.0,0.0,-1000.0,2.0,2.0,2.3333333333333335
14:49:04,70483.0,0.0040497177590926485,0.0018721807282418013,-2.5638605753580728,-0.0009300309078147014,0.0002665520490457614,-0.0004278419849773248,-35.3638725,149.1647444,218289.33333333334,2.0,0.0,-152.0,RTL,0.0,0.0,-999.6666666666666,2.0,3.0,1.3333333333333333
14:49:06,70483.0,0.003805744073664149,0.0015123876510187984,-2.5637285709381104,-0.0013717146745572488,0.0005667451769113541,-0.00094565749168396,-35.3638725,149.1647444,221396.33333333334,1.3333333333333333,0.0,-152.0,RTL,0.0,0.0,-999.6666666666666,1.3333333333333333,3.0,1.0
14:49:08,70483.0,0.004726501492162545,0.0014797634212300181,-2.563554604848226,-0.0005519094411283731,0.0009727920405566692,-0.0008870619737232724,-35.3638725,149.1647444,224504.0,1.0,-1.0,-152.0,RTL,0.0,0.0,-1000.3333333333334,2.0,3.6666666666666665,1.3333333333333333
14:49:09,174079.0,0.00436461732412378,0.0016914720957477887,-2.5635196367899575,-0.0010862278674418728,-0.0001130925181011359,0.002509872972344359,-35.3638725,149.1647444,225669.0,1.0,-1.0,-152.0,RTL,0.0,0.0,-1000.0,1.6666666666666667,2.3333333333333335,5.0
14:49:11,174079.0,0.0038113787304610014,0.0021036415516088405,-2.5630672772725425,-0.00033938977867364883,-0.0005160411819815636,0.0007342296497275432,-35.3638725,149.1647444,228779.66666666666,2.0,0.0,-152.0,RTL,0.0,0.0,-1000.0,2.3333333333333335,2.0,3.0
14:49:14,134541.0,0.004155148286372423,0.0019917014287784696,-2.563144326210022,-0.002225166419520974,-0.0005664530908688903,0.0006025668699294329,-35.3638725,149.1647444,233638.5,2.0,0.0,-152.0,RTL,0.0,0.0,-1000.0,1.5,2.0,3.0
14:49:16,95003.0,0.004126959014683962,0.00181004119804129,-2.563358426094055,0.0007132416358217597,-3.876176197081804e-05,0.0021021647844463587,-35.3638725,149.1647444,236742.0,2.0,0.0,-152.0,RTL,0.0,0.0,-999.5,3.5,2.5,4.5
14:49:18,95003.0,0.003787578549236059,0.04281666378180186,-2.56331459681193,-0.004314819350838661,0.04354192068179449,0.00017067293326059976,-35.36387213333333,149.16474473333335,240034.33333333334,16.666666666666668,8.0,-150.33333333333334,RTL,1.6666666666666667,0.6666666666666666,-998.6666666666666,-0.6666666666666666,46.333333333333336,2.3333333333333335
14:49:19,184707.0,-2.0128854278785486e-05,0.06932228182752927,-2.563035488128662,-0.007511024596169591,0.032011584689219795,0.00046497998603930074,-35.36387009999999,149.1647462,241178.0,47.666666666666664,27.333333333333332,-147.66666666666666,RTL,8.0,4.333333333333333,-996.0,-4.0,35.0,3.0
14:49:22,184707.0,0.09174318611621857,0.11909147724509239,-2.0131824016571045,0.013598863268271089,0.03847062774002552,0.06886116042733192,-35.36382825,149.16478515,244398.5,274.5,189.5,-13.5,RTL,71.5,7.0,-940.5,17.0,41.0,71.5
14:49:24,184707.0,0.05243078991770744,0.21969711035490036,-2.01617431640625,0.07527291029691696,0.010183670092374086,-0.03741786070168018,-35.363761350000004,149.1648328,244029.0,469.5,270.0,17.0,RTL,110.5,-8.5,-1017.5,78.0,13.0,-34.5
14:49:25,89837.0,0.018814387265592813,0.20988129079341888,-2.0517646074295044,-0.04810860566794872,-0.030909131513908505,-0.043154419399797916,-35.36372785,149.164857275,243952.75,515.5,316.5,2.25,RTL,142.75,-2.5,-1013.25,-44.25,-26.75,-39.75
14:49:26,89837.0,-0.0028872941620647907,0.1809443235397339,-2.1036319732666016,0.008714443072676659,-0.0024512126110494137,-0.036393340677022934,-35.3636675,149.1649049,243979.0,556.0,369.0,-6.5,RTL,144.5,12.0,-983.0,12.5,0.5,-33.0
14:49:28,89837.0,-0.016924180556088686,0.154872827231884,-2.176421284675598,-0.04558250680565834,0.008338561747223139,-0.02419468783773482,-35.3635668,149.16498885,244065.5,566.5,378.5,0.5,RTL,146.5,21.0,-979.0,-42.0,12.0,-20.5
14:49:30,89837.0,-0.03291911631822586,0.14114215970039368,-2.2345259189605713,-0.10442517464980483,-0.0601089783012867,-0.025931078009307384,-35.36346495,149.16507274999998,244029.5,577.5,377.5,-3.0,RTL,159.5,34.0,-1008.0,-100.0,-56.5,-22.0
14:49:31,84780.0,-0.05081220343708992,0.09922520071268082,-2.249160587787628,0.08192809391766787,-0.055722929537296295,-0.012711026414763182,-35.36342702500001,149.165103625,244081.25,552.75,362.25,-6.75,RTL,150.0,41.5,-990.75,86.0,-51.75,-9.5
14:49:32,84780.0,-0.06722036004066467,0.041680771857500076,-2.271484851837158,-0.10165300965309143,-0.04948053136467934,0.016764650121331215,-35.3633693,149.1651508,244126.0,475.0,311.5,0.0,RTL,131.0,47.0,-990.0,-97.0,-45.5,20.0
14:49:34,84780.0,-0.0428827665746212,-0.03258294053375721,-2.2977100610733032,0.7033292651176453,-0.009449740871787071,0.024524877779185772,-35.363301,149.1652077,244041.5,283.5,188.5,2.5,RTL,79.5,52.0,-1013.5,707.0,-5.5,27.5
14:49:36,84780.0,-0.023317190818488598,-0.061855901032686234,-2.3210960626602173,-0.08141942322254181,0.03983815014362335,-0.02337569370865822,-35.363266100000004,149.16523665,243987.5,94.5,62.0,-1.5,RTL,25.0,-7.5,-1013.5,-78.5,43.0,-19.5
14:49:37,161435.0,-0.014537008246406913,-0.042822204530239105,-2.3277056217193604,0.2172955721616745,0.021419591968879104,-0.004868511168751866,-35.3632616,149.16524015,243987.0,49.75,31.75,-2.0,RTL,12.5,15.75,-1007.5,221.5,24.5,-1.75
14:49:38,161435.0,-0.003304186509922147,-0.020030523650348186,-2.336836576461792,0.2026796191930771,0.020999794825911522,-0.0015885655884630978,-35.36325895,149.1652419,243993.0,6.0,2.5,-3.0,RTL,1.0,22.0,-1002.0,207.5,24.5,1.0
14:49:40,161435.0,0.018876655027270317,-0.005274430150166154,-2.3496934175491333,0.1884966492652893,-0.01169160520657897,-0.00567214353941381,-35.3632594,149.1652414,244008.5,1.0,-3.0,-0.5,RTL,-0.5,-12.0,-993.5,191.0,-7.5,-1.5
14:49:42,161435.0,0.01473672641441226,-0.0004727573614218272,-2.360422372817993,-0.30149529315531254,0.005111864767968655,-0.008850803831592202,-35.3632607,149.16524025,244018.0,-3.0,-9.5,-0.5,RTL,-2.5,-27.0,-998.0,-297.5,8.0,-5.0
14:49:43,57748.0,0.015550123993307352,0.0019265026203356683,-2.364584743976593,0.2299824133515358,0.0018948438228107989,-0.006669546477496624,-35.3632614,149.1652399,244028.0,-0.25,-10.75,-0.5,RTL,-2.5,13.75,-1001.5,234.25,5.0,-3.0
14:49:44,57748.0,0.01518685882911086,0.0027192479465156794,-2.369762897491455,0.001406639814376831,0.0014561691787093878,-0.005111228092573583,-35.363262500000005,149.1652398,244029.0,5.5,-11.5,0.0,RTL,-2.5,18.5,-1004.0,7.0,5.0,-2.0
14:49:46,57748.0,-0.0040160838107112795,0.004291133373044431,-2.3800677061080933,-1.4193309545516968,-0.006276691099628806,0.0013053910806775093,-35.36326285,149.16523890000002,243170.0,8.5,-11.0,103.0,RTL,2.0,-78.0,-967.5,-1416.5,-2.5,4.5
14:49:48,57748.0,0.02276584692299366,0.003671968122944236,-2.3869497776031494,1.0977026224136353,0.0006910677766427398,-0.0015683922683820128,-35.36326215,149.1652376,240924.0,3.5,-4.0,97.0,RTL,3.5,11.5,-1001.0,1100.5,4.0,1.0
14:49:49,138220.0,0.01095911324955523,0.0039017891976982355,-2.388939082622528,1.0833187699317932,-0.001720055181067437,-0.0074055452714674175,-35.36326175,149.165236975,240150.0,0.5,-0.25,100.25,RTL,1.75,20.0,-1023.5,1086.25,2.0,-4.0
14:49:50,138220.0,0.005207031266763806,0.0017204330069944263,-2.3925299644470215,1.35187166929245,-0.008277944521978498,-0.008772667497396469,-35.3632613,149.16523635,238866.5,-2.5,5.0,93.5,RTL,0.0,63.0,-1010.0,1356.5,-4.0,-5.5
14:49:52,138220.0,0.03046610951423645,-0.00342206924688071,-2.398601531982422,1.0787711441516876,0.001201340346597135,0.0003439888823777437,-35.36326295,149.1652388,236832.5,2.0,-1.5,97.5,RTL,-3.0,79.0,-1024.5,1084.5,4.5,3.5
14:49:54,138220.0,0.010803760960698128,0.004631796618923545,-2.4032914638519287,0.5263538360595703,0.00654130382463336,0.0007358548464253545,-35.3632638,149.1652393,234779.5,13.5,-15.0,96.0,RTL,1.0,58.5,-972.5,533.5,10.0,3.5
14:49:55,90690.0,-0.0011475563514977694,0.007594518247060478,-2.4054336547851562,0.6043346375226974,0.005730471224524081,0.001312667562160641,-35.363263325000005,149.165238475,234025.75,13.25,-13.75,98.25,RTL,2.25,60.25,-976.25,611.5,9.25,4.5
14:49:56,90690.0,-0.019039089791476727,0.006573092890903354,-2.406771183013916,0.7731954455375671,-0.0027450211346149445,0.0031273739878088236,-35.3632621,149.16523660000001,232748.0,5.5,-2.0,96.5,RTL,1.0,71.0,-990.5,779.5,0.5,6.5
14:49:58,90690.0,0.004222118062898517,0.0015772555489093065,-2.4105098247528076,1.1884095668792725,0.004324118373915553,0.005580699071288109,-35.3632615,149.16523625000002,230719.5,-4.5,9.0,97.5,RTL,-1.0,74.5,-990.0,1194.5,7.5,8.5
14:50:00,90690.0,0.02059205248951912,0.0004351287934696302,-2.4136897325515747,1.4457148313522339,0.0013850252144038677,0.0007634032517671585,-35.36326205,149.16523715,228676.5,-1.5,4.5,98.0,RTL,0.0,65.0,-991.5,1450.5,5.0,4.0
14:50:01,128521.0,0.025154646951705217,0.0002896065141158033,-2.41446715593338,1.4339228570461273,0.0017929763998836279,0.002539917593821883,-35.363262399999996,149.16523759999998,227908.5,0.25,1.75,100.5,RTL,-1.5,63.25,-1014.5,1438.75,5.25,5.5
14:50:02,128521.0,0.03584192134439945,0.002032242191489786,-2.4170199632644653,1.298232614994049,0.0025156025076285005,0.00219177408143878,-35.36326305,149.1652384,226633.5,4.5,-3.0,98.5,RTL,0.0,51.5,-1038.0,1303.0,6.0,5.0
14:50:04,128521.0,0.007982911076396704,0.008427958935499191,-2.4197760820388794,0.6560168415307999,-0.005305046448484063,-0.006871104997117072,-35.36326235,149.1652368,224604.5,4.0,-1.0,101.0,RTL,4.5,-12.5,-969.0,658.5,-1.0,-3.5
14:50:06,128521.0,0.012913735583424568,5.4017844377085567e-05,-2.420651912689209,0.9778473973274231,-0.005874942289665341,-0.008506169309839606,-35.3632612,149.16523560000002,222556.0,-6.5,15.0,102.5,RTL,-0.5,15.0,-976.5,980.5,-2.0,-4.5
14:50:07,104917.0,0.02904329774901271,-0.00441629413398914,-2.421563446521759,0.7750770598649979,-0.002975074341520667,-0.0019188145524822176,-35.363261725,149.1652368,221793.75,-6.0,13.25,99.75,RTL,-5.5,6.75,-982.25,777.25,1.0,1.75
14:50:08,104917.0,0.058458779007196426,-0.006152268731966615,-2.4229589700698853,0.7313045859336853,-0.00312652753200382,-0.0016385313356295228,-35.36326355,149.16523975,220515.0,5.5,-3.0,97.0,RTL,-7.0,2.5,-970.5,734.0,1.5,2.0
14:50:10,104917.0,0.07851167768239975,0.0019070792914135382,-2.4248462915420532,0.6013665497303009,0.006645569344982505,-0.0029980988474562764,-35.36326635,149.16524305000002,218491.5,33.0,-38.0,100.5,RTL,0.0,-9.5,-1012.5,605.0,10.0,0.5
14:50:12,104917.0,0.04505971260368824,0.0061419501435011625,-2.4253523349761963,0.510728269815445,-0.00941256049554795,-0.021828418597579002,-35.36326565,149.1652414,216462.5,38.0,-39.0,104.5,RTL,2.5,-20.5,-989.0,514.5,-5.0,-17.5
14:50:13,83460.0,0.0409663999453187,0.004923228989355266,-2.4252692461013794,0.6511385962367058,0.0003844900638796389,-0.002166395483072847,-35.363265125,149.165240775,215695.25,33.75,-33.5,104.75,RTL,2.0,-10.75,-1001.0,655.75,4.0,1.25
14:50:14,83460.0,0.03497212380170822,0.004994040355086327,-2.4267927408218384,0.2154622869566083,-0.0028575907927006483,-0.007384160533547401,-35.36326455,149.1652401,214414.0,26.5,-25.5,104.0,RTL,2.5,-37.0,-982.5,220.0,1.0,-3.0
14:50:16,83460.0,0.018558490090072155,0.005341618554666638,-2.4270427227020264,0.4237264543771744,-0.004495023051276803,-0.006652216427028179,-35.36326305,149.16523819999998,212348.0,15.5,-13.0,98.5,RTL,2.5,-18.0,-1053.0,429.0,0.0,-2.5
14:50:18,83460.0,0.025991523638367653,0.001337445282842964,-2.42820143699646,0.5353613495826721,0.00019674072973430157,-0.001514717936515808,-35.3632624,149.16523755,210299.5,3.0,-0.5,99.0,RTL,1.0,-11.5,-1003.5,540.0,4.0,2.0
14:50:19,2133.0,0.013963852310553193,0.0023692929826211184,-2.4295753836631775,0.01367088221013546,0.0007320607546716928,-0.004475275578442961,-35.363262250000005,149.165237425,209530.75,2.5,-0.5,98.75,RTL,1.75,-42.25,-978.5,19.5,4.5,-0.5
14:50:20,2133.0,-0.008102312916889787,0.0047829546965658665,-2.4294201135635376,-0.5706259310245514,-0.0016602152027189732,-0.004381256992928684,-35.36326175,149.16523660000001,208269.0,-0.5,2.0,98.0,RTL,2.5,-58.0,-1008.0,-565.0,2.0,-0.5
14:50:22,2133.0,-0.00822805892676115,0.0008878344087861478,-2.4296172857284546,-0.4969615489244461,-0.004195439163595438,-0.0035078278742730618,-35.3632608,149.1652354,206232.0,-12.5,17.0,100.5,RTL,0.0,-63.5,-978.0,-491.5,0.5,0.0
14:50:24,2133.0,-0.00930346455425024,0.00016612321633147076,-2.4307087659835815,-0.9197686910629272,0.00043558061588555574,0.004197284346446395,-35.3632611,149.165236,204221.5,-12.5,15.0,104.0,RTL,0.0,-72.0,-989.5,-914.0,4.5,7.5
14:50:25,73814.0,-0.015131672844290733,0.000968242107774131,-2.430764853954315,-1.1658743172883987,-0.0009679734939709306,-0.003956098051276058,-35.363261025,149.1652359,203457.5,-12.0,13.5,101.75,RTL,0.0,-73.75,-988.5,-1160.25,3.25,0.0
14:50:26,73814.0,-0.03175387717783451,0.0007457638857886195,-2.4308512210845947,-1.2974044680595398,-0.000545486225746572,-0.006886565359309316,-35.3632608,149.1652356,202068.0,-13.0,15.5,101.5,RTL,-0.5,-36.5,-1022.5,-1289.5,3.5,-3.0
14:50:28,73814.0,-0.022041249088943005,-0.0002004485941142775,-2.431562900543213,-1.3699248433113098,0.002789420308545232,-0.00730647356249392,-35.3632613,149.16523645,200017.0,-10.0,10.5,102.0,RTL,-0.5,-50.5,-1028.0,-1363.0,6.5,-3.0
14:50:30,73814.0,-0.020656400360167027,-9.638406845624559e-05,-2.432428479194641,-1.261240541934967,-0.0038213382940739393,-0.0010545740369707346,-35.36326165,149.16523675000002,197978.0,-7.0,8.0,101.5,RTL,-1.5,-30.0,-1017.0,-1254.0,1.0,3.0
14:50:31,25271.0,-0.016651939833536744,-0.00029940446347609395,-2.431987226009369,-1.400689721107483,-0.0014167357585392892,-0.0009177683386951685,-35.36326185,149.16523705,197205.25,-5.25,6.5,100.25,RTL,-1.75,-44.5,-997.75,-1393.5,2.75,2.75
14:50:32,25271.0,-0.008665087865665555,-0.0013591673341579735,-2.4320485591888428,-1.3266040682792664,-0.003786056535318494,0.002248399192467332,-35.3632623,149.1652377,195922.5,-2.0,3.0,100.0,RTL,-1.0,-33.5,-1011.5,-1319.5,0.5,5.5
14:50:34,25271.0,-0.0044527307618409395,-0.0010466608364367858,-2.432829976081848,-0.6918752193450928,0.007042308570817113,-0.0015664236852899194,-35.363263,149.16523884999998,193889.5,5.5,-8.0,102.5,RTL,-1.0,6.5,-1003.0,-683.0,11.0,2.0
14:50:36,25271.0,0.0004032463766634464,0.0021502034505829215,-2.4329813718795776,0.7244175672531128,-0.006665236549451947,0.005552091170102358,-35.363262750000004,149.1652383,191851.0,6.0,-9.5,104.0,RTL,2.5,65.5,-974.5,733.0,-2.5,9.5
14:50:37,37544.0,-0.009184091119095683,0.003640689712483436,-2.433350443840027,0.7289835885167122,0.0005641739116981626,0.0007107965648174286,-35.363262199999994,149.16523755,191082.5,3.5,-6.75,98.5,RTL,3.0,59.25,-1017.0,737.25,5.0,5.0
14:50:38,37544.0,-0.017185537610203028,0.002453869325108826,-2.433269500732422,0.964820146560669,-0.0027941360604017973,0.0030910312198102474,-35.3632612,149.16523619999998,189800.5,-5.0,4.0,96.5,RTL,1.0,65.5,-1011.0,973.0,1.5,6.5
14:50:40,37544.0,-0.008970418246462941,0.0002670951307663927,-2.433320999145508,1.3623988628387451,-0.0025084412191063166,-0.0007657045498490334,-35.363260249999996,149.16523504999998,187768.5,-15.5,16.0,102.0,RTL,0.0,72.0,-1023.5,1369.0,1.5,3.0
14:50:42,37544.0,0.018348186276853085,-0.005021637072786689,-2.433265805244446,1.0225748717784882,-0.006177515257149935,-0.0095199563074857,-35.3632608,149.16523615,185729.5,-17.5,18.0,101.0,RTL,-2.0,16.5,-1018.0,1026.0,-1.0,-5.0
14:50:43,113197.0,0.031630848068743944,-0.004462259879801422,-2.4337306022644043,1.1772284507751465,0.0002101311692968011,-0.002057203557342291,-35.36326137499999,149.165237,184953.75,-12.75,11.5,102.25,RTL,-1.5,22.0,-1003.0,1181.0,4.25,2.0
14:50:44,113197.0,0.0345964627340436,-0.0017021254170686007,-2.4333462715148926,1.188599407672882,0.004585884045809507,-0.003002401441335678,-35.3632621,149.16523784999998,183684.0,-4.5,0.5,99.5,RTL,-1.5,34.5,-991.5,1193.0,8.0,1.0
14:50:46,113197.0,0.03156711906194687,0.0004315924670663662,-2.433957099914551,1.1407314538955688,-0.0029523710254579782,-0.004751757951453328,-35.3632626,149.1652383,181629.0,2.0,-5.0,97.0,RTL,1.5,37.0,-1023.5,1145.5,0.5,-0.5
14:50:48,113197.0,0.037008192390203476,-0.002933358773589134,-2.4332679907480874,0.8573150634765625,-0.001487604808062315,-0.0004544292266170184,-35.36326303333333,149.1652389,179893.33333333334,5.0,-7.0,99.0,RTL,-1.6666666666666667,-4.333333333333333,-978.6666666666666,861.0,2.3333333333333335,3.0
14:50:49,72112.0,0.0519700963050127,-0.003056271671084687,-2.433765232563019,1.082936406135559,0.0016796657582744956,0.001409919816069305,-35.3632637,149.16523999999998,178828.0,10.25,-14.25,101.0,RTL,-0.5,18.75,-1006.75,1087.25,5.25,5.0
14:50:50,72112.0,0.04153238981962204,0.001110954413888976,-2.4336767196655273,1.0883192420005798,0.0039033452048897743,0.005378211382776499,-35.36326405,149.1652403,177565.0,16.5,-24.0,102.0,RTL,1.5,23.5,-998.5,1093.0,7.5,8.5
14:50:52,72112.0,0.015378938056528568,0.00243189069442451,-2.4329049587249756,0.6814509928226471,-0.0008997125551104546,0.008820541901513934,-35.3632627,149.1652381,175537.5,9.0,-11.0,101.5,RTL,-0.5,-10.5,-996.5,685.5,2.5,12.0
14:50:54,72112.0,0.01095035346224904,0.0009976313158404082,-2.4349448680877686,-0.33300715684890747,-0.003857475472614169,0.00403379718773067,-35.363262250000005,149.16523775000002,173500.0,1.0,-2.0,102.5,RTL,0.6666666666666666,-40.666666666666664,-1034.0,-106.33333333333333,1.0,7.0
14:50:55,47422.0,-0.0007250086637213826,0.0004691769454439054,-2.433507025241852,-0.7984824478626251,0.0004803873016498983,-0.006279852823354304,-35.363261949999995,149.165237425,172726.25,-0.25,-1.0,102.75,RTL,0.5,-70.0,-978.75,-793.75,4.5,-2.0
14:50:56,47422.0,0.0013935740280430764,0.0007677636458538473,-2.4343173503875732,-0.7587087452411652,-0.002863859641365707,-0.013553565833717585,-35.3632617,149.1652371,171461.5,-5.0,4.0,99.0,RTL,1.0,-70.5,-985.0,-754.0,1.0,-9.0
14:50:58,47422.0,-0.022311346605420113,0.0018319299560971558,-2.4338561296463013,-1.1573833227157593,8.96479468792677e-06,-0.002213345840573311,-35.363261,149.16523575000002,169403.0,-10.5,11.0,103.0,RTL,0.5,-75.5,-996.5,-1152.5,4.0,2.0
14:51:00,47422.0,-0.0043517375985781355,-0.002373848886539539,-2.432342449824015,-0.9386084675788879,-0.002643473446369171,0.003926316741853952,-35.363261099999995,149.16523616666666,167647.33333333334,-11.0,14.0,99.0,RTL,-2.6666666666666665,-61.666666666666664,-1021.0,-934.3333333333334,1.3333333333333333,7.333333333333333
14:51:01,90362.0,0.011003762483596802,-0.004612690769135952,-2.433154344558716,-0.8619664311408997,0.0011515811396141846,-0.0034620645456016064,-35.36326176666666,149.16523730000003,166706.0,-9.0,10.0,98.66666666666667,RTL,-2.3333333333333335,-64.66666666666667,-997.0,-857.6666666666666,5.333333333333333,0.6666666666666666
14:51:02,90362.0,8.50483775138855e-06,-0.0013055618037469685,-2.434597611427307,-1.326660692691803,-0.0001533451722934842,-0.00391746056266129,-35.36326235,149.16523815,165754.5,-3.0,1.0,99.5,RTL,-0.5,-54.0,-1027.5,-1320.5,3.5,0.0
14:51:04,90362.0,-0.011898854980245233,0.003078008536249399,-2.434049606323242,-0.6238365918397903,0.003056767862290144,-0.001500166836194694,-35.3632626,149.16523790000002,163669.0,2.5,-4.5,100.0,RTL,0.0,14.0,-962.0,-615.0,6.5,2.0
14:51:06,90362.0,-0.03562597185373306,0.004322666791267693,-2.4337836503982544,-0.6521557383239269,0.0003333581844344735,0.005176186095923185,-35.363261300000005,149.165236,161614.5,-5.0,6.0,99.5,RTL,3.0,-7.0,-1009.0,-644.5,4.0,8.5
14:51:07,35351.0,-0.04455046355724335,0.0015863684420764912,-2.4345011115074158,-1.2420977354049683,-0.006773046508897096,0.005139509215950966,-35.363260624999995,149.16523515,160596.25,-10.75,14.0,96.0,RTL,1.0,-28.0,-1016.25,-1235.0,-3.0,8.5
14:51:08,35351.0,-0.03139821160584688,-0.0021912034426350147,-2.4334585666656494,-0.725080668926239,-0.0028862074250355363,-0.005979626323096454,-35.3632607,149.1652355,159575.5,-13.5,17.5,100.5,RTL,-3.5,10.0,-961.0,-717.0,0.5,-2.0
14:51:10,35351.0,0.009068575920537114,-0.004023846238851547,-2.433127522468567,0.01066000759601593,0.0025829204823821783,-0.0019963541999459267,-35.36326235,149.16523825000002,157532.0,-3.0,1.5,96.5,RTL,-2.5,44.5,-1004.5,18.5,6.0,2.0
14:51:12,35351.0,0.028166016563773155,0.0005723223584936932,-2.433546781539917,1.4699868559837341,0.0024123943876475096,0.002048109658062458,-35.36326325,149.16523934999998,155492.0,8.5,-13.5,100.5,RTL,0.0,77.5,-982.5,1476.5,5.5,5.5
14:51:13,23827.0,0.016729339258745313,0.0019569083815440536,-2.433837115764618,1.2652523219585419,0.002552284800913185,0.00024708861019462347,-35.363263100000005,149.165238875,154463.25,9.75,-15.0,96.75,RTL,0.75,72.0,-980.75,1272.5,6.0,4.0
14:51:14,23827.0,0.0005403212271630764,0.0005941706913290545,-2.4334250688552856,0.8220690488815308,-0.001036450732499361,-0.001322657335549593,-35.363262649999996,149.1652383,153445.0,7.0,-10.0,100.0,RTL,0.0,70.0,-1031.0,830.0,3.0,2.5
14:51:16,23827.0,0.024689022451639175,0.00033035650267265737,-2.433541417121887,1.379610538482666,-0.002080397098325193,0.0002174251712858677,-35.36326235,149.1652381,151421.0,3.0,-7.0,100.5,RTL,2.5,38.5,-1006.5,1385.0,1.5,4.0
14:51:18,23827.0,0.007884477265179157,-0.00012148734458605759,-2.43335223197937,1.3200193047523499,-0.003801422892138362,0.0039025472942739725,-35.36326165,149.1652371,149391.0,-2.5,-0.5,96.5,RTL,0.5,64.0,-1039.0,1326.5,0.0,7.0
14:51:19,42704.0,0.015927842585369945,-0.00013843075930708437,-2.434156835079193,1.3927691876888275,-0.0020192592637613416,0.002029336290434003,-35.363261475,149.165236875,148378.75,-5.5,2.75,99.75,RTL,0.25,51.75,-1002.0,1398.5,1.5,5.5
14:51:20,42704.0,-0.002894179953727871,0.001097565022064373,-2.4339534044265747,1.2796776294708252,0.0017007861752063036,0.004762860247865319,-35.3632613,149.16523660000001,147367.5,-6.5,4.5,100.5,RTL,0.0,66.0,-1037.0,1286.5,5.0,8.5
14:51:22,42704.0,-0.007821279112249613,0.0041968729346990585,-2.4336520433425903,1.3793582916259766,-0.002730319043621421,-0.00031172484159469604,-35.36326029999999,149.16523475000002,145349.0,-15.5,16.0,102.5,RTL,2.0,44.0,-997.0,1384.0,1.0,3.5
14:51:24,42704.0,-0.01190289598889649,-0.00038229781785048544,-2.433060050010681,1.331786334514618,-0.0037608183920383453,0.0009979992173612118,-35.36325935,149.16523354999998,143318.5,-26.0,30.0,105.0,RTL,0.0,51.5,-988.0,1336.0,0.0,4.0
14:51:25,186518.0,0.0005389941798057407,-0.002525686111766845,-2.43319308757782,1.1118448376655579,-0.002506296121282503,-0.002862537920009345,-35.363259549999995,149.1652341,142303.0,-27.25,31.5,105.75,RTL,-1.25,29.75,-988.5,1114.5,1.0,1.0
14:51:26,186518.0,0.010265911580063403,-0.004105461179278791,-2.433135151863098,0.6664539277553558,-0.002496195607818663,-0.004776532528921962,-35.3632602,149.1652352,141287.0,-24.0,26.5,105.5,RTL,-2.5,0.0,-990.0,668.0,0.5,-0.5
14:51:28,186518.0,0.030716586858034134,-0.004436657880432904,-2.4327067136764526,0.547683835029602,-0.0024541361490264535,-0.004767397651448846,-35.36326205,149.16523784999998,139232.0,-8.0,7.0,108.0,RTL,-3.0,-14.0,-1006.5,549.0,1.0,-1.5
14:51:30,186518.0,0.03211522474884987,-0.00039756816113367677,-2.4324936866760254,0.3173596831038594,0.0026387484977021813,-0.0005469702882692218,-35.36326335,149.16523945,137176.0,6.0,-11.5,102.5,RTL,0.0,-24.5,-1041.0,319.0,5.5,3.0
14:51:31,180012.0,0.030815746635198593,-0.0011065329454140738,-2.4330812096595764,0.009732194244861603,-0.005432713660411537,-0.0033714608871378005,-35.363263550000006,149.16523957500002,136136.5,9.25,-13.5,103.25,RTL,-0.25,-37.5,-955.25,11.75,-1.5,0.5
14:51:32,180012.0,0.03550268430262804,-0.0013544431421905756,-2.433482527732849,0.32841378450393677,-0.0039563815807923675,-0.006381287006661296,-35.36326365,149.16523984999998,135106.5,12.0,-16.5,101.0,RTL,0.5,-6.5,-1046.0,331.0,-0.5,-2.0
14:51:34,180012.0,0.05075063928961754,-0.0017668710206635296,-2.432434320449829,0.4413319006562233,0.0013424326898530126,0.0016044409712776542,-35.3632642,149.16524065,133073.0,15.5,-21.5,102.5,RTL,0.0,-23.0,-931.5,443.5,4.5,5.0
14:51:36,139218.0,0.013018554076552391,0.0037268190644681454,-2.43317711353302,-0.8750838935375214,-0.0015706609701737761,-0.003735986305400729,-35.363263950000004,149.16523995,131027.0,18.0,-24.0,98.5,RTL,2.5,-72.0,-1006.5,-871.0,2.0,-0.5
14:51:38,98424.0,-0.010182282654568553,0.0004526339107542299,-2.433008074760437,-1.1829370260238647,-0.004533713799901307,-0.0015497737331315875,-35.3632629,149.16523865,128982.0,9.5,-12.0,101.5,RTL,1.0,-27.0,-1013.5,-1175.5,-1.0,2.0
14:51:40,98424.0,0.0062406479846686125,-0.000570467411307618,-2.4342291355133057,0.09328234195709229,0.0005936943925917149,-0.005024321144446731,-35.3632626,149.16523845,126893.5,4.5,-8.0,99.0,RTL,-0.5,25.0,-1000.0,101.0,4.0,-1.5
14:51:41,157519.0,0.015527174109593034,-0.0007125265001377556,-2.4328296780586243,1.0864340364933014,-0.0006903443718329072,0.0005203460459597409,-35.3632626,149.16523845,125823.5,5.25,-9.25,99.75,RTL,-1.5,70.25,-1010.5,1093.75,2.5,3.5
14:51:42,157519.0,0.029957503080368042,-0.0016598335350863636,-2.4332958459854126,1.3437166213989258,-0.0008803926175460219,-0.0012029589852318168,-35.363262750000004,149.1652388,124813.0,6.0,-9.5,101.0,RTL,-1.0,64.5,-1027.5,1350.5,2.0,2.0
14:51:44,157519.0,0.014244220219552517,0.0038893258897587657,-2.4337010383605957,1.328062355518341,-0.009897949639707804,-0.001340348506346345,-35.363262500000005,149.16523805,122778.0,5.0,-10.5,100.5,RTL,4.0,54.5,-1053.0,1334.5,-6.5,2.0
14:51:46,157519.0,-0.02740571228787303,0.007242049090564251,-2.4332292079925537,1.2108367681503296,-0.0013106921687722206,0.007724816678091884,-35.36326015,149.16523435,120740.0,-12.5,13.0,97.5,RTL,6.0,42.5,-1065.5,1217.5,1.5,10.5
14:51:47,85315.0,-0.05918068718165159,0.007887788349762559,-2.433555483818054,0.8302880525588989,0.0001339708105660975,0.010074463149067014,-35.36325840000001,149.16523180000002,119719.25,-26.25,30.25,103.0,RTL,5.5,61.5,-990.25,837.5,3.25,13.25
14:51:48,85315.0,-0.06631437689065933,0.0038767114747315645,-2.4331172704696655,1.0588065087795258,-0.003024247591383755,0.0011901920661330223,-35.3632571,149.1652301,118713.0,-41.5,50.5,102.0,RTL,1.0,67.5,-1047.5,1065.0,0.5,5.0
14:51:50,85315.0,-0.006094340176787227,-0.007141671841964126,-2.4317758083343506,1.4246881604194641,-0.0037084210198372602,-0.003851106623187661,-35.36325805,149.1652322,116663.0,-47.0,56.5,100.0,RTL,-5.0,70.5,-1045.0,1428.5,0.0,0.0
14:51:52,85315.0,0.028548900969326496,-0.004673065152019262,-2.432058095932007,1.1959249377250671,0.00011958833783864975,-0.008730436442419887,-35.363260999999994,149.1652365,114591.5,-22.5,22.0,102.0,RTL,-2.5,27.5,-979.0,1197.5,3.5,-5.0
14:51:53,77163.0,0.025296282954514027,-0.0009875417526927777,-2.431396245956421,0.9354967325925827,0.0027968790964223444,-0.0007850014371797442,-35.363261775,149.1652373,113565.0,-12.25,9.25,99.25,RTL,-1.0,12.25,-998.25,936.5,5.75,2.0
14:51:54,77163.0,0.026585600338876247,-0.0012872036604676396,-2.431281566619873,0.6940138041973114,-0.0015367327723652124,0.0023691756650805473,-35.36326215,149.16523765,112536.0,-6.0,4.0,100.5,RTL,-1.5,-11.0,-972.5,694.0,1.5,5.5
14:51:56,77163.0,0.04015558585524559,-0.004394579213112593,-2.4323333501815796,0.2690356792882085,0.0015896494733169675,-0.003034429799299687,-35.3632633,149.16523945,110494.5,4.5,-7.5,97.5,RTL,-1.5,-21.5,-986.0,270.0,4.0,0.0
14:51:58,77163.0,0.023319874657317996,0.005597214214503765,-2.4316569566726685,0.43145763874053955,0.004059326369315386,0.0021817408269271255,-35.3632634,149.1652391,108454.5,11.5,-18.0,99.5,RTL,3.5,-19.0,-1068.0,432.5,7.0,5.0
14:51:59,165409.0,-0.01580274582374841,0.006647582049481571,-2.431392788887024,-0.5118943527340889,-0.005545736639760435,-0.0026690116501413286,-35.363262074999994,149.165237075,107433.75,4.5,-7.25,98.25,RTL,3.75,-65.5,-973.25,-510.5,-2.0,0.75
14:52:00,165409.0,-0.019605478271842003,0.0029916028724983335,-2.43132483959198,-0.8352813124656677,-0.007991728140041232,-0.0090488085988909,-35.3632612,149.1652359,106406.5,-5.0,7.0,99.0,RTL,2.0,-71.5,-980.5,-833.5,-4.5,-5.5
14:52:02,165409.0,0.005049139086622745,-0.00299141276627779,-2.4318742752075195,-0.5882829576730728,-0.0007435065926983953,-0.0024782214895822108,-35.3632612,149.1652365,104365.0,-10.0,11.0,99.5,RTL,-0.5,-56.5,-1002.0,-587.0,2.0,0.5
14:52:04,165409.0,0.019328059628605843,-0.0017813610611483455,-2.4317445755004883,-0.18040277436375618,-0.00645803939551115,0.0019001471810042858,-35.3632622,149.16523795,102340.5,-4.0,2.0,100.5,RTL,-2.0,-42.5,-1021.0,-180.0,-3.0,5.0
14:52:05,148557.0,0.012406736612319946,-0.000706313436239725,-2.4310778379440308,-0.8618621677160263,0.0016193528717849404,-0.00261485215742141,-35.363262625000004,149.165238475,101327.25,0.25,-3.5,98.75,RTL,-0.25,-65.75,-975.0,-860.5,4.25,0.75
14:52:06,148557.0,0.012046749703586102,0.00042376276542199776,-2.431517481803894,-0.5988045632839203,-0.003328306251205504,-0.00212220661342144,-35.363262750000004,149.1652385,100291.0,4.5,-8.0,99.5,RTL,-0.5,-56.0,-1065.0,-597.5,0.0,1.0
14:52:08,148557.0,0.03473906870931387,-0.0033301222138106823,-2.4316701889038086,-0.5734607726335526,-0.000603993481490761,-0.004683135426603258,-35.3632638,149.1652402,98259.5,10.0,-14.5,97.5,RTL,-1.5,-52.5,-1050.0,-571.5,2.0,-1.5
14:52:10,148557.0,-0.005262226419290528,0.004439385607838631,-2.4313266277313232,-0.9514743685722351,-0.00548993272241205,-0.010600781068205833,-35.3632631,149.16523885,96218.0,11.5,-18.0,96.0,RTL,4.0,-69.5,-1092.0,-948.5,-2.0,-6.5
14:52:11,18895.0,-0.025259620510041714,0.0019259359687566757,-2.431316316127777,-1.393300861120224,-0.005678048823028803,-0.006772155989892781,-35.36326225,149.16523765,95197.5,4.75,-7.5,98.5,RTL,0.0,-51.25,-1005.0,-1388.75,-2.25,-2.75
14:52:12,18895.0,-0.024255026131868362,-0.00044525685370899737,-2.431180715560913,-1.1598131656646729,-0.004486371763050556,-0.006764697842299938,-35.3632621,149.1652375,94568.0,2.0,-3.0,100.0,RTL,0.0,-19.0,-976.0,-1154.0,-1.0,-3.0
14:52:14,18895.0,0.01076823566108942,0.0015951126697473228,-2.431432843208313,1.1292904615402222,0.011099634692072868,0.0061723674880340695,-35.3632623,149.16523805,92566.0,2.0,-6.0,100.0,RTL,0.5,68.5,-987.0,1135.0,13.5,9.0
14:52:16,77485.5,-0.007721469039097428,0.0029945794958621264,-2.4313353300094604,1.1599776148796082,-0.0037647585850208998,0.0012890740763396025,-35.363261550000004,149.16523645,90519.0,-2.0,2.0,96.0,RTL,0.0,67.5,-1008.0,1165.5,-0.5,4.0
14:52:18,136076.0,0.02036168798804283,-0.0017597474507056177,-2.4308197498321533,1.378225564956665,-0.0008733868016861379,-0.00039723532972857356,-35.36326165,149.16523695,88463.5,-5.0,7.0,97.5,RTL,-0.5,44.0,-1067.5,1381.5,1.5,2.0
