time_stamp,MODE,lat,lon,relative_alt,roll,pitch,yaw,rollspeed,pitchspeed,yawspeed,xacc,yacc,zacc,xgyro,ygyro,zgyro,vx,vy,vz,RTL_ALT
14:45:59.255,STABILIZE,-35.3632621,149.1652374,81,0.00032683159224689007,0.001567163271829486,0.02917126752436161,0.0003621010691858828,0.0002428576408419758,0.0023520044051110744,0,1,-1000,0,0,0,-1,1,-3,1500.0
14:45:59.456,STABILIZE,-35.3632621,149.1652374,81,0.00032683159224689007,0.001567163271829486,0.02917126752436161,0.0003621010691858828,0.0002428576408419758,0.0023520044051110744,0,1,-1000,0,0,0,-1,1,-3,1500.0
14:45:59.657,STABILIZE,-35.3632621,149.1652374,81,0.00032683159224689007,0.001567163271829486,0.02917126752436161,0.0003621010691858828,0.0002428576408419758,0.0023520044051110744,0,1,-1000,0,0,0,-1,1,-3,1500.0
14:45:59.857,STABILIZE,-35.3632621,149.1652374,81,0.00032683159224689007,0.001567163271829486,0.02917126752436161,0.0003621010691858828,0.0002428576408419758,0.0023520044051110744,0,1,-1000,0,0,0,-1,1,-3,1500.0
14:46:00.058,STABILIZE,-35.3632621,149.1652374,81,0.00032683159224689007,0.001567163271829486,0.02917126752436161,0.0003621010691858828,0.0002428576408419758,0.0023520044051110744,0,1,-1000,0,0,0,-1,1,-3,1500.0
14:46:00.259,STABILIZE,-35.3632621,149.1652375,61,0.00023717393924016505,0.0015858595725148916,0.028334591537714005,0.0002364225802011788,0.0003250872832722962,0.0024275891482830048,0,1,-1000,0,0,0,-1,2,-1,1500.0
14:46:00.461,STABILIZE,-35.3632621,149.1652375,58,0.00023717393924016505,0.0015858595725148916,0.028334591537714005,0.0002364225802011788,0.0003250872832722962,0.0024275891482830048,0,1,-1000,0,0,0,-2,2,-1,1500.0
14:46:00.662,STABILIZE,-35.3632621,149.1652375,58,0.00023717393924016505,0.0015858595725148916,0.028334591537714005,0.0002364225802011788,0.0003250872832722962,0.0024275891482830048,0,1,-1000,0,0,0,-2,2,-1,1500.0
14:46:00.864,STABILIZE,-35.3632621,149.1652375,58,0.00023717393924016505,0.0015858595725148916,0.028334591537714005,0.0002364225802011788,0.0003250872832722962,0.0024275891482830048,0,1,-1000,0,0,0,-2,2,-1,1500.0
14:46:01.065,STABILIZE,-35.3632622,149.1652375,51,0.0003329120227135718,0.0014615303371101618,0.027768006548285484,0.0001732298987917602,0.00016635278007015586,0.0022107274271547794,0,1,-1000,0,0,0,-2,2,0,1500.0
14:46:01.267,STABILIZE,-35.3632622,149.1652375,48,0.0002482317213434726,0.0014246295904740691,0.02761499583721161,0.0001875685411505401,0.0003304324927739799,0.0022106883116066456,0,1,-1000,0,0,0,-2,2,0,1500.0
14:46:01.469,STABILIZE,-35.3632622,149.1652375,48,0.0001589789317222312,0.0013858696911484003,0.027425765991210938,0.00027053634403273463,0.00042423466220498085,0.0021816447842866182,0,1,-1000,0,0,0,-2,2,0,1500.0
14:46:01.670,STABILIZE,-35.3632622,149.1652375,48,0.0001589789317222312,0.0013858696911484003,0.027425765991210938,0.00027053634403273463,0.00042423466220498085,0.0021816447842866182,0,1,-1000,0,0,0,-2,2,0,1500.0
14:46:01.872,STABILIZE,-35.3632622,149.1652375,48,0.0001589789317222312,0.0013858696911484003,0.027425765991210938,0.00027053634403273463,0.00042423466220498085,0.0021816447842866182,0,1,-1000,0,0,0,-2,2,0,1500.0
14:46:02.074,STABILIZE,-35.3632622,149.1652375,48,0.0001589789317222312,0.0013858696911484003,0.027425765991210938,0.00027053634403273463,0.00042423466220498085,0.0021816447842866182,0,1,-1000,0,0,0,-2,2,0,1500.0
14:46:02.275,STABILIZE,-35.3632622,149.1652375,48,0.0001589789317222312,0.0013858696911484003,0.027425765991210938,0.00027053634403273463,0.00042423466220498085,0.0021816447842866182,0,1,-1000,0,0,0,-2,2,0,1500.0
14:46:02.477,STABILIZE,-35.3632622,149.1652375,36,0.0001589789317222312,0.0013858696911484003,0.027425765991210938,0.00027053634403273463,0.00042423466220498085,0.0021816447842866182,0,1,-1000,0,0,0,-1,2,0,1500.0
14:46:02.678,STABILIZE,-35.3632622,149.1652375,34,0.0001589789317222312,0.0013858696911484003,0.027425765991210938,0.00027053634403273463,0.00042423466220498085,0.0021816447842866182,0,1,-1000,0,0,0,-1,1,0,1500.0
14:46:02.880,STABILIZE,-35.3632622,149.1652375,34,0.0001589789317222312,0.0013858696911484003,0.027425765991210938,0.00027053634403273463,0.00042423466220498085,0.0021816447842866182,0,1,-1000,0,0,0,-1,1,0,1500.0
14:46:03.082,STABILIZE,-35.3632622,149.1652375,34,0.0001589789317222312,0.0013858696911484003,0.027425765991210938,0.00027053634403273463,0.00042423466220498085,0.0021816447842866182,0,1,-1000,0,0,0,-1,1,0,1500.0
14:46:03.283,STABILIZE,-35.3632622,149.1652375,30,-0.0004515093460213393,0.0010674594668671489,0.026360012590885162,0.00020076573127880692,0.00022940701455809176,0.001990681979805231,0,1,-1000,0,0,0,-1,1,0,1500.0
14:46:03.485,STABILIZE,-35.3632622,149.1652375,28,-0.0005184803158044815,0.001046222634613514,0.026221195235848427,8.092331700026989e-05,0.000232088437769562,0.0019749959465116262,0,1,-1000,0,0,0,-1,1,0,1500.0
14:46:03.686,STABILIZE,-35.3632622,149.1652375,28,-0.0005184803158044815,0.001046222634613514,0.026221195235848427,8.092331700026989e-05,0.000232088437769562,0.0019749959465116262,0,1,-1000,0,0,0,-1,1,0,1500.0
14:46:03.888,STABILIZE,-35.3632622,149.1652375,28,-0.0005184803158044815,0.001046222634613514,0.026221195235848427,8.092331700026989e-05,0.000232088437769562,0.0019749959465116262,0,1,-1000,0,0,0,-1,1,0,1500.0
14:46:04.090,STABILIZE,-35.3632622,149.1652375,28,-0.0005184803158044815,0.001046222634613514,0.026221195235848427,8.092331700026989e-05,0.000232088437769562,0.0019749959465116262,0,1,-1000,0,0,0,-1,1,0,1500.0
14:46:04.292,STABILIZE,-35.3632622,149.1652375,28,-0.0005184803158044815,0.001046222634613514,0.026221195235848427,8.092331700026989e-05,0.000232088437769562,0.0019749959465116262,0,1,-1000,0,0,0,-1,1,0,1500.0
14:46:04.494,STABILIZE,-35.3632621,149.1652375,26,-0.0005184803158044815,0.001046222634613514,0.026221195235848427,8.092331700026989e-05,0.000232088437769562,0.0019749959465116262,0,1,-1000,0,0,0,-1,0,0,1500.0
14:46:04.695,STABILIZE,-35.3632621,149.1652375,26,-0.0005184803158044815,0.001046222634613514,0.026221195235848427,8.092331700026989e-05,0.000232088437769562,0.0019749959465116262,0,1,-1000,0,0,0,-1,0,0,1500.0
14:46:04.897,STABILIZE,-35.3632621,149.1652375,25,-0.0005184803158044815,0.001046222634613514,0.026221195235848427,8.092331700026989e-05,0.000232088437769562,0.0019749959465116262,0,1,-1000,0,0,0,-1,0,0,1500.0
14:46:05.098,STABILIZE,-35.3632621,149.1652375,25,-0.0005184803158044815,0.001046222634613514,0.026221195235848427,8.092331700026989e-05,0.000232088437769562,0.0019749959465116262,0,1,-1000,0,0,0,-1,0,0,1500.0
14:46:05.300,STABILIZE,-35.3632621,149.1652375,24,-0.0005254672723822296,0.0009616399183869362,0.025440050289034843,0.00040461390744894743,0.0002204444317612797,0.0019133294699713588,0,1,-1000,0,1,0,-1,0,0,1500.0
14:46:05.502,STABILIZE,-35.3632621,149.1652375,24,-0.0005254672723822296,0.0009616399183869362,0.025440050289034843,0.00040461390744894743,0.0002204444317612797,0.0019133294699713588,0,1,-1000,0,1,0,-1,0,0,1500.0
14:46:05.704,STABILIZE,-35.3632621,149.1652375,24,-0.0005254672723822296,0.0009616399183869362,0.025440050289034843,0.00040461390744894743,0.0002204444317612797,0.0019133294699713588,0,1,-1000,0,1,0,-1,0,0,1500.0
14:46:05.906,STABILIZE,-35.3632621,149.1652375,24,-0.0005254672723822296,0.0009616399183869362,0.025440050289034843,0.00040461390744894743,0.0002204444317612797,0.0019133294699713588,0,1,-1000,0,1,0,-1,0,0,1500.0
14:46:06.108,STABILIZE,-35.3632621,149.1652375,24,-0.0005254672723822296,0.0009616399183869362,0.025440050289034843,0.00040461390744894743,0.0002204444317612797,0.0019133294699713588,0,1,-1000,0,1,0,-1,0,0,1500.0
14:46:06.310,STABILIZE,-35.3632621,149.1652375,19,-0.0005842496757395566,0.0009446342010051012,0.025027943775057793,0.00028164655668661,0.0001949022407643497,0.001877804403193295,0,1,-1000,0,0,0,-1,1,0,1500.0
14:46:06.511,STABILIZE,-35.3632621,149.1652375,18,-0.0005842496757395566,0.0009446342010051012,0.025027943775057793,0.00028164655668661,0.0001949022407643497,0.001877804403193295,0,1,-1000,0,0,0,-1,1,0,1500.0
14:46:06.713,STABILIZE,-35.3632621,149.1652375,17,-0.0005842496757395566,0.0009446342010051012,0.025027943775057793,0.00028164655668661,0.0001949022407643497,0.001877804403193295,0,1,-1000,0,1,0,-1,1,0,1500.0
14:46:06.914,STABILIZE,-35.3632621,149.1652375,17,-0.0005842496757395566,0.0009446342010051012,0.025027943775057793,0.00028164655668661,0.0001949022407643497,0.001877804403193295,0,1,-1000,0,1,0,-1,1,0,1500.0
14:46:07.116,STABILIZE,-35.3632621,149.1652375,17,-0.0005842496757395566,0.0009446342010051012,0.025027943775057793,0.00028164655668661,0.0001949022407643497,0.001877804403193295,0,1,-1000,0,1,0,-1,1,0,1500.0
14:46:07.318,STABILIZE,-35.3632621,149.1652375,14,-0.000641917809844017,0.000924525607842952,0.024608006700873375,0.00043755193473771214,0.00035787041997537017,0.0018839847762137651,0,1,-1000,1,1,0,-1,1,0,1500.0
14:46:07.520,STABILIZE,-35.3632621,149.1652375,11,-0.000641917809844017,0.000924525607842952,0.024608006700873375,0.00043755193473771214,0.00035787041997537017,0.0018839847762137651,0,1,-1000,0,0,0,-1,2,2,1500.0
14:46:07.722,STABILIZE,-35.3632621,149.1652375,11,-0.000641917809844017,0.000924525607842952,0.024608006700873375,0.00043755193473771214,0.00035787041997537017,0.0018839847762137651,0,1,-1000,0,0,0,-1,2,2,1500.0
14:46:07.926,STABILIZE,-35.3632621,149.1652375,11,-0.000641917809844017,0.000924525607842952,0.024608006700873375,0.00043755193473771214,0.00035787041997537017,0.0018839847762137651,0,1,-1000,0,0,0,-1,2,2,1500.0
14:46:08.139,STABILIZE,-35.3632621,149.1652375,3,-0.0006388118490576744,0.0009352347697131336,0.024182409048080444,0.00015780172543600202,0.00023568212054669857,0.001854163478128612,0,1,-1000,1,0,0,-1,2,2,1500.0
14:46:08.341,STABILIZE,-35.3632621,149.1652375,3,-0.0006388118490576744,0.0009352347697131336,0.024182409048080444,0.00015780172543600202,0.00023568212054669857,0.001854163478128612,0,1,-1000,1,0,0,-1,2,2,1500.0
14:46:08.542,STABILIZE,-35.3632621,149.1652375,3,-0.0006388118490576744,0.0009352347697131336,0.024182409048080444,0.00015780172543600202,0.00023568212054669857,0.001854163478128612,0,1,-1000,1,0,0,-1,2,2,1500.0
14:46:08.744,STABILIZE,-35.3632621,149.1652375,0,-0.0007434768485836685,0.0009446130134165287,0.02402235008776188,0.00023181323194876313,0.00034893822157755494,0.0017516463994979858,0,1,-1000,1,0,0,-1,2,2,1500.0
14:46:08.945,STABILIZE,-35.3632621,149.1652375,0,-0.0007434768485836685,0.0009446130134165287,0.02402235008776188,0.00023181323194876313,0.00034893822157755494,0.0017516463994979858,0,1,-1000,1,0,0,-1,2,2,1500.0
14:46:09.146,STABILIZE,-35.3632622,149.1652375,0,-0.000826594652608037,0.0009498600848019123,0.02382695861160755,0.00027823360869660974,0.00032727059442549944,0.0017850766889750957,0,1,-1000,0,0,0,-1,1,1,1500.0
14:46:09.348,STABILIZE,-35.3632622,149.1652375,0,-0.000826594652608037,0.0009498600848019123,0.02382695861160755,0.00027823360869660974,0.00032727059442549944,0.0017850766889750957,0,1,-1000,0,0,0,-1,1,1,1500.0
14:46:09.549,STABILIZE,-35.3632622,149.1652375,0,-0.000826594652608037,0.0009498600848019123,0.02382695861160755,0.00027823360869660974,0.00032727059442549944,0.0017850766889750957,0,1,-1000,0,0,0,-1,1,1,1500.0
14:46:09.751,STABILIZE,-35.3632622,149.1652375,0,-0.000826594652608037,0.0009498600848019123,0.02382695861160755,0.00027823360869660974,0.00032727059442549944,0.0017850766889750957,0,1,-1000,0,0,0,-1,1,1,1500.0
14:46:09.953,STABILIZE,-35.3632622,149.1652375,0,-0.000826594652608037,0.0009498600848019123,0.02382695861160755,0.00027823360869660974,0.00032727059442549944,0.0017850766889750957,0,1,-1000,0,0,0,-1,1,1,1500.0
14:46:10.155,STABILIZE,-35.3632622,149.1652375,0,-0.0009783916175365448,0.0009566560038365424,0.023526160046458244,0.00022510747658088803,0.0002857617801055312,0.0017020540544763207,0,1,-1000,0,1,0,-1,1,1,1500.0
14:46:10.356,STABILIZE,-35.3632622,149.1652375,0,-0.0009783916175365448,0.0009566560038365424,0.023526160046458244,0.00022510747658088803,0.0002857617801055312,0.0017020540544763207,0,1,-1000,0,1,0,-1,1,1,1500.0
14:46:10.557,STABILIZE,-35.3632622,149.1652375,0,-0.0009783916175365448,0.0009566560038365424,0.023526160046458244,0.00022510747658088803,0.0002857617801055312,0.0017020540544763207,0,1,-1000,1,0,0,-1,1,1,1500.0
14:46:10.759,STABILIZE,-35.3632622,149.1652375,0,-0.0010417444864287972,0.0009669654536992311,0.023375341668725014,0.00029202247969806194,0.00034561759093776345,0.001578065799549222,0,1,-1000,1,0,0,-1,1,1,1500.0
14:46:10.960,STABILIZE,-35.3632622,149.1652375,0,-0.0010417444864287972,0.0009669654536992311,0.023375341668725014,0.00029202247969806194,0.00034561759093776345,0.001578065799549222,0,1,-1000,0,1,1,-1,1,1,1500.0
14:46:11.162,STABILIZE,-35.3632622,149.1652375,0,-0.0010417444864287972,0.0009669654536992311,0.023375341668725014,0.00029202247969806194,0.00034561759093776345,0.001578065799549222,0,1,-1000,0,1,1,-1,1,1,1500.0
14:46:11.363,STABILIZE,-35.3632622,149.1652375,0,-0.0010417444864287972,0.0009669654536992311,0.023375341668725014,0.00029202247969806194,0.00034561759093776345,0.001578065799549222,0,1,-1000,0,1,1,-1,1,1,1500.0
14:46:11.564,STABILIZE,-35.3632622,149.1652375,0,-0.0010417444864287972,0.0009669654536992311,0.023375341668725014,0.00029202247969806194,0.00034561759093776345,0.001578065799549222,0,1,-1000,0,1,1,-1,1,1,1500.0
14:46:11.766,STABILIZE,-35.3632622,149.1652375,0,-0.0010417444864287972,0.0009669654536992311,0.023375341668725014,0.00029202247969806194,0.00034561759093776345,0.001578065799549222,0,1,-1000,0,1,1,-1,1,1,1500.0
14:46:11.967,STABILIZE,-35.3632622,149.1652375,0,-0.0010417444864287972,0.0009669654536992311,0.023375341668725014,0.00029202247969806194,0.00034561759093776345,0.001578065799549222,0,1,-1000,0,1,1,-1,1,1,1500.0
14:46:12.168,STABILIZE,-35.3632622,149.1652375,0,-0.0010417444864287972,0.0009669654536992311,0.023375341668725014,0.00029202247969806194,0.00034561759093776345,0.001578065799549222,0,1,-1000,0,1,1,-1,1,1,1500.0
14:46:12.370,STABILIZE,-35.3632622,149.1652375,0,-0.0010417444864287972,0.0009669654536992311,0.023375341668725014,0.00029202247969806194,0.00034561759093776345,0.001578065799549222,0,1,-1000,0,1,1,-1,1,1,1500.0
14:46:12.571,STABILIZE,-35.3632622,149.1652375,0,-0.001130229327827692,0.0009748124866746366,0.022934598848223686,0.00028954469598829746,0.00036503380397334695,0.0016110350843518972,0,2,-1000,0,1,0,-1,1,1,1500.0
14:46:12.772,STABILIZE,-35.3632622,149.1652375,0,-0.001130229327827692,0.0009748124866746366,0.022934598848223686,0.00028954469598829746,0.00036503380397334695,0.0016110350843518972,0,2,-1000,0,1,0,-1,1,1,1500.0
14:46:12.974,STABILIZE,-35.3632622,149.1652375,0,-0.001130229327827692,0.0009748124866746366,0.022934598848223686,0.00028954469598829746,0.00036503380397334695,0.0016110350843518972,0,1,-1000,0,0,0,-1,1,1,1500.0
14:46:13.175,STABILIZE,-35.3632622,149.1652375,0,-0.001130229327827692,0.0009748124866746366,0.022934598848223686,0.00028954469598829746,0.00036503380397334695,0.0016110350843518972,0,1,-1000,0,0,0,-1,1,0,1500.0
14:46:13.378,STABILIZE,-35.3632622,149.1652375,0,-0.001130229327827692,0.0009748124866746366,0.022934598848223686,0.00028954469598829746,0.00036503380397334695,0.0016110350843518972,0,1,-1000,0,0,0,-1,1,0,1500.0
14:46:13.579,STABILIZE,-35.3632622,149.1652375,0,-0.001130229327827692,0.0009748124866746366,0.022934598848223686,0.00028954469598829746,0.00036503380397334695,0.0016110350843518972,0,1,-1000,0,0,0,-1,1,0,1500.0
14:46:13.781,AUTO,-35.3632622,149.1652375,0,-0.001130229327827692,0.0009748124866746366,0.022934598848223686,0.00028954469598829746,0.00036503380397334695,0.0016110350843518972,0,1,-1000,0,0,0,-1,1,0,1500.0
14:46:13.983,AUTO,-35.3632622,149.1652375,0,-0.001130229327827692,0.0009748124866746366,0.022934598848223686,0.00028954469598829746,0.00036503380397334695,0.0016110350843518972,0,1,-1000,0,0,0,-1,1,0,1500.0
14:46:14.185,AUTO,-35.3632622,149.1652375,0,-0.0011274211574345827,0.000987748266197741,0.022560546174645424,0.00041694584069773555,0.0003182310611009598,0.0015815815422683954,0,2,-1000,0,1,1,-1,1,0,1500.0
14:46:14.386,AUTO,-35.3632622,149.1652375,5,-0.0011234841076657176,0.000991263659670949,0.02252248302102089,0.00012887449702247977,0.00025239563547074795,0.001471283845603466,0,2,-1000,0,1,0,-1,-1,-2,1500.0
14:46:14.587,AUTO,-35.3632622,149.1652375,5,-0.0011234841076657176,0.000991263659670949,0.02252248302102089,0.00012887449702247977,0.00025239563547074795,0.001471283845603466,0,2,-1000,0,1,0,-1,-1,-2,1500.0
14:46:14.789,AUTO,-35.3632621,149.1652375,9,-0.0010819152230396867,0.0010175760835409164,0.02246120385825634,0.00027937727281823754,0.00028212578035891056,0.0014628779608756304,0,1,-1000,1,1,0,0,0,-2,1500.0
14:46:14.990,AUTO,-35.3632621,149.1652375,11,-0.0010174213675782084,0.0010565553093329072,0.02240610495209694,0.0003554869908839464,0.00041858869371935725,0.0015580164035782218,0,1,-1000,1,0,1,0,0,-1,1500.0
14:46:15.192,AUTO,-35.3632621,149.1652375,13,-0.0009551520342938602,0.0010970081202685833,0.02236330695450306,0.0003447578055784106,0.0002930868067778647,0.001548999105580151,0,2,-1000,0,0,0,0,0,-1,1500.0
14:46:15.395,AUTO,-35.3632621,149.1652375,13,-0.0009036615374498069,0.0011466436553746462,0.022307932376861572,0.0002810510923154652,0.0002179658622480929,0.0015636398456990719,0,2,-1000,0,1,0,0,0,-1,1500.0
14:46:15.597,AUTO,-35.3632621,149.1652375,13,-0.0009036615374498069,0.0011466436553746462,0.022307932376861572,0.0002810510923154652,0.0002179658622480929,0.0015636398456990719,0,2,-1000,0,1,0,0,0,-1,1500.0
14:46:15.799,AUTO,-35.3632621,149.1652375,13,-0.0009036615374498069,0.0011466436553746462,0.022307932376861572,0.0002810510923154652,0.0002179658622480929,0.0015636398456990719,0,2,-1000,0,1,0,0,0,-1,1500.0
14:46:16.001,AUTO,-35.3632621,149.1652375,13,-0.0009036615374498069,0.0011466436553746462,0.022307932376861572,0.0002810510923154652,0.0002179658622480929,0.0015636398456990719,0,2,-1000,0,1,0,0,0,-1,1500.0
14:46:16.203,AUTO,-35.3632621,149.1652375,15,-0.0007296128896996379,0.0013578960206359625,0.022138774394989014,0.0004323401371948421,0.00024385564029216766,0.0015178077155724168,0,1,-1000,1,1,0,0,0,-1,1500.0
14:46:16.494,AUTO,-35.3632621,149.1652375,15,-0.0006719240918755531,0.0014254689449444413,0.02205660380423069,0.00025550456484779716,0.000331387622281909,0.0015168571844696999,0,1,-1000,1,0,0,0,0,-1,1500.0
14:46:16.747,AUTO,-35.3632621,149.1652375,15,-0.0006043604225851595,0.0014950280310586095,0.021988393738865852,0.0002524676965549588,0.0002632146351970732,0.0014421450905501842,0,1,-1000,0,1,0,0,0,0,1500.0
14:46:16.969,AUTO,-35.3632621,149.1652375,16,-0.0005318516632542014,0.0015661745565012097,0.021917888894677162,0.0003328718012198806,0.00026821059873327613,0.0014391618315130472,0,1,-1000,1,0,1,0,0,0,1500.0
14:46:17.245,AUTO,-35.3632621,149.1652375,16,-0.00046339811524376273,0.0016405065543949604,0.021831654012203217,0.00025528937112540007,0.0003254344337619841,0.0014691951218992472,0,2,-1000,1,1,0,0,1,0,1500.0
14:46:17.532,AUTO,-35.3632621,149.1652375,16,-0.0003970357938669622,0.0017114775255322456,0.021743716672062874,0.00022945867385715246,0.0003028180799447,0.0014150943607091904,0,1,-1000,0,1,1,0,1,0,1500.0
14:46:17.736,AUTO,-35.3632621,149.1652375,16,-0.0003970357938669622,0.0017114775255322456,0.021743716672062874,0.00022945867385715246,0.0003028180799447,0.0014150943607091904,0,1,-1000,0,1,1,0,1,0,1500.0
14:46:17.950,AUTO,-35.3632621,149.1652375,16,-0.0003970357938669622,0.0017114775255322456,0.021743716672062874,0.00022945867385715246,0.0003028180799447,0.0014150943607091904,0,1,-1000,0,1,1,0,1,0,1500.0
14:46:18.154,AUTO,-35.3632621,149.1652375,217,0.0020625400356948376,0.0002832326863426715,0.021571261808276176,-0.0011145187309011817,0.004241934046149254,0.001239208271726966,0,0,-1130,0,5,0,0,1,-73,1500.0
14:46:18.356,AUTO,-35.3632621,149.1652375,217,0.0020625400356948376,0.0002832326863426715,0.021571261808276176,-0.0011145187309011817,0.004241934046149254,0.001239208271726966,0,0,-1130,0,5,0,0,1,-73,159546.0
14:46:18.557,AUTO,-35.3632621,149.1652375,437,0.001487215980887413,0.0011367336846888065,0.021529734134674072,-0.0051467884331941605,0.0020979316905140877,0.0018243980593979359,0,0,-1108,-4,2,1,0,1,-102,159546.0
14:46:18.759,AUTO,-35.3632621,149.1652375,723,0.001475264667533338,0.0015237174229696393,0.02153915911912918,0.007770595606416464,-0.00011552267824299634,0.0006039270083419979,0,0,-1086,8,0,0,0,1,-125,159546.0
14:46:18.961,AUTO,-35.3632621,149.1652375,1063,0.011309424415230751,0.0005984349409118295,0.021307723596692085,0.047871459275484085,-0.005891008768230677,0.001647804630920291,0,0,-1039,48,-5,1,0,2,-139,159546.0
14:46:19.162,AUTO,-35.3632621,149.1652375,1428,0.023196883499622345,-0.0010804873891174793,0.02135036326944828,0.04662942513823509,-0.0071657258085906506,0.0024684639647603035,0,0,-1016,47,-6,2,0,6,-145,159546.0
14:46:19.364,AUTO,-35.3632621,149.1652375,1428,0.023196883499622345,-0.0010804873891174793,0.02135036326944828,0.04662942513823509,-0.0071657258085906506,0.0024684639647603035,0,0,-1016,47,-6,2,0,6,-145,159546.0
14:46:19.566,AUTO,-35.363262,149.1652377,1805,0.034631263464689255,-0.0029428424313664436,0.02153000235557556,0.04555457830429077,-0.007573739625513554,0.003014464396983385,0,-1,-1007,46,-6,2,1,12,-147,159546.0
14:46:19.768,AUTO,-35.363262,149.1652377,1805,0.034631263464689255,-0.0029428424313664436,0.02153000235557556,0.04555457830429077,-0.007573739625513554,0.003014464396983385,0,-1,-1007,46,-6,2,1,12,-147,159546.0
14:46:19.970,AUTO,-35.363262,149.1652377,1805,0.034631263464689255,-0.0029428424313664436,0.02153000235557556,0.04555457830429077,-0.007573739625513554,0.003014464396983385,0,-1,-1007,46,-6,2,1,12,-147,159546.0
14:46:20.171,AUTO,-35.3632616,149.1652397,2957,0.062376875430345535,-0.00896354578435421,-0.00735855009406805,-0.01160933542996645,0.02247488871216774,-0.04417332634329796,0,-9,-992,-10,22,-44,8,44,-147,159546.0
14:46:20.373,AUTO,-35.3632616,149.1652397,2957,0.062376875430345535,-0.00896354578435421,-0.00735855009406805,-0.01160933542996645,0.02247488871216774,-0.04417332634329796,0,-9,-992,-10,22,-44,8,44,-147,159546.0
14:46:20.574,AUTO,-35.3632614,149.165241,3336,0.041162848472595215,0.0131694246083498,-0.029587483033537865,-0.1437256783246994,0.09773097932338715,-0.10041004419326782,2,-12,-990,-142,98,-101,9,54,-145,159546.0
14:46:20.777,AUTO,-35.3632612,149.1652425,3711,-0.0021223349031060934,0.02372022531926632,-0.04985712096095085,-0.1454019695520401,-0.0005163926398381591,-0.06571898609399796,4,-13,-1007,-145,0,-66,6,55,-144,159546.0
14:46:20.979,AUTO,-35.363261,149.1652438,4088,-0.023040246218442917,0.016642119735479355,-0.060088153928518295,-0.047185853123664856,-0.03709431737661362,-0.03819667547941208,4,-7,-1010,-46,-36,-38,3,48,-147,159546.0
14:46:21.181,AUTO,-35.3632609,149.165245,4470,-0.030358022078871727,0.008233007043600082,-0.06666211783885956,-0.02676217071712017,-0.022622518241405487,-0.03247857838869095,4,-9,-1004,-26,-21,-33,2,38,-148,159546.0
14:46:21.383,AUTO,-35.3632608,149.1652459,4856,-0.0412214919924736,0.0038595397491008043,-0.0738762766122818,-0.06123954430222511,-0.0108006801456213,-0.03328610956668854,4,-8,-999,-60,-10,-33,1,27,-149,159546.0
14:46:21.585,AUTO,-35.3632608,149.1652459,4856,-0.0412214919924736,0.0038595397491008043,-0.0738762766122818,-0.06123954430222511,-0.0108006801456213,-0.03328610956668854,4,-8,-999,-60,-10,-33,1,27,-149,159546.0
14:46:21.787,AUTO,-35.3632608,149.1652459,4856,-0.0412214919924736,0.0038595397491008043,-0.0738762766122818,-0.06123954430222511,-0.0108006801456213,-0.03328610956668854,4,-8,-999,-60,-10,-33,1,27,-149,159546.0
14:46:21.989,AUTO,-35.3632608,149.1652459,4856,-0.0412214919924736,0.0038595397491008043,-0.0738762766122818,-0.06123954430222511,-0.0108006801456213,-0.03328610956668854,4,-8,-999,-60,-10,-33,1,27,-149,159546.0
14:46:22.191,AUTO,-35.3632608,149.1652461,6004,-0.07493092864751816,-0.0002647751534823328,-0.0965687483549118,0.04833139106631279,-0.003932674415409565,-0.019945519044995308,-1,2,-1003,49,-3,-20,-1,-25,-148,159546.0
14:46:22.468,AUTO,-35.3632609,149.1652453,6387,-0.0616004504263401,-0.0008161622099578381,-0.10119390487670898,0.0558413602411747,0.001433835132047534,-0.013777585700154305,-4,7,-1001,56,1,-14,-3,-40,-148,159546.0
14:46:22.762,AUTO,-35.3632609,149.165244,6773,-0.046765971928834915,0.00010960343934129924,-0.10430242121219635,0.06075742468237877,0.0066673229448497295,-0.008889196440577507,-5,10,-1001,61,7,-8,-5,-52,-148,159546.0
14:46:23.226,AUTO,-35.3632612,149.1652407,7540,-0.014499858021736145,0.005024988669902086,-0.10699602961540222,0.06782853603363037,0.012182111851871014,-0.0021334155462682247,-5,13,-1003,68,13,-2,-10,-62,-149,159546.0
14:46:23.558,AUTO,-35.3632615,149.165239,7927,0.0024668355472385883,0.00810452550649643,-0.10719470679759979,0.06846991181373596,0.012211942113935947,-0.0004539125657174736,-7,15,-1004,69,12,0,-12,-60,-150,159546.0
14:46:23.762,AUTO,-35.3632615,149.165239,7927,0.0024668355472385883,0.00810452550649643,-0.10719470679759979,0.06846991181373596,0.012211942113935947,-0.0004539125657174736,-7,15,-1004,69,12,0,-12,-60,-150,159546.0
14:46:23.968,AUTO,-35.3632615,149.165239,7927,0.0024668355472385883,0.00810452550649643,-0.10719470679759979,0.06846991181373596,0.012211942113935947,-0.0004539125657174736,-7,15,-1004,69,12,0,-12,-60,-150,159546.0
14:46:24.173,AUTO,-35.3632626,149.1652347,9096,0.05240638926625252,0.013661783188581467,-0.10448376089334488,0.06455111503601074,0.0012876985128968954,0.003737152088433504,-2,11,-1003,65,1,3,-20,-32,-152,159546.0
14:46:24.375,AUTO,-35.3632626,149.1652347,9096,0.05240638926625252,0.013661783188581467,-0.10448376089334488,0.06455111503601074,0.0012876985128968954,0.003737152088433504,-2,11,-1003,65,1,3,-20,-32,-152,43727.0
14:46:24.577,AUTO,-35.363263,149.165234,9489,0.06788422912359238,0.013055975548923016,-0.10323743522167206,0.06086162105202675,-0.005225705914199352,0.004897135775536299,0,8,-1001,61,-4,4,-21,-15,-152,43727.0
14:46:24.781,AUTO,-35.3632635,149.1652337,9881,0.07780954986810684,0.007181722670793533,-0.09809394180774689,-0.0034691982436925173,-0.057890359312295914,0.05741668492555618,3,4,-994,-2,-57,57,-21,2,-151,43727.0
14:46:24.984,AUTO,-35.3632639,149.165234,10268,0.06783001124858856,-0.01990097016096115,-0.07795136421918869,-0.0559985488653183,-0.1264754831790924,0.11473588645458221,4,0,-996,-55,-125,114,-17,20,-149,43727.0
14:46:25.187,AUTO,-35.3632642,149.1652346,10651,0.047065336257219315,-0.055619727820158005,-0.04831772297620773,-0.1064353957772255,-0.10556472837924957,0.10025347024202347,4,-3,-995,-105,-104,99,-5,32,-148,43727.0
14:46:25.389,AUTO,-35.3632642,149.1652355,11030,0.0133159589022398,-0.05819443613290787,-0.0405096635222435,-0.13671137392520905,0.056792762130498886,-0.013114884495735168,2,-6,-998,-136,57,-13,11,37,-146,43727.0
14:46:25.591,AUTO,-35.3632642,149.1652355,11030,0.0133159589022398,-0.05819443613290787,-0.0405096635222435,-0.13671137392520905,0.056792762130498886,-0.013114884495735168,2,-6,-998,-136,57,-13,11,37,-146,43727.0
14:46:25.793,AUTO,-35.3632642,149.1652355,11030,0.0133159589022398,-0.05819443613290787,-0.0405096635222435,-0.13671137392520905,0.056792762130498886,-0.013114884495735168,2,-6,-998,-136,57,-13,11,37,-146,43727.0
14:46:25.995,AUTO,-35.3632642,149.1652355,11030,0.0133159589022398,-0.05819443613290787,-0.0405096635222435,-0.13671137392520905,0.056792762130498886,-0.013114884495735168,2,-6,-998,-136,57,-13,11,37,-146,43727.0
14:46:26.197,AUTO,-35.3632625,149.1652376,12177,-0.03644430637359619,-0.0029623822774738073,-0.09985397011041641,-0.0076378509402275085,0.0501871183514595,-0.08935511112213135,-4,-8,-1006,-6,50,-90,31,12,-150,43727.0
14:46:26.399,AUTO,-35.3632618,149.1652378,12565,-0.035322170704603195,0.006469300482422113,-0.12106326967477798,0.012205885723233223,0.033314138650894165,-0.07677929848432541,-5,-5,-1004,12,33,-77,29,1,-151,43727.0
14:46:26.601,AUTO,-35.3632618,149.1652378,12565,-0.035322170704603195,0.006469300482422113,-0.12106326967477798,0.012205885723233223,0.033314138650894165,-0.07677929848432541,-5,-5,-1004,12,33,-77,29,1,-151,43727.0
14:46:26.802,AUTO,-35.3632612,149.1652378,12954,-0.03014771081507206,0.012676962651312351,-0.1387569010257721,0.028642764315009117,0.023894015699625015,-0.062269654124975204,-4,-3,-1002,29,24,-62,24,-7,-151,43727.0
14:46:27.004,AUTO,-35.3632607,149.1652375,13344,-0.02171027474105358,0.017337489873170853,-0.15293285250663757,0.039819374680519104,0.01607915386557579,-0.04750819876790047,-7,-1,-1002,40,16,-48,19,-13,-152,43727.0
14:46:27.206,AUTO,-35.3632603,149.165237,13744,-0.011225870810449123,0.020832760259509087,-0.1637776494026184,0.043366868048906326,0.014393202029168606,-0.036553386598825455,-5,0,-1001,44,15,-36,12,-17,-152,43727.0
14:46:27.408,AUTO,-35.36326,149.1652365,14135,8.978696132544428e-05,0.02367710880935192,-0.17159152030944824,0.0470094233751297,0.01091226190328598,-0.02807506173849106,-6,0,-1001,47,11,-28,6,-18,-152,43727.0
14:46:27.610,AUTO,-35.36326,149.1652365,14135,8.978696132544428e-05,0.02367710880935192,-0.17159152030944824,0.0470094233751297,0.01091226190328598,-0.02807506173849106,-6,0,-1001,47,11,-28,6,-18,-152,43727.0
14:46:27.812,AUTO,-35.36326,149.1652365,14135,8.978696132544428e-05,0.02367710880935192,-0.17159152030944824,0.0470094233751297,0.01091226190328598,-0.02807506173849106,-6,0,-1001,47,11,-28,6,-18,-152,43727.0
14:46:28.014,AUTO,-35.36326,149.1652365,14135,8.978696132544428e-05,0.02367710880935192,-0.17159152030944824,0.0470094233751297,0.01091226190328598,-0.02807506173849106,-6,0,-1001,47,11,-28,6,-18,-152,43727.0
14:46:28.217,AUTO,-35.36326,149.1652353,15300,0.018331341445446014,0.020375126972794533,-0.1770794689655304,0.005103726871311665,-0.015218700282275677,0.0065408144146203995,-1,3,-999,5,-14,6,-9,-6,-152,43727.0
14:46:28.509,AUTO,-35.3632601,149.1652352,15690,0.01792517863214016,0.01614036224782467,-0.17488069832324982,-0.004789524246007204,-0.014801927842199802,0.006059129256755114,0,2,-999,-3,-14,5,-12,-1,-151,43727.0
14:46:28.788,AUTO,-35.3632604,149.1652351,16079,0.01569126360118389,0.012434120289981365,-0.1728486567735672,-0.009859145618975163,-0.01408083364367485,0.007909620180726051,1,1,-999,-9,-13,7,-13,3,-151,43727.0
14:46:29.014,AUTO,-35.3632606,149.1652352,16467,0.012489174492657185,0.008810536935925484,-0.17144106328487396,-0.014876864850521088,-0.014359612949192524,0.003540560370311141,2,0,-999,-13,-13,3,-14,6,-151,43727.0
14:46:29.376,AUTO,-35.3632609,149.1652353,16855,0.008796644397079945,0.005525100510567427,-0.17115379869937897,-0.01734035648405552,-0.010566795244812965,-0.0009882929734885693,2,0,-999,-16,-9,-1,-14,8,-151,43727.0
14:46:29.655,AUTO,-35.3632611,149.1652355,17243,0.005411074962466955,0.00275188940577209,-0.17197394371032715,-0.008710954338312149,-0.009060818701982498,-0.006177227478474379,2,0,-1001,-7,-8,-6,-13,9,-151,43727.0
14:46:29.858,AUTO,-35.3632611,149.1652355,17243,0.005411074962466955,0.00275188940577209,-0.17197394371032715,-0.008710954338312149,-0.009060818701982498,-0.006177227478474379,2,0,-1001,-7,-8,-6,-13,9,-151,43727.0
14:46:30.060,AUTO,-35.3632611,149.1652355,17243,0.005411074962466955,0.00275188940577209,-0.17197394371032715,-0.008710954338312149,-0.009060818701982498,-0.006177227478474379,2,0,-1001,-7,-8,-6,-13,9,-151,43727.0
14:46:30.262,AUTO,-35.3632618,149.1652361,18408,-0.0005914755165576935,-0.0022278872784227133,-0.18129859864711761,-0.0022039879113435745,-0.004442635457962751,-0.018167873844504356,2,0,-1001,-1,-3,-18,-9,8,-151,41940.0
14:46:30.464,AUTO,-35.3632619,149.1652362,18797,-0.001412015873938799,-0.0030676955357193947,-0.18610996007919312,-0.0020882023964077234,-0.0003343781572766602,-0.02261408604681492,2,0,-1000,-1,0,-23,-7,7,-152,41940.0
14:46:30.665,AUTO,-35.363262,149.1652364,19187,-0.0015747654251754284,-0.0028729878831654787,-0.19190652668476105,-0.0001947388518601656,0.0020362637005746365,-0.02256624400615692,1,0,-1000,0,2,-23,-5,5,-152,41940.0
14:46:30.867,AUTO,-35.363262,149.1652364,19187,-0.0015747654251754284,-0.0028729878831654787,-0.19190652668476105,-0.0001947388518601656,0.0020362637005746365,-0.02256624400615692,1,0,-1000,0,2,-23,-5,5,-152,41940.0
14:46:31.069,AUTO,-35.3632621,149.1652364,19576,-0.0011165313189849257,-0.00228726863861084,-0.1983691304922104,0.005247412249445915,0.004199235234409571,-0.02675672248005867,1,0,-1001,5,4,-27,-4,4,-152,41940.0
14:46:31.270,AUTO,-35.3632621,149.1652365,19966,-0.0006282891845330596,-0.0016085830284282565,-0.2050342857837677,0.003720394801348448,0.003530485089868307,-0.028754083439707756,0,0,-1000,4,4,-28,-3,3,-152,41940.0
14:46:31.472,AUTO,-35.3632622,149.1652365,20356,0.00016401596076320857,-0.0008549701306037605,-0.21175292134284973,0.005259204190224409,0.004712095484137535,-0.02654077298939228,0,0,-1000,6,5,-27,-2,2,-152,41940.0
14:46:31.674,AUTO,-35.3632622,149.1652365,20356,0.00016401596076320857,-0.0008549701306037605,-0.21175292134284973,0.005259204190224409,0.004712095484137535,-0.02654077298939228,0,0,-1000,6,5,-27,-2,2,-152,41940.0
14:46:31.876,AUTO,-35.3632622,149.1652365,20356,0.00016401596076320857,-0.0008549701306037605,-0.21175292134284973,0.005259204190224409,0.004712095484137535,-0.02654077298939228,0,0,-1000,6,5,-27,-2,2,-152,41940.0
14:46:32.078,AUTO,-35.3632622,149.1652365,20356,0.00016401596076320857,-0.0008549701306037605,-0.21175292134284973,0.005259204190224409,0.004712095484137535,-0.02654077298939228,0,0,-1000,6,5,-27,-2,2,-152,41940.0
14:46:32.279,AUTO,-35.3632622,149.1652365,21524,0.0025383131578564644,0.0016696180682629347,-0.23129384219646454,0.002566179260611534,0.0022542071528732777,-0.023863311856985092,0,0,-1000,3,3,-24,0,1,-152,41940.0
14:46:32.481,AUTO,-35.3632622,149.1652365,21914,0.00301339291036129,0.0020566086750477552,-0.23714621365070343,0.0023657085839658976,0.0018537399591878057,-0.022576821967959404,0,0,-1000,3,2,-23,0,1,-152,41940.0
14:46:32.682,AUTO,-35.3632622,149.1652365,22304,0.003402348607778549,0.0027489576023072004,-0.24306467175483704,0.0015950370579957962,0.004228854551911354,-0.022599544376134872,0,0,-1000,2,5,-22,0,1,-152,41940.0
14:46:32.884,AUTO,-35.3632622,149.1652365,22692,0.0037247526925057173,0.0035265267360955477,-0.24886243045330048,0.002268917392939329,0.00272359955124557,-0.022222593426704407,0,0,-1000,3,3,-22,0,2,-152,41940.0
14:46:33.086,AUTO,-35.3632622,149.1652365,22692,0.0037247526925057173,0.0035265267360955477,-0.24886243045330048,0.002268917392939329,0.00272359955124557,-0.022222593426704407,0,0,-1000,3,3,-22,0,2,-152,41940.0
14:46:33.287,AUTO,-35.3632622,149.1652365,23091,0.0037549426779150963,0.003590351203456521,-0.2541312575340271,0.0010097873164340854,-0.00013652461348101497,-0.01896520145237446,0,0,-1000,1,0,-19,0,2,-152,41940.0
14:46:33.489,AUTO,-35.3632622,149.1652365,23481,0.0038038836792111397,0.0033289361745119095,-0.25886455178260803,0.0012713635805994272,-2.023717388510704e-05,-0.016759922727942467,0,0,-1000,2,0,-17,-1,3,-152,41940.0
14:46:33.691,AUTO,-35.3632622,149.1652365,23481,0.0038038836792111397,0.0033289361745119095,-0.25886455178260803,0.0012713635805994272,-2.023717388510704e-05,-0.016759922727942467,0,0,-1000,2,0,-17,-1,3,-152,41940.0
14:46:33.893,AUTO,-35.3632622,149.1652365,23481,0.0038038836792111397,0.0033289361745119095,-0.25886455178260803,0.0012713635805994272,-2.023717388510704e-05,-0.016759922727942467,0,0,-1000,2,0,-17,-1,3,-152,41940.0
14:46:34.096,AUTO,-35.3632622,149.1652365,23481,0.0038038836792111397,0.0033289361745119095,-0.25886455178260803,0.0012713635805994272,-2.023717388510704e-05,-0.016759922727942467,0,0,-1000,2,0,-17,-1,3,-152,41940.0
14:46:34.309,AUTO,-35.3632622,149.1652366,24650,0.003085899632424116,0.0029346803203225136,-0.2725493311882019,0.0006983130006119609,0.001549411448650062,-0.017864618450403214,0,0,-1000,1,2,-18,-1,3,-152,41940.0
14:46:34.561,AUTO,-35.3632622,149.1652367,25040,-0.0019930494017899036,0.0033234190195798874,-0.2760193347930908,-0.09548252820968628,0.012131978757679462,0.00039868996827863157,0,0,-984,-94,13,0,-1,3,-151,41940.0
14:46:34.812,AUTO,-35.3632622,149.1652367,25425,-0.011050437577068806,0.0056893774308264256,-0.274334579706192,0.004694558214396238,0.0053993109613657,0.011412588879466057,0,0,-1004,5,5,11,-2,1,-151,41940.0
14:46:35.116,AUTO,-35.3632622,149.1652367,25812,-0.0038988618180155754,0.006108160130679607,-0.26998624205589294,0.036579765379428864,-0.002496786881238222,0.019404444843530655,0,0,-1003,37,-1,18,-3,0,-152,41940.0
14:46:35.353,AUTO,-35.3632622,149.1652366,26201,0.0038641532883048058,0.005588032305240631,-0.26409009099006653,0.0249448474496603,-0.0019351330120116472,0.024608461186289787,0,1,-1000,25,-1,24,-4,0,-152,41940.0
14:46:35.631,AUTO,-35.3632622,149.1652366,26590,0.008574049919843674,0.004724581725895405,-0.25711774826049805,0.012716044671833515,-0.0023334198631346226,0.026207037270069122,0,0,-1000,13,-1,25,-4,0,-152,41940.0
14:46:35.836,AUTO,-35.3632622,149.1652366,26590,0.008574049919843674,0.004724581725895405,-0.25711774826049805,0.012716044671833515,-0.0023334198631346226,0.026207037270069122,0,0,-1000,13,-1,25,-4,0,-152,41940.0
14:46:36.046,AUTO,-35.3632622,149.1652366,26590,0.008574049919843674,0.004724581725895405,-0.25711774826049805,0.012716044671833515,-0.0023334198631346226,0.026207037270069122,0,0,-1000,13,-1,25,-4,0,-152,41940.0
14:46:36.256,AUTO,-35.3632624,149.1652367,27757,0.008861548267304897,0.0018498828867450356,-0.23768854141235352,-0.002432706067338586,-0.00033895799424499273,0.024103475734591484,0,0,-1000,-1,0,23,-3,6,-152,41940.0
14:46:36.458,AUTO,-35.3632624,149.1652368,28145,0.007231737021356821,0.0018118970328941941,-0.23197989165782928,-0.008666366338729858,0.0024627288803458214,0.02276546135544777,1,0,-999,-7,3,22,-2,8,-152,129803.0
14:46:36.661,AUTO,-35.3632624,149.165237,28533,0.00547362444922328,0.001790042850188911,-0.2263820618391037,-0.008689558133482933,-0.0016247788444161415,0.021926000714302063,1,-1,-1000,-7,0,21,-1,8,-152,129803.0
14:46:36.862,AUTO,-35.3632624,149.165237,28533,0.00547362444922328,0.001790042850188911,-0.2263820618391037,-0.008689558133482933,-0.0016247788444161415,0.021926000714302063,1,-1,-1000,-7,0,21,-1,8,-152,129803.0
14:46:37.064,AUTO,-35.3632624,149.1652372,28921,0.0035079517401754856,0.001631446648389101,-0.22114330530166626,-0.005886613391339779,-0.0003719947999343276,0.021767694503068924,1,-1,-1000,-4,0,21,-1,8,-152,129803.0
14:46:37.266,AUTO,-35.3632624,149.1652374,29308,0.0017151393694803119,0.0015052832895889878,-0.21596850454807281,-0.006842081435024738,0.00040443899342790246,0.02076856419444084,1,-1,-1000,-6,1,20,0,8,-152,129803.0
14:46:37.468,AUTO,-35.3632624,149.1652375,29696,0.0004623739223461598,0.0016433593118563294,-0.2109394669532776,-0.002984982216730714,0.0003594908630475402,0.019790560007095337,1,-1,-1000,-2,0,19,0,8,-152,129803.0
14:46:37.670,AUTO,-35.3632624,149.1652375,29696,0.0004623739223461598,0.0016433593118563294,-0.2109394669532776,-0.002984982216730714,0.0003594908630475402,0.019790560007095337,1,-1,-1000,-2,0,19,0,8,-152,129803.0
14:46:37.872,AUTO,-35.3632624,149.1652375,29696,0.0004623739223461598,0.0016433593118563294,-0.2109394669532776,-0.002984982216730714,0.0003594908630475402,0.019790560007095337,1,-1,-1000,-2,0,19,0,8,-152,129803.0
14:46:38.074,AUTO,-35.3632624,149.1652375,29696,0.0004623739223461598,0.0016433593118563294,-0.2109394669532776,-0.002984982216730714,0.0003594908630475402,0.019790560007095337,1,-1,-1000,-2,0,19,0,8,-152,129803.0
14:46:38.276,AUTO,-35.3632624,149.1652379,30860,-0.0012649591080844402,0.0014179522404447198,-0.1975364089012146,-0.0015404352452605963,0.0008369300048798323,0.0169913861900568,0,0,-999,0,1,16,0,5,-152,129803.0
14:46:38.477,AUTO,-35.3632624,149.165238,31248,-0.0011464768322184682,0.0013398360460996628,-0.19319923222064972,0.0012564442586153746,0.0005263070925138891,0.017150690779089928,0,0,-1000,2,1,16,0,4,-152,129803.0
14:46:38.679,AUTO,-35.3632624,149.1652381,31636,-0.000983732519671321,0.0012240152573212981,-0.1890890747308731,0.0004488416016101837,-0.0001041054492816329,0.016305947676301003,0,0,-1000,1,0,16,0,3,-152,129803.0
14:46:38.881,AUTO,-35.3632624,149.1652381,31636,-0.000983732519671321,0.0012240152573212981,-0.1890890747308731,0.0004488416016101837,-0.0001041054492816329,0.016305947676301003,0,0,-1000,1,0,16,0,3,-152,129803.0
14:46:39.082,AUTO,-35.3632624,149.1652381,32025,-0.0007653475622646511,0.0011735634179785848,-0.18510571122169495,0.0005376420449465513,0.00012616923777386546,0.017033422365784645,0,0,-1000,1,1,16,0,2,-152,129803.0
14:46:39.286,AUTO,-35.3632624,149.1652381,32418,-0.0002804953255690634,0.001149636460468173,-0.1812957227230072,0.005828863941133022,0.001732507487758994,0.01568003185093403,0,0,-1000,6,2,15,0,2,-152,129803.0
14:46:39.487,AUTO,-35.3632623,149.1652381,32807,-0.00013184899580664933,0.0010230528423562646,-0.17776112258434296,0.0011317696189507842,0.001378289656713605,0.015464236959815025,0,0,-999,2,2,15,0,1,-152,129803.0
14:46:39.689,AUTO,-35.3632623,149.1652381,32807,-0.00013184899580664933,0.0010230528423562646,-0.17776112258434296,0.0011317696189507842,0.001378289656713605,0.015464236959815025,0,0,-999,2,2,15,0,1,-152,129803.0
14:46:39.891,AUTO,-35.3632623,149.1652381,32807,-0.00013184899580664933,0.0010230528423562646,-0.17776112258434296,0.0011317696189507842,0.001378289656713605,0.015464236959815025,0,0,-999,2,2,15,0,1,-152,129803.0
14:46:40.093,AUTO,-35.3632623,149.1652381,32807,-0.00013184899580664933,0.0010230528423562646,-0.17776112258434296,0.0011317696189507842,0.001378289656713605,0.015464236959815025,0,0,-999,2,2,15,0,1,-152,129803.0
14:46:40.306,AUTO,-35.3632623,149.1652381,33968,0.0008144445600919425,0.0010610177414491773,-0.16760852932929993,0.001926588942296803,0.0018503419123589993,0.013095925562083721,0,0,-1000,2,3,13,0,0,-152,129803.0
14:46:40.518,AUTO,-35.3632623,149.1652381,34356,0.0008419612422585487,0.0012716078199446201,-0.1644732803106308,0.0021071145310997963,-0.00023187306942418218,0.012468370608985424,0,0,-1001,3,0,12,0,0,-152,129803.0
14:46:40.790,AUTO,-35.3632623,149.1652381,34745,0.0009382792632095516,0.0013572792522609234,-0.16132982075214386,-0.002141148317605257,0.0011978771071881056,0.012926677241921425,0,0,-999,-1,2,12,0,0,-152,129803.0
14:46:41.070,AUTO,-35.3632623,149.165238,35128,-0.01205249223858118,0.01407146267592907,-0.13119761645793915,-0.09718701988458633,0.09896457940340042,0.2332189828157425,0,-1,-970,-96,99,233,-1,-1,-147,129803.0
14:46:41.341,AUTO,-35.3632623,149.1652379,35493,-0.040943700820207596,0.04731288552284241,-0.038146309554576874,-0.14803913235664368,0.12933234870433807,0.5005373358726501,0,0,-973,-147,130,500,-8,-7,-139,129803.0
14:46:41.587,AUTO,-35.3632626,149.1652375,35840,-0.06265783309936523,0.07088188827037811,0.09680793434381485,-0.033589523285627365,-0.059392448514699936,0.44646766781806946,2,4,-942,-32,-58,446,-22,-20,-129,129803.0
14:46:41.789,AUTO,-35.3632626,149.1652375,35840,-0.06265783309936523,0.07088188827037811,0.09680793434381485,-0.033589523285627365,-0.059392448514699936,0.44646766781806946,2,4,-942,-32,-58,446,-22,-20,-129,129803.0
14:46:41.992,AUTO,-35.3632626,149.1652375,35840,-0.06265783309936523,0.07088188827037811,0.09680793434381485,-0.033589523285627365,-0.059392448514699936,0.44646766781806946,2,4,-942,-32,-58,446,-22,-20,-129,129803.0
14:46:42.194,AUTO,-35.3632645,149.1652347,36669,0.011697172187268734,-0.04144931957125664,0.210372656583786,0.08532773703336716,-0.07441503554582596,0.000908869260456413,3,10,-956,86,-73,0,-24,-33,-89,129803.0
14:46:42.396,AUTO,-35.3632649,149.1652338,36885,0.029225436970591545,-0.052155204117298126,0.20531943440437317,0.05740194767713547,-0.021113291382789612,-0.027210818603634834,1,7,-962,58,-19,-27,-14,-24,-79,113849.0
14:46:42.598,AUTO,-35.3632649,149.1652338,36885,0.029225436970591545,-0.052155204117298126,0.20531943440437317,0.05740194767713547,-0.021113291382789612,-0.027210818603634834,1,7,-962,58,-19,-27,-14,-24,-79,113849.0
14:46:42.800,AUTO,-35.3632651,149.1652333,37076,0.03879747539758682,-0.05227005481719971,0.1966911405324936,0.012788810767233372,0.012655965983867645,-0.035753339529037476,0,4,-967,13,13,-35,-4,-12,-70,113849.0
14:46:43.002,AUTO,-35.3632651,149.165233,37245,0.04197629168629646,-0.04580862075090408,0.18772804737091064,0.022221844643354416,0.03297198563814163,-0.032558124512434006,-1,2,-971,23,34,-32,5,-1,-62,113849.0
14:46:43.204,AUTO,-35.3632649,149.1652331,37395,0.0397472083568573,-0.035897307097911835,0.17949824035167694,-0.028006980195641518,0.04119328409433365,-0.028411515057086945,-2,-3,-976,-27,42,-28,13,9,-55,113849.0
14:46:43.407,AUTO,-35.3632646,149.1652334,37530,0.033608078956604004,-0.0251296516507864,0.17256540060043335,-0.06420134007930756,0.04291114956140518,-0.02279176376760006,-3,-4,-978,-63,44,-22,18,17,-49,113849.0
14:46:43.609,AUTO,-35.3632646,149.1652334,37530,0.033608078956604004,-0.0251296516507864,0.17256540060043335,-0.06420134007930756,0.04291114956140518,-0.02279176376760006,-3,-4,-978,-63,44,-22,18,17,-49,113849.0
14:46:43.811,AUTO,-35.3632646,149.1652334,37530,0.033608078956604004,-0.0251296516507864,0.17256540060043335,-0.06420134007930756,0.04291114956140518,-0.02279176376760006,-3,-4,-978,-63,44,-22,18,17,-49,113849.0
14:46:44.013,AUTO,-35.3632646,149.1652334,37530,0.033608078956604004,-0.0251296516507864,0.17256540060043335,-0.06420134007930756,0.04291114956140518,-0.02279176376760006,-3,-4,-978,-63,44,-22,18,17,-49,113849.0
14:46:44.215,AUTO,-35.3632631,149.1652352,37845,0.005797446705400944,0.0024687224067747593,0.15634191036224365,-0.3750736117362976,0.026667863130569458,-0.01472296379506588,-2,-10,-967,-373,27,-14,22,29,-32,113849.0
14:46:44.417,AUTO,-35.3632626,149.1652359,37920,0.008979995734989643,0.008316781371831894,0.152289018034935,0.3777790069580078,0.020191490650177002,-0.014280975796282291,-1,21,-984,379,21,-14,20,29,-27,113849.0
14:46:44.619,AUTO,-35.3632626,149.1652359,37920,0.008979995734989643,0.008316781371831894,0.152289018034935,0.3777790069580078,0.020191490650177002,-0.014280975796282291,-1,21,-984,379,21,-14,20,29,-27,113849.0
14:46:44.820,AUTO,-35.3632621,149.1652366,37981,0.013006520457565784,0.012213664129376411,0.1474917232990265,0.4958251416683197,0.006862136069685221,-0.01581868715584278,-2,4,-982,496,7,-15,18,27,-21,113849.0
14:46:45.022,AUTO,-35.3632617,149.1652372,38028,0.00044276422704569995,0.014765649102628231,0.14311014115810394,-0.15969854593276978,0.010966156609356403,-0.018142903223633766,0,-30,-975,-160,12,-18,15,24,-16,113849.0
14:46:45.225,AUTO,-35.3632613,149.1652378,38059,-0.011731652542948723,0.01677381992340088,0.13955146074295044,-0.646386444568634,0.003679444082081318,-0.012628022581338882,0,-33,-976,-645,4,-12,12,21,-10,113849.0
14:46:45.427,AUTO,-35.3632611,149.1652384,38074,-0.016704384237527847,0.01619962602853775,0.13646408915519714,-0.1745864301919937,-0.0009758273372426629,-0.013354118913412094,0,5,-954,-172,0,-13,8,18,-2,113849.0
14:46:45.629,AUTO,-35.3632611,149.1652384,38074,-0.016704384237527847,0.01619962602853775,0.13646408915519714,-0.1745864301919937,-0.0009758273372426629,-0.013354118913412094,0,5,-954,-172,0,-13,8,18,-2,113849.0
14:46:45.832,AUTO,-35.3632611,149.1652384,38074,-0.016704384237527847,0.01619962602853775,0.13646408915519714,-0.1745864301919937,-0.0009758273372426629,-0.013354118913412094,0,5,-954,-172,0,-13,8,18,-2,113849.0
14:46:46.034,AUTO,-35.3632611,149.1652384,38074,-0.016704384237527847,0.01619962602853775,0.13646408915519714,-0.1745864301919937,-0.0009758273372426629,-0.013354118913412094,0,5,-954,-172,0,-13,8,18,-2,113849.0
14:46:46.236,AUTO,-35.3632611,149.1652389,37974,-0.017116617411375046,0.036838289350271225,0.12707601487636566,0.8298092484474182,-0.01407067570835352,-0.012898365035653114,4,30,-1021,830,-12,-12,-13,-7,13,113849.0
14:46:46.443,AUTO,-35.3632615,149.1652388,37940,-0.01957509107887745,0.0360773429274559,0.12225434929132462,0.39354291558265686,-0.008033260703086853,-0.019217681139707565,5,-2,-1015,393,-7,-19,-20,-14,9,113849.0
14:46:46.706,AUTO,-35.363262,149.1652386,37912,-0.02506960928440094,0.036321163177490234,0.11804573982954025,-0.1586378961801529,0.00284692645072937,-0.016222922131419182,5,-24,-1006,-158,3,-16,-27,-21,8,113849.0
14:46:47.011,AUTO,-35.3632628,149.1652382,37894,-0.03811139240860939,0.03790336847305298,0.11255679279565811,-0.6922702193260193,0.007822871208190918,-0.010843728668987751,8,-29,-1001,-692,8,-10,-34,-26,3,113849.0
14:46:47.390,AUTO,-35.3632637,149.1652377,37885,-0.050105080008506775,0.04067603498697281,0.10823308676481247,-0.4942461848258972,0.014457661658525467,0.004361748695373535,9,5,-1016,-492,15,4,-42,-31,0,113849.0
14:46:47.602,AUTO,-35.3632648,149.1652371,37884,-0.0458371601998806,0.04510650038719177,0.10477272421121597,0.3310326635837555,0.010444484651088715,0.0035243278834968805,10,52,-1009,332,11,3,-50,-37,-2,113849.0
14:46:47.805,AUTO,-35.3632648,149.1652371,37884,-0.0458371601998806,0.04510650038719177,0.10477272421121597,0.3310326635837555,0.010444484651088715,0.0035243278834968805,10,52,-1009,332,11,3,-50,-37,-2,113849.0
14:46:48.010,AUTO,-35.3632648,149.1652371,37884,-0.0458371601998806,0.04510650038719177,0.10477272421121597,0.3310326635837555,0.010444484651088715,0.0035243278834968805,10,52,-1009,332,11,3,-50,-37,-2,113849.0
14:46:48.214,AUTO,-35.3632695,149.165234,37905,-0.08824173361063004,0.03272460773587227,-0.3326869010925293,-0.6664761900901794,0.0294586643576622,-0.8523326516151428,2,-7,-1004,-666,30,-852,-81,-63,-5,113849.0
14:46:48.418,AUTO,-35.3632716,149.1652324,37915,-0.10401434451341629,0.017247647047042847,-0.5455314517021179,-0.22481045126914978,0.00935225747525692,-0.8168056607246399,-2,32,-1009,-222,10,-816,-94,-72,-5,130477.0
14:46:48.619,AUTO,-35.3632716,149.1652324,37915,-0.10401434451341629,0.017247647047042847,-0.5455314517021179,-0.22481045126914978,0.00935225747525692,-0.8168056607246399,-2,32,-1009,-222,10,-816,-94,-72,-5,130477.0
14:46:48.821,AUTO,-35.363274,149.1652305,37930,-0.10241442918777466,0.00039367470890283585,-0.7460228800773621,0.4417215585708618,0.0014788922853767872,-0.7700967788696289,-9,59,-1007,443,2,-769,-108,-82,-7,130477.0
14:46:49.023,AUTO,-35.3632767,149.1652285,37947,-0.11248498409986496,-0.02042585052549839,-0.9335712194442749,0.20754030346870422,-0.022323235869407654,-0.7223556637763977,-19,35,-1010,207,-21,-721,-126,-93,-7,130477.0
14:46:49.226,AUTO,-35.3632799,149.165226,37967,-0.12665094435214996,-0.045601435005664825,-1.1126935482025146,-0.47454214096069336,-0.00360656576231122,-0.6970560550689697,-26,6,-1006,-474,-2,-696,-145,-105,-9,130477.0
14:46:49.428,AUTO,-35.3632835,149.1652231,37990,-0.12845689058303833,-0.0711369514465332,-1.2925279140472412,-0.07418888062238693,-0.026534317061305046,-0.7266501188278198,-35,41,-1012,-72,-25,-726,-164,-118,-10,130477.0
14:46:49.630,AUTO,-35.3632835,149.1652231,37990,-0.12845689058303833,-0.0711369514465332,-1.2925279140472412,-0.07418888062238693,-0.026534317061305046,-0.7266501188278198,-35,41,-1012,-72,-25,-726,-164,-118,-10,130477.0
14:46:49.833,AUTO,-35.3632835,149.1652231,37990,-0.12845689058303833,-0.0711369514465332,-1.2925279140472412,-0.07418888062238693,-0.026534317061305046,-0.7266501188278198,-35,41,-1012,-72,-25,-726,-164,-118,-10,130477.0
14:46:50.035,AUTO,-35.3632835,149.1652231,37990,-0.12845689058303833,-0.0711369514465332,-1.2925279140472412,-0.07418888062238693,-0.026534317061305046,-0.7266501188278198,-35,41,-1012,-72,-25,-726,-164,-118,-10,130477.0
14:46:50.237,AUTO,-35.3632969,149.1652124,38071,-0.08739636093378067,-0.15377973020076752,-1.8223997354507446,-0.27612945437431335,-0.015613569878041744,-0.7071349024772644,-62,-10,-1018,-276,-14,-707,-233,-161,-13,130477.0
14:46:50.440,AUTO,-35.3633024,149.165208,38106,-0.05574905127286911,-0.1656932830810547,-2.0045390129089355,-0.023380180820822716,0.007823174819350243,-0.7349304556846619,-62,2,-1011,-22,8,-734,-256,-177,-15,130477.0
14:46:50.641,AUTO,-35.3633085,149.1652031,38147,-0.014358378946781158,-0.17434698343276978,-2.1879053115844727,0.29176250100135803,-0.03392971679568291,-0.7302588820457458,-76,-1,-1010,292,-33,-730,-278,-190,-17,130477.0
14:46:50.843,AUTO,-35.3633085,149.1652031,38147,-0.014358378946781158,-0.17434698343276978,-2.1879053115844727,0.29176250100135803,-0.03392971679568291,-0.7302588820457458,-76,-1,-1010,292,-33,-730,-278,-190,-17,130477.0
14:46:51.046,AUTO,-35.3633149,149.1651979,38192,0.015295195393264294,-0.18238843977451324,-2.3711183071136475,-0.1484038233757019,-0.03597169741988182,-0.6969300508499146,-75,-36,-1002,-148,-35,-696,-299,-203,-18,130477.0
14:46:51.248,AUTO,-35.3633219,149.1651922,38239,0.036255959421396255,-0.1900298297405243,-2.5075128078460693,-0.15029674768447876,-0.028471745550632477,-0.3558880090713501,-82,-38,-1005,-149,-27,-355,-321,-217,-18,130477.0
14:46:51.451,AUTO,-35.3633294,149.1651861,38288,0.048189304769039154,-0.191977858543396,-2.545184373855591,0.16075511276721954,-0.0038142199628055096,-0.02762114629149437,-80,-38,-1008,161,-2,-27,-344,-232,-20,130477.0
14:46:51.655,AUTO,-35.3633294,149.1651861,38288,0.048189304769039154,-0.191977858543396,-2.545184373855591,0.16075511276721954,-0.0038142199628055096,-0.02762114629149437,-80,-38,-1008,161,-2,-27,-344,-232,-20,130477.0
14:46:51.858,AUTO,-35.3633294,149.1651861,38288,0.048189304769039154,-0.191977858543396,-2.545184373855591,0.16075511276721954,-0.0038142199628055096,-0.02762114629149437,-80,-38,-1008,161,-2,-27,-344,-232,-20,130477.0
14:46:52.060,AUTO,-35.3633294,149.1651861,38288,0.048189304769039154,-0.191977858543396,-2.545184373855591,0.16075511276721954,-0.0038142199628055096,-0.02762114629149437,-80,-38,-1008,161,-2,-27,-344,-232,-20,130477.0
14:46:52.262,AUTO,-35.3633551,149.1651651,38455,0.046798355877399445,-0.21195173263549805,-2.4898717403411865,0.04143982380628586,0.0016607968136668205,0.04452051222324371,-94,-39,-1004,42,2,44,-413,-277,-24,130477.0
14:46:52.475,AUTO,-35.3633649,149.1651571,38519,0.0461958572268486,-0.20497794449329376,-2.4834935665130615,-0.026871483772993088,0.05003426596522331,0.010381665080785751,-116,-42,-1014,-26,50,10,-434,-293,-27,130477.0
14:46:52.698,AUTO,-35.363375,149.1651487,38592,0.0435405969619751,-0.19351615011692047,-2.4833884239196777,0.01190150622278452,0.03137017413973808,-0.012852228246629238,-117,-55,-1018,12,32,-12,-454,-305,-31,130477.0
14:46:52.913,AUTO,-35.3633855,149.1651401,38675,0.048028960824012756,-0.1879265010356903,-2.486900806427002,0.01315999310463667,0.02137776091694832,-0.014544885605573654,-143,-35,-1013,14,22,-14,-469,-315,-35,130477.0
14:46:53.150,AUTO,-35.3633855,149.1651401,38675,0.048028960824012756,-0.1879265010356903,-2.486900806427002,0.01315999310463667,0.02137776091694832,-0.014544885605573654,-143,-35,-1013,14,22,-14,-469,-315,-35,130477.0
14:46:53.369,AUTO,-35.3633964,149.1651312,38764,0.05021600425243378,-0.18421675264835358,-2.490640640258789,0.025477435439825058,0.05642678588628769,-0.01777201145887375,-116,-55,-1000,26,57,-17,-485,-324,-36,130477.0
14:46:53.571,AUTO,-35.3634077,149.165122,38857,0.055585578083992004,-0.17039351165294647,-2.4934449195861816,0.0030920933932065964,0.052307162433862686,-0.015608503483235836,-99,-66,-999,3,53,-15,-501,-333,-38,130477.0
14:46:53.775,AUTO,-35.3634077,149.165122,38857,0.055585578083992004,-0.17039351165294647,-2.4934449195861816,0.0030920933932065964,0.052307162433862686,-0.015608503483235836,-99,-66,-999,3,53,-15,-501,-333,-38,130477.0
14:46:53.984,AUTO,-35.3634077,149.165122,38857,0.055585578083992004,-0.17039351165294647,-2.4934449195861816,0.0030920933932065964,0.052307162433862686,-0.015608503483235836,-99,-66,-999,3,53,-15,-501,-333,-38,130477.0
14:46:54.193,AUTO,-35.3634425,149.1650937,39160,0.06409992277622223,-0.16998478770256042,-2.4964866638183594,0.024819206446409225,0.003885330632328987,-0.0035884487442672253,-137,-68,-997,25,5,-3,-529,-349,-39,130477.0
14:46:54.395,AUTO,-35.3634546,149.1650839,39260,0.06205424293875694,-0.168381005525589,-2.496314764022827,-0.031501784920692444,0.00397058529779315,-0.004395936615765095,-127,-67,-987,-30,4,-4,-536,-356,-39,73168.0
14:46:54.597,AUTO,-35.3634546,149.1650839,39260,0.06205424293875694,-0.168381005525589,-2.496314764022827,-0.031501784920692444,0.00397058529779315,-0.004395936615765095,-127,-67,-987,-30,4,-4,-536,-356,-39,73168.0
14:46:54.799,AUTO,-35.3634668,149.1650739,39360,0.062266744673252106,-0.1652621626853943,-2.4969074726104736,0.006972898729145527,0.021452588960528374,-0.006167751271277666,-126,-64,-980,7,22,-5,-543,-360,-39,73168.0
14:46:55.001,AUTO,-35.3634792,149.1650637,39460,0.06347950547933578,-0.15800073742866516,-2.498610019683838,0.04109803959727287,0.05774219334125519,-0.004637219477444887,-125,-60,-986,41,58,-4,-551,-364,-40,73168.0
14:46:55.203,AUTO,-35.3634918,149.1650535,39564,0.06662900000810623,-0.14477065205574036,-2.500152826309204,-0.061272770166397095,0.013569863513112068,-0.006486149970442057,-132,-71,-998,-60,14,-6,-555,-367,-43,73168.0
14:46:55.405,AUTO,-35.3635047,149.165043,39673,0.07012651860713959,-0.1377352476119995,-2.501427412033081,0.03512512147426605,0.038502443581819534,-0.01969374530017376,-149,-45,-988,35,39,-19,-558,-367,-43,73168.0
14:46:55.607,AUTO,-35.3635047,149.165043,39673,0.07012651860713959,-0.1377352476119995,-2.501427412033081,0.03512512147426605,0.038502443581819534,-0.01969374530017376,-149,-45,-988,35,39,-19,-558,-367,-43,73168.0
14:46:55.809,AUTO,-35.3635047,149.165043,39673,0.07012651860713959,-0.1377352476119995,-2.501427412033081,0.03512512147426605,0.038502443581819534,-0.01969374530017376,-149,-45,-988,35,39,-19,-558,-367,-43,73168.0
14:46:56.011,AUTO,-35.3635047,149.165043,39673,0.07012651860713959,-0.1377352476119995,-2.501427412033081,0.03512512147426605,0.038502443581819534,-0.01969374530017376,-149,-45,-988,35,39,-19,-558,-367,-43,73168.0
14:46:56.213,AUTO,-35.3635427,149.1650122,39987,0.06740619242191315,-0.12463244050741196,-2.502687454223633,0.0011529193725436926,0.009213710203766823,-0.011219342239201069,-131,-68,-981,1,10,-11,-557,-368,-40,73168.0
14:46:56.415,AUTO,-35.3635554,149.1650019,40085,0.06988276541233063,-0.12885646522045135,-2.5040390491485596,0.0035499371588230133,-0.024802060797810555,-0.010886930860579014,-149,-88,-980,4,-23,-10,-557,-366,-38,73168.0
14:46:56.617,AUTO,-35.3635554,149.1650019,40085,0.06988276541233063,-0.12885646522045135,-2.5040390491485596,0.0035499371588230133,-0.024802060797810555,-0.010886930860579014,-149,-88,-980,4,-23,-10,-557,-366,-38,73168.0
14:46:56.819,AUTO,-35.363568,149.1649918,40177,0.07261420041322708,-0.13773441314697266,-2.5053629875183105,-0.006404059007763863,-0.020388975739479065,-0.008509892039000988,-127,-72,-972,-5,-19,-7,-558,-366,-34,73168.0
14:46:57.021,AUTO,-35.3635807,149.1649816,40261,0.07323810458183289,-0.1415315866470337,-2.5070793628692627,-0.005751890130341053,-0.021414853632450104,0.005770431365817785,-143,-64,-987,-5,-20,6,-558,-368,-33,73168.0
14:46:57.223,AUTO,-35.3635934,149.1649714,40344,0.07314189523458481,-0.1434449404478073,-2.508531332015991,0.028034407645463943,0.016512466594576836,-0.010228103958070278,-121,-86,-983,28,17,-10,-562,-369,-31,73168.0
14:46:57.425,AUTO,-35.3636061,149.1649612,40428,0.07810114324092865,-0.1438707858324051,-2.509986400604248,0.004555964842438698,-0.025660250335931778,-0.003886353923007846,-132,-64,-979,5,-24,-3,-563,-370,-33,73168.0
14:46:57.627,AUTO,-35.3636061,149.1649612,40428,0.07810114324092865,-0.1438707858324051,-2.509986400604248,0.004555964842438698,-0.025660250335931778,-0.003886353923007846,-132,-64,-979,5,-24,-3,-563,-370,-33,73168.0
14:46:57.829,AUTO,-35.3636061,149.1649612,40428,0.07810114324092865,-0.1438707858324051,-2.509986400604248,0.004555964842438698,-0.025660250335931778,-0.003886353923007846,-132,-64,-979,5,-24,-3,-563,-370,-33,73168.0
14:46:58.031,AUTO,-35.3636061,149.1649612,40428,0.07810114324092865,-0.1438707858324051,-2.509986400604248,0.004555964842438698,-0.025660250335931778,-0.003886353923007846,-132,-64,-979,5,-24,-3,-563,-370,-33,73168.0
