time_stamp,MODE,lat,lon,relative_alt,roll,pitch,yaw,rollspeed,pitchspeed,yawspeed,xacc,yacc,zacc,xgyro,ygyro,zgyro,vx,vy,vz,RTL_ALT
01:03:26.906,STABILIZE,-35.3632621,149.1652375,62,-2.2960943169891834e-05,0.0014909959863871336,0.028457285836338997,0.00028309813933447003,0.0002662631741259247,0.002246192656457424,0,1,-1000,0,0,0,-2,2,0,44848.0
01:03:27.108,STABILIZE,-35.3632621,149.1652375,62,-2.2960943169891834e-05,0.0014909959863871336,0.028457285836338997,0.00028309813933447003,0.0002662631741259247,0.002246192656457424,0,1,-1000,0,0,0,-2,2,0,44848.0
01:03:27.309,STABILIZE,-35.3632622,149.1652375,56,-0.0002565489849075675,0.0013842505868524313,0.028124811127781868,0.00023817518376745284,0.00014804190141148865,0.0023628738708794117,0,1,-1000,0,0,0,-2,2,0,44848.0
01:03:27.511,STABILIZE,-35.3632622,149.1652375,54,-0.0003742869012057781,0.0013376940041780472,0.027979973703622818,0.00020045714336447418,0.0002737100003287196,0.002137665404006839,0,1,-1000,0,0,0,-2,2,0,44848.0
01:03:27.712,STABILIZE,-35.3632622,149.1652375,54,-0.0003742869012057781,0.0013376940041780472,0.027979973703622818,0.00020045714336447418,0.0002737100003287196,0.002137665404006839,0,1,-1000,0,0,0,-2,2,0,44848.0
01:03:27.914,STABILIZE,-35.3632622,149.1652375,54,-0.0003742869012057781,0.0013376940041780472,0.027979973703622818,0.00020045714336447418,0.0002737100003287196,0.002137665404006839,0,1,-1000,0,0,0,-2,2,0,44848.0
01:03:28.115,STABILIZE,-35.3632622,149.1652375,54,-0.0003742869012057781,0.0013376940041780472,0.027979973703622818,0.00020045714336447418,0.0002737100003287196,0.002137665404006839,0,1,-1000,0,0,0,-2,2,0,44848.0
01:03:28.317,STABILIZE,-35.3632622,149.1652375,49,-0.0006702527171000838,0.0011786100221797824,0.02755422331392765,0.00019958417396992445,0.00025268536410294473,0.0023055300116539,0,1,-1000,0,0,1,-1,1,0,44848.0
01:03:28.518,STABILIZE,-35.3632622,149.1652375,49,-0.0006702527171000838,0.0011786100221797824,0.02755422331392765,0.00019958417396992445,0.00025268536410294473,0.0023055300116539,0,1,-1000,0,0,1,-1,1,0,44848.0
01:03:28.720,STABILIZE,-35.3632622,149.1652375,49,-0.0006702527171000838,0.0011786100221797824,0.02755422331392765,0.00019958417396992445,0.00025268536410294473,0.0023055300116539,0,1,-1000,0,0,0,-1,1,0,44848.0
01:03:28.921,STABILIZE,-35.3632622,149.1652375,49,-0.0006702527171000838,0.0011786100221797824,0.02755422331392765,0.00019958417396992445,0.00025268536410294473,0.0023055300116539,0,1,-1000,0,0,0,-1,1,0,44848.0
01:03:29.123,STABILIZE,-35.3632622,149.1652375,49,-0.0006702527171000838,0.0011786100221797824,0.02755422331392765,0.00019958417396992445,0.00025268536410294473,0.0023055300116539,0,1,-1000,0,0,0,-1,1,0,44848.0
01:03:29.324,STABILIZE,-35.3632622,149.1652375,45,-0.0009067316423170269,0.0010216131340712309,0.027077535167336464,0.0002508567413315177,0.00019972276641055942,0.0020860873628407717,0,1,-1000,0,0,0,-1,1,0,44848.0
01:03:29.525,STABILIZE,-35.3632622,149.1652375,44,-0.000958115968387574,0.0009886645711958408,0.026964588090777397,0.00011308817192912102,0.00026032415917143226,0.0021913915406912565,0,1,-1000,0,0,0,-1,1,0,44848.0
01:03:29.727,STABILIZE,-35.3632622,149.1652375,44,-0.000958115968387574,0.0009886645711958408,0.026964588090777397,0.00011308817192912102,0.00026032415917143226,0.0021913915406912565,0,1,-1000,0,0,0,-1,1,0,44848.0
01:03:29.928,STABILIZE,-35.3632622,149.1652375,44,-0.000958115968387574,0.0009886645711958408,0.026964588090777397,0.00011308817192912102,0.00026032415917143226,0.0021913915406912565,0,1,-1000,0,0,0,-1,1,0,44848.0
01:03:30.130,STABILIZE,-35.3632622,149.1652375,44,-0.000958115968387574,0.0009886645711958408,0.026964588090777397,0.00011308817192912102,0.00026032415917143226,0.0021913915406912565,0,1,-1000,0,0,0,-1,1,0,44848.0
01:03:30.331,STABILIZE,-35.3632621,149.1652375,42,-0.0008660341263748705,0.00092435342958197,0.026645753532648087,0.00019764452008530498,0.00022896984592080116,0.0018977466970682144,0,1,-1000,0,0,0,-1,0,0,44848.0
01:03:30.532,STABILIZE,-35.3632621,149.1652375,42,-0.0008660341263748705,0.00092435342958197,0.026645753532648087,0.00019764452008530498,0.00022896984592080116,0.0018977466970682144,0,1,-1000,0,0,0,-1,0,0,44848.0
01:03:30.734,STABILIZE,-35.3632621,149.1652375,42,-0.0008660341263748705,0.00092435342958197,0.026645753532648087,0.00019764452008530498,0.00022896984592080116,0.0018977466970682144,0,1,-1000,0,0,0,-1,0,0,44848.0
01:03:30.935,STABILIZE,-35.3632621,149.1652375,41,-0.000900485145393759,0.0008988307672552764,0.026348400861024857,0.0002672089613042772,0.00023802771465852857,0.0019504239317029715,0,1,-1000,0,0,0,-1,0,0,44848.0
01:03:31.136,STABILIZE,-35.3632621,149.1652375,41,-0.000900485145393759,0.0008988307672552764,0.026348400861024857,0.0002672089613042772,0.00023802771465852857,0.0019504239317029715,0,1,-1000,0,0,0,-1,0,0,44848.0
01:03:31.338,STABILIZE,-35.3632621,149.1652375,41,-0.000900485145393759,0.0008988307672552764,0.026348400861024857,0.0002672089613042772,0.00023802771465852857,0.0019504239317029715,0,1,-1000,0,0,0,-1,0,0,44848.0
01:03:31.539,STABILIZE,-35.3632621,149.1652375,41,-0.000900485145393759,0.0008988307672552764,0.026348400861024857,0.0002672089613042772,0.00023802771465852857,0.0019504239317029715,0,1,-1000,0,0,0,-1,0,0,44848.0
01:03:31.741,STABILIZE,-35.3632621,149.1652375,41,-0.000900485145393759,0.0008988307672552764,0.026348400861024857,0.0002672089613042772,0.00023802771465852857,0.0019504239317029715,0,1,-1000,0,0,0,-1,0,0,44848.0
01:03:31.942,STABILIZE,-35.3632621,149.1652375,41,-0.000900485145393759,0.0008988307672552764,0.026348400861024857,0.0002672089613042772,0.00023802771465852857,0.0019504239317029715,0,1,-1000,0,0,0,-1,0,0,44848.0
01:03:32.145,STABILIZE,-35.3632621,149.1652375,41,-0.000900485145393759,0.0008988307672552764,0.026348400861024857,0.0002672089613042772,0.00023802771465852857,0.0019504239317029715,0,1,-1000,0,0,0,-1,0,0,44848.0
01:03:32.346,STABILIZE,-35.3632621,149.1652375,41,-0.000900485145393759,0.0008988307672552764,0.026348400861024857,0.0002672089613042772,0.00023802771465852857,0.0019504239317029715,0,1,-1000,0,0,0,-1,0,0,44848.0
01:03:32.547,STABILIZE,-35.3632621,149.1652375,41,-0.000900485145393759,0.0008988307672552764,0.026348400861024857,0.0002672089613042772,0.00023802771465852857,0.0019504239317029715,0,1,-1000,0,0,0,-1,0,0,44848.0
01:03:32.750,STABILIZE,-35.3632621,149.1652375,41,-0.000900485145393759,0.0008988307672552764,0.026348400861024857,0.0002672089613042772,0.00023802771465852857,0.0019504239317029715,0,1,-1000,0,1,0,-1,0,0,44848.0
01:03:32.951,STABILIZE,-35.3632621,149.1652375,41,-0.000900485145393759,0.0008988307672552764,0.026348400861024857,0.0002672089613042772,0.00023802771465852857,0.0019504239317029715,0,2,-1000,0,0,0,-1,0,0,44848.0
01:03:33.153,STABILIZE,-35.3632621,149.1652375,41,-0.000900485145393759,0.0008988307672552764,0.026348400861024857,0.0002672089613042772,0.00023802771465852857,0.0019504239317029715,0,2,-1000,0,0,0,-1,0,0,44848.0
01:03:33.354,STABILIZE,-35.3632621,149.1652375,41,-0.000900485145393759,0.0008988307672552764,0.026348400861024857,0.0002672089613042772,0.00023802771465852857,0.0019504239317029715,0,2,-1000,0,0,0,-1,0,0,44848.0
01:03:33.556,STABILIZE,-35.3632621,149.1652375,41,-0.000900485145393759,0.0008988307672552764,0.026348400861024857,0.0002672089613042772,0.00023802771465852857,0.0019504239317029715,0,2,-1000,0,0,0,-1,0,0,44848.0
01:03:33.758,STABILIZE,-35.3632621,149.1652375,41,-0.000900485145393759,0.0008988307672552764,0.026348400861024857,0.0002672089613042772,0.00023802771465852857,0.0019504239317029715,0,2,-1000,0,0,0,-1,0,0,44848.0
01:03:33.960,STABILIZE,-35.3632621,149.1652375,41,-0.000900485145393759,0.0008988307672552764,0.026348400861024857,0.0002672089613042772,0.00023802771465852857,0.0019504239317029715,0,2,-1000,0,0,0,-1,0,0,44848.0
01:03:34.161,STABILIZE,-35.3632621,149.1652375,41,-0.000900485145393759,0.0008988307672552764,0.026348400861024857,0.0002672089613042772,0.00023802771465852857,0.0019504239317029715,0,2,-1000,0,0,0,-1,0,0,44848.0
01:03:34.363,STABILIZE,-35.3632621,149.1652375,41,-0.000900485145393759,0.0008988307672552764,0.026348400861024857,0.0002672089613042772,0.00023802771465852857,0.0019504239317029715,0,2,-1000,0,0,0,-1,0,0,44848.0
01:03:34.564,STABILIZE,-35.3632621,149.1652375,40,-0.0010042325593531132,0.0009618191979825497,0.02499440312385559,0.000177475914824754,0.00026327261002734303,0.0017641072627156973,0,1,-1000,0,0,0,-1,1,0,44848.0
01:03:34.765,STABILIZE,-35.3632621,149.1652375,40,-0.0010059167398139834,0.0009649241110309958,0.024910012260079384,0.00032232794910669327,0.00028101546922698617,0.001777987345121801,0,1,-1000,0,0,0,-1,1,0,44848.0
01:03:34.967,STABILIZE,-35.3632621,149.1652375,40,-0.0010059167398139834,0.0009649241110309958,0.024910012260079384,0.00032232794910669327,0.00028101546922698617,0.001777987345121801,0,1,-1000,0,0,0,-1,1,0,44848.0
01:03:35.168,STABILIZE,-35.3632621,149.1652375,40,-0.0010059167398139834,0.0009649241110309958,0.024910012260079384,0.00032232794910669327,0.00028101546922698617,0.001777987345121801,0,1,-1000,0,0,0,-1,1,0,44848.0
01:03:35.370,STABILIZE,-35.3632621,149.1652375,40,-0.0010059167398139834,0.0009649241110309958,0.024910012260079384,0.00032232794910669327,0.00028101546922698617,0.001777987345121801,0,1,-1000,0,0,0,-1,1,0,44848.0
01:03:35.571,STABILIZE,-35.3632621,149.1652375,40,-0.0010059167398139834,0.0009649241110309958,0.024910012260079384,0.00032232794910669327,0.00028101546922698617,0.001777987345121801,0,1,-1000,0,0,0,-1,1,0,44848.0
01:03:35.773,STABILIZE,-35.3632621,149.1652375,40,-0.0010059167398139834,0.0009649241110309958,0.024910012260079384,0.00032232794910669327,0.00028101546922698617,0.001777987345121801,0,1,-1000,0,0,0,-1,1,0,44848.0
01:03:35.975,STABILIZE,-35.3632621,149.1652375,40,-0.0010059167398139834,0.0009649241110309958,0.024910012260079384,0.00032232794910669327,0.00028101546922698617,0.001777987345121801,0,1,-1000,0,0,0,-1,1,0,44848.0
01:03:36.186,STABILIZE,-35.3632622,149.1652375,40,-0.0010337127605453134,0.0009976656874641776,0.024399738758802414,0.00013981194933876395,0.0002555267419666052,0.0016715708188712597,0,1,-1000,0,0,1,-1,1,0,44848.0
01:03:36.387,STABILIZE,-35.3632622,149.1652375,40,-0.0010337127605453134,0.0009976656874641776,0.024399738758802414,0.00013981194933876395,0.0002555267419666052,0.0016715708188712597,0,1,-1000,0,0,1,-1,1,0,44848.0
01:03:36.589,STABILIZE,-35.3632622,149.1652375,40,-0.001033723820000887,0.0009847673354670405,0.02432081662118435,0.00035811233101412654,0.00019887113012373447,0.0017255989369004965,0,1,-1000,0,1,1,-1,1,0,44848.0
01:03:36.791,STABILIZE,-35.3632622,149.1652375,40,-0.001033723820000887,0.0009847673354670405,0.02432081662118435,0.00035811233101412654,0.00019887113012373447,0.0017255989369004965,0,1,-1000,0,1,1,-1,1,0,44848.0
01:03:36.993,STABILIZE,-35.3632622,149.1652375,40,-0.0010468283435329795,0.0009932878892868757,0.024152571335434914,0.0002680260222405195,0.0002611636882647872,0.0017272110562771559,0,1,-1000,0,0,0,-1,1,0,44848.0
01:03:37.196,STABILIZE,-35.3632622,149.1652375,40,-0.0010373054537922144,0.0009898223215714097,0.02407190389931202,0.000458196853287518,0.0002483491552993655,0.0015938481083139777,0,2,-1000,0,0,1,-1,1,0,44848.0
01:03:37.397,STABILIZE,-35.3632622,149.1652375,40,-0.0010373054537922144,0.0009898223215714097,0.02407190389931202,0.000458196853287518,0.0002483491552993655,0.0015938481083139777,0,2,-1000,0,0,1,-1,1,0,44848.0
01:03:37.599,STABILIZE,-35.3632622,149.1652375,40,-0.0010373054537922144,0.0009898223215714097,0.02407190389931202,0.000458196853287518,0.0002483491552993655,0.0015938481083139777,0,2,-1000,0,0,1,-1,1,0,44848.0
01:03:37.800,STABILIZE,-35.3632622,149.1652375,40,-0.0010373054537922144,0.0009898223215714097,0.02407190389931202,0.000458196853287518,0.0002483491552993655,0.0015938481083139777,0,2,-1000,0,0,1,-1,1,0,44848.0
01:03:38.002,STABILIZE,-35.3632622,149.1652375,40,-0.0010373054537922144,0.0009898223215714097,0.02407190389931202,0.000458196853287518,0.0002483491552993655,0.0015938481083139777,0,2,-1000,0,0,1,-1,1,0,44848.0
01:03:38.204,STABILIZE,-35.3632622,149.1652375,40,-0.0010373054537922144,0.0009898223215714097,0.02407190389931202,0.000458196853287518,0.0002483491552993655,0.0015938481083139777,0,2,-1000,0,0,1,-1,1,0,44848.0
01:03:38.405,STABILIZE,-35.3632622,149.1652375,40,-0.0010373054537922144,0.0009898223215714097,0.02407190389931202,0.000458196853287518,0.0002483491552993655,0.0015938481083139777,0,2,-1000,0,0,1,-1,1,0,44848.0
01:03:38.607,STABILIZE,-35.3632622,149.1652375,41,-0.0009992376435548067,0.0009800719562917948,0.023695748299360275,0.00025358371203765273,0.00021881877910345793,0.0015361602418124676,0,1,-1000,1,0,1,-1,1,0,44848.0
01:03:38.809,AUTO,-35.3632622,149.1652375,41,-0.000995584181509912,0.0009798849932849407,0.02360735833644867,0.0001795449643395841,0.000325792352668941,0.0014674175763502717,0,1,-1000,0,0,1,-1,1,0,44848.0
01:03:39.032,AUTO,-35.3632622,149.1652375,1,-0.0009852362563833594,0.000986154074780643,0.023541435599327087,0.0003510869573801756,0.00020623847376555204,0.0016420568572357297,0,1,-1000,0,0,1,-1,1,0,44848.0
01:03:39.240,AUTO,-35.3632622,149.1652375,1,-0.0009835140081122518,0.0009862604783847928,0.023468438535928726,0.00034908304223790765,0.00020691979443654418,0.0015866123139858246,0,1,-1000,0,1,0,-1,1,0,44848.0
01:03:39.495,AUTO,-35.3632622,149.1652375,1,-0.000975116912741214,0.000988890533335507,0.02339891530573368,0.00030697439797222614,0.00032830197596922517,0.0016221115365624428,0,1,-1000,1,0,0,-1,1,0,44848.0
01:03:39.701,AUTO,-35.3632622,149.1652375,1,-0.000975116912741214,0.000988890533335507,0.02339891530573368,0.00030697439797222614,0.00032830197596922517,0.0016221115365624428,0,1,-1000,1,0,0,-1,1,0,44848.0
01:03:39.916,AUTO,-35.3632622,149.1652375,1,-0.000975116912741214,0.000988890533335507,0.02339891530573368,0.00030697439797222614,0.00032830197596922517,0.0016221115365624428,0,1,-1000,1,0,0,-1,1,0,44848.0
01:03:40.119,AUTO,-35.3632622,149.1652375,1,-0.000975116912741214,0.000988890533335507,0.02339891530573368,0.00030697439797222614,0.00032830197596922517,0.0016221115365624428,0,1,-1000,1,0,0,-1,1,0,44848.0
01:03:40.321,AUTO,-35.3632621,149.1652375,2,-0.0008817793568596244,0.0010925084352493286,0.02319728396832943,0.00033343437826260924,0.0001836910960264504,0.001500314217992127,0,1,-1000,0,0,0,0,0,0,44848.0
01:03:40.522,AUTO,-35.3632621,149.1652375,0,-0.0001858649920905009,0.001141208689659834,0.023122375831007957,0.00042669312097132206,0.00024839426623657346,0.0015304973348975182,0,-2,-1007,0,0,1,0,4,5,51251.0
01:03:40.723,AUTO,-35.3632621,149.1652375,0,-0.00013315195974428207,0.0012008746853098273,0.023044094443321228,0.00028687878511846066,0.0001993103651329875,0.001536563504487276,0,1,-1000,0,0,1,0,3,5,51251.0
01:03:40.925,AUTO,-35.3632621,149.1652375,0,-7.540981459897012e-05,0.0012632450088858604,0.022936437278985977,0.00037479063030332327,0.00023836042964830995,0.0015861442079767585,0,2,-1000,0,0,1,0,2,5,51251.0
01:03:41.126,AUTO,-35.3632621,149.1652375,0,-7.540981459897012e-05,0.0012632450088858604,0.022936437278985977,0.00037479063030332327,0.00023836042964830995,0.0015861442079767585,0,2,-1000,0,0,1,0,2,5,51251.0
01:03:41.327,AUTO,-35.3632621,149.1652375,0,-1.922803494380787e-05,0.0013329542707651854,0.022828007116913795,0.00031652464531362057,0.0002819933579303324,0.001640263944864273,0,1,-1000,0,0,0,0,2,4,51251.0
01:03:41.529,AUTO,-35.3632621,149.1652375,0,4.798723239218816e-05,0.0013985612895339727,0.02271931618452072,0.0003681416274048388,0.00022584665566682816,0.0014581333380192518,0,2,-1000,0,1,1,0,1,4,51251.0
01:03:41.730,AUTO,-35.3632621,149.1652375,0,4.798723239218816e-05,0.0013985612895339727,0.02271931618452072,0.0003681416274048388,0.00022584665566682816,0.0014581333380192518,0,2,-1000,0,1,1,0,1,4,51251.0
01:03:41.931,AUTO,-35.3632621,149.1652375,0,4.798723239218816e-05,0.0013985612895339727,0.02271931618452072,0.0003681416274048388,0.00022584665566682816,0.0014581333380192518,0,2,-1000,0,1,1,0,1,4,51251.0
01:03:42.134,AUTO,-35.3632621,149.1652375,0,4.798723239218816e-05,0.0013985612895339727,0.02271931618452072,0.0003681416274048388,0.00022584665566682816,0.0014581333380192518,0,2,-1000,0,1,1,0,1,4,51251.0
01:03:42.335,AUTO,-35.3632621,149.1652375,0,0.000259721273323521,0.0016154904151335359,0.02240639179944992,0.0003019908326677978,0.0003132546553388238,0.0014549472834914923,0,1,-1000,1,0,1,0,0,3,51251.0
01:03:42.536,AUTO,-35.3632621,149.1652375,0,0.00033067725598812103,0.0016892296262085438,0.022312570363283157,0.00036029203329235315,0.00029983161948621273,0.0014593906234949827,0,1,-1000,0,0,0,0,0,3,51251.0
01:03:42.738,AUTO,-35.3632621,149.1652374,0,0.0015813979553058743,0.0016431671101599932,0.02223329059779644,0.040076833218336105,-0.004728919360786676,0.0028084702789783478,0,2,-1037,40,-4,2,0,0,1,51251.0
01:03:42.941,AUTO,-35.3632621,149.1652374,19,0.007397587411105633,-0.0005859819939360023,0.022396234795451164,0.008001778274774551,-0.0038852414581924677,0.0039343754760921,0,-1,-1137,8,-3,3,0,0,-30,51251.0
01:03:43.143,AUTO,-35.3632621,149.1652374,19,0.007397587411105633,-0.0005859819939360023,0.022396234795451164,0.008001778274774551,-0.0038852414581924677,0.0039343754760921,0,-1,-1137,8,-3,3,0,0,-30,51251.0
01:03:43.345,AUTO,-35.3632621,149.1652375,144,0.006102860905230045,-1.5245992472046055e-05,0.022407494485378265,-0.03125704079866409,0.005199090112000704,0.0011292952112853527,0,-1,-1130,-30,5,0,0,1,-63,51251.0
01:03:43.547,AUTO,-35.3632621,149.1652375,346,0.00409055408090353,0.001170959323644638,0.02227891981601715,0.00011748657561838627,0.003936798311769962,0.001380279427394271,0,0,-1110,0,4,0,0,2,-92,51251.0
01:03:43.748,AUTO,-35.3632621,149.1652375,346,0.00409055408090353,0.001170959323644638,0.02227891981601715,0.00011748657561838627,0.003936798311769962,0.001380279427394271,0,0,-1110,0,4,0,0,2,-92,51251.0
01:03:43.950,AUTO,-35.3632621,149.1652375,346,0.00409055408090353,0.001170959323644638,0.02227891981601715,0.00011748657561838627,0.003936798311769962,0.001380279427394271,0,0,-1110,0,4,0,0,2,-92,51251.0
01:03:44.194,AUTO,-35.3632621,149.1652375,346,0.00409055408090353,0.001170959323644638,0.02227891981601715,0.00011748657561838627,0.003936798311769962,0.001380279427394271,0,0,-1110,0,4,0,0,2,-92,51251.0
01:03:44.401,AUTO,-35.3632621,149.1652376,1306,0.019087621942162514,-0.00037443527253344655,0.021680764853954315,0.04665595293045044,-0.007843438535928726,0.0020064562559127808,0,0,-1022,47,-7,1,0,4,-142,51251.0
01:03:44.618,AUTO,-35.363262,149.1652379,1691,0.0306916031986475,-0.0024541865568608046,0.0217251218855381,0.04433736205101013,-0.008503316901624203,0.0026773554272949696,0,-1,-1009,45,-7,2,1,10,-146,51251.0
01:03:44.824,AUTO,-35.3632619,149.1652382,2074,0.04150255769491196,-0.00474064564332366,0.021892445161938667,0.042430490255355835,-0.00933162309229374,0.0031624340917915106,0,-3,-1003,43,-8,2,3,17,-147,51251.0
01:03:45.048,AUTO,-35.3632618,149.1652389,2459,0.051697589457035065,-0.007383908145129681,0.02216630056500435,0.038866084069013596,-0.010982249863445759,0.0034658736549317837,1,-5,-1000,39,-10,3,5,27,-148,51251.0
01:03:45.250,AUTO,-35.3632616,149.1652398,2844,0.060998816043138504,-0.010233765468001366,-0.006033971440047026,0.03171353414654732,-0.010414686053991318,-0.008358810096979141,1,-7,-997,32,-9,-8,8,39,-147,51251.0
01:03:45.453,AUTO,-35.3632614,149.165241,3227,0.04865770787000656,0.005879596341401339,-0.024646392092108727,-0.09659399837255478,0.11510618031024933,-0.11676688492298126,2,-8,-992,-95,115,-116,10,50,-145,51251.0
01:03:45.658,AUTO,-35.3632614,149.165241,3227,0.04865770787000656,0.005879596341401339,-0.024646392092108727,-0.09659399837255478,0.11510618031024933,-0.11676688492298126,2,-8,-992,-95,115,-116,10,50,-145,70953.0
01:03:45.860,AUTO,-35.3632614,149.165241,3227,0.04865770787000656,0.005879596341401339,-0.024646392092108727,-0.09659399837255478,0.11510618031024933,-0.11676688492298126,2,-8,-992,-95,115,-116,10,50,-145,70953.0
01:03:46.062,AUTO,-35.3632614,149.165241,3227,0.04865770787000656,0.005879596341401339,-0.024646392092108727,-0.09659399837255478,0.11510618031024933,-0.11676688492298126,2,-8,-992,-95,115,-116,10,50,-145,70953.0
01:03:46.264,AUTO,-35.3632609,149.1652451,4362,-0.036491502076387405,0.010877412743866444,-0.06950069963932037,-0.02320912480354309,-0.03338843584060669,-0.02766176126897335,5,-11,-1008,-22,-32,-28,1,36,-148,70953.0
01:03:46.466,AUTO,-35.3632608,149.1652459,4748,-0.039543516933918,0.004252386745065451,-0.07575061917304993,-0.004273515194654465,-0.019278962165117264,-0.024617299437522888,3,-6,-1004,-3,-18,-25,0,24,-150,70953.0
01:03:46.668,AUTO,-35.3632608,149.1652459,4748,-0.039543516933918,0.004252386745065451,-0.07575061917304993,-0.004273515194654465,-0.019278962165117264,-0.024617299437522888,3,-6,-1004,-3,-18,-25,0,24,-150,70953.0
01:03:46.871,AUTO,-35.3632608,149.1652465,5135,-0.04895707592368126,0.0009510534000582993,-0.08261945843696594,-0.06479198485612869,-0.007413847837597132,-0.026279287412762642,2,-4,-997,-64,-6,-26,0,12,-149,70953.0
01:03:47.073,AUTO,-35.3632608,149.1652467,5520,-0.06791379302740097,-0.0003184982342645526,-0.08974232524633408,-0.08151957392692566,-0.0007546715205535293,-0.03016536310315132,1,-1,-997,-81,0,-30,0,-3,-148,70953.0
01:03:47.275,AUTO,-35.3632608,149.1652463,5904,-0.07211562991142273,-0.0006021978333592415,-0.09634825587272644,0.033378347754478455,-0.0007890546694397926,-0.02111632376909256,-1,2,-1005,34,0,-21,-1,-21,-149,70953.0
01:03:47.477,AUTO,-35.3632609,149.1652456,6291,-0.05972118675708771,-0.001144283334724605,-0.10076169669628143,0.054369956254959106,0.0003062642063014209,-0.014035762287676334,-3,5,-1001,54,0,-14,-3,-37,-149,70953.0
01:03:47.680,AUTO,-35.3632609,149.1652456,6291,-0.05972118675708771,-0.001144283334724605,-0.10076169669628143,0.054369956254959106,0.0003062642063014209,-0.014035762287676334,-3,5,-1001,54,0,-14,-3,-37,-149,70953.0
01:03:47.882,AUTO,-35.3632609,149.1652456,6291,-0.05972118675708771,-0.001144283334724605,-0.10076169669628143,0.054369956254959106,0.0003062642063014209,-0.014035762287676334,-3,5,-1001,54,0,-14,-3,-37,-149,70953.0
01:03:48.085,AUTO,-35.3632609,149.1652456,6291,-0.05972118675708771,-0.001144283334724605,-0.10076169669628143,0.054369956254959106,0.0003062642063014209,-0.014035762287676334,-3,5,-1001,54,0,-14,-3,-37,-149,70953.0
01:03:48.287,AUTO,-35.3632611,149.1652415,7443,-0.013966302387416363,0.003694582497701049,-0.10652854293584824,0.06642428040504456,0.011701231822371483,-0.0029380065388977528,-6,13,-1003,66,12,-3,-8,-59,-150,70953.0
01:03:48.489,AUTO,-35.3632613,149.1652398,7829,0.0026630463544279337,0.0065462058410048485,-0.10668441653251648,0.0678437203168869,0.01181331928819418,-0.00032331273541785777,-5,13,-1003,68,12,0,-10,-57,-151,70953.0
01:03:48.708,AUTO,-35.3632616,149.1652383,8220,0.01930946111679077,0.009182952344417572,-0.10633029788732529,0.06691078096628189,0.009636662900447845,0.0013514672173187137,-5,12,-1003,67,10,0,-12,-52,-152,70953.0
01:03:48.932,AUTO,-35.3632619,149.1652369,8612,0.03579844534397125,0.011211689561605453,-0.1054900512099266,0.0657973662018776,0.006815600208938122,0.002290725242346525,-4,12,-1003,66,7,2,-15,-43,-153,70953.0
01:03:49.186,AUTO,-35.3632622,149.1652358,9005,0.0519057922065258,0.012201611883938313,-0.10435239970684052,0.0638158991932869,0.0019005278591066599,0.003830786794424057,-1,10,-1003,64,2,3,-17,-30,-154,70953.0
01:03:49.450,AUTO,-35.3632626,149.1652351,9399,0.06571733951568604,0.01077945064753294,-0.10157378762960434,0.031030260026454926,-0.023326538503170013,0.02950981631875038,-1,8,-998,31,-22,28,-18,-14,-154,70953.0
01:03:49.682,AUTO,-35.3632626,149.1652351,9399,0.06571733951568604,0.01077945064753294,-0.10157378762960434,0.031030260026454926,-0.023326538503170013,0.02950981631875038,-1,8,-998,31,-22,28,-18,-14,-154,70953.0
01:03:49.886,AUTO,-35.3632626,149.1652351,9399,0.06571733951568604,0.01077945064753294,-0.10157378762960434,0.031030260026454926,-0.023326538503170013,0.02950981631875038,-1,8,-998,31,-22,28,-18,-14,-154,70953.0
01:03:50.088,AUTO,-35.3632626,149.1652351,9399,0.06571733951568604,0.01077945064753294,-0.10157378762960434,0.031030260026454926,-0.023326538503170013,0.02950981631875038,-1,8,-998,31,-22,28,-18,-14,-154,70953.0
01:03:50.290,AUTO,-35.3632634,149.1652354,10563,0.022983074188232422,-0.03906486555933952,-0.054858434945344925,-0.10292708873748779,0.030214307829737663,0.0010767488274723291,2,-2,-997,-102,30,0,1,20,-149,70953.0
01:03:50.491,AUTO,-35.3632633,149.1652358,10950,0.0018859736155718565,-0.02630045637488365,-0.06199018657207489,-0.06818082928657532,0.056132249534130096,-0.040219746530056,1,-4,-1002,-67,56,-40,11,20,-150,159435.0
01:03:50.693,AUTO,-35.363263,149.1652362,11333,-0.010579671710729599,-0.013725255616009235,-0.07538702338933945,-0.03987254202365875,0.04273094981908798,-0.055235374718904495,0,-5,-1003,-39,43,-55,16,16,-150,159435.0
01:03:50.895,AUTO,-35.363263,149.1652362,11333,-0.010579671710729599,-0.013725255616009235,-0.07538702338933945,-0.03987254202365875,0.04273094981908798,-0.055235374718904495,0,-5,-1003,-39,43,-55,16,16,-150,159435.0
01:03:51.096,AUTO,-35.3632627,149.1652365,11719,-0.016808297485113144,-0.005150890443474054,-0.09002722054719925,-0.014634069986641407,0.030663717538118362,-0.05525527894496918,-1,-5,-1003,-13,31,-55,18,10,-151,159435.0
01:03:51.298,AUTO,-35.3632623,149.1652367,12108,-0.01772049069404602,0.0008549544145353138,-0.10444916784763336,0.002270633354783058,0.02239994890987873,-0.052022919058799744,-2,-3,-1002,2,22,-52,17,4,-152,159435.0
01:03:51.501,AUTO,-35.3632619,149.1652367,12497,-0.015311270952224731,0.005655650049448013,-0.11801785230636597,0.013629565015435219,0.018731625750660896,-0.04688924178481102,-3,-2,-1001,14,19,-47,16,-1,-153,159435.0
01:03:51.703,AUTO,-35.3632619,149.1652367,12497,-0.015311270952224731,0.005655650049448013,-0.11801785230636597,0.013629565015435219,0.018731625750660896,-0.04688924178481102,-3,-2,-1001,14,19,-47,16,-1,-153,159435.0
01:03:51.904,AUTO,-35.3632619,149.1652367,12497,-0.015311270952224731,0.005655650049448013,-0.11801785230636597,0.013629565015435219,0.018731625750660896,-0.04688924178481102,-3,-2,-1001,14,19,-47,16,-1,-153,159435.0
01:03:52.115,AUTO,-35.3632619,149.1652367,12497,-0.015311270952224731,0.005655650049448013,-0.11801785230636597,0.013629565015435219,0.018731625750660896,-0.04688924178481102,-3,-2,-1001,14,19,-47,16,-1,-153,159435.0
01:03:52.317,AUTO,-35.363261,149.1652362,13665,0.0012623060029000044,0.014060229063034058,-0.14610569179058075,0.023086445406079292,0.007040894124656916,-0.022745538502931595,-3,0,-1000,23,7,-23,6,-8,-153,159435.0
01:03:52.518,AUTO,-35.3632609,149.1652359,14055,0.006428933702409267,0.015186449512839317,-0.15163958072662354,0.020583363249897957,0.00202197371982038,-0.016653357073664665,-2,0,-1000,21,2,-16,3,-8,-153,159435.0
01:03:52.719,AUTO,-35.3632608,149.1652356,14446,0.01025379728525877,0.014960173517465591,-0.1551387757062912,0.012842976488173008,-0.0031133892480283976,-0.011011207476258278,-2,1,-999,13,-2,-11,0,-6,-153,159435.0
01:03:52.921,AUTO,-35.3632608,149.1652354,14838,0.012600394897162914,0.013892434537410736,-0.15721841156482697,0.00788784958422184,-0.006593133322894573,-0.006117533426731825,-2,1,-999,13,-2,-11,-3,-3,-153,159435.0
01:03:53.123,AUTO,-35.3632608,149.1652354,14838,0.012600394897162914,0.013892434537410736,-0.15721841156482697,0.00788784958422184,-0.006593133322894573,-0.006117533426731825,0,1,-999,8,-5,-6,-3,-3,-153,159435.0
01:03:53.325,AUTO,-35.3632609,149.1652353,15228,0.013560155406594276,0.012171135284006596,-0.15837474167346954,0.0019780443981289864,-0.0070481076836586,-0.0039734989404678345,0,1,-999,2,-6,-4,-5,0,-153,159435.0
01:03:53.526,AUTO,-35.3632609,149.1652353,15621,0.013081293553113937,0.010194976814091206,-0.15914814174175262,-0.0033901450224220753,-0.007683581672608852,-0.0028616159688681364,0,1,-999,-2,-6,-3,-6,2,-153,159435.0
01:03:53.728,AUTO,-35.3632609,149.1652353,15621,0.013081293553113937,0.010194976814091206,-0.15914814174175262,-0.0033901450224220753,-0.007683581672608852,-0.0028616159688681364,0,1,-999,-2,-6,-3,-6,2,-153,159435.0
01:03:53.930,AUTO,-35.3632609,149.1652353,15621,0.013081293553113937,0.010194976814091206,-0.15914814174175262,-0.0033901450224220753,-0.007683581672608852,-0.0028616159688681364,0,1,-999,-2,-6,-3,-6,2,-153,159435.0
01:03:54.132,AUTO,-35.3632609,149.1652353,15621,0.013081293553113937,0.010194976814091206,-0.15914814174175262,-0.0033901450224220753,-0.007683581672608852,-0.0028616159688681364,0,1,-999,-2,-6,-3,-6,2,-153,159435.0
01:03:54.334,AUTO,-35.3632613,149.1652354,16786,0.008242256939411163,0.005057645961642265,-0.1635824739933014,-0.006662226747721434,-0.004306558053940535,-0.010527212172746658,1,0,-1000,-5,-3,-10,-8,7,-153,159435.0
01:03:54.562,AUTO,-35.3632614,149.1652356,17175,0.006477289367467165,0.0036401792895048857,-0.1662091463804245,-0.005375150591135025,-0.0048673939891159534,-0.011267309077084064,1,0,-1000,-4,-4,-11,-7,8,-153,159435.0
01:03:54.813,AUTO,-35.3632615,149.1652357,17564,0.004998633172363043,0.0024984474293887615,-0.16958528757095337,-0.004788542632013559,-0.003877075621858239,-0.014447573572397232,1,0,-1000,-3,-3,-14,-7,8,-153,159435.0
01:03:55.016,AUTO,-35.3632616,149.1652359,17954,0.0035071030724793673,0.0016767287161201239,-0.17363037168979645,-0.006096348166465759,-0.001999926520511508,-0.01763192191720009,1,0,-1000,-5,-1,-18,-6,8,-153,159435.0
01:03:55.220,AUTO,-35.3632617,149.165236,18343,0.0024970995727926493,0.0012332132318988442,-0.1783159226179123,-0.0022650305181741714,-0.00021836161613464355,-0.020913140848279,1,0,-1000,-1,0,-21,-5,7,-153,159435.0
01:03:55.421,AUTO,-35.3632617,149.165236,18343,0.0024970995727926493,0.0012332132318988442,-0.1783159226179123,-0.0022650305181741714,-0.00021836161613464355,-0.020913140848279,1,0,-1000,-1,0,-21,-5,7,-153,159435.0
01:03:55.623,AUTO,-35.3632618,149.1652361,18733,0.0019083252409473062,0.0011139202397316694,-0.18351377546787262,-0.0008484185091219842,-0.00018882006406784058,-0.020587369799613953,1,0,-1000,0,0,-20,-5,7,-153,159435.0
01:03:55.825,AUTO,-35.3632618,149.1652361,18733,0.0019083252409473062,0.0011139202397316694,-0.18351377546787262,-0.0008484185091219842,-0.00018882006406784058,-0.020587369799613953,1,0,-1000,0,0,-20,-5,7,-153,159435.0
01:03:56.026,AUTO,-35.3632618,149.1652361,18733,0.0019083252409473062,0.0011139202397316694,-0.18351377546787262,-0.0008484185091219842,-0.00018882006406784058,-0.020587369799613953,1,0,-1000,0,0,-20,-5,7,-153,7622.0
01:03:56.228,AUTO,-35.3632619,149.1652364,19903,0.0019174182089045644,0.0010237572714686394,-0.20008625090122223,0.0022633953485637903,-0.00033219114993698895,-0.021634463220834732,0,0,-1000,3,0,-21,-3,4,-154,7622.0
01:03:56.429,AUTO,-35.3632619,149.1652365,20293,0.002565836999565363,0.0013310913927853107,-0.20582184195518494,0.0025763241574168205,0.0014709871029481292,-0.02219562605023384,0,0,-1000,3,2,-22,-2,4,-154,7622.0
01:03:56.631,AUTO,-35.3632619,149.1652365,20293,0.002565836999565363,0.0013310913927853107,-0.20582184195518494,0.0025763241574168205,0.0014709871029481292,-0.02219562605023384,0,0,-1000,3,2,-22,-2,4,-154,7622.0
01:03:56.833,AUTO,-35.363262,149.1652365,20683,0.002886715577915311,0.0016100452048704028,-0.21144229173660278,0.001981310546398163,0.0014935897197574377,-0.022276971489191055,0,0,-1000,2,2,-22,-2,3,-154,7622.0
01:03:57.034,AUTO,-35.363262,149.1652365,21073,0.003094903426244855,0.0018056384287774563,-0.21704968810081482,-8.065806468948722e-05,0.0035424288362264633,-0.025895679369568825,0,0,-1000,1,4,-26,-1,3,-154,7622.0
01:03:57.236,AUTO,-35.363262,149.1652366,21463,0.003332860069349408,0.002521833870559931,-0.2228025197982788,0.002138373674824834,0.0014574229717254639,-0.022252339869737625,0,0,-1000,2,2,-22,-1,3,-154,7622.0
01:03:57.438,AUTO,-35.363262,149.1652366,21852,0.0035524426493793726,0.002984416438266635,-0.22849008440971375,0.0012364675058051944,0.002751388121396303,-0.02390260063111782,0,0,-1000,1,3,-23,-1,3,-154,7622.0
01:03:57.639,AUTO,-35.363262,149.1652366,21852,0.0035524426493793726,0.002984416438266635,-0.22849008440971375,0.0012364675058051944,0.002751388121396303,-0.02390260063111782,0,0,-1000,1,3,-23,-1,3,-154,7622.0
01:03:57.841,AUTO,-35.363262,149.1652366,21852,0.0035524426493793726,0.002984416438266635,-0.22849008440971375,0.0012364675058051944,0.002751388121396303,-0.02390260063111782,0,0,-1000,1,3,-23,-1,3,-154,7622.0
01:03:58.043,AUTO,-35.363262,149.1652366,21852,0.0035524426493793726,0.002984416438266635,-0.22849008440971375,0.0012364675058051944,0.002751388121396303,-0.02390260063111782,0,0,-1000,1,3,-23,-1,3,-154,7622.0
01:03:58.245,AUTO,-35.363262,149.1652367,23022,0.0037225312553346157,0.0031343058217316866,-0.24396798014640808,-0.0008945153094828129,0.0008086339803412557,-0.01972479186952114,0,0,-1000,0,1,-19,-1,3,-154,7622.0
01:03:58.446,AUTO,-35.363262,149.1652367,23411,0.003753386903554201,0.0031630932353436947,-0.24882632493972778,0.0013537919148802757,0.0007414878346025944,-0.019990349188447,0,0,-1000,2,1,-20,-1,3,-154,7622.0
01:03:58.648,AUTO,-35.363262,149.1652367,23411,0.003753386903554201,0.0031630932353436947,-0.24882632493972778,0.0013537919148802757,0.0007414878346025944,-0.019990349188447,0,0,-1000,2,1,-20,-1,3,-154,7622.0
01:03:58.849,AUTO,-35.363262,149.1652368,23801,0.0038600186817348003,0.003310521598905325,-0.2537122070789337,-0.000590637675486505,-0.0008838354842737317,-0.01909634843468666,0,0,-1000,0,0,-19,-1,3,-154,7622.0
01:03:59.051,AUTO,-35.363262,149.1652368,24191,0.0036660912446677685,0.0031199282966554165,-0.2584607005119324,-0.0005940659902989864,7.16978101991117e-05,-0.021874701604247093,0,0,-1000,0,0,-21,-1,3,-154,7622.0
01:03:59.253,AUTO,-35.363262,149.1652369,24584,0.0032906257547438145,0.0029795935843139887,-0.26312902569770813,-0.003582749981433153,8.645595517009497e-05,-0.019105488434433937,0,0,-999,-2,1,-19,-1,3,-154,7622.0
01:03:59.454,AUTO,-35.363262,149.1652369,24974,0.0028970472048968077,0.0028433878906071186,-0.26768893003463745,-0.0012679602950811386,-0.0006828320911154151,-0.017880285158753395,0,0,-1000,0,0,-18,-1,3,-154,7622.0
01:03:59.656,AUTO,-35.363262,149.1652369,24974,0.0028970472048968077,0.0028433878906071186,-0.26768893003463745,-0.0012679602950811386,-0.0006828320911154151,-0.017880285158753395,0,0,-1000,0,0,-18,-1,3,-154,7622.0
01:03:59.858,AUTO,-35.363262,149.1652369,24974,0.0028970472048968077,0.0028433878906071186,-0.26768893003463745,-0.0012679602950811386,-0.0006828320911154151,-0.017880285158753395,0,0,-1000,0,0,-18,-1,3,-154,7622.0
01:04:00.081,AUTO,-35.363262,149.1652369,24974,0.0028970472048968077,0.0028433878906071186,-0.26768893003463745,-0.0012679602950811386,-0.0006828320911154151,-0.017880285158753395,0,0,-1000,0,0,-18,-1,3,-154,7622.0
01:04:00.304,AUTO,-35.3632621,149.1652369,26135,0.0027338052168488503,0.005497847218066454,-0.2525025010108948,0.02827155403792858,-0.006353241391479969,0.0306684747338295,0,0,-1001,28,-5,30,-5,-1,-154,7622.0
01:04:00.522,AUTO,-35.3632622,149.1652369,26525,0.007963157258927822,0.00399760389700532,-0.2449202835559845,0.012874969281256199,-0.005253799259662628,0.03019881062209606,0,1,-999,13,-4,30,-5,0,-154,7622.0
01:04:00.748,AUTO,-35.3632622,149.1652369,26921,0.01030847616493702,0.002834638813510537,-0.2377098798751831,0.008418215438723564,-0.004908428527414799,0.027269616723060608,0,0,-1000,9,-4,26,-5,1,-154,7622.0
01:04:00.981,AUTO,-35.3632623,149.1652369,27309,0.010644392110407352,0.0015513952821493149,-0.23116037249565125,-0.0027426371816545725,-0.003659070935100317,0.025497037917375565,0,0,-999,-1,-2,25,-4,3,-153,7622.0
01:04:01.184,AUTO,-35.3632624,149.1652369,27698,0.009940763004124165,0.0007607635925523937,-0.22489653527736664,-0.0013250361662358046,-0.00014116044621914625,0.025420494377613068,0,0,-1000,0,0,25,-3,5,-153,7622.0
01:04:01.390,AUTO,-35.3632624,149.1652369,27698,0.009940763004124165,0.0007607635925523937,-0.22489653527736664,-0.0013250361662358046,-0.00014116044621914625,0.025420494377613068,0,0,-1000,0,0,25,-3,5,-153,7622.0
01:04:01.593,AUTO,-35.3632624,149.165237,28087,0.008635799400508404,0.0006111524999141693,-0.21908064186573029,-0.004677225835621357,0.00023620860883966088,0.0217055045068264,0,0,-1000,-3,0,21,-2,6,-153,38943.0
01:04:01.795,AUTO,-35.3632624,149.165237,28087,0.008635799400508404,0.0006111524999141693,-0.21908064186573029,-0.004677225835621357,0.00023620860883966088,0.0217055045068264,0,0,-1000,-3,0,21,-2,6,-153,38943.0
01:04:01.997,AUTO,-35.3632624,149.165237,28087,0.008635799400508404,0.0006111524999141693,-0.21908064186573029,-0.004677225835621357,0.00023620860883966088,0.0217055045068264,0,0,-1000,-3,0,21,-2,6,-153,38943.0
01:04:02.198,AUTO,-35.3632624,149.1652375,29242,0.0037741586565971375,0.001392654492519796,-0.20359842479228973,-0.003681054338812828,0.0020255844574421644,0.021230071783065796,0,-1,-1000,-2,2,20,0,7,-153,38943.0
01:04:02.400,AUTO,-35.3632624,149.1652375,29242,0.0037741586565971375,0.001392654492519796,-0.20359842479228973,-0.003681054338812828,0.0020255844574421644,0.021230071783065796,0,-1,-1000,-2,2,20,0,7,-153,38943.0
01:04:02.601,AUTO,-35.3632624,149.1652376,29630,0.0023848845157772303,0.0014987733447924256,-0.19871468842029572,-0.006553048267960548,0.001053555402904749,0.019611826166510582,1,-1,-1000,-5,1,19,0,7,-153,38943.0
01:04:02.803,AUTO,-35.3632624,149.1652378,30016,0.0014930310426279902,0.0017239463049918413,-0.19400019943714142,-0.001358086010441184,0.001322997733950615,0.019037988036870956,0,0,-1000,0,2,18,0,6,-153,38943.0
01:04:03.004,AUTO,-35.3632624,149.1652379,30404,0.0009589858818799257,0.0018250483553856611,-0.18970879912376404,-0.0021947117056697607,0.0013593023177236319,0.01683701202273369,0,-1,-1000,-1,2,16,0,6,-153,38943.0
01:04:03.206,AUTO,-35.3632624,149.165238,30792,0.00035343365743756294,0.0015391487395390868,-0.18549005687236786,0.0002559421118348837,-0.0007789736846461892,0.018865715712308884,0,-1,-1000,1,0,18,0,5,-153,38943.0
01:04:03.408,AUTO,-35.3632624,149.165238,30792,0.00035343365743756294,0.0015391487395390868,-0.18549005687236786,0.0002559421118348837,-0.0007789736846461892,0.018865715712308884,0,-1,-1000,1,0,18,0,5,-153,38943.0
01:04:03.610,AUTO,-35.3632624,149.1652381,31180,0.00010642618144629523,0.0014205417828634381,-0.18131518363952637,0.00036745541729032993,-0.0002929558395408094,0.018775800243020058,0,0,-1000,1,0,18,0,4,-153,38943.0
01:04:03.811,AUTO,-35.3632624,149.1652381,31180,0.00010642618144629523,0.0014205417828634381,-0.18131518363952637,0.00036745541729032993,-0.0002929558395408094,0.018775800243020058,0,0,-1000,1,0,18,0,4,-153,38943.0
01:04:04.013,AUTO,-35.3632624,149.1652381,31180,0.00010642618144629523,0.0014205417828634381,-0.18131518363952637,0.00036745541729032993,-0.0002929558395408094,0.018775800243020058,0,0,-1000,1,0,18,0,4,-153,38943.0
01:04:04.215,AUTO,-35.3632623,149.1652382,32345,0.0007736511761322618,0.0010566908167675138,-0.16906407475471497,0.002588260220363736,0.001105364877730608,0.01553317904472351,0,0,-1000,3,2,15,0,2,-153,38943.0
01:04:04.416,AUTO,-35.3632623,149.1652382,32345,0.0007736511761322618,0.0010566908167675138,-0.16906407475471497,0.002588260220363736,0.001105364877730608,0.01553317904472351,0,0,-1000,3,2,15,0,2,-153,38943.0
01:04:04.622,AUTO,-35.3632623,149.1652382,32733,0.00127489457372576,0.0012699660146608949,-0.165695920586586,0.002600776730105281,0.001792373601347208,0.013996835798025131,0,0,-1000,3,2,13,0,1,-153,38943.0
01:04:04.829,AUTO,-35.3632623,149.1652382,33122,0.0017199825961142778,0.0011278209276497364,-0.16238528490066528,0.0024977489374578,0.001405217801220715,0.012762864120304585,0,0,-999,3,2,12,0,1,-153,38943.0
01:04:05.035,AUTO,-35.3632623,149.1652382,33510,0.0020268340595066547,0.0010460035409778357,-0.15899424254894257,-0.0005300397169776261,0.00037473044358193874,0.015255068428814411,0,0,-999,0,1,15,0,0,-153,38943.0
01:04:05.263,AUTO,-35.3632623,149.1652382,33898,0.0021223220974206924,0.0006848921184428036,-0.1558348685503006,0.0014035481726750731,1.4547083992511034e-05,0.014406965114176273,0,0,-1000,2,0,14,0,0,-153,38943.0
01:04:05.503,AUTO,-35.3632623,149.1652382,34287,0.0023639395367354155,0.0010694811353459954,-0.15255272388458252,0.002062279963865876,0.0023385260719805956,0.01304603647440672,0,0,-1000,3,2,12,0,0,-153,38943.0
01:04:05.758,AUTO,-35.3632623,149.1652382,34287,0.0023639395367354155,0.0010694811353459954,-0.15255272388458252,0.002062279963865876,0.0023385260719805956,0.01304603647440672,0,0,-1000,3,2,12,0,0,-153,38943.0
01:04:05.960,AUTO,-35.3632623,149.1652382,34287,0.0023639395367354155,0.0010694811353459954,-0.15255272388458252,0.002062279963865876,0.0023385260719805956,0.01304603647440672,0,0,-1000,3,2,12,0,0,-153,38943.0
01:04:06.162,AUTO,-35.3632623,149.1652382,34287,0.0023639395367354155,0.0010694811353459954,-0.15255272388458252,0.002062279963865876,0.0023385260719805956,0.01304603647440672,0,0,-1000,3,2,12,0,0,-153,38943.0
01:04:06.365,AUTO,-35.3632622,149.1652381,35451,0.002381432568654418,0.0012361251283437014,-0.14385643601417542,5.1345909014344215e-05,-0.0001971609890460968,0.010190729983150959,0,0,-1000,0,0,10,0,0,-153,289806.0
01:04:06.567,AUTO,-35.3632622,149.165238,35839,0.002249615266919136,0.0010931323049589992,-0.14125405251979828,0.00046922825276851654,-0.0014333327999338508,0.010135026648640633,0,0,-1000,1,0,10,0,0,-153,289806.0
01:04:06.768,AUTO,-35.3632622,149.165238,36235,0.0021489921491593122,0.0009354474605061114,-0.13858099281787872,-0.0030233124271035194,-0.0005182393360882998,0.0112056415528059,0,0,-1000,-2,0,11,0,0,-153,289806.0
01:04:06.970,AUTO,-35.3632622,149.165238,36623,0.002552188467234373,0.0009805936133489013,-0.13612738251686096,0.005775566212832928,0.002553851343691349,0.010193143039941788,0,0,-1000,6,3,10,0,0,-153,289806.0
01:04:07.172,AUTO,-35.3632622,149.165238,36623,0.002552188467234373,0.0009805936133489013,-0.13612738251686096,0.005775566212832928,0.002553851343691349,0.010193143039941788,0,0,-1000,6,3,10,0,0,-153,289806.0
01:04:07.373,AUTO,-35.3632622,149.1652379,37011,0.002650246489793062,0.0009041194571182132,-0.13354551792144775,4.354247357696295e-05,-0.0007147147553041577,0.011709886603057384,0,0,-1000,1,0,11,0,0,-153,289806.0
01:04:07.576,AUTO,-35.3632622,149.1652379,37399,0.002628647955134511,0.0008348213159479201,-0.13126257061958313,-0.00257614953443408,0.0009131726110354066,0.008175899274647236,0,0,-1000,-1,1,7,0,0,-153,289806.0
01:04:07.778,AUTO,-35.3632622,149.1652379,37399,0.002628647955134511,0.0008348213159479201,-0.13126257061958313,-0.00257614953443408,0.0009131726110354066,0.008175899274647236,0,0,-1000,-1,1,7,0,0,-153,289806.0
01:04:07.981,AUTO,-35.3632622,149.1652379,37399,0.002628647955134511,0.0008348213159479201,-0.13126257061958313,-0.00257614953443408,0.0009131726110354066,0.008175899274647236,0,0,-1000,-1,1,7,0,0,-153,289806.0
01:04:08.189,AUTO,-35.3632622,149.1652379,37399,0.002628647955134511,0.0008348213159479201,-0.13126257061958313,-0.00257614953443408,0.0009131726110354066,0.008175899274647236,0,0,-1000,-1,1,7,0,0,-153,289806.0
01:04:08.391,AUTO,-35.3632622,149.1652378,38563,0.003045226912945509,0.0013698901748284698,-0.12458577752113342,0.00030292849987745285,-0.000520327768754214,0.012287476100027561,0,0,-1000,1,0,12,0,0,-153,289806.0
01:04:08.593,AUTO,-35.3632621,149.1652377,38951,0.0031274626962840557,0.0013694940134882927,-0.12247950583696365,-0.0005883669946342707,-0.00017553765792399645,0.008555835112929344,0,0,-1000,0,0,8,0,0,-153,289806.0
01:04:08.795,AUTO,-35.3632621,149.1652377,39339,0.003209087997674942,0.0015014039818197489,-0.1205487847328186,0.0008446552092209458,0.00019791279919445515,0.009057743474841118,0,0,-1000,1,1,8,0,0,-153,289806.0
01:04:08.996,AUTO,-35.3632621,149.1652377,39728,0.0034230509772896767,0.0016275414964184165,-0.11861766874790192,0.000488412450067699,0.00010497856419533491,0.008112085051834583,0,0,-1000,1,0,7,0,0,-153,289806.0
01:04:09.198,AUTO,-35.3632621,149.1652376,40116,0.0035340357571840286,0.0016357309650629759,-0.11688469350337982,-6.971205584704876e-05,8.185359183698893e-05,0.00712405052036047,0,0,-1000,1,1,7,0,0,-153,289806.0
01:04:09.400,AUTO,-35.3632621,149.1652376,40116,0.0035340357571840286,0.0016357309650629759,-0.11688469350337982,-6.971205584704876e-05,8.185359183698893e-05,0.00712405052036047,0,0,-1000,1,1,7,0,0,-153,289806.0
01:04:09.602,AUTO,-35.3632621,149.1652376,40504,0.0035044176038354635,0.0014856300549581647,-0.11496920138597488,-0.001238347147591412,-0.0014623793540522456,0.007512466050684452,0,0,-1000,0,0,7,0,1,-153,289806.0
01:04:09.804,AUTO,-35.3632621,149.1652376,40504,0.0035044176038354635,0.0014856300549581647,-0.11496920138597488,-0.001238347147591412,-0.0014623793540522456,0.007512466050684452,0,0,-1000,0,0,7,0,1,-153,289806.0
01:04:10.005,AUTO,-35.3632621,149.1652376,40504,0.0035044176038354635,0.0014856300549581647,-0.11496920138597488,-0.001238347147591412,-0.0014623793540522456,0.007512466050684452,0,0,-1000,0,0,7,0,1,-153,289806.0
01:04:10.207,AUTO,-35.3632621,149.1652376,41667,0.003016400383785367,0.0014546829042956233,-0.11016178876161575,0.0012612560531124473,0.0032184915617108345,0.006989423185586929,0,0,-1000,2,4,7,0,1,-153,289806.0
01:04:10.425,AUTO,-35.3632621,149.1652376,41667,0.003016400383785367,0.0014546829042956233,-0.11016178876161575,0.0012612560531124473,0.0032184915617108345,0.006989423185586929,0,0,-1000,2,4,7,0,1,-153,289806.0
01:04:10.686,AUTO,-35.363262,149.1652375,42425,-0.02849601022899151,0.034788962453603745,-0.029524780809879303,-0.136666402220726,0.13046830892562866,0.39640915393829346,0,0,-970,-135,131,396,-5,-3,-143,289806.0
01:04:10.936,AUTO,-35.3632622,149.1652372,42778,-0.05873445048928261,0.07045701891183853,0.10142695158720016,-0.11106731742620468,0.05733558163046837,0.5494120121002197,2,3,-960,-110,58,549,-17,-14,-135,289806.0
01:04:11.185,AUTO,-35.3632627,149.1652366,43102,-0.05164146050810814,0.050542205572128296,0.20214329659938812,0.07321154326200485,-0.19844332337379456,0.2875881791114807,2,3,-960,-110,58,549,-29,-29,-120,289806.0
01:04:11.413,AUTO,-35.3632627,149.1652366,43102,-0.05164146050810814,0.050542205572128296,0.20214329659938812,0.07321154326200485,-0.19844332337379456,0.2875881791114807,3,7,-940,74,-197,287,-29,-29,-120,289806.0
01:04:11.615,AUTO,-35.3632634,149.1652356,43388,-0.023357359692454338,0.000500145775731653,0.2528316080570221,0.11662739515304565,-0.18838399648666382,0.13354356586933136,3,9,-945,117,-187,133,-32,-37,-106,289806.0
01:04:11.817,AUTO,-35.3632634,149.1652356,43388,-0.023357359692454338,0.000500145775731653,0.2528316080570221,0.11662739515304565,-0.18838399648666382,0.13354356586933136,3,9,-945,117,-187,133,-32,-37,-106,289806.0
01:04:12.019,AUTO,-35.3632634,149.1652356,43388,-0.023357359692454338,0.000500145775731653,0.2528316080570221,0.11662739515304565,-0.18838399648666382,0.13354356586933136,3,9,-945,117,-187,133,-32,-37,-106,139456.0
01:04:12.221,AUTO,-35.3632648,149.165233,44058,0.03490668162703514,-0.05493421107530594,0.2717139720916748,-0.006983011960983276,0.0009495617123320699,-0.022194933146238327,0,4,-965,-6,1,-21,-7,-16,-72,139456.0
01:04:12.422,AUTO,-35.3632648,149.165233,44058,0.03490668162703514,-0.05493421107530594,0.2717139720916748,-0.006983011960983276,0.0009495617123320699,-0.022194933146238327,0,4,-965,-6,1,-21,-7,-16,-72,139456.0
01:04:12.623,AUTO,-35.3632648,149.1652327,44230,0.041724856942892075,-0.05026914179325104,0.2638981342315674,0.049565382301807404,0.02899935282766819,-0.03220507502555847,-1,6,-970,50,30,-31,2,-4,-64,139456.0
01:04:12.825,AUTO,-35.3632648,149.1652326,44382,0.04248092323541641,-0.04096255451440811,0.25486651062965393,0.03140631318092346,0.040605708956718445,-0.035407841205596924,-2,-1,-974,32,41,-35,10,7,-56,139456.0
01:04:13.027,AUTO,-35.3632645,149.1652328,44516,0.033398255705833435,-0.029866784811019897,0.24583178758621216,-0.33690911531448364,0.045032940804958344,-0.033050231635570526,-2,-15,-975,-335,45,-32,15,16,-50,139456.0
01:04:13.230,AUTO,-35.3632641,149.1652333,44632,0.02982427552342415,-0.01938284933567047,0.23725198209285736,0.1885707527399063,0.036362942308187485,-0.027408050373196602,-3,15,-963,190,37,-27,19,24,-42,139456.0
01:04:13.434,AUTO,-35.3632636,149.1652339,44729,0.03059190697968006,-0.009417245164513588,0.22864601016044617,0.4682726263999939,0.039784062653779984,-0.029195526614785194,-2,13,-989,469,40,-29,21,29,-37,139456.0
01:04:13.636,AUTO,-35.3632636,149.1652339,44729,0.03059190697968006,-0.009417245164513588,0.22864601016044617,0.4682726263999939,0.039784062653779984,-0.029195526614785194,-2,13,-989,469,40,-29,21,29,-37,139456.0
01:04:13.838,AUTO,-35.3632636,149.1652339,44729,0.03059190697968006,-0.009417245164513588,0.22864601016044617,0.4682726263999939,0.039784062653779984,-0.029195526614785194,-2,13,-989,469,40,-29,21,29,-37,139456.0
01:04:14.040,AUTO,-35.3632636,149.1652339,44729,0.03059190697968006,-0.009417245164513588,0.22864601016044617,0.4682726263999939,0.039784062653779984,-0.029195526614785194,-2,13,-989,469,40,-29,21,29,-37,139456.0
01:04:14.242,AUTO,-35.3632636,149.1652339,44729,0.03059190697968006,-0.009417245164513588,0.22864601016044617,0.4682726263999939,0.039784062653779984,-0.029195526614785194,-2,13,-989,469,40,-29,21,29,-37,139456.0
01:04:14.443,AUTO,-35.363262,149.1652365,44965,0.0015690055442973971,0.012907330878078938,0.2057252675294876,0.10364538431167603,0.010342814959585667,-0.020066257566213608,0,19,-980,105,11,-19,16,29,-21,139456.0
01:04:14.645,AUTO,-35.3632616,149.1652372,45005,0.00984170287847519,0.015602866187691689,0.19993029534816742,0.710229754447937,0.0066924430429935455,-0.017392925918102264,0,27,-979,711,7,-17,13,26,-14,139456.0
01:04:14.846,AUTO,-35.3632613,149.1652378,45027,0.007765660993754864,0.016204068437218666,0.19470453262329102,0.5017324686050415,-0.0027550100348889828,-0.01784631982445717,0,5,-974,502,-1,-17,9,23,-6,139456.0
01:04:15.077,AUTO,-35.3632611,149.1652384,45028,-0.009700649417936802,0.030889663845300674,0.19175633788108826,0.003827500157058239,0.17174436151981354,0.06495706737041473,2,-22,-939,4,172,65,6,17,3,139456.0
01:04:15.295,AUTO,-35.363261,149.1652386,44994,-0.013736571185290813,0.039334945380687714,0.18747904896736145,0.23450776934623718,-0.0572415292263031,-0.0016087702242657542,-1,-5,-999,234,-56,-1,-1,8,15,139456.0
01:04:15.541,AUTO,-35.363261,149.1652387,44951,-0.004166258033365011,0.014619509689509869,0.18237654864788055,-0.22240522503852844,-0.10315407067537308,-0.011611318215727806,0,-37,-1005,-222,-102,-11,-7,2,14,139456.0
01:04:15.801,AUTO,-35.363261,149.1652387,44951,-0.004166258033365011,0.014619509689509869,0.18237654864788055,-0.22240522503852844,-0.10315407067537308,-0.011611318215727806,0,-37,-1005,-222,-102,-11,-7,2,14,139456.0
01:04:16.082,AUTO,-35.363261,149.1652387,44951,-0.004166258033365011,0.014619509689509869,0.18237654864788055,-0.22240522503852844,-0.10315407067537308,-0.011611318215727806,0,-37,-1005,-222,-102,-11,-7,2,14,139456.0
01:04:16.295,AUTO,-35.363261,149.1652387,44951,-0.004166258033365011,0.014619509689509869,0.18237654864788055,-0.22240522503852844,-0.10315407067537308,-0.011611318215727806,0,-37,-1005,-222,-102,-11,-7,2,14,139456.0
01:04:16.502,AUTO,-35.3632614,149.1652385,44867,0.03833138570189476,-0.021129967644810677,0.16923953592777252,-0.12511956691741943,-0.024560576304793358,-0.023783570155501366,-1,8,-1006,-122,-23,-23,-4,16,3,139456.0
01:04:16.703,AUTO,-35.3632613,149.1652386,44851,0.047659896314144135,-0.027435220777988434,0.1655297577381134,-0.01696009561419487,-0.019459662958979607,-0.026532551273703575,-1,10,-1039,-14,-18,-26,0,27,3,139456.0
01:04:16.905,AUTO,-35.3632613,149.1652389,44844,0.0760003924369812,-0.03170182555913925,0.1601957380771637,0.6088252067565918,-0.018601976335048676,-0.025461900979280472,0,33,-1015,611,-17,-24,4,40,-1,25895.0
01:04:17.107,AUTO,-35.3632611,149.1652396,44843,0.10442042350769043,-0.03809264674782753,0.1605893075466156,0.6887704133987427,-0.023031407967209816,0.0983024314045906,0,11,-1016,690,-22,98,10,56,-3,25895.0
01:04:17.309,AUTO,-35.3632607,149.1652406,44847,0.11879530549049377,-0.054730575531721115,0.2509128153324127,0.24477826058864594,-0.013512415811419487,0.6227457523345947,-1,-16,-1013,245,-12,623,17,75,-3,25895.0
01:04:17.510,AUTO,-35.3632607,149.1652406,44847,0.11879530549049377,-0.054730575531721115,0.2509128153324127,0.24477826058864594,-0.013512415811419487,0.6227457523345947,-1,-16,-1013,245,-12,623,17,75,-3,25895.0
01:04:17.712,AUTO,-35.3632601,149.1652421,44853,0.11072295904159546,-0.081464983522892,0.4436521828174591,-0.36619314551353455,-0.02794327773153782,0.8617360591888428,-2,-52,-998,-365,-27,862,25,97,-4,25895.0
01:04:17.914,AUTO,-35.3632601,149.1652421,44853,0.11072295904159546,-0.081464983522892,0.4436521828174591,-0.36619314551353455,-0.02794327773153782,0.8617360591888428,-2,-52,-998,-365,-27,862,25,97,-4,25895.0
01:04:18.118,AUTO,-35.3632601,149.1652421,44853,0.11072295904159546,-0.081464983522892,0.4436521828174591,-0.36619314551353455,-0.02794327773153782,0.8617360591888428,-2,-52,-998,-365,-27,862,25,97,-4,25895.0
01:04:18.320,AUTO,-35.3632574,149.1652507,44885,0.06960763037204742,-0.1549539715051651,1.0403132438659668,0.09887126833200455,-0.021411722525954247,0.7549523711204529,-27,-1,-1016,101,-20,755,47,175,-5,25895.0
01:04:18.521,AUTO,-35.3632574,149.1652507,44885,0.06960763037204742,-0.1549539715051651,1.0403132438659668,0.09887126833200455,-0.021411722525954247,0.7549523711204529,-27,-1,-1016,101,-20,755,47,175,-5,25895.0
01:04:18.723,AUTO,-35.3632561,149.1652549,44902,0.05314760282635689,-0.17442552745342255,1.2227628231048584,0.5260981917381287,-0.0470665842294693,0.7308359742164612,-34,0,-1015,528,-46,731,54,203,-7,25895.0
01:04:18.924,AUTO,-35.3632547,149.16526,44919,0.02370605617761612,-0.18911682069301605,1.395327091217041,0.2512100636959076,-0.030327605083584785,0.602273166179657,-44,-18,-1011,252,-29,602,62,232,-7,25895.0
01:04:19.126,AUTO,-35.3632531,149.165266,44939,0.0011009310837835073,-0.19872546195983887,1.4860930442810059,-0.29073312878608704,-0.04492045193910599,0.2174566388130188,-51,-44,-1003,-289,-43,217,71,261,-7,25895.0
01:04:19.328,AUTO,-35.3632514,149.1652727,44962,-0.005350478459149599,-0.20818936824798584,1.5007225275039673,-0.19221313297748566,-0.02804211527109146,-0.034623559564352036,-65,-17,-1010,-189,-26,-33,78,290,-8,25895.0
01:04:19.530,AUTO,-35.3632514,149.1652727,44962,-0.005350478459149599,-0.20818936824798584,1.5007225275039673,-0.19221313297748566,-0.02804211527109146,-0.034623559564352036,-65,-17,-1010,-189,-26,-33,78,290,-8,25895.0
01:04:19.732,AUTO,-35.3632495,149.1652801,44986,0.007506003137677908,-0.21347516775131226,1.480056881904602,0.2770127058029175,-0.012207173742353916,-0.11897658556699753,-70,-5,-1017,279,-11,-118,86,319,-9,25895.0
01:04:19.934,AUTO,-35.3632495,149.1652801,44986,0.007506003137677908,-0.21347516775131226,1.480056881904602,0.2770127058029175,-0.012207173742353916,-0.11897658556699753,-70,-5,-1017,279,-11,-118,86,319,-9,25895.0
01:04:20.136,AUTO,-35.3632495,149.1652801,44986,0.007506003137677908,-0.21347516775131226,1.480056881904602,0.2770127058029175,-0.012207173742353916,-0.11897658556699753,-70,-5,-1017,279,-11,-118,86,319,-9,25895.0
01:04:20.373,AUTO,-35.3632427,149.1653076,45081,0.02665705233812332,-0.1938694268465042,1.4069615602493286,0.1551998108625412,0.08282559365034103,-0.058943238109350204,-84,-27,-1016,157,84,-58,111,400,-15,25895.0
01:04:20.610,AUTO,-35.3632402,149.1653183,45126,0.03036629408597946,-0.1762850433588028,1.398003101348877,0.026772677898406982,0.06110461428761482,-0.021952349692583084,-90,-42,-1012,28,62,-21,117,419,-18,25895.0
01:04:20.890,AUTO,-35.3632375,149.1653295,45178,0.030821410939097404,-0.1707325428724289,1.3940534591674805,-0.1400635540485382,0.02761504240334034,-0.01685090735554695,-80,-49,-998,-137,28,-16,123,434,-20,25895.0
01:04:21.115,AUTO,-35.3632346,149.1653413,45234,0.03928313031792641,-0.1589541882276535,1.3912550210952759,0.20582999289035797,0.023847021162509918,-0.021713929250836372,-101,-29,-1001,208,24,-21,127,447,-22,25895.0
01:04:21.357,AUTO,-35.3632317,149.1653534,45293,0.04319705441594124,-0.15471772849559784,1.3902844190597534,0.0978391021490097,0.01523279957473278,-0.007896254770457745,-98,-51,-994,100,15,-7,131,457,-23,25895.0
01:04:21.567,AUTO,-35.3632287,149.1653657,45352,0.04074975848197937,-0.15233390033245087,1.3895090818405151,-0.18431422114372253,0.023223478347063065,0.0034372787922620773,-101,-56,-990,-182,24,4,134,465,-23,25895.0
01:04:21.775,AUTO,-35.3632287,149.1653657,45352,0.04074975848197937,-0.15233390033245087,1.3895090818405151,-0.18431422114372253,0.023223478347063065,0.0034372787922620773,-101,-56,-990,-182,24,4,134,465,-23,25895.0
01:04:21.977,AUTO,-35.3632287,149.1653657,45352,0.04074975848197937,-0.15233390033245087,1.3895090818405151,-0.18431422114372253,0.023223478347063065,0.0034372787922620773,-101,-56,-990,-182,24,4,134,465,-23,43815.0
01:04:22.179,AUTO,-35.3632287,149.1653657,45352,0.04074975848197937,-0.15233390033245087,1.3895090818405151,-0.18431422114372253,0.023223478347063065,0.0034372787922620773,-101,-56,-990,-182,24,4,134,465,-23,43815.0
01:04:22.381,AUTO,-35.3632198,149.1654033,45578,0.05679705739021301,0.023487530648708344,1.3864262104034424,-0.442558616399765,0.22014768421649933,0.008157518692314625,-100,-79,-1002,-440,220,8,126,437,-37,43815.0
01:04:22.583,AUTO,-35.363217,149.1654148,45663,0.05306811258196831,0.04130455479025841,1.3858320713043213,-0.6263065934181213,-0.01934489980340004,-0.014100758358836174,-94,-62,-971,-624,-18,-13,116,404,-30,43815.0
01:04:22.786,AUTO,-35.3632145,149.1654256,45726,0.05684585124254227,0.02878129854798317,1.3839380741119385,0.08699940145015717,-0.053513552993535995,-0.03954366594552994,-86,-10,-974,90,-52,-38,104,375,-21,43815.0
01:04:22.988,AUTO,-35.3632145,149.1654256,45726,0.05684585124254227,0.02878129854798317,1.3839380741119385,0.08699940145015717,-0.053513552993535995,-0.03954366594552994,-86,-10,-974,90,-52,-38,104,375,-21,43815.0
01:04:23.190,AUTO,-35.3632121,149.1654357,45770,0.0638173371553421,0.02092803455889225,1.3824726343154907,0.7021903395652771,-0.008691667579114437,-0.032954227179288864,-74,-8,-984,704,-8,-32,95,349,-14,43815.0
01:04:23.391,AUTO,-35.36321,149.1654451,45797,0.058344729244709015,0.018687697127461433,1.3804458379745483,0.37524592876434326,-0.017352886497974396,0.009713501669466496,-76,-35,-991,376,-16,10,88,325,-9,43815.0
01:04:23.594,AUTO,-35.363208,149.1654539,45816,0.044479526579380035,0.014770975336432457,1.3797619342803955,-0.15224777162075043,0.005584133788943291,0.032686516642570496,-72,-66,-991,-151,6,33,82,304,-6,43815.0
01:04:23.795,AUTO,-35.363208,149.1654539,45816,0.044479526579380035,0.014770975336432457,1.3797619342803955,-0.15224777162075043,0.005584133788943291,0.032686516642570496,-72,-66,-991,-151,6,33,82,304,-6,43815.0
01:04:23.999,AUTO,-35.363208,149.1654539,45816,0.044479526579380035,0.014770975336432457,1.3797619342803955,-0.15224777162075043,0.005584133788943291,0.032686516642570496,-72,-66,-991,-151,6,33,82,304,-6,43815.0
01:04:24.204,AUTO,-35.363208,149.1654539,45816,0.044479526579380035,0.014770975336432457,1.3797619342803955,-0.15224777162075043,0.005584133788943291,0.032686516642570496,-72,-66,-991,-151,6,33,82,304,-6,43815.0
01:04:24.406,AUTO,-35.3632029,149.1654768,45855,0.025125620886683464,0.019525354728102684,1.3733065128326416,-0.36567816138267517,-0.004359149839729071,-0.0110238092020154,-55,-31,-1002,-362,-3,-10,64,245,-7,43815.0
01:04:24.608,AUTO,-35.3632015,149.1654835,45868,0.02600676752626896,0.020800530910491943,1.371354103088379,0.21856698393821716,0.005725872237235308,-0.03783803433179855,-52,3,-989,222,6,-37,59,226,-4,43815.0
01:04:24.816,AUTO,-35.3632002,149.1654896,45879,0.03342912718653679,0.02387605980038643,1.3689894676208496,0.6694266200065613,-0.0005807544221170247,-0.02413203939795494,-45,4,-1012,672,0,-23,55,208,-6,43815.0
