time_stamp,roll,pitch,yaw,rollspeed,pitchspeed,yawspeed,lat,lon,relative_alt,vx,vy,vz,xacc,yacc,zacc,xgyro,ygyro,zgyro,RTL_ALT,MODE
07:06:16,-0.0006712823524139822,0.0014048003358766437,0.028341148048639297,0.0003030349325854331,0.00016318002599291503,0.0022494839504361153,-35.3632622,149.1652375,0.0,-2.0,2.0,0.0,0.0,1.0,-1000.0,0.0,0.0,0.0,1500.0,STABILIZE
07:06:18,-0.0011726723751053214,0.0010624168207868934,0.027346039190888405,0.00017734436551108956,0.00035314049455337226,0.0022453125566244125,-35.3632622,149.1652375,0.0,-1.0,0.0,0.0,0.0,1.0,-1000.0,0.0,0.0,0.0,1500.0,STABILIZE
07:06:24,-0.0009846880566328764,0.0009430199570488185,0.025109466165304184,0.0001972043828573078,0.0002289123076479882,0.0017374053713865578,-35.3632622,149.1652375,0.0,-1.0,1.0,0.0,0.0,1.5,-1000.0,0.0,0.0,0.5,1500.0,STABILIZE
07:06:28,-0.0006904335750732571,0.0009589095425326377,0.023720484226942062,0.0003881519951391965,0.00029022194212302566,0.0015955853159539402,-35.3632622,149.1652375,1.5,-1.0,1.0,-1.0,0.0,1.5,-1000.0,0.5,0.5,0.5,1500.0,AUTO
07:06:30,-0.0001660397853508281,0.0012979027427112062,0.02304541567961375,0.0003331566889149447,0.0002949904107178251,0.0015190469566732645,-35.3632622,149.16523743333332,41.666666666666664,0.0,0.0,-6.333333333333333,0.0,2.0,-1000.0,0.3333333333333333,0.3333333333333333,0.0,139468.5,AUTO
07:06:32,-0.00043604376454216737,8.468493372978021e-05,0.022429296746850014,0.0038046929985284805,2.8919739027818043e-05,0.0021967304249604544,-35.363262166666665,149.1652375,198.0,0.0,0.6666666666666666,-61.0,0.0,0.0,-1135.0,4.333333333333333,0.3333333333333333,1.3333333333333333,277437.0,AUTO
07:06:34,0.057113264997800194,-0.003939734771847725,-0.0016933241859078407,-0.0074904498954614,0.02909084378431241,-0.03636073189166685,-35.3632617,149.16523923333332,2801.0,7.0,41.0,-148.33333333333334,1.6666666666666667,-8.0,-996.3333333333334,-6.666666666666667,30.0,-36.333333333333336,277437.0,AUTO
07:06:35,-0.0478052149216334,0.006555400633563598,-0.07085016618172328,-0.0899135855336984,-0.0148541076729695,-0.03477552284797033,-35.36326086666667,149.1652454,4686.666666666667,1.3333333333333333,31.333333333333332,-148.0,4.0,-8.0,-1001.0,-89.0,-13.333333333333334,-34.666666666666664,58767.0,AUTO
07:06:36,-0.0726192370057106,9.799795225262642e-05,-0.09169505536556244,0.03937456291168928,-0.002587174104216198,-0.020903725487490494,-35.36326086666667,149.1652458,5834.333333333333,-1.6666666666666667,-22.666666666666668,-148.33333333333334,-1.3333333333333333,2.3333333333333335,-1003.0,39.666666666666664,-2.0,-21.0,58767.0,AUTO
07:06:38,0.060267748311161995,0.012312671169638634,-0.09935219958424568,0.061997247859835625,-0.002046958834398538,0.004180317744612694,-35.3632628,149.16523435,9108.5,-19.5,-23.0,-152.0,-1.5,8.5,-1002.0,62.0,-1.5,3.0,58767.0,AUTO
07:06:40,-0.03299014208217462,-0.002522277762182057,-0.09922859072685242,-0.010342412783453861,0.04622536711394787,-0.08154826859633128,-35.363262366666675,149.16523743333335,11988.333333333334,28.0,10.333333333333334,-149.0,-2.3333333333333335,-7.0,-1005.0,-9.666666666666666,46.333333333333336,-81.66666666666667,58767.0,AUTO
07:06:41,0.0004831332480534911,0.022202854976058006,-0.16604102154572806,0.035041542102893196,0.004885562850783269,-0.021948607328037422,-35.363260133333334,149.1652365,13928.666666666666,5.333333333333333,-15.333333333333334,-151.0,-4.333333333333333,1.0,-1000.0,35.333333333333336,5.666666666666667,-22.0,24300.0,AUTO
07:06:42,0.015959629478553932,0.017804930297036965,-0.1706141233444214,0.006589513272047043,-0.012308324687182903,0.004374835640192032,-35.36326016666666,149.16523543333335,15098.333333333334,-8.0,-5.666666666666667,-150.66666666666666,-0.6666666666666666,2.3333333333333335,-999.0,7.333333333333333,-11.0,3.3333333333333335,24300.0,AUTO
07:06:44,0.00047092220241514343,-0.001656652467014889,-0.17832820117473602,-0.0036673972693582377,-0.0020475376513786614,-0.01823150583853324,-35.36326176666666,149.16523596666664,18209.0,-7.666666666666667,7.666666666666667,-150.33333333333334,1.3333333333333333,0.0,-1000.0,-2.6666666666666665,-1.3333333333333333,-18.333333333333332,24300.0,AUTO
07:06:46,-0.04642425291240215,0.04040531752010187,-0.06468998268246651,0.03139290943120917,-0.0007780206700166067,0.35514578223228455,-35.36326256666667,149.16523536666668,21259.666666666668,-18.333333333333332,-26.0,-134.33333333333334,-0.3333333333333333,5.0,-966.3333333333334,32.333333333333336,0.0,354.3333333333333,24300.0,AUTO
07:06:47,0.057151783257722855,-0.04189715161919594,0.056509390473365784,0.011748249332110086,0.007903811521828175,-0.034400432681043945,-35.363265033333334,149.1652315,22655.333333333332,-8.0,-2.6666666666666665,-81.0,0.3333333333333333,3.3333333333333335,-965.0,12.666666666666666,8.666666666666666,-34.0,12702.0,AUTO
07:06:48,0.0395658283183972,-0.01987125538289547,0.04513715704282125,-0.03901210923989614,0.0376007134715716,-0.001222683039183418,-35.36326473333333,149.16523246666665,23196.333333333332,14.333333333333334,30.333333333333332,-58.333333333333336,0.0,-6.666666666666667,-975.0,-37.666666666666664,38.0,-1.6666666666666667,12702.0,AUTO
07:06:50,-0.011858803840974966,0.015271214147408804,0.03917862350742022,0.02041508009036382,-0.004030042560771108,-0.002711252154161533,-35.363261533333336,149.1652392,23932.333333333332,8.0,19.333333333333332,-10.666666666666666,0.0,-0.3333333333333333,-970.3333333333334,21.0,-3.0,-2.6666666666666665,12702.0,AUTO
07:06:52,0.07393556088209152,-0.053244306395451226,0.03867847907046477,0.36574651797612506,-0.03294793702661991,0.09769933111965656,-35.3632605,149.16523996666666,23696.0,25.666666666666668,24.333333333333332,6.666666666666667,-2.6666666666666665,1.0,-1016.6666666666666,366.3333333333333,-31.333333333333332,97.66666666666667,12702.0,AUTO
07:06:53,0.01537455862853676,-0.13789408405621847,0.9350232481956482,-0.0022357565661271415,-0.031977412601312004,0.4783126910527547,-35.363253766666666,149.16524846666667,23617.333333333332,98.66666666666667,110.66666666666667,5.666666666666667,-31.333333333333332,-21.666666666666668,-1001.0,-1.3333333333333333,-30.333333333333332,477.6666666666667,128307.0,AUTO
07:06:54,0.013681793585419655,-0.16982853412628174,0.9558893442153931,0.0732086996237437,-0.04819208507736524,-0.12809989601373672,-35.36324556666667,149.16526023333333,23542.333333333332,151.33333333333334,174.66666666666666,10.666666666666666,-47.0,-23.666666666666668,-998.0,74.0,-47.0,-127.66666666666667,128307.0,AUTO
07:06:56,0.040310884515444435,-0.11797226468722026,0.9105804761250814,0.08716056247552235,0.0059551143397887545,-0.010412979871034622,-35.363206733333335,149.1653169,23239.666666666668,271.0,300.6666666666667,14.666666666666666,-74.66666666666667,-48.666666666666664,-989.0,87.66666666666667,6.333333333333333,-10.666666666666666,128307.0,AUTO
07:06:58,0.053131043910980225,-0.08393200486898422,0.900109072526296,-0.006838747610648473,0.020810967311263084,0.00846407376229763,-35.36315613333333,149.16539006666667,22857.0,301.3333333333333,333.0,20.0,-91.33333333333333,-65.33333333333333,-994.3333333333334,-6.333333333333333,21.0,8.0,128307.0,AUTO
07:06:59,0.044015773882468544,-0.05823517466584841,0.8959696094195048,-0.23756969720125198,0.05111600086092949,0.02160529140383005,-35.363123466666664,149.16543726666666,22595.0,292.0,329.0,20.666666666666668,-90.0,-69.33333333333333,-1004.6666666666666,-237.0,51.666666666666664,21.0,24934.0,AUTO
07:07:00,0.04539854203661283,-0.01595635456033051,0.8943368395169576,0.026546900471051533,0.062266060461600624,0.01793797096858422,-35.3631048,149.1654649,22458.0,273.3333333333333,305.3333333333333,18.0,-84.0,-61.333333333333336,-997.0,26.666666666666668,62.333333333333336,18.0,24934.0,AUTO
07:07:02,0.015173086896538734,0.08325185130039851,0.8911815881729126,0.1945891777674357,0.04738506923119227,0.004729347206496944,-35.36306633333333,149.165523,22150.666666666668,159.66666666666666,165.33333333333334,14.333333333333334,-51.0,-12.0,-1010.3333333333334,195.33333333333334,48.0,5.0,24934.0,AUTO
07:07:04,0.014975954468051592,0.04563182840744654,0.8927802046140035,-0.06897616386413574,-0.019486164053281147,0.0020071277588916323,-35.3630505,149.16554386666667,21978.333333333332,37.0,29.666666666666668,4.666666666666667,-12.0,-19.666666666666668,-1005.0,-69.0,-17.666666666666668,2.3333333333333335,24934.0,AUTO
07:07:05,0.012982268196841082,0.025411541263262432,0.8902714053789774,-0.12120106816291809,-0.021083934232592583,-0.0014143562875688076,-35.36304763333333,149.16554566666665,21975.0,2.3333333333333335,4.0,0.3333333333333333,-3.3333333333333335,-6.333333333333333,-999.3333333333334,-121.0,-19.666666666666668,-0.6666666666666666,78250.0,AUTO
07:07:06,0.017202701109151047,0.010051913792267442,0.8882046143213908,0.1766008734703064,-0.025427551319201786,0.0010845708505560954,-35.363047,149.1655454,21987.333333333332,-5.0,1.0,0.0,-0.6666666666666666,0.3333333333333333,-997.3333333333334,176.66666666666666,-23.666666666666668,1.3333333333333333,78250.0,RTL
07:07:08,0.011404117569327354,0.013893096397320429,0.884263277053833,0.10627846899054323,0.002449868402133385,0.0037254944909363985,-35.3630463,149.1655456,22083.0,-8.666666666666666,5.0,-15.333333333333334,-0.6666666666666666,6.333333333333333,-1030.3333333333333,106.66666666666667,3.3333333333333335,4.0,78250.0,RTL
07:07:10,0.011132472505172094,0.01182748811940352,0.8807971080144247,0.0015319273807108402,0.0007579390270014604,0.003969190331796805,-35.3630459,149.16554546666669,23333.666666666668,-13.666666666666666,4.0,-105.0,0.0,0.0,-1044.6666666666667,2.6666666666666665,1.3333333333333333,4.666666666666667,58537.0,RTL
07:07:12,0.057715712736050286,0.002269883688616877,0.8727994759877523,-0.005383472889661789,0.026709810830652714,-0.03687721370564153,-35.36304713333334,149.16554699999998,26311.0,-35.666666666666664,36.0,-147.33333333333334,1.6666666666666667,-7.0,-996.3333333333334,-4.333333333333333,28.0,-36.0,38824.0,RTL
07:07:14,-0.05070848762989044,0.0038533302334447703,0.7904357314109802,0.03930756449699402,0.005222901507901649,-0.0167281577984492,-35.36305046666667,149.16555099999997,29376.0,12.666666666666666,-15.0,-150.0,-2.0,2.3333333333333335,-1000.3333333333334,40.0,6.333333333333333,-14.666666666666666,38824.0,RTL
07:07:15,0.01259331409043322,0.015330284833908081,0.7775058348973592,0.041545577347278595,0.013246258099873861,-0.010966940162082514,-35.36304713333333,149.16554753333332,31321.0,23.333333333333332,-27.333333333333332,-151.66666666666666,-4.666666666666667,8.333333333333334,-1001.3333333333334,42.333333333333336,14.333333333333334,-9.333333333333334,176666.0,RTL
07:07:16,0.022294333825508755,0.014036512933671474,0.7775869369506836,-0.008018715016078204,-0.010548575781285763,0.006729744374752045,-35.36304583333333,149.1655456,32501.666666666668,5.666666666666667,-17.0,-151.0,-1.0,4.666666666666667,-998.6666666666666,-6.333333333333333,-8.666666666666666,7.666666666666667,176666.0,RTL
07:07:18,-0.0005188311139742533,0.004612096740553777,0.7638276815414429,-0.005371173843741417,0.002215579656573633,-0.022113528102636337,-35.363045866666674,149.1655442,35615.0,-2.0,2.0,-151.33333333333334,0.0,0.0,-1000.0,-3.3333333333333335,3.0,-20.666666666666668,176666.0,RTL
07:07:20,0.0005295948261239877,0.011547408377130827,0.7156731088956197,0.0009975038313617308,0.0020466388280813894,-0.02256510096291701,-35.363046,149.1655448,38735.666666666664,0.0,3.0,-152.0,0.0,-0.6666666666666666,-999.6666666666666,1.6666666666666667,3.0,-20.666666666666668,176666.0,RTL
07:07:21,6.673922234767815e-05,0.012737142853438854,0.6893744270006815,-0.00048595193463067216,0.00029543401130164665,-0.021052955960234005,-35.36304606666666,149.1655452,40686.0,-2.3333333333333335,2.0,-152.0,0.0,-0.3333333333333333,-999.6666666666666,1.0,1.3333333333333333,-19.333333333333332,54412.0,RTL
07:07:22,-0.0006601268153948089,0.012234328935543696,0.6744166413942972,-0.0006390422931872308,-0.0016249167965725064,-0.01898049625257651,-35.363046266666665,149.1655454,41860.666666666664,-3.6666666666666665,1.0,-152.0,0.0,0.0,-1000.0,0.3333333333333333,0.0,-17.0,54412.0,RTL
07:07:24,-0.002106603739472727,0.010258658478657404,0.634628156820933,0.0003688760722676913,-0.00023863930255174637,-0.020284485692779224,-35.36304676666666,149.1655457,44976.666666666664,-2.6666666666666665,0.0,-153.0,0.0,0.0,-1000.0,1.3333333333333333,1.0,-18.666666666666668,54412.0,RTL
07:07:26,0.0013350497902138159,0.012441959542532762,0.6036559144655863,0.0043890477779010935,0.003304206804993252,0.00779933575540781,-35.36304703333334,149.1655458,48094.0,-2.0,0.0,-152.33333333333334,0.0,0.0,-999.3333333333334,5.333333333333333,4.0,9.0,54412.0,RTL
07:07:27,-8.339724687781806e-05,0.0118218290929993,0.63033127784729,-0.004255474079400301,-0.002266511282262703,0.026955579097072285,-35.3630474,149.16554586666666,50033.333333333336,-5.0,1.0,-152.0,0.0,0.0,-1000.0,-2.3333333333333335,-0.3333333333333333,27.666666666666668,29398.0,RTL
07:07:28,-0.002579898883899053,0.010108051511148611,0.6508592367172241,-0.0012292613197738926,-0.002442170438977579,0.025984372322758038,-35.36304766666667,149.165546,51200.333333333336,-4.333333333333333,0.3333333333333333,-152.0,0.0,0.0,-1000.3333333333334,0.3333333333333333,-0.6666666666666666,27.0,29398.0,RTL
07:07:30,-0.0009770779870450497,0.009807503782212734,0.6919371883074442,0.0020808710251003504,0.0005212378843377034,0.01732308727999528,-35.3630478,149.165546,54303.666666666664,-0.6666666666666666,0.0,-152.66666666666666,0.0,0.0,-999.6666666666666,3.0,1.6666666666666667,18.333333333333332,29398.0,RTL
07:07:32,0.00045887104352004826,0.00980950923015674,0.7216266592343649,0.00149290570213149,2.0142702851444483e-05,0.012782010560234388,-35.3630476,149.165546,57416.0,0.0,0.0,-152.33333333333334,0.0,0.0,-1000.0,2.6666666666666665,1.0,13.666666666666666,29398.0,RTL
07:07:33,0.001183262870957454,0.010198437919219335,0.7363653182983398,0.000847930321469903,0.0008633952044571439,0.010815502765278021,-35.36304743333333,149.16554593333333,59354.666666666664,-1.0,1.0,-152.0,0.0,0.0,-999.6666666666666,2.0,2.0,11.333333333333334,147912.0,RTL
07:07:34,0.0011308110163857539,0.010690975313385328,0.7439207832018534,-0.0012805851486821969,0.0002749751244361202,0.008986666798591614,-35.363047333333334,149.1655459,60519.666666666664,-1.0,1.0,-152.0,0.0,0.0,-1000.0,0.6666666666666666,1.3333333333333333,9.666666666666666,147912.0,RTL
07:07:36,0.00035851388626421493,0.010266350582242012,0.7607285777727762,-0.00043464968136201304,5.559103252987067e-06,0.007156069235255321,-35.3630472,149.1655459,63623.333333333336,-2.0,1.0,-152.0,0.0,0.0,-1000.0,1.0,1.6666666666666667,8.0,147912.0,RTL
07:07:38,0.00016786682802679329,0.010392894347508749,0.7741408944129944,-0.0009653092905258139,0.0003681452168772618,0.006059692706912756,-35.3630472,149.1655459,66735.66666666667,-2.0,0.0,-152.0,0.0,0.0,-1000.0,0.3333333333333333,2.0,7.0,147912.0,RTL
07:07:39,-0.0004167951022585233,0.010805288329720497,0.7814948558807373,-0.00042643989824379486,4.043651279062033e-05,0.005252995528280735,-35.3630472,149.165546,68676.66666666667,-2.0,0.0,-152.0,0.0,0.0,-999.3333333333334,0.6666666666666666,1.0,6.0,98730.0,RTL
07:07:40,-9.95733898889739e-05,0.010500051081180573,0.7854727904001871,0.000886428247516354,-0.0004138275592898329,0.005229309977342685,-35.3630472,149.165546,69841.0,-2.0,0.0,-152.0,0.0,0.0,-1000.0,2.3333333333333335,1.0,6.0,98730.0,RTL
07:07:42,-0.00014112807305840155,0.010326516504089037,0.7957938313484192,0.0006363703481232127,0.00013260382305209836,0.004782894005378087,-35.3630472,149.165546,72946.33333333333,-2.0,0.0,-152.0,0.0,0.0,-1000.0,1.6666666666666667,1.3333333333333333,5.333333333333333,98730.0,RTL
07:07:44,-0.0007998812361620367,0.01029976891974608,0.8050866921742758,-0.0006759326594571272,-0.00044432515278458595,0.0059551702967534466,-35.3630472,149.165546,76056.66666666667,-2.0,0.0,-152.0,0.0,0.0,-1000.0,1.0,1.3333333333333333,7.0,98730.0,RTL
07:07:45,-0.0004957058311750492,0.010372458957135677,0.8099679152170817,0.0018743278924375772,0.0006598867864037553,0.0038735501002520323,-35.3630472,149.165546,77994.33333333333,-1.0,0.0,-152.0,0.0,0.0,-1000.0,3.3333333333333335,2.0,5.0,96325.0,RTL
07:07:46,-0.0005091214940572778,0.010153054259717464,0.812654991944631,0.00039380827608207863,-0.0005144168972037733,0.004882820571462314,-35.3630472,149.165546,79161.33333333333,-1.0,0.0,-152.0,0.0,0.0,-1000.0,1.6666666666666667,0.6666666666666666,6.0,96325.0,RTL
07:07:48,-0.00043077237205579877,0.010209336255987486,0.8192116022109985,0.00019250639403859773,-0.0007042130067323645,0.0031880857810998955,-35.3630472,149.165546,82264.0,-1.0,0.0,-152.0,0.0,0.0,-1000.3333333333334,1.6666666666666667,0.6666666666666666,4.0,96325.0,RTL
07:07:50,-0.000252569259221976,0.010079146673281988,0.8248615860939026,0.0007322615322967371,0.000641318658987681,0.003335057175718248,-35.3630472,149.165546,85371.33333333333,-1.0,0.0,-152.0,0.0,0.0,-999.6666666666666,2.0,2.3333333333333335,4.0,96325.0,RTL
07:07:51,-0.0004051952176572134,0.010292943567037582,0.8281081517537435,0.00017024169210344553,9.877564540753762e-05,0.002627003511103491,-35.3630472,149.165546,87313.33333333333,-1.0,0.0,-152.0,0.0,0.0,-1000.0,1.3333333333333333,1.3333333333333333,3.6666666666666665,4657.0,RTL
07:07:52,-0.00024593859173667926,0.010167050485809645,0.8300301829973856,-0.000538854394108057,0.0009000281182428201,0.0024036029741788902,-35.3630472,149.165546,88481.33333333333,-1.0,0.0,-152.0,0.0,0.0,-999.6666666666666,1.0,2.3333333333333335,3.6666666666666665,4657.0,RTL
07:07:54,-0.00046638701557337,0.01088519829014937,0.8343332211176554,0.00014100398402661085,0.0006423742743209004,0.0017922220285981894,-35.3630472,149.165546,91587.0,-2.0,0.0,-152.0,0.0,0.0,-1000.0,2.0,2.0,2.6666666666666665,4657.0,RTL
07:07:56,-0.0006362407972725729,0.010217918393512567,0.838185985883077,-0.0016966710488001506,-2.600547547141711e-05,0.0023242515744641423,-35.3630472,149.165546,94700.66666666667,-2.0,0.0,-152.0,0.0,0.0,-999.6666666666666,0.3333333333333333,1.6666666666666667,3.6666666666666665,4657.0,RTL
07:07:57,-0.0007705063326284289,0.01025049015879631,0.8402701616287231,-0.00015271540420750776,0.0002628546596194307,0.002401511650532484,-35.3630472,149.165546,96635.66666666667,-1.0,0.0,-152.0,0.0,0.0,-999.3333333333334,1.6666666666666667,1.3333333333333333,3.6666666666666665,15437.0,RTL
07:07:58,-0.000592264870647341,0.01022412907332182,0.8413753509521484,0.0006450245467325052,-0.0005920568946748972,0.002260906078542272,-35.3630472,149.165546,97802.33333333333,-1.0,0.0,-152.0,0.0,0.0,-1000.3333333333334,2.3333333333333335,1.0,3.3333333333333335,15437.0,RTL
07:08:00,-0.0010458916852561135,0.010134867082039515,0.8450676798820496,-2.5189248844981194e-05,-8.291568762312333e-05,0.004365392650167148,-35.3630472,149.165546,100914.33333333333,-1.0,0.0,-152.0,0.0,0.0,-999.6666666666666,1.3333333333333333,1.3333333333333333,5.333333333333333,15437.0,RTL
07:08:02,-0.000559921240589271,0.009921693553527197,0.8474478721618652,0.0006967736020063361,0.0015791732197006543,0.0020885420963168144,-35.3630472,149.165546,104021.66666666667,-1.0,0.0,-152.0,0.0,0.0,-999.6666666666666,2.3333333333333335,3.0,3.3333333333333335,15437.0,RTL
07:08:03,-0.00025084082638689625,0.03594333864748478,0.8492278655370077,-0.0014853340107947588,0.05120683337251345,0.0012984177252898614,-35.36304723333333,149.16554593333333,105958.0,-6.0,-5.333333333333333,-151.0,0.3333333333333333,0.3333333333333333,-998.6666666666666,0.6666666666666666,52.666666666666664,2.3333333333333335,29865.0,RTL
07:08:04,-0.001904732179051886,0.06746031592289607,0.8498959342638651,-0.003831417804273466,0.035139882316191993,0.0012697853768865268,-35.36304810000001,149.1655447,107113.0,-26.0,-26.666666666666668,-149.66666666666666,4.666666666666667,2.3333333333333335,-997.6666666666666,-1.3333333333333333,36.666666666666664,2.3333333333333335,29865.0,RTL
07:08:06,-0.03807438972095648,0.1954514334599177,1.011349856853485,-0.09971048745016257,0.10241051328678925,0.42555148402849835,-35.36305983333333,149.1655278,109955.0,-117.33333333333333,-150.0,-109.0,35.0,13.666666666666666,-940.0,-96.66666666666667,104.33333333333333,426.6666666666667,29865.0,RTL
07:08:08,0.06835244720180829,0.11033552636702855,1.3837008078893025,0.026786732176939648,0.02589391094322006,-0.0184344924831142,-35.36309086666666,149.16547620000003,110861.0,-246.33333333333334,-256.6666666666667,9.0,79.66666666666667,1.0,-956.6666666666666,29.333333333333332,27.666666666666668,-17.0,29865.0,RTL
07:08:09,0.016277630910432588,0.14610769351323447,1.3432679971059163,0.0369405597448349,0.01795910733441512,-0.05621109499285618,-35.3631214,149.1654387,110576.0,-295.6666666666667,-286.6666666666667,17.0,101.66666666666667,-4.0,-1013.6666666666666,39.0,19.666666666666668,-54.333333333333336,164149.0,RTL
07:08:10,-0.016954743613799412,0.14758650958538055,1.3068725268046062,0.10802820324897766,-0.020902335022886593,-0.043984560295939445,-35.36314166666667,149.16541386666668,110465.33333333333,-303.6666666666667,-315.3333333333333,4.0,103.66666666666667,16.0,-1013.0,110.33333333333333,-18.666666666666668,-42.0,164149.0,RTL
07:08:12,-0.04678409546613693,0.08811767399311066,1.2296693722407024,0.15840563674767813,-0.05356437340378761,-0.02857599826529622,-35.363195133333335,149.16534073333332,110443.33333333333,-273.6666666666667,-339.6666666666667,-5.666666666666667,96.33333333333333,27.333333333333332,-995.6666666666666,160.33333333333334,-51.0,-27.0,164149.0,RTL
07:08:14,-0.07021864751974742,-0.013145124559135487,1.1691799958546956,-0.5344544599453608,-0.053541041910648346,-0.04411414203544458,-35.363238700000004,149.16527593333333,110463.33333333333,-179.66666666666666,-246.66666666666666,-2.0,67.0,10.333333333333334,-1002.0,-531.6666666666666,-50.666666666666664,-42.333333333333336,164149.0,RTL
07:08:15,-0.03845501566926638,-0.06746562073628108,1.137247363726298,0.5772292464971542,0.00935030666490396,-0.019665750674903393,-35.36325443333333,149.16525006666666,110437.0,-92.33333333333333,-137.66666666666666,-1.6666666666666667,34.333333333333336,37.666666666666664,-1014.0,578.6666666666666,11.333333333333334,-18.0,110429.0,RTL
07:08:16,-0.028751372670133907,-0.041239352275927864,1.121087869008382,-0.23104766011238098,0.03576698526740074,-0.01964682526886463,-35.36325913333334,149.1652416,110419.0,-50.333333333333336,-80.0,-1.6666666666666667,19.333333333333332,7.666666666666667,-1003.0,-228.33333333333334,37.333333333333336,-18.0,110429.0,RTL
07:08:18,0.002194590400904417,-0.005199485303213199,1.0849312941233318,0.4396550456682841,0.02202518843114376,-0.011888224941988787,-35.363263100000005,149.16523436666668,110414.33333333333,-8.0,-8.666666666666666,-3.6666666666666665,1.3333333333333333,19.0,-1002.6666666666666,441.3333333333333,24.0,-10.333333333333334,110429.0,RTL
07:08:20,-0.011815711855888367,0.004882849132021268,1.0583837827046711,-0.41349898278713226,-0.0078129176205645,-0.011621293301383654,-35.3632639,149.16523453333332,110432.66666666667,-2.3333333333333335,-2.6666666666666665,-3.6666666666666665,0.3333333333333333,-19.333333333333332,-999.3333333333334,-411.0,-5.333333333333333,-9.666666666666666,110429.0,RTL
07:08:21,-0.014805632177740335,0.0076773577990631265,1.0457550287246704,-0.4025366008281708,0.00723911573489507,-0.0035508328583091497,-35.363264066666666,149.1652355,110444.33333333333,5.0,0.3333333333333333,-1.6666666666666667,-1.0,-18.333333333333332,-996.3333333333334,-400.3333333333333,9.333333333333334,-2.0,17019.0,RTL
07:08:22,-0.011289067876835665,0.011792459214727083,1.038992166519165,0.34848793347676593,0.006913902626062433,-0.0017255664570257068,-35.3632642,149.1652364,110445.66666666667,9.0,0.0,-1.6666666666666667,0.0,10.0,-994.6666666666666,350.0,9.0,-0.6666666666666666,17019.0,RTL
07:08:24,-0.021970991666118305,0.011723910768826803,1.0251260201136272,-0.32487185920278233,-0.00022415851708501577,-0.001336783985607326,-35.3632642,149.1652381,110456.0,15.333333333333334,-9.333333333333334,0.3333333333333333,-0.6666666666666666,-10.333333333333334,-980.3333333333334,-323.0,2.3333333333333335,0.3333333333333333,17019.0,RTL
07:08:26,0.006066591013222933,0.00886320136487484,1.0127551853656769,0.23075015284121037,-0.003415078273974359,-0.003803317405981943,-35.363263625,149.1652383,109404.5,13.75,-11.0,106.5,-1.0,-30.75,-929.25,228.75,-0.5,-2.25,17019.0,RTL
07:08:27,0.018798060715198517,0.006687528143326442,1.0055855512619019,1.3170745770136516,0.003610443944732348,-0.00022255062746504942,-35.3632629,149.16523793333332,107835.0,8.666666666666666,-8.0,101.66666666666667,-1.6666666666666667,43.666666666666664,-1032.3333333333333,1317.0,6.333333333333333,1.3333333333333333,98906.0,RTL
07:08:28,0.01601601547251145,0.009046074623862902,1.0019294420878093,1.3375029961268108,0.0011401302957286437,-0.005756468667338292,-35.36326256666666,149.1652378,107052.66666666667,5.0,-4.666666666666667,96.33333333333333,0.0,45.666666666666664,-1032.6666666666667,1338.0,3.3333333333333335,-3.6666666666666665,98906.0,RTL
07:08:31,0.04047216599186262,0.0056296829134225845,0.987458606561025,0.4204760640859604,0.002961820069079598,-0.004670014760146539,-35.36326046666667,149.16523636666668,103745.66666666667,-9.0,2.3333333333333335,98.0,-1.6666666666666667,-15.333333333333334,-986.3333333333334,419.3333333333333,5.666666666666667,-2.3333333333333335,98906.0,RTL
07:08:32,0.039729913075764976,0.007305915467441082,0.9850781162579855,0.5351166824499766,0.009038712363690138,0.0002566821252306302,-35.363259866666674,149.16523586666668,102981.33333333333,-16.666666666666668,8.0,102.33333333333333,0.0,-12.0,-962.3333333333334,534.0,11.666666666666666,2.0,98906.0,RTL
07:08:34,-0.003509682836011052,0.011848524678498507,0.9785867184400558,-1.1213970631361008,3.236217889934778e-05,-0.010106568253831938,-35.363260425,149.1652365,101076.5,-19.5,11.25,101.75,2.5,-78.0,-986.25,-1121.25,2.75,-7.75,61353.0,RTL
07:08:35,-0.012112697120755911,0.012735791193942228,0.9750276406606039,-0.7082285086313883,0.0011972275873025258,-0.010497017297893763,-35.363262033333335,149.16523773333333,99673.33333333333,-7.333333333333333,3.3333333333333335,102.66666666666667,5.333333333333333,-74.0,-981.0,-708.6666666666666,4.0,-8.0,61353.0,RTL
07:08:37,-0.05663753425081571,0.01574504654854536,0.9691930214564005,0.016586122413476307,-0.006459533081700404,0.00179645170768102,-35.36326656666666,149.1652414,97643.33333333333,27.333333333333332,-19.0,102.0,6.666666666666667,-43.666666666666664,-989.0,14.666666666666666,-3.0,3.3333333333333335,61353.0,RTL
07:08:39,-0.0739571750164032,0.005337998736649752,0.964087188243866,-1.4091355800628662,-0.007010355009697378,-0.0016164748619000118,-35.363269,149.16524313333332,95637.0,65.66666666666667,-48.333333333333336,104.0,-1.6666666666666667,-62.333333333333336,-1011.3333333333334,-1410.0,-4.0,0.3333333333333333,61353.0,RTL
07:08:40,-0.057789972672859825,0.0015975272399373353,0.962603747844696,-1.2732362349828084,-0.003728012515542408,-0.002807393359641234,-35.363268266666665,149.1652423666667,94863.33333333333,66.33333333333333,-48.0,102.0,-4.0,-41.333333333333336,-1030.3333333333333,-1273.6666666666667,-0.6666666666666666,-0.6666666666666666,55269.0,RTL
07:08:41,-0.03468764014542103,-0.00011702846313710324,0.9596056938171387,-1.2839788794517517,-0.0017621545121073723,-0.0008748143445700407,-35.3632662,149.16524049999998,93704.5,53.0,-37.5,105.0,-7.5,-14.5,-960.5,-1284.0,1.0,1.0,55269.0,RTL
07:08:43,-0.0033778721699491143,0.003161083091981709,0.9578442573547363,-1.4542273879051208,-0.0014055956853553653,0.007400705246254802,-35.363262,149.16523725000002,91633.5,12.5,-8.5,98.5,-5.5,-49.0,-993.0,-1455.5,2.0,9.0,55269.0,RTL
07:08:45,-0.0077517214231193066,0.009800470899790525,0.9544681310653687,-1.336942434310913,-0.00048632058314979076,0.010700469021685421,-35.363260249999996,149.16523625000002,89596.5,-12.5,8.5,100.5,0.5,-44.0,-970.0,-1337.0,2.5,12.5,55269.0,RTL
07:08:46,-0.015852209646254778,0.010723809013143182,0.9527613073587418,-0.7981900945305824,-0.0002992803929373622,0.006142664584331214,-35.3632606,149.165236625,88835.5,-14.5,8.5,99.0,0.25,-3.5,-990.75,-797.25,2.75,7.75,93182.0,RTL
07:08:47,-0.006284234928898513,0.008426325861364603,0.9514268040657043,0.11036574095487595,0.0007451523561030626,0.010088604409247637,-35.363261050000006,149.1652369,87563.5,-12.0,5.0,103.5,0.0,41.0,-991.5,111.5,4.0,12.0,93182.0,RTL
07:08:49,-0.007971587823703885,0.009039318189024925,0.9487431049346924,0.13140513561666012,0.0007517881458625197,0.004636792466044426,-35.363261550000004,149.1652372,85523.5,-8.5,4.0,100.0,0.0,46.0,-1015.5,132.0,3.5,6.0,93182.0,RTL
07:08:51,0.010217547765932977,0.003927885554730892,0.9462677538394928,0.667315348982811,-0.0037659956142306328,0.004367526969872415,-35.3632612,149.16523665,83482.5,-9.0,3.5,99.5,-3.0,63.5,-988.5,668.0,-0.5,6.5,93182.0,RTL
07:08:52,0.027514218352735043,0.002054936543572694,0.9453210979700089,0.8951219618320465,0.006892615521792322,-0.001252037356607616,-35.3632603,149.16523577499999,82717.5,-14.0,8.0,101.75,-5.0,71.0,-993.75,896.75,9.5,0.75,59537.0,RTL
07:08:53,0.022202270105481148,0.00588333117775619,0.9448073506355286,-0.275058931671083,0.010323899798095226,0.008395881508477032,-35.3632591,149.16523465,81433.0,-25.5,19.0,103.5,-1.0,21.0,-1088.0,-273.0,13.0,10.0,59537.0,RTL
07:08:55,0.006267243588808924,0.013532419223338366,0.9438463449478149,1.094304084777832,0.002041246450971812,0.007263575680553913,-35.363260350000004,149.16523635,79413.5,-25.0,17.0,101.5,4.0,61.5,-1031.0,1096.5,5.0,9.0,59537.0,RTL
07:08:57,-0.0322347953915596,0.010174791794270277,0.9420424103736877,0.04389093816280365,0.0011879876255989075,-0.006835614331066608,-35.363262750000004,149.1652385,77346.0,-3.0,-1.5,101.5,0.0,43.0,-992.0,46.5,4.0,-4.5,59537.0,RTL
07:08:58,-0.026166344992816448,0.007590632187202573,0.941587969660759,-0.37514229863882065,-0.0017572298529557884,0.004845029441639781,-35.363262950000006,149.16523855,76577.0,1.25,-6.0,97.5,-1.5,21.25,-1001.25,-372.5,1.5,7.0,27318.0,RTL
07:08:59,-0.016568375751376152,0.005752290599048138,0.9420878887176514,-0.9015631079673767,-0.001310974359512329,-0.00046302645932883024,-35.363262500000005,149.16523795,75294.0,2.5,-5.5,100.5,-0.5,0.5,-978.0,-899.0,2.0,2.0,27318.0,RTL
07:09:01,-0.014542634598910809,0.008580292575061321,0.9388881921768188,-0.5811284482479095,0.007605814142152667,-0.014738827012479305,-35.3632617,149.1652372,73245.0,-4.0,2.0,98.0,-1.0,14.5,-1011.0,-578.0,10.0,-11.5,27318.0,RTL
07:09:03,-0.013267916394397616,0.007268750807270408,0.9397593140602112,0.6356058418750763,-0.007546660024672747,-0.002667285152710974,-35.3632618,149.1652374,71194.5,-6.0,2.0,98.0,0.0,70.5,-978.0,637.5,-3.5,-0.5,27318.0,RTL
07:09:04,0.012582538183778524,0.005930946208536625,0.9386394023895264,1.3139588832855225,0.0013496800092980266,0.007369895465672016,-35.363261725,149.16523725,70435.5,-5.0,1.5,96.0,-0.25,72.0,-989.25,1315.5,4.75,9.5,25676.0,RTL
07:09:05,-0.003289028369181324,0.00710610207170248,0.9379371404647827,0.6724450439214706,0.0043135827872902155,0.004371970891952515,-35.3632617,149.1652371,69159.0,-6.0,4.0,95.5,-0.5,64.0,-1009.5,675.0,7.5,6.0,25676.0,RTL
07:09:07,0.011208483017981052,0.00919356057420373,0.9372824430465698,0.7192737460136414,0.0014800523640587926,-0.0008574794046580791,-35.3632622,149.16523765,67138.5,-0.5,0.0,98.5,1.0,2.0,-1021.5,717.5,4.5,1.5,25676.0,RTL
07:09:09,-0.001490896218456328,0.009620058815926313,0.9356326162815094,0.32307834178209305,-0.000989770982414484,0.005125905852764845,-35.3632631,149.1652386,65096.5,8.5,-8.5,98.5,1.0,-26.5,-1023.0,320.5,2.0,7.5,45882.5,RTL
07:09:11,-0.03930342694123586,0.010240531836946806,0.936212400595347,-1.0742860833803813,0.0026058330355832973,-0.0035923773733278117,-35.36326400000001,149.16523946666666,63222.333333333336,14.333333333333334,-12.666666666666666,101.33333333333333,1.6666666666666667,-45.666666666666664,-984.6666666666666,-1074.0,5.333333333333333,-0.6666666666666666,66089.0,RTL
07:09:13,-0.03795075602829456,0.006859176093712449,0.9343430995941162,-1.2735081315040588,0.0010391579708084464,-0.0008591731311753392,-35.363264650000005,149.16523995,60938.5,26.0,-22.5,101.5,-1.5,-41.0,-1029.5,-1273.5,4.0,1.5,66089.0,RTL
07:09:14,-0.03381493408232927,0.00611100671812892,0.9351019114255905,-0.7094937860965729,0.00018009747145697474,0.0025552030419930816,-35.36326425,149.165239525,60181.0,22.75,-19.75,100.75,-2.0,0.75,-1005.0,-708.0,3.25,4.75,1370.0,RTL
07:09:15,-0.023836896754801273,0.006016196683049202,0.9351992011070251,-0.40573371201753616,-0.0027087905909866095,0.012386921676807106,-35.3632635,149.16523884999998,58902.0,16.0,-14.0,104.0,-2.5,23.5,-984.0,-404.0,1.0,14.5,1370.0,RTL
07:09:17,-0.011940922122448683,0.00521456659771502,0.9354008138179779,-1.1106559336185455,0.0022994615719653666,-0.0020335069857537746,-35.363262,149.1652375,56845.5,4.5,-5.0,102.5,-2.0,-16.5,-999.5,-1110.0,5.5,1.0,1370.0,RTL
07:09:19,-0.019494827836751938,0.008733085356652737,0.9345671832561493,-0.7412554621696472,-0.005208569928072393,0.002586018294095993,-35.36326135,149.16523705,54811.0,-7.5,4.0,104.0,0.0,10.5,-957.0,-739.5,-1.5,5.5,1370.0,RTL
07:09:20,-0.018333575455471873,0.007196272141300142,0.9349009543657303,-0.40077338367700577,-0.004352651070803404,0.005215323413722217,-35.363261475,149.1652371,54035.75,-8.25,4.0,99.5,-1.75,26.5,-972.0,-399.0,-0.25,7.5,42869.0,RTL
07:09:21,0.014522434212267399,0.0034225559793412685,0.9341256320476532,0.7238527238368988,0.004823241615667939,0.002127106534317136,-35.3632608,149.16523625,52758.5,-9.5,5.0,100.5,-4.5,71.0,-1000.0,725.0,8.0,4.5,42869.0,RTL
07:09:23,0.02626670803874731,0.00978881074115634,0.9350199699401855,1.368737280368805,0.006240280112251639,0.0008579064160585403,-35.3632603,149.1652359,50722.0,-20.0,16.0,99.5,2.5,60.0,-1008.0,1369.0,9.5,3.0,42869.0,RTL
07:09:25,-0.004075730335898697,0.010898895561695099,0.934706300497055,1.2430642247200012,0.00016869022510945797,-0.0012194379232823849,-35.3632622,149.16523784999998,48682.0,-6.0,3.0,97.0,2.0,68.0,-1035.5,1243.5,3.5,1.5,42869.0,RTL
07:09:26,-0.0004029332776553929,0.009883817518129945,0.9343219250440598,1.4356613457202911,-0.002901493455283344,-0.0024940099101513624,-35.36326275,149.1652383,47918.5,-1.0,-1.0,100.0,1.0,62.5,-999.0,1435.5,0.75,0.5,164379.0,RTL
07:09:27,0.012660908978432417,0.005744697758927941,0.9338254332542419,1.1110686659812927,-0.00475843227468431,0.000532390782609582,-35.363262950000006,149.1652383,46650.5,6.0,-7.0,101.0,-1.0,28.0,-1002.5,1109.0,-1.0,3.5,164379.0,RTL
07:09:29,0.02958564180880785,0.006195973604917526,0.9329778850078583,0.5593312382698059,-0.0004390708636492491,0.003553478280082345,-35.3632615,149.16523695,44618.0,-1.0,0.0,104.0,-1.5,-18.0,-958.5,556.0,2.5,6.0,164379.0,RTL
07:09:31,0.0042873534839600325,0.012834592256695032,0.9343451857566833,0.441321425139904,0.002178965834900737,0.0007631448097527027,-35.36326185,149.16523765,42563.5,-6.0,3.0,102.5,3.0,-22.0,-972.5,438.0,5.5,4.0,164379.0,RTL
07:09:32,-0.0033116285339929163,0.01332174614071846,0.9339854568243027,0.4979831203818321,-0.0027048882329836488,0.00042941852007061243,-35.363262725,149.16523857500002,41789.75,-0.75,-1.75,100.0,2.5,-17.25,-1032.5,495.0,1.25,2.75,43480.0,RTL
07:09:33,-0.010854211635887623,0.011269481852650642,0.934027761220932,0.8472869098186493,-0.01103541674092412,-0.002187067992053926,-35.363263950000004,149.1652397,40518.0,11.0,-13.0,99.0,1.0,5.5,-1065.0,845.0,-6.5,1.0,43480.0,RTL
07:09:35,-0.02862395066767931,0.011470175813883543,0.9334744811058044,-0.003325425088405609,-0.0018371667247265577,-0.005663429386913776,-35.363264900000004,149.16524045,38506.0,21.0,-20.0,101.0,1.5,-29.0,-988.0,-7.0,1.5,-2.5,43480.0,RTL
07:09:37,-0.024501674808561802,0.006450630025938153,0.933852344751358,-0.9138319790363312,-0.0017821998335421085,0.004507211269810796,-35.3632651,149.16524049999998,36454.5,32.0,-29.0,104.5,-2.0,-66.5,-1001.5,-918.0,1.5,7.5,43480.0,RTL
07:09:38,-0.025453926995396614,0.005215392564423382,0.9337827414274216,-1.2473440766334534,-0.002980625373311341,-0.0019112005829811096,-35.363264599999994,149.16523990000002,35687.5,29.0,-25.5,101.5,-1.0,-66.5,-1002.75,-1250.5,0.75,0.75,85543.0,RTL
07:09:39,-0.041413502767682076,0.006815161323174834,0.933295488357544,-1.1569568514823914,1.017481554299593e-05,0.005173400975763798,-35.36326405,149.16523934999998,34313.5,20.0,-16.5,105.0,0.0,-16.0,-950.0,-1157.5,3.5,7.5,85543.0,RTL
07:09:41,0.000963924394454807,0.0025814484106376767,0.9332545697689056,-1.3799707293510437,-0.002147170715034008,0.0034043281339108944,-35.363262399999996,149.16523769999998,32374.0,11.5,-10.5,102.0,-3.0,-66.0,-971.5,-1383.0,1.5,6.0,85543.0,RTL
07:09:43,0.005703197326511145,0.006259850692003965,0.9335224628448486,-1.0863670706748962,0.0023457567440345883,0.0007915896130725741,-35.3632601,149.1652356,30217.0,-13.0,10.5,97.5,-0.5,-33.0,-1087.5,-1087.5,5.5,3.5,85543.0,RTL
07:09:44,-0.00811817916110158,0.009431170765310526,0.933855265378952,-1.0803753733634949,0.004152633715420961,0.00036113918758928776,-35.36326017499999,149.16523585,29463.25,-16.75,13.5,101.75,1.5,-19.25,-976.0,-1080.75,8.0,3.25,424.0,RTL
07:09:45,-0.024433916434645653,0.011847814079374075,0.9343851804733276,-0.9279093146324158,0.0018601110205054283,-0.005684870993718505,-35.363261300000005,149.16523705,28199.0,-13.5,9.5,104.5,1.5,-15.0,-988.5,-927.5,5.0,-2.0,424.0,RTL
07:09:47,-0.015174580737948418,0.009444174356758595,0.9337756335735321,0.7646830379962921,-0.0029519270174205303,0.0047829062677919865,-35.363262750000004,149.1652385,26168.5,1.5,-4.5,104.5,0.5,62.0,-999.5,764.5,1.0,7.5,424.0,RTL
07:09:49,0.0009513539262115955,0.00730318995192647,0.9341123104095459,1.2469627261161804,-0.006300598848611116,-0.005416316678747535,-35.363262950000006,149.16523845,24132.0,5.5,-8.0,104.0,-2.5,76.5,-1024.0,1246.0,-2.5,-1.5,424.0,RTL
07:09:50,0.009003123810543912,0.004615935729816556,0.933580681681633,1.0745308101177216,-0.002302838140167296,0.001338672242127359,-35.363262475,149.165237875,23367.25,2.0,-5.5,103.75,-3.5,73.75,-993.75,1073.25,1.75,4.25,10068.0,RTL
07:09:51,0.05324424244463444,-0.0009654587775003165,0.932403028011322,1.4760252237319946,-0.002762741409242153,0.004378588404506445,-35.363260499999996,149.16523585,22103.0,-8.5,3.0,107.5,-6.0,73.5,-1007.0,1473.5,1.0,7.0,10068.0,RTL
07:09:53,0.08514692634344101,0.00221617694478482,0.9328062534332275,1.5677127242088318,0.009736407781019807,0.010871450183913112,-35.36325625,149.16523189999998,20059.5,-46.5,36.0,106.0,-3.0,76.0,-988.0,1568.0,13.0,14.0,10068.0,RTL
07:09:55,0.051946232095360756,0.009790834505110979,0.9352878928184509,1.1055462956428528,-7.465924136340618e-05,0.0014239728334359825,-35.363255949999996,149.16523185,18025.5,-66.0,52.0,107.0,3.5,65.5,-1005.0,1107.5,4.0,4.5,10068.0,RTL
07:09:56,0.03272766433656216,0.012911953963339329,0.9355123192071915,1.1533936262130737,0.010390172246843576,0.007342281169258058,-35.363257075,149.165233075,17242.25,-61.5,48.0,104.75,4.5,62.25,-1028.0,1155.75,13.75,10.5,74589.0,RTL
07:09:57,0.008132536429911852,0.013581035193055868,0.9351955056190491,1.1892696022987366,0.0013624199200421572,0.0002087252214550972,-35.363259400000004,149.1652353,15953.0,-44.0,32.5,103.0,3.0,71.0,-972.0,1192.5,4.5,3.5,74589.0,RTL
07:09:59,0.020944786723703146,0.006142901023849845,0.9342252314090729,1.3556030988693237,-0.005780341336503625,-0.002334964578039944,-35.363260749999995,149.16523645,13881.0,-20.5,11.5,103.5,-1.0,78.5,-1003.0,1359.0,-1.5,1.0,74589.0,RTL
07:10:01,0.03590937269230684,0.00609963961566488,0.9340441624323527,1.04044109582901,0.0028696355099479356,-0.0007208234164863825,-35.36325946666667,149.16523506666667,12140.0,-27.0,18.0,91.0,-1.3333333333333333,63.666666666666664,-1069.0,1044.0,6.666666666666667,2.3333333333333335,74589.0,RTL
07:10:02,0.030195160768926144,0.008426137617789209,0.9350992143154144,0.43068232387304306,0.0028933968860656023,-0.0008566835022065789,-35.363259225,149.165235,11353.0,-30.0,21.25,43.5,1.0,12.75,-1039.25,433.5,6.75,2.5,236990.0,RTL
07:10:03,0.0026464296388439834,0.01289038686081767,0.93544602394104,0.3438871894031763,0.0026565128937363625,0.00303515768609941,-35.36326015,149.16523605,11015.0,-27.0,19.0,25.0,2.5,23.5,-990.0,348.0,6.0,6.5,236990.0,RTL
07:10:05,0.004937608377076685,0.00910339504480362,0.9353078007698059,0.7474570274353027,-0.0017132846405729651,-0.0018074564868584275,-35.36326175,149.1652375,10394.5,-10.0,4.0,33.0,1.0,34.5,-1015.0,751.0,2.0,1.0,236990.0,RTL
07:10:07,-0.012837002519518137,0.010490513096253077,0.9350571235020956,0.2601054112116496,-0.0018727233012517293,0.005392868537455797,-35.363262633333335,149.16523816666665,9798.666666666666,-1.3333333333333333,-0.3333333333333333,32.666666666666664,2.3333333333333335,19.333333333333332,-1013.0,264.0,2.0,8.333333333333334,236990.0,RTL
07:10:08,-0.019522941554896533,0.009710803860798478,0.9350892752408981,-0.3785017617046833,-0.0022079581394791603,-0.0004969017463736236,-35.36326335,149.165238775,9446.0,5.5,-6.25,33.0,1.5,-28.5,-1002.75,-376.25,1.5,2.75,9364.0,RTL
07:10:09,-0.010445649502798915,0.006811900297179818,0.9343309700489044,0.7737878859043121,-0.002648116322234273,0.00024933635722845793,-35.3632637,149.165239,9021.0,10.5,-10.5,32.5,0.0,38.5,-1003.5,777.0,2.0,3.5,9364.0,RTL
07:10:11,-0.005280372046399862,0.006708886940032244,0.9353297352790833,-0.16664982587099075,0.002627127803862095,-0.003084976808167994,-35.3632631,149.1652383,8743.0,9.0,-7.0,-8.0,0.0,-19.0,-996.0,-164.5,6.0,0.0,9364.0,RTL
07:10:13,-0.0037115541636012495,0.00786641240119934,0.9351571500301361,0.5230212211608887,0.0014191425871104002,0.000797419692389667,-35.3632631,149.1652385,8820.5,8.5,-8.0,-0.5,0.0,12.0,-1000.0,356.0,5.333333333333333,4.0,9364.0,RTL
07:10:14,-0.01703812275081873,0.008451146073639393,0.934826985001564,-0.3892461396753788,-0.0009451135993003845,0.0007258186815306544,-35.3632631,149.16523855,8787.5,8.75,-8.0,12.25,0.0,-15.75,-975.25,-386.5,3.0,3.75,111157.0,RTL
07:10:15,-0.011210356373339891,0.007591231260448694,0.9351377487182617,-0.3637635298073292,-0.002810695907101035,-0.0014911547768861055,-35.3632631,149.1652385,8669.5,9.0,-8.5,-0.5,0.5,-25.0,-1003.5,-362.0,1.5,1.5,111157.0,RTL
07:10:17,-0.0042022388079203665,0.005671797785907984,0.9348403811454773,0.13337819278240204,0.0021646246314048767,3.9465841837227345e-05,-35.36326245,149.1652379,8690.0,4.0,-5.5,-0.5,-1.5,22.5,-998.5,137.0,6.0,3.0,111157.0,RTL
07:10:19,0.011407930015896758,0.007220953702926636,0.9348416129748026,-0.022652124365170796,0.002445222499469916,-0.0018466732775171597,-35.3632613,149.16523686666667,8690.666666666666,-4.0,1.3333333333333333,0.0,-1.0,-1.6666666666666667,-995.0,-20.666666666666668,6.666666666666667,1.0,111157.0,RTL
07:10:20,0.0006332154152914882,0.0089590426068753,0.9352543652057648,0.012417074292898178,0.0019182651303708553,0.0006471517262980342,-35.363261225,149.1652369,8689.75,-8.5,4.75,-0.25,0.25,7.25,-1000.25,15.5,5.75,3.75,154931.0,RTL
07:10:21,-0.008983727544546127,0.010974508710205555,0.9348683655261993,0.18475694954395294,0.0023383080260828137,0.00253641523886472,-35.36326175,149.16523755,8678.5,-6.0,2.0,7.0,0.0,22.5,-952.5,188.5,6.5,5.5,154931.0,RTL
07:10:23,-0.012385493144392967,0.006696304539218545,0.9342001974582672,-0.24410707503557205,-0.0001203116262331605,0.001584016950801015,-35.3632621,149.16523775000002,7957.0,-1.0,-2.5,36.5,-1.5,15.0,-1013.0,-240.0,4.0,5.0,154931.0,RTL
07:10:25,0.0223938450217247,0.005387824727222323,0.9343237578868866,0.30545674264431,-0.0003005838952958584,-0.003797983401454985,-35.363260999999994,149.16523660000001,7406.0,-7.0,3.0,32.0,-1.5,3.0,-996.0,308.0,4.0,0.0,154931.0,RTL
07:10:26,0.025638175895437598,0.006622213521040976,0.9344442039728165,0.09668805077672005,0.0006871100631542504,0.0015035132528282702,-35.363260325,149.16523594999998,7042.0,-14.75,8.75,32.0,-0.5,-9.75,-1002.75,98.5,4.75,4.75,18738.0,RTL
07:10:27,0.018204194027930498,0.0077983245719224215,0.9347070157527924,0.011818110942840576,0.002441424410790205,0.0018088323995471,-35.36325995,149.16523569999998,6704.0,-20.0,13.0,32.5,-1.5,8.0,-1006.5,15.5,6.5,5.0,18738.0,RTL
07:10:29,0.015323597937822342,0.007482404820621014,0.9351609647274017,0.05109873414039612,0.0023712192196398973,0.004477687645703554,-35.3632598,149.1652355,6026.0,-24.0,17.0,32.5,1.5,4.0,-1017.0,55.5,6.0,7.5,18738.0,RTL
07:10:31,-0.0006664348766207695,0.010200022719800472,0.9352931976318359,0.33274080604314804,0.00022068829275667667,0.003732193261384964,-35.36326105,149.16523665,5339.5,-16.5,11.0,33.0,2.5,21.0,-990.5,338.0,4.5,7.0,18738.0,RTL
07:10:32,-0.006648317095823586,0.010469937464222312,0.9354230463504791,-0.08647358417510986,0.0003250410663895309,-0.003425600240007043,-35.3632619,149.16523745,4996.5,-8.25,4.75,32.0,3.0,-23.0,-1006.25,-83.5,4.5,0.25,78154.0,RTL
07:10:33,-0.027513911947607994,0.011697608511894941,0.9353542029857635,0.10563963651657104,-0.0029294518753886223,0.0030210837721824646,-35.3632632,149.16523865,4661.5,0.0,-1.0,32.0,1.5,7.5,-1000.0,110.0,1.0,6.5,78154.0,RTL
07:10:35,-0.024609942454844713,0.007375859189778566,0.9350017309188843,0.15120826661586761,-0.0020816191099584103,0.004283481510356069,-35.3632646,149.1652398,3983.5,19.5,-17.0,32.0,0.5,11.0,-1011.0,155.0,2.0,7.5,78154.0,RTL
07:10:37,-0.005959071917459369,0.004874690901488066,0.9343719184398651,0.3589957654476166,0.0010247256141155958,-0.00025704747531563044,-35.36326390000001,149.16523899999999,3307.5,19.5,-16.0,31.5,-1.0,22.0,-995.0,362.0,5.5,3.0,78154.0,RTL
07:10:38,-0.010801958851516247,0.004786289297044277,0.9340876638889313,-0.7481345385313034,0.0036193832056596875,0.0001105501432903111,-35.363263125,149.1652383,2965.5,14.0,-11.25,33.5,-2.25,-28.5,-999.5,-745.0,8.0,3.75,119866.0,RTL
07:10:39,0.004431489855051041,0.005784615874290466,0.934753954410553,0.4209683686494827,0.0016831159591674805,0.0038173217326402664,-35.363262500000005,149.1652378,2614.0,6.5,-5.5,33.0,-2.0,21.0,-1009.5,423.5,5.5,7.5,119866.0,RTL
07:10:41,0.009041733341291547,0.006222311174497008,0.9349266886711121,0.1536460742354393,-0.0012873241212219,0.0013037179596722126,-35.363261449999996,149.16523695,1938.5,-3.0,1.0,31.5,-0.5,8.0,-999.5,157.0,3.0,4.5,119866.0,RTL
07:10:43,0.017891256138682365,0.00653742253780365,0.9351604580879211,0.6462872177362442,0.0010242632124572992,-0.000461260206066072,-35.363261,149.1652365,1263.0,-9.5,6.5,33.5,0.0,24.5,-979.5,649.5,5.0,3.0,123575.5,RTL
07:10:45,-0.008207864128053188,0.00896472204476595,0.9353939294815063,0.37874300591647625,-0.00124940718524158,0.0010077065089717507,-35.36326185,149.16523719999998,581.0,-7.5,6.0,32.0,2.0,19.0,-988.0,383.0,3.0,4.5,127285.0,RTL
07:10:47,8.239469025284052e-05,0.005754142301157117,0.9384652674198151,0.005245601176284254,0.02064305660314858,0.0024304767139256,-35.36326255,149.16523775000002,61.0,3.5,-4.0,-2.5,31.5,-1.5,-979.0,8.0,24.5,5.5,127285.0,RTL
07:10:48,0.0014676565770059824,0.005096422275528312,0.9377330243587494,0.0008691432303749025,-0.000596148194745183,-2.37530330196023e-05,-35.3632626,149.16523784999998,45.75,0.25,0.0,-1.75,0.0,0.0,-1000.0,4.0,3.75,3.5,1918.0,RTL
07:10:49,0.002155397436581552,0.004675439326092601,0.9369818866252899,0.0007873050635680556,-0.0006398966070264578,-1.6336096450686455e-05,-35.363262649999996,149.16523795,44.0,-1.5,3.0,-1.0,0.0,0.0,-1000.0,3.5,3.0,3.5,1918.0,RTL
07:10:51,0.0019688570173457265,0.00442783790640533,0.9367421567440033,0.0007799799786880612,-0.0005965468008071184,-7.199705578386784e-05,-35.36326285,149.1652383,22.5,-3.0,6.5,0.0,0.0,0.0,-1000.0,4.0,3.0,3.5,1918.0,RTL
07:10:53,0.0005990277859382331,0.0046966474037617445,0.9375604689121246,0.0006109502865001559,-0.000596251804381609,-9.593064896762371e-05,-35.3632628,149.16523834999998,4.5,-2.0,5.5,0.0,0.0,0.0,-1000.0,3.5,3.5,3.0,1918.0,RTL
