time_stamp,MODE,lat,lon,relative_alt,roll,pitch,yaw,rollspeed,pitchspeed,yawspeed,xacc,yacc,zacc,xgyro,ygyro,zgyro,vx,vy,vz,RTL_ALT,LAND_SPEED
22:54:35.074,GUIDED,-35.3632621,149.1652374,6,-0.00035574776120483875,0.0013559038052335382,0.028403667733073235,0.0003713807091116905,0.0002981809666380286,0.002418234944343567,0,1,-1000,0,0,0,0,0,0,1500.0,50.0
22:54:35.275,GUIDED,-35.3632621,149.1652374,4,-0.0003075120912399143,0.001418881118297577,0.028233641758561134,0.0003578764444682747,0.0002512838982511312,0.0023105256259441376,0,1,-1000,0,0,0,0,0,0,1500.0,50.0
22:54:35.476,GUIDED,-35.3632621,149.1652374,4,-0.0003075120912399143,0.001418881118297577,0.028233641758561134,0.0003578764444682747,0.0002512838982511312,0.0023105256259441376,0,1,-1000,0,0,0,0,0,0,1500.0,50.0
22:54:35.677,GUIDED,-35.3632621,149.1652374,3,-0.00027891332865692675,0.0014761458151042461,0.028056474402546883,0.00022144720423966646,0.00025953465956263244,0.0023168548941612244,0,1,-1000,0,0,0,0,0,0,1500.0,50.0
22:54:35.877,GUIDED,-35.3632621,149.1652374,2,-0.0002491398772690445,0.001524084829725325,0.02787688747048378,0.00026991107733920217,0.00018997080042026937,0.0022943485528230667,0,1,-1000,0,0,0,-1,0,0,1500.0,50.0
22:54:36.078,GUIDED,-35.3632621,149.1652374,1,-0.00022789467766415328,0.0015559003222733736,0.027722127735614777,0.00034632376627996564,0.0003320738032925874,0.002331971190869808,0,1,-1000,0,0,0,-1,1,0,1500.0,50.0
22:54:36.279,GUIDED,-35.3632621,149.1652374,1,-0.00023489072918891907,0.001573971938341856,0.027535606175661087,0.0002846638089977205,0.0003380749258212745,0.002278229221701622,0,1,-1000,0,0,0,-1,1,0,1500.0,50.0
22:54:36.479,GUIDED,-35.3632621,149.1652374,1,-0.00023489072918891907,0.001573971938341856,0.027535606175661087,0.0002846638089977205,0.0003380749258212745,0.002278229221701622,0,1,-1000,0,0,0,-1,1,0,1500.0,50.0
22:54:36.680,GUIDED,-35.3632621,149.1652374,1,-0.00023489072918891907,0.001573971938341856,0.027535606175661087,0.0002846638089977205,0.0003380749258212745,0.002278229221701622,0,1,-1000,0,0,0,-1,1,0,1500.0,50.0
22:54:36.880,GUIDED,-35.3632621,149.1652374,1,-0.00023489072918891907,0.001573971938341856,0.027535606175661087,0.0002846638089977205,0.0003380749258212745,0.002278229221701622,0,1,-1000,0,0,0,-1,1,0,1500.0,50.0
22:54:37.081,GUIDED,-35.3632621,149.1652374,0,-0.00027354632038623095,0.0015826497692614794,0.027034403756260872,0.00027554912958294153,0.0002592296223156154,0.0023620366118848324,0,1,-1000,0,0,0,-1,1,0,1500.0,50.0
22:54:37.282,GUIDED,-35.3632621,149.1652374,0,-0.0003253121394664049,0.001544283120892942,0.026869628578424454,0.0003354581422172487,0.00022368979989551008,0.002123377053067088,0,2,-1000,0,0,0,-2,1,0,1500.0,50.0
22:54:37.483,GUIDED,-35.3632621,149.1652374,0,-0.0003253121394664049,0.001544283120892942,0.026869628578424454,0.0003354581422172487,0.00022368979989551008,0.002123377053067088,0,2,-1000,0,0,0,-2,1,0,1500.0,50.0
22:54:37.683,GUIDED,-35.3632621,149.1652374,9,-0.00021452980581671,0.0014995940728113055,0.02672969177365303,-2.6656314730644226e-05,0.0003283879777882248,0.002197178080677986,0,0,-1002,0,1,0,-2,1,0,1500.0,50.0
22:54:37.884,GUIDED,-35.3632622,149.1652375,10,-0.0002588300558272749,0.0014680300373584032,0.026596318930387497,0.00011081554112024605,0.00021972067770548165,0.0022196618374437094,0,2,-1000,1,0,0,-2,1,0,1500.0,50.0
22:54:38.085,GUIDED,-35.3632622,149.1652375,10,-0.00031088158721104264,0.0014305788790807128,0.026443568989634514,0.00021801854018121958,0.0002946788736153394,0.0021659836638718843,0,1,-1000,0,0,0,-1,1,0,1500.0,50.0
22:54:38.285,GUIDED,-35.3632622,149.1652375,11,-0.0003541869518812746,0.0013950375141575933,0.0262930728495121,0.0001944257819559425,0.0002497008827049285,0.002278638072311878,0,1,-1000,0,0,0,-1,1,0,1500.0,50.0
22:54:38.486,GUIDED,-35.3632622,149.1652375,11,-0.0003541869518812746,0.0013950375141575933,0.0262930728495121,0.0001944257819559425,0.0002497008827049285,0.002278638072311878,0,1,-1000,0,0,0,-1,1,0,1500.0,50.0
22:54:38.687,GUIDED,-35.3632622,149.1652375,11,-0.0003541869518812746,0.0013950375141575933,0.0262930728495121,0.0001944257819559425,0.0002497008827049285,0.002278638072311878,0,1,-1000,0,0,0,-1,1,0,1500.0,50.0
22:54:38.888,GUIDED,-35.3632622,149.1652375,11,-0.0003541869518812746,0.0013950375141575933,0.0262930728495121,0.0001944257819559425,0.0002497008827049285,0.002278638072311878,0,1,-1000,0,0,0,-1,1,0,1500.0,50.0
22:54:39.089,GUIDED,-35.3632621,149.1652374,12,-0.00034609466092661023,0.001459865947254002,0.025852328166365623,0.00020881570526398718,0.00025292509235441685,0.0020422316156327724,0,1,-1000,0,0,0,0,0,0,1500.0,50.0
22:54:39.289,GUIDED,-35.3632621,149.1652374,12,-0.0003176078316755593,0.0015080943703651428,0.0257184486836195,0.00026218625134788454,0.00025225579156540334,0.002060328610241413,0,1,-1000,0,0,0,0,0,0,1500.0,50.0
22:54:39.490,GUIDED,-35.3632621,149.1652374,12,-0.0003176078316755593,0.0015080943703651428,0.0257184486836195,0.00026218625134788454,0.00025225579156540334,0.002060328610241413,0,1,-1000,0,0,0,0,0,0,1500.0,50.0
22:54:39.691,GUIDED,-35.3632621,149.1652374,12,-0.00027706989203579724,0.001566647319123149,0.025566330179572105,0.00029210743377916515,0.00036143959732726216,0.0019475821172818542,0,1,-1000,0,0,0,0,0,0,1500.0,50.0
22:54:39.891,GUIDED,-35.3632621,149.1652374,12,-0.00023736704315524548,0.0016379044391214848,0.0254159327596426,0.00018789921887218952,0.00025449294480495155,0.002144486177712679,0,1,-1000,0,1,0,0,0,0,1500.0,50.0
22:54:40.092,GUIDED,-35.3632621,149.1652374,13,-0.00019729444466065615,0.0017069134628400207,0.025263864547014236,0.00031896712607704103,0.0002767083642538637,0.0018965911585837603,0,1,-1000,1,0,0,0,0,0,1500.0,50.0
22:54:40.293,GUIDED,-35.3632621,149.1652374,13,-0.00015449494821950793,0.0017831138102337718,0.025129614397883415,0.00025168832507915795,0.00023579271510243416,0.002044136170297861,0,1,-1000,0,0,0,0,0,0,1500.0,50.0
22:54:40.495,GUIDED,-35.3632621,149.1652374,13,-0.00015449494821950793,0.0017831138102337718,0.025129614397883415,0.00025168832507915795,0.00023579271510243416,0.002044136170297861,0,1,-1000,0,0,0,0,0,0,1500.0,50.0
22:54:40.695,GUIDED,-35.3632621,149.1652374,13,-0.00015449494821950793,0.0017831138102337718,0.025129614397883415,0.00025168832507915795,0.00023579271510243416,0.002044136170297861,0,1,-1000,0,0,0,0,0,0,1500.0,50.0
22:54:40.897,GUIDED,-35.3632621,149.1652374,13,-0.00015449494821950793,0.0017831138102337718,0.025129614397883415,0.00025168832507915795,0.00023579271510243416,0.002044136170297861,0,1,-1000,0,0,0,0,0,0,1500.0,50.0
22:54:41.098,GUIDED,-35.3632621,149.1652374,13,0.0001339979498879984,0.0020021190866827965,0.024670343846082687,0.005376400891691446,0.0003272097965236753,0.0019185941200703382,0,-9,-1018,5,0,0,0,0,-1,1500.0,50.0
22:54:41.299,GUIDED,-35.3632621,149.1652374,14,0.00018955714767798781,0.0020806260872632265,0.02450893260538578,0.0002765377575997263,0.00033180718310177326,0.0018908551428467035,0,1,-1000,0,1,0,0,0,-1,1500.0,50.0
22:54:41.500,GUIDED,-35.3632621,149.1652374,15,0.0002542762376833707,0.002157173352316022,0.024345967918634415,0.0003276763600297272,0.0003405560564715415,0.0018714983016252518,0,1,-1000,1,0,0,0,0,-1,1500.0,50.0
22:54:41.701,GUIDED,-35.3632621,149.1652374,15,0.0002542762376833707,0.002157173352316022,0.024345967918634415,0.0003276763600297272,0.0003405560564715415,0.0018714983016252518,0,1,-1000,1,0,0,0,0,-1,1500.0,50.0
22:54:41.901,GUIDED,-35.3632621,149.1652374,15,0.00032842374639585614,0.002232129452750087,0.02419516071677208,0.000320447696140036,0.00031673480407334864,0.0018463237211108208,0,1,-1000,0,1,0,0,0,-1,1500.0,50.0
22:54:42.102,GUIDED,-35.3632621,149.1652374,30,0.0029137292876839638,-8.096837700577453e-05,0.02423502691090107,0.01927490532398224,-0.011041172780096531,0.0033052396029233932,0,0,-1140,19,-10,1,0,0,-20,1500.0,50.0
22:54:42.303,GUIDED,-35.3632621,149.1652374,123,0.003575752954930067,-0.0006129829562269151,0.02423218823969364,-0.003727177157998085,0.0036021277774125338,0.0024010648485273123,0,0,-1139,-3,4,1,0,0,-54,1500.0,50.0
22:54:42.504,GUIDED,-35.3632621,149.1652374,123,0.003575752954930067,-0.0006129829562269151,0.02423218823969364,-0.003727177157998085,0.0036021277774125338,0.0024010648485273123,0,0,-1139,-3,4,1,0,0,-54,1500.0,50.0
22:54:42.704,GUIDED,-35.3632621,149.1652374,123,0.003575752954930067,-0.0006129829562269151,0.02423218823969364,-0.003727177157998085,0.0036021277774125338,0.0024010648485273123,0,0,-1139,-3,4,1,0,0,-54,1500.0,50.0
22:54:42.906,GUIDED,-35.3632621,149.1652374,123,0.003575752954930067,-0.0006129829562269151,0.02423218823969364,-0.003727177157998085,0.0036021277774125338,0.0024010648485273123,0,0,-1139,-3,4,1,0,0,-54,1500.0,50.0
22:54:43.107,GUIDED,-35.3632621,149.1652374,856,0.004499612841755152,0.0020664073526859283,0.02387373335659504,0.03797231987118721,-0.0021597102750092745,0.0010685789166018367,0,0,-1066,38,-1,0,0,0,-133,1500.0,50.0
22:54:43.308,GUIDED,-35.363262,149.1652374,1207,0.01606101542711258,0.0007657416863366961,0.023680169135332108,0.04754561558365822,-0.006271305028349161,0.0021141604520380497,-1,0,-1028,48,-5,1,0,3,-143,1500.0,50.0
22:54:43.508,GUIDED,-35.363262,149.1652375,1578,0.02775643579661846,-0.000987730803899467,0.023664211854338646,0.046117763966321945,-0.006976674776524305,0.0029085674323141575,0,-1,-1012,46,-6,1,1,7,-147,1500.0,50.0
22:54:43.709,GUIDED,-35.363262,149.1652375,1578,0.02775643579661846,-0.000987730803899467,0.023664211854338646,0.046117763966321945,-0.006976674776524305,0.0029085674323141575,0,-1,-1012,46,-6,1,1,7,-147,1500.0,50.0
22:54:43.910,GUIDED,-35.3632619,149.1652378,1959,0.03896442428231239,-0.002947544911876321,0.023746656253933907,0.04397144913673401,-0.007970326580107212,0.003351774765178561,0,-2,-1005,44,-7,2,2,15,-149,1500.0,50.0
22:54:44.111,GUIDED,-35.3632618,149.1652383,2343,0.04953859746456146,-0.005281385965645313,0.023900995030999184,0.04108547791838646,-0.009122604504227638,0.004019938409328461,1,-4,-1001,41,-8,2,3,24,-149,1500.0,50.0
22:54:44.312,GUIDED,-35.3632617,149.1652391,2728,0.05933614820241928,-0.008033902384340763,-0.005544703919440508,0.037626076489686966,-0.012378301471471786,0.0038526570424437523,1,-6,-999,37,-11,2,6,36,-149,1500.0,50.0
22:54:44.513,GUIDED,-35.3632617,149.1652391,2728,0.05933614820241928,-0.008033902384340763,-0.005544703919440508,0.037626076489686966,-0.012378301471471786,0.0038526570424437523,1,-6,-999,37,-11,2,6,36,-149,1500.0,50.0
22:54:44.714,GUIDED,-35.3632617,149.1652391,2728,0.05933614820241928,-0.008033902384340763,-0.005544703919440508,0.037626076489686966,-0.012378301471471786,0.0038526570424437523,1,-6,-999,37,-11,2,6,36,-149,1500.0,50.0
22:54:44.915,GUIDED,-35.3632617,149.1652391,2728,0.05933614820241928,-0.008033902384340763,-0.005544703919440508,0.037626076489686966,-0.012378301471471786,0.0038526570424437523,1,-6,-999,37,-11,2,6,36,-149,1500.0,50.0
22:54:45.116,GUIDED,-35.363261,149.1652431,3863,-0.012593580409884453,0.03155912086367607,-0.06450444459915161,-0.08417630195617676,0.023772967979311943,-0.09132053703069687,6,-12,-1012,-83,24,-92,4,53,-146,1500.0,50.0
22:54:45.316,GUIDED,-35.363261,149.1652444,4242,-0.02602187916636467,0.0287984199821949,-0.08019500970840454,-0.032397035509347916,-0.026067836210131645,-0.05606384947896004,5,-9,-1008,-31,-25,-56,-1,45,-148,1500.0,50.0
22:54:45.517,GUIDED,-35.363261,149.1652455,4626,-0.031019223853945732,0.019436389207839966,-0.08875502645969391,-0.01124788448214531,-0.037462253123521805,-0.033071693032979965,5,-7,-1004,-10,-36,-34,-5,35,-150,1500.0,50.0
22:54:45.718,GUIDED,-35.363261,149.1652455,4626,-0.031019223853945732,0.019436389207839966,-0.08875502645969391,-0.01124788448214531,-0.037462253123521805,-0.033071693032979965,5,-7,-1004,-10,-36,-34,-5,35,-150,1500.0,50.0
22:54:45.919,GUIDED,-35.3632611,149.1652463,5012,-0.04125756770372391,0.011147009208798409,-0.09481296688318253,-0.06970226019620895,-0.02448086440563202,-0.027496928349137306,5,-5,-998,-69,-24,-28,-8,24,-150,1500.0,50.0
22:54:46.120,GUIDED,-35.3632612,149.1652468,5397,-0.06132897362112999,0.005909888539463282,-0.10080956667661667,-0.08541878312826157,-0.015315824188292027,-0.026551421731710434,4,-1,-998,-85,-14,-27,-9,10,-149,1500.0,50.0
22:54:46.321,GUIDED,-35.3632614,149.1652468,5779,-0.07992346584796906,0.000619320257101208,-0.10428816825151443,-0.029606424272060394,-0.04380302503705025,0.008033167570829391,2,0,-1005,-29,-43,7,-11,-7,-148,1500.0,50.0
22:54:46.522,GUIDED,-35.3632614,149.1652468,5779,-0.07992346584796906,0.000619320257101208,-0.10428816825151443,-0.029606424272060394,-0.04380302503705025,0.008033167570829391,2,0,-1005,-29,-43,7,-11,-7,-148,1500.0,50.0
22:54:46.723,GUIDED,-35.3632614,149.1652468,5779,-0.07992346584796906,0.000619320257101208,-0.10428816825151443,-0.029606424272060394,-0.04380302503705025,0.008033167570829391,2,0,-1005,-29,-43,7,-11,-7,-148,1500.0,50.0
22:54:46.924,GUIDED,-35.3632614,149.1652468,5779,-0.07992346584796906,0.000619320257101208,-0.10428816825151443,-0.029606424272060394,-0.04380302503705025,0.008033167570829391,2,0,-1005,-29,-43,7,-11,-7,-148,1500.0,50.0
22:54:47.125,GUIDED,-35.3632622,149.1652441,6932,-0.04412413015961647,-0.010030684992671013,-0.10498754680156708,0.06265839189291,0.0031314007937908173,0.0029992172494530678,-3,11,-1001,63,3,2,-9,-53,-149,1500.0,50.0
22:54:47.326,GUIDED,-35.3632624,149.1652426,7316,-0.02813752181828022,-0.008566007018089294,-0.10503914207220078,0.06545595824718475,0.007365444675087929,0.00337846833281219,-5,10,-1002,65,7,2,-9,-59,-149,1500.0,50.0
22:54:47.528,GUIDED,-35.3632626,149.1652409,7701,-0.011383875273168087,-0.006097741890698671,-0.10469518601894379,0.06818739324808121,0.01153386291116476,0.00514114648103714,-7,15,-1003,68,11,4,-8,-62,-150,1500.0,50.0
22:54:47.729,GUIDED,-35.3632626,149.1652409,7701,-0.011383875273168087,-0.006097741890698671,-0.10469518601894379,0.06818739324808121,0.01153386291116476,0.00514114648103714,-7,15,-1003,68,11,4,-8,-62,-150,1500.0,50.0
22:54:47.930,GUIDED,-35.3632629,149.1652391,8088,0.0055379425175487995,-0.0031238116789609194,-0.10388500988483429,0.0689859539270401,0.01249223668128252,0.0050783236511051655,-6,13,-1003,69,12,4,-8,-60,-151,1500.0,50.0
22:54:48.131,GUIDED,-35.3632631,149.1652375,8478,0.022326501086354256,-0.00012024481111438945,-0.10274792462587357,0.06702961772680283,0.011803700588643551,0.006024418864399195,-6,12,-1004,67,12,5,-8,-54,-152,1500.0,50.0
22:54:48.331,GUIDED,-35.3632633,149.1652361,8879,0.039135754108428955,0.0024969771038740873,-0.10149187594652176,0.06523733586072922,0.00953912828117609,0.006195461377501488,-5,12,-1004,65,9,5,-9,-44,-153,1500.0,50.0
22:54:48.532,GUIDED,-35.3632633,149.1652361,8879,0.039135754108428955,0.0024969771038740873,-0.10149187594652176,0.06523733586072922,0.00953912828117609,0.006195461377501488,-5,12,-1004,65,9,5,-9,-44,-153,1500.0,50.0
22:54:48.733,GUIDED,-35.3632633,149.1652361,8879,0.039135754108428955,0.0024969771038740873,-0.10149187594652176,0.06523733586072922,0.00953912828117609,0.006195461377501488,-5,12,-1004,65,9,5,-9,-44,-153,1500.0,50.0
22:54:48.934,GUIDED,-35.3632633,149.1652361,8879,0.039135754108428955,0.0024969771038740873,-0.10149187594652176,0.06523733586072922,0.00953912828117609,0.006195461377501488,-5,12,-1004,65,9,5,-9,-44,-153,1500.0,50.0
22:54:49.135,GUIDED,-35.3632638,149.165234,10051,0.07112789154052734,-0.006716148927807808,-0.0881865844130516,-0.022296689450740814,-0.07508760690689087,0.07596785575151443,0,3,-995,-21,-74,74,-6,2,-152,1500.0,50.0
22:54:49.336,GUIDED,-35.3632639,149.1652341,10439,0.06292322278022766,-0.03111455589532852,-0.06731168180704117,-0.036940496414899826,-0.09915530681610107,0.11181513965129852,2,-1,-996,-36,-98,111,0,17,-150,1500.0,50.0
22:54:49.538,GUIDED,-35.3632638,149.1652347,10824,0.046451911330223083,-0.05882292985916138,-0.0401918850839138,-0.09470944851636887,-0.0741383284330368,0.08465108275413513,1,-5,-993,-94,-73,83,12,28,-149,1500.0,50.0
22:54:49.738,GUIDED,-35.3632638,149.1652347,10824,0.046451911330223083,-0.05882292985916138,-0.0401918850839138,-0.09470944851636887,-0.0741383284330368,0.08465108275413513,1,-5,-993,-94,-73,83,12,28,-149,1500.0,50.0
22:54:49.939,GUIDED,-35.3632634,149.1652355,11203,0.014554725959897041,-0.05385385453701019,-0.037018921226263046,-0.13036847114562988,0.08357885479927063,-0.031077662482857704,0,-8,-998,-129,84,-32,28,32,-147,1500.0,50.0
22:54:50.140,GUIDED,-35.3632626,149.1652363,11581,-0.012411879375576973,-0.026931261643767357,-0.05454932153224945,-0.09022723883390427,0.11143247783184052,-0.08982013911008835,-3,-10,-1005,-89,112,-90,38,29,-147,1500.0,50.0
22:54:50.341,GUIDED,-35.3632618,149.1652369,11961,-0.02754059061408043,-0.0036784238182008266,-0.07878348976373672,-0.0419171117246151,0.08082682639360428,-0.09889781475067139,-4,-9,-1008,-41,81,-99,40,20,-149,1500.0,50.0
22:54:50.542,GUIDED,-35.3632618,149.1652369,11961,-0.02754059061408043,-0.0036784238182008266,-0.07878348976373672,-0.0419171117246151,0.08082682639360428,-0.09889781475067139,-4,-9,-1008,-41,81,-99,40,20,-149,1500.0,50.0
22:54:50.743,GUIDED,-35.3632618,149.1652369,11961,-0.02754059061408043,-0.0036784238182008266,-0.07878348976373672,-0.0419171117246151,0.08082682639360428,-0.09889781475067139,-4,-9,-1008,-41,81,-99,40,20,-149,1500.0,50.0
22:54:50.944,GUIDED,-35.3632618,149.1652369,11961,-0.02754059061408043,-0.0036784238182008266,-0.07878348976373672,-0.0419171117246151,0.08082682639360428,-0.09889781475067139,-4,-9,-1008,-41,81,-99,40,20,-149,1500.0,50.0
22:54:51.146,GUIDED,-35.3632595,149.1652374,13124,-0.026746666058897972,0.02819713205099106,-0.14310649037361145,0.035812173038721085,0.01911846362054348,-0.05799112841486931,-7,-4,-1003,36,19,-58,22,-8,-153,1500.0,50.0
22:54:51.346,GUIDED,-35.3632591,149.1652371,13516,-0.01707407459616661,0.031539857387542725,-0.1561407446861267,0.04134367033839226,0.013861129991710186,-0.04406407102942467,-6,0,-1001,41,14,-44,14,-13,-153,1500.0,50.0
22:54:51.547,GUIDED,-35.3632588,149.1652367,13912,-0.006176871247589588,0.033846691250801086,-0.16553251445293427,0.04581284523010254,0.005843666382133961,-0.02984960377216339,-4,1,-1000,46,6,-30,5,-15,-153,1500.0,50.0
22:54:51.748,GUIDED,-35.3632587,149.1652362,14304,0.003670611185953021,0.033129654824733734,-0.16997122764587402,0.037687998265028,-0.008905859664082527,-0.010010156780481339,-3,2,-1000,38,-8,-10,-3,-14,-153,1500.0,50.0
22:54:51.949,GUIDED,-35.3632587,149.1652362,14304,0.003670611185953021,0.033129654824733734,-0.16997122764587402,0.037687998265028,-0.008905859664082527,-0.010010156780481339,-3,2,-1000,38,-8,-10,-3,-14,-153,1500.0,50.0
22:54:52.149,GUIDED,-35.3632588,149.1652358,14696,0.011495368555188179,0.029094023630023003,-0.16975276172161102,0.02571193501353264,-0.01946929469704628,0.008520296774804592,-2,3,-999,25,-19,7,-10,-11,-153,1500.0,50.0
22:54:52.350,GUIDED,-35.363259,149.1652355,15088,0.015683956444263458,0.023559821769595146,-0.16677193343639374,0.011608950793743134,-0.020912470296025276,0.013531072996556759,0,4,-999,12,-20,12,-15,-7,-152,1500.0,50.0
22:54:52.551,GUIDED,-35.363259,149.1652355,15088,0.015683956444263458,0.023559821769595146,-0.16677193343639374,0.011608950793743134,-0.020912470296025276,0.013531072996556759,0,4,-999,12,-20,12,-15,-7,-152,1500.0,50.0
22:54:52.752,GUIDED,-35.363259,149.1652355,15088,0.015683956444263458,0.023559821769595146,-0.16677193343639374,0.011608950793743134,-0.020912470296025276,0.013531072996556759,0,4,-999,12,-20,12,-15,-7,-152,1500.0,50.0
22:54:52.953,GUIDED,-35.363259,149.1652355,15088,0.015683956444263458,0.023559821769595146,-0.16677193343639374,0.011608950793743134,-0.020912470296025276,0.013531072996556759,0,4,-999,12,-20,12,-15,-7,-152,1500.0,50.0
22:54:53.154,GUIDED,-35.3632601,149.1652352,16253,0.01315926294773817,0.008662150241434574,-0.15657870471477509,-0.01383933238685131,-0.01749122515320778,0.008347222581505775,3,2,-999,-13,-16,7,-20,5,-152,1500.0,50.0
22:54:53.355,GUIDED,-35.3632605,149.1652353,16641,0.009777364321053028,0.0041517470963299274,-0.1546117514371872,-0.014648240059614182,-0.01681963913142681,0.003768659196794033,3,1,-1000,-14,-16,2,-20,7,-152,1500.0,50.0
22:54:53.556,GUIDED,-35.3632609,149.1652355,17029,0.006946091074496508,0.0006023814203217626,-0.1542932391166687,-0.009594710543751717,-0.012350988574326038,-0.0032825071830302477,4,1,-1000,-8,-11,-3,-18,9,-152,1500.0,50.0
22:54:53.757,GUIDED,-35.3632613,149.1652357,17418,0.004474477376788855,-0.0022471609991043806,-0.15537427365779877,-0.009344385005533695,-0.010414144024252892,-0.007593993563205004,3,1,-1000,-8,-9,-8,-16,9,-152,1500.0,50.0
22:54:53.958,GUIDED,-35.3632613,149.1652357,17418,0.004474477376788855,-0.0022471609991043806,-0.15537427365779877,-0.009344385005533695,-0.010414144024252892,-0.007593993563205004,3,1,-1000,-8,-9,-8,-16,9,-152,1500.0,50.0
22:54:54.160,GUIDED,-35.3632616,149.1652359,17808,0.0023420758079737425,-0.004384985193610191,-0.15800045430660248,-0.0074133859016001225,-0.0042929500341415405,-0.01557773258537054,3,0,-1000,-6,-3,-16,-14,9,-152,1500.0,50.0
22:54:54.361,GUIDED,-35.3632619,149.165236,18197,0.0004839961475227028,-0.005085548385977745,-0.1623968482017517,-0.006661924533545971,-0.0018701038789004087,-0.02033635787665844,2,0,-1000,-6,-1,-21,-11,8,-152,1500.0,50.0
22:54:54.561,GUIDED,-35.3632619,149.165236,18197,0.0004839961475227028,-0.005085548385977745,-0.1623968482017517,-0.006661924533545971,-0.0018701038789004087,-0.02033635787665844,2,0,-1000,-6,-1,-21,-11,8,-152,1500.0,50.0
22:54:54.762,GUIDED,-35.3632619,149.165236,18197,0.0004839961475227028,-0.005085548385977745,-0.1623968482017517,-0.006661924533545971,-0.0018701038789004087,-0.02033635787665844,2,0,-1000,-6,-1,-21,-11,8,-152,1500.0,50.0
22:54:54.963,GUIDED,-35.3632619,149.165236,18197,0.0004839961475227028,-0.005085548385977745,-0.1623968482017517,-0.006661924533545971,-0.0018701038789004087,-0.02033635787665844,2,0,-1000,-6,-1,-21,-11,8,-152,1500.0,50.0
22:54:55.163,GUIDED,-35.3632623,149.1652364,19371,-0.0006419134442694485,-0.004113058093935251,-0.1819683164358139,0.0026116808876395226,0.005477071739733219,-0.029890792444348335,1,0,-1000,3,6,-30,-4,4,-153,1500.0,50.0
22:54:55.364,GUIDED,-35.3632623,149.1652364,19761,3.940881015296327e-06,-0.002870189491659403,-0.18958553671836853,0.002223782939836383,0.005162158515304327,-0.02937023900449276,0,0,-1000,2,5,-30,-3,3,-153,1500.0,50.0
22:54:55.565,GUIDED,-35.3632623,149.1652364,20152,0.0008423072868026793,-0.0015648832777515054,-0.19730405509471893,0.0034442481119185686,0.0038110720925033092,-0.03006470575928688,0,0,-1000,4,4,-30,-1,2,-153,1500.0,50.0
22:54:55.765,GUIDED,-35.3632623,149.1652364,20550,0.0015166732482612133,-0.00038098616641946137,-0.20507171750068665,0.0016601548995822668,0.007216421887278557,-0.030565664172172546,0,0,-1000,2,7,-31,0,1,-153,1500.0,50.0
22:54:55.966,GUIDED,-35.3632623,149.1652364,20550,0.0015166732482612133,-0.00038098616641946137,-0.20507171750068665,0.0016601548995822668,0.007216421887278557,-0.030565664172172546,0,0,-1000,2,7,-31,0,1,-153,1500.0,50.0
22:54:56.167,GUIDED,-35.3632623,149.1652364,20939,0.0023535413201898336,0.0013534501194953918,-0.21275247633457184,0.0031501534394919872,0.005373409483581781,-0.027538040652871132,0,0,-1000,3,6,-28,0,1,-153,1500.0,50.0
22:54:56.367,GUIDED,-35.3632623,149.1652364,21330,0.003187562106177211,0.002348999958485365,-0.21980862319469452,0.003157299943268299,0.003924008924514055,-0.025951692834496498,0,0,-1000,3,4,-26,0,1,-153,1500.0,50.0
22:54:56.568,GUIDED,-35.3632623,149.1652364,21330,0.003187562106177211,0.002348999958485365,-0.21980862319469452,0.003157299943268299,0.003924008924514055,-0.025951692834496498,0,0,-1000,3,4,-26,0,1,-153,1500.0,50.0
22:54:56.769,GUIDED,-35.3632623,149.1652364,21330,0.003187562106177211,0.002348999958485365,-0.21980862319469452,0.003157299943268299,0.003924008924514055,-0.025951692834496498,0,0,-1000,3,4,-26,0,1,-153,1500.0,50.0
22:54:56.972,GUIDED,-35.3632623,149.1652364,21330,0.003187562106177211,0.002348999958485365,-0.21980862319469452,0.003157299943268299,0.003924008924514055,-0.025951692834496498,0,0,-1000,3,4,-26,0,1,-153,1500.0,50.0
22:54:57.174,GUIDED,-35.3632623,149.1652364,22494,0.004673812538385391,0.004094911739230156,-0.23801802098751068,0.0022667190060019493,0.0022191538009792566,-0.021746493875980377,0,0,-1000,3,2,-22,0,2,-153,1500.0,50.0
22:54:57.374,GUIDED,-35.3632622,149.1652364,22884,0.004898074083030224,0.004382489714771509,-0.2433054894208908,-0.0007647656602784991,-0.0002146438928321004,-0.016912436112761497,0,0,-1000,0,0,-17,0,2,-153,1500.0,50.0
22:54:57.575,GUIDED,-35.3632622,149.1652364,23274,0.004658067598938942,0.003849153406918049,-0.24781490862369537,-0.0013322168961167336,-0.0023302831687033176,-0.017685404047369957,0,0,-1000,0,-1,-18,0,3,-153,1500.0,50.0
22:54:57.776,GUIDED,-35.3632622,149.1652364,23664,0.004464052151888609,0.0033818832598626614,-0.2520662248134613,-0.00041818301542662084,-0.001471364521421492,-0.015103277750313282,0,0,-1000,0,0,-16,-1,3,-153,1500.0,50.0
22:54:57.977,GUIDED,-35.3632622,149.1652364,23664,0.004464052151888609,0.0033818832598626614,-0.2520662248134613,-0.00041818301542662084,-0.001471364521421492,-0.015103277750313282,0,0,-1000,0,0,-16,-1,3,-153,1500.0,50.0
22:54:58.177,GUIDED,-35.3632622,149.1652365,24055,0.004064771346747875,0.0031694683711975813,-0.25643014907836914,-0.0015998780727386475,0.0012006310280412436,-0.01802685670554638,0,0,-999,-1,2,-18,-1,3,-153,1500.0,50.0
22:54:58.378,GUIDED,-35.3632622,149.1652365,24444,0.0038016277831047773,0.003176214173436165,-0.2607877552509308,-0.0006695181946270168,-0.0009599432814866304,-0.017299244180321693,0,0,-1000,0,0,-18,-1,4,-153,1500.0,50.0
22:54:58.579,GUIDED,-35.3632622,149.1652365,24444,0.0038016277831047773,0.003176214173436165,-0.2607877552509308,-0.0006695181946270168,-0.0009599432814866304,-0.017299244180321693,0,0,-1000,0,0,-18,-1,4,-153,1500.0,50.0
22:54:58.780,GUIDED,-35.3632622,149.1652365,24444,0.0038016277831047773,0.003176214173436165,-0.2607877552509308,-0.0006695181946270168,-0.0009599432814866304,-0.017299244180321693,0,0,-1000,0,0,-18,-1,4,-153,1500.0,50.0
22:54:58.981,GUIDED,-35.3632622,149.1652365,24444,0.0038016277831047773,0.003176214173436165,-0.2607877552509308,-0.0006695181946270168,-0.0009599432814866304,-0.017299244180321693,0,0,-1000,0,0,-18,-1,4,-153,1500.0,50.0
22:54:59.181,GUIDED,-35.3632622,149.1652366,25610,-0.008846607059240341,0.007597731426358223,-0.26284724473953247,0.026321617886424065,0.002003034809604287,0.017715265974402428,0,0,-1005,27,2,16,-3,0,-152,1500.0,50.0
22:54:59.382,GUIDED,-35.3632622,149.1652366,25999,-0.0006192531436681747,0.006636852864176035,-0.25729528069496155,0.03566238656640053,-0.005272762384265661,0.02613983489573002,0,0,-1002,36,-4,25,-4,0,-153,1500.0,50.0
22:54:59.583,GUIDED,-35.3632622,149.1652366,26388,0.006272251717746258,0.005212449934333563,-0.2505393326282501,0.021709954366087914,-0.004156481008976698,0.02728104405105114,0,0,-999,22,-3,26,-5,0,-153,1500.0,50.0
22:54:59.784,GUIDED,-35.3632623,149.1652365,26779,0.00992602203041315,0.0040511274710297585,-0.2432297021150589,0.010455774143338203,-0.0029966006986796856,0.030939575284719467,0,0,-999,11,-2,30,-4,1,-153,1500.0,50.0
22:54:59.984,GUIDED,-35.3632623,149.1652365,26779,0.00992602203041315,0.0040511274710297585,-0.2432297021150589,0.010455774143338203,-0.0029966006986796856,0.030939575284719467,0,0,-999,11,-2,30,-4,1,-153,1500.0,50.0
22:55:00.185,GUIDED,-35.3632624,149.1652365,27170,0.010723015293478966,0.0030191566329449415,-0.23638837039470673,0.0015106828650459647,-0.0012501694727689028,0.02757207117974758,0,0,-999,2,0,26,-4,3,-153,1500.0,50.0
22:55:00.386,GUIDED,-35.3632624,149.1652365,27558,0.010077884420752525,0.0025769397616386414,-0.22991815209388733,-0.003144475631415844,-0.0018498925492167473,0.025360533967614174,0,0,-999,-2,-1,24,-3,5,-153,1500.0,50.0
22:55:00.587,GUIDED,-35.3632624,149.1652365,27558,0.010077884420752525,0.0025769397616386414,-0.22991815209388733,-0.003144475631415844,-0.0018498925492167473,0.025360533967614174,0,0,-999,-2,-1,24,-3,5,-153,1500.0,50.0
22:55:00.788,GUIDED,-35.3632624,149.1652365,27558,0.010077884420752525,0.0025769397616386414,-0.22991815209388733,-0.003144475631415844,-0.0018498925492167473,0.025360533967614174,0,0,-999,-2,-1,24,-3,5,-153,1500.0,50.0
22:55:00.989,GUIDED,-35.3632624,149.1652365,27558,0.010077884420752525,0.0025769397616386414,-0.22991815209388733,-0.003144475631415844,-0.0018498925492167473,0.025360533967614174,0,0,-999,-2,-1,24,-3,5,-153,1500.0,50.0
22:55:01.190,GUIDED,-35.3632624,149.165237,28723,0.005118552129715681,0.002159008290618658,-0.21292804181575775,-0.005673043429851532,0.001046337652951479,0.022252902388572693,1,-1,-1000,-4,1,21,-1,8,-152,1500.0,50.0
22:55:01.391,GUIDED,-35.3632624,149.1652372,29111,0.0031048916280269623,0.001977990847080946,-0.20792463421821594,-0.009026268497109413,-0.0002013287739828229,0.02093357779085636,1,-1,-1000,-8,0,20,-1,8,-152,1500.0,50.0
22:55:01.592,GUIDED,-35.3632624,149.1652374,29500,0.0016618077643215656,0.0018096641870215535,-0.20287944376468658,-0.0036430719774216413,-0.000554517493583262,0.020464638248085976,0,0,-1000,-2,0,19,0,8,-152,1500.0,50.0
22:55:01.793,GUIDED,-35.3632624,149.1652375,29896,0.00038292104727588594,0.0018952618120238185,-0.19781801104545593,-0.0050962227396667,0.0016077733598649502,0.020443709567189217,0,-1,-1000,-4,2,19,0,7,-152,1500.0,50.0
22:55:01.994,GUIDED,-35.3632624,149.1652375,29896,0.00038292104727588594,0.0018952618120238185,-0.19781801104545593,-0.0050962227396667,0.0016077733598649502,0.020443709567189217,0,-1,-1000,-4,2,19,0,7,-152,1500.0,50.0
22:55:02.195,GUIDED,-35.3632624,149.1652377,30285,-0.0005681749316863716,0.001888510538265109,-0.1933475136756897,0.0010849980171769857,0.0013493015430867672,0.019058305770158768,0,-1,-1001,1,2,18,0,6,-153,1500.0,50.0
22:55:02.396,GUIDED,-35.3632624,149.1652378,30674,-0.000997191178612411,0.0017899546073749661,-0.1889292150735855,-0.003281972836703062,-0.0004528063291218132,0.01745111681520939,0,-1,-1000,-2,0,16,0,5,-153,1500.0,50.0
22:55:02.597,GUIDED,-35.3632624,149.1652378,30674,-0.000997191178612411,0.0017899546073749661,-0.1889292150735855,-0.003281972836703062,-0.0004528063291218132,0.01745111681520939,0,-1,-1000,-2,0,16,0,5,-153,1500.0,50.0
22:55:02.798,GUIDED,-35.3632624,149.1652378,30674,-0.000997191178612411,0.0017899546073749661,-0.1889292150735855,-0.003281972836703062,-0.0004528063291218132,0.01745111681520939,0,-1,-1000,-2,0,16,0,5,-153,1500.0,50.0
22:55:02.999,GUIDED,-35.3632624,149.1652378,30674,-0.000997191178612411,0.0017899546073749661,-0.1889292150735855,-0.003281972836703062,-0.0004528063291218132,0.01745111681520939,0,-1,-1000,-2,0,16,0,5,-153,1500.0,50.0
22:55:03.200,GUIDED,-35.3632624,149.1652378,30674,-0.000997191178612411,0.0017899546073749661,-0.1889292150735855,-0.003281972836703062,-0.0004528063291218132,0.01745111681520939,0,-1,-1000,-2,0,16,0,5,-153,1500.0,50.0
22:55:03.401,GUIDED,-35.3632624,149.1652381,32229,-0.0004227331664878875,0.0012756000505760312,-0.17277230322360992,0.001573122339323163,-0.0005774942692369223,0.015977881848812103,0,0,-1000,2,0,15,0,2,-153,1500.0,50.0
22:55:03.602,GUIDED,-35.3632624,149.1652381,32617,7.3210912887589075e-06,0.0011920322431251407,-0.16915549337863922,0.0060752094723284245,0.0014080354012548923,0.016323117539286613,0,0,-1000,6,2,15,0,1,-153,1500.0,50.0
22:55:03.803,GUIDED,-35.3632624,149.165238,33006,0.0004492223379202187,0.0011534856166690588,-0.16552019119262695,-0.0011670078383758664,0.0007193993660621345,0.01484836544841528,0,0,-999,0,1,14,0,1,-153,1500.0,50.0
22:55:04.003,GUIDED,-35.3632624,149.165238,33006,0.0004492223379202187,0.0011534856166690588,-0.16552019119262695,-0.0011670078383758664,0.0007193993660621345,0.01484836544841528,0,0,-999,0,1,14,0,1,-153,1500.0,50.0
22:55:04.204,GUIDED,-35.3632623,149.165238,33396,0.0010068585397675633,0.0011773789301514626,-0.16211652755737305,0.006049092393368483,0.0011531445197761059,0.015379033982753754,0,0,-1000,6,1,14,0,0,-153,1500.0,50.0
22:55:04.913,GUIDED,-35.3632623,149.165238,33786,0.0011874621268361807,0.0009843545267358422,-0.15876294672489166,-0.0017394834430888295,-0.001254054717719555,0.012798496522009373,0,0,-1000,-1,0,12,0,0,-153,1500.0,50.0
22:55:05.115,GUIDED,-35.3632623,149.165238,33786,0.0011874621268361807,0.0009843545267358422,-0.15876294672489166,-0.0017394834430888295,-0.001254054717719555,0.012798496522009373,0,0,-1000,-1,0,12,0,0,-153,1500.0,50.0
22:55:05.315,GUIDED,-35.3632623,149.165238,33786,0.0011874621268361807,0.0009843545267358422,-0.15876294672489166,-0.0017394834430888295,-0.001254054717719555,0.012798496522009373,0,0,-1000,-1,0,12,0,0,-153,1500.0,50.0
22:55:05.517,GUIDED,-35.3632623,149.165238,33786,0.0011874621268361807,0.0009843545267358422,-0.15876294672489166,-0.0017394834430888295,-0.001254054717719555,0.012798496522009373,0,0,-1000,-1,0,12,0,0,-153,1500.0,50.0
22:55:05.718,GUIDED,-35.3632623,149.165238,34953,0.0015104521298781037,0.0014379930216819048,-0.14948931336402893,-0.0014377499464899302,0.0017268219962716103,0.014108877629041672,0,0,-999,0,2,13,0,0,-153,1500.0,50.0
22:55:05.919,GUIDED,-35.3632623,149.165238,35342,0.0013957489281892776,0.0015294176992028952,-0.1465805619955063,-0.002431351225823164,0.00030911085195839405,0.01222105510532856,0,0,-1000,-1,1,12,0,0,-153,1500.0,50.0
22:55:06.120,GUIDED,-35.3632622,149.1652379,35730,0.0014405635884031653,0.0014851454179733992,-0.1437956839799881,0.003996858838945627,-7.527717389166355e-05,0.012437366880476475,0,0,-1001,4,0,12,0,0,-153,1500.0,50.0
22:55:06.321,GUIDED,-35.3632622,149.1652379,36119,0.0013814345002174377,0.0014085019938647747,-0.14121560752391815,-0.0008561412105336785,0.0002210337552241981,0.009214060381054878,0,0,-1000,0,0,8,0,0,-153,1500.0,50.0
22:55:06.522,GUIDED,-35.3632622,149.1652379,36508,0.001274398877285421,0.0012165438383817673,-0.13862550258636475,3.8492551539093256e-05,0.0006213835440576077,0.012759847566485405,0,0,-1000,0,1,12,0,0,-153,1500.0,50.0
22:55:06.722,GUIDED,-35.3632622,149.1652379,36508,0.001274398877285421,0.0012165438383817673,-0.13862550258636475,3.8492551539093256e-05,0.0006213835440576077,0.012759847566485405,0,0,-1000,0,1,12,0,0,-153,1500.0,50.0
22:55:06.923,GUIDED,-35.3632622,149.1652378,36897,0.0015036794357001781,0.0012075875420123339,-0.1361313760280609,0.0036170680541545153,-0.000804708048235625,0.011234413832426071,0,0,-1001,4,0,10,0,0,-153,1500.0,50.0
22:55:07.124,GUIDED,-35.3632622,149.1652378,36897,0.0015036794357001781,0.0012075875420123339,-0.1361313760280609,0.0036170680541545153,-0.000804708048235625,0.011234413832426071,0,0,-1001,4,0,10,0,0,-153,1500.0,50.0
22:55:07.325,GUIDED,-35.3632622,149.1652378,36897,0.0015036794357001781,0.0012075875420123339,-0.1361313760280609,0.0036170680541545153,-0.000804708048235625,0.011234413832426071,0,0,-1001,4,0,10,0,0,-153,1500.0,50.0
22:55:07.526,GUIDED,-35.3632622,149.1652378,36897,0.0015036794357001781,0.0012075875420123339,-0.1361313760280609,0.0036170680541545153,-0.000804708048235625,0.011234413832426071,0,0,-1001,4,0,10,0,0,-153,1500.0,50.0
22:55:07.727,GUIDED,-35.3632622,149.1652377,38064,0.0021970621310174465,0.001511436072178185,-0.1290232241153717,1.8279359210282564e-05,7.391790859401226e-07,0.0097357127815485,0,0,-1000,0,0,9,0,0,-153,1500.0,50.0
22:55:07.928,GUIDED,-35.3632622,149.1652377,38454,0.002263949252665043,0.001347180106677115,-0.12671345472335815,0.0017070670146495104,0.00030641333432868123,0.012907055206596851,0,0,-1000,2,1,12,0,0,-153,1500.0,50.0
22:55:08.129,GUIDED,-35.3632621,149.1652376,38843,0.002739404560998082,0.00152384745888412,-0.12480100989341736,0.004004422575235367,0.002039828337728977,0.008777321316301823,0,0,-1000,4,2,8,0,0,-153,1500.0,50.0
22:55:08.330,GUIDED,-35.3632621,149.1652376,39235,0.0027570954989641905,0.0016319196438416839,-0.1226506158709526,-0.0019075172021985054,0.0010442959610372782,0.011406218633055687,0,0,-999,-1,2,11,0,0,-153,1500.0,50.0
22:55:08.531,GUIDED,-35.3632621,149.1652375,39625,0.0025077981408685446,0.001609276281669736,-0.12081090360879898,0.0005659537855535746,0.00019680772675201297,0.008683459833264351,0,0,-1000,1,0,8,0,0,-153,1500.0,50.0
22:55:08.732,GUIDED,-35.3632621,149.1652375,39625,0.0025077981408685446,0.001609276281669736,-0.12081090360879898,0.0005659537855535746,0.00019680772675201297,0.008683459833264351,0,0,-1000,1,0,8,0,0,-153,1500.0,50.0
22:55:08.932,GUIDED,-35.3632621,149.1652375,40014,0.002526191296055913,0.0017147307517006993,-0.1188717633485794,0.0018670911667868495,0.0007587127038277686,0.010403131134808064,0,0,-1000,2,1,10,0,0,-153,1500.0,50.0
22:55:09.133,GUIDED,-35.3632621,149.1652375,40014,0.002526191296055913,0.0017147307517006993,-0.1188717633485794,0.0018670911667868495,0.0007587127038277686,0.010403131134808064,0,0,-1000,2,1,10,0,0,-153,1500.0,50.0
22:55:09.334,GUIDED,-35.3632621,149.1652375,40014,0.002526191296055913,0.0017147307517006993,-0.1188717633485794,0.0018670911667868495,0.0007587127038277686,0.010403131134808064,0,0,-1000,2,1,10,0,0,-153,1500.0,50.0
22:55:09.535,GUIDED,-35.3632621,149.1652375,40014,0.002526191296055913,0.0017147307517006993,-0.1188717633485794,0.0018670911667868495,0.0007587127038277686,0.010403131134808064,0,0,-1000,2,1,10,0,0,-153,1500.0,50.0
22:55:09.736,GUIDED,-35.3632621,149.1652375,41176,0.002081135055050254,0.0018862982979044318,-0.1133216992020607,0.004573797807097435,0.0023113256320357323,0.009257945232093334,0,0,-1001,5,3,9,0,0,-153,1500.0,50.0
22:55:09.937,GUIDED,-35.3632621,149.1652375,41566,0.0020075899083167315,0.0018837320385500789,-0.1118045449256897,-0.0021260473877191544,-6.453064270317554e-05,0.006375096272677183,0,0,-1000,-1,0,6,-1,1,-153,1500.0,50.0
22:55:10.138,GUIDED,-35.363262,149.1652374,41954,0.001959525980055332,0.0018088874639943242,-0.11010770499706268,0.0003108331002295017,-0.0011048248270526528,0.008598404005169868,0,0,-1000,1,0,8,-1,1,-153,1500.0,50.0
22:55:10.339,GUIDED,-35.363262,149.1652374,42344,0.001945305266417563,0.0017401637742295861,-0.10860469192266464,0.002557460218667984,-3.4970929846167564e-05,0.006220834795385599,0,0,-1001,3,0,6,-1,1,-153,1500.0,50.0
22:55:10.539,GUIDED,-35.363262,149.1652374,42733,0.001824075821787119,0.0016662310808897018,-0.10713265091180801,-0.0028667040169239044,-0.00048326520482078195,0.007565563078969717,0,0,-1000,-2,0,7,-1,1,-153,1500.0,50.0
22:55:10.740,GUIDED,-35.363262,149.1652374,42733,0.001824075821787119,0.0016662310808897018,-0.10713265091180801,-0.0028667040169239044,-0.00048326520482078195,0.007565563078969717,0,0,-1000,-2,0,7,-1,1,-153,1500.0,50.0
22:55:10.941,GUIDED,-35.363262,149.1652374,43121,0.0018175201257690787,0.0014872046886011958,-0.10547150671482086,0.00205577677115798,-8.733756840229034e-05,0.008540931157767773,0,0,-1000,3,0,8,-1,1,-153,1500.0,50.0
22:55:11.142,GUIDED,-35.363262,149.1652374,43121,0.0018175201257690787,0.0014872046886011958,-0.10547150671482086,0.00205577677115798,-8.733756840229034e-05,0.008540931157767773,0,0,-1000,3,0,8,-1,1,-153,1500.0,50.0
22:55:11.343,GUIDED,-35.363262,149.1652374,43121,0.0018175201257690787,0.0014872046886011958,-0.10547150671482086,0.00205577677115798,-8.733756840229034e-05,0.008540931157767773,0,0,-1000,3,0,8,-1,1,-153,1500.0,50.0
22:55:11.543,GUIDED,-35.363262,149.1652374,43121,0.0018175201257690787,0.0014872046886011958,-0.10547150671482086,0.00205577677115798,-8.733756840229034e-05,0.008540931157767773,0,0,-1000,3,0,8,-1,1,-153,1500.0,50.0
22:55:11.744,GUIDED,-35.363262,149.1652374,44287,0.0020600801799446344,0.0013734179083257914,-0.10081906616687775,0.0013885314110666513,0.0007243382860906422,0.0066404761746525764,0,0,-1000,2,1,6,-1,1,-153,1500.0,50.0
22:55:11.945,GUIDED,-35.363262,149.1652374,44676,0.002012222306802869,0.0011460038367658854,-0.09937378764152527,-0.0006314500933513045,-0.0010308363707736135,0.007744572591036558,0,0,-1000,0,0,7,-1,1,-153,1500.0,50.0
22:55:12.146,GUIDED,-35.363262,149.1652374,45065,0.0020323705393821,0.0011076380033046007,-0.09775518625974655,-0.003371838480234146,0.0009716115891933441,0.005823938641697168,0,0,-999,-2,1,5,-1,1,-153,1500.0,50.0
22:55:12.347,GUIDED,-35.363262,149.1652374,45454,0.0020600766874849796,0.0011433289619162679,-0.09645281732082367,0.0012628426775336266,-0.00024831807240843773,0.009157589636743069,0,0,-1000,2,0,9,-1,1,-153,1500.0,50.0
22:55:12.548,GUIDED,-35.363262,149.1652374,45843,0.0021400852128863335,0.0014376710169017315,-0.09481099247932434,0.0001153649645857513,0.0009122898918576539,0.007481038104742765,0,0,-1000,0,2,7,-1,1,-153,1500.0,50.0
22:55:12.749,GUIDED,-35.363262,149.1652374,45843,0.0021400852128863335,0.0014376710169017315,-0.09481099247932434,0.0001153649645857513,0.0009122898918576539,0.007481038104742765,0,0,-1000,0,2,7,-1,1,-153,1500.0,50.0
22:55:12.950,GUIDED,-35.363262,149.1652374,46233,0.0018392223864793777,0.0012305580312386155,-0.09352841973304749,0.00011452811304479837,0.0009497003629803658,0.007409749552607536,0,0,-999,1,1,7,-1,1,-153,1500.0,50.0
22:55:13.150,GUIDED,-35.363262,149.1652374,46233,0.0018392223864793777,0.0012305580312386155,-0.09352841973304749,0.00011452811304479837,0.0009497003629803658,0.007409749552607536,0,0,-999,1,1,7,-1,1,-153,1500.0,50.0
22:55:13.351,GUIDED,-35.363262,149.1652374,46233,0.0018392223864793777,0.0012305580312386155,-0.09352841973304749,0.00011452811304479837,0.0009497003629803658,0.007409749552607536,0,0,-999,1,1,7,-1,1,-153,1500.0,50.0
22:55:13.553,GUIDED,-35.363262,149.1652374,46233,0.0018392223864793777,0.0012305580312386155,-0.09352841973304749,0.00011452811304479837,0.0009497003629803658,0.007409749552607536,0,0,-999,1,1,7,-1,1,-153,1500.0,50.0
22:55:13.754,GUIDED,-35.363262,149.1652374,47399,0.0017693840200081468,0.0014530264306813478,-0.08967186510562897,-0.002390872687101364,0.0011937557719647884,0.006457951385527849,0,0,-999,-1,1,6,-1,1,-153,1500.0,50.0
22:55:13.954,GUIDED,-35.363262,149.1652373,47788,0.0016691336641088128,0.0014114149380475283,-0.08849572390317917,0.0019502019276842475,0.0004065323155373335,0.008707983419299126,0,0,-999,2,1,8,-1,1,-153,1500.0,50.0
22:55:14.155,GUIDED,-35.363262,149.1652373,48177,0.0017076479271054268,0.0011795700993388891,-0.08737649023532867,0.002724643098190427,-0.0012096799910068512,0.006429900880903006,0,0,-1000,3,0,6,-1,1,-153,1500.0,50.0
22:55:14.356,GUIDED,-35.363262,149.1652373,48570,0.0015904998872429132,0.0009815554367378354,-0.08604233711957932,-0.0011202262248843908,0.0006417275290004909,0.00776350311934948,0,0,-999,0,1,7,-1,1,-153,1500.0,50.0
22:55:14.556,GUIDED,-35.363262,149.1652373,48959,0.0017526235897094011,0.0010953894816339016,-0.08472100645303726,0.0019794246181845665,0.0007427045493386686,0.006040831562131643,0,0,-1000,2,1,6,-1,1,-153,1500.0,50.0
22:55:14.757,GUIDED,-35.363262,149.1652373,48959,0.0017526235897094011,0.0010953894816339016,-0.08472100645303726,0.0019794246181845665,0.0007427045493386686,0.006040831562131643,0,0,-1000,2,1,6,-1,1,-153,1500.0,50.0
22:55:14.958,GUIDED,-35.363262,149.1652373,49348,0.0018091127276420593,0.0010724099120125175,-0.08352688699960709,0.001409019692800939,0.0003477136488072574,0.0069374279119074345,0,0,-999,2,1,7,-1,1,-153,1500.0,50.0
22:55:15.159,GUIDED,-35.363262,149.1652373,49348,0.0018091127276420593,0.0010724099120125175,-0.08352688699960709,0.001409019692800939,0.0003477136488072574,0.0069374279119074345,0,0,-999,2,1,7,-1,1,-153,1500.0,50.0
22:55:15.359,GUIDED,-35.363262,149.1652373,49348,0.0018091127276420593,0.0010724099120125175,-0.08352688699960709,0.001409019692800939,0.0003477136488072574,0.0069374279119074345,0,0,-999,2,1,7,-1,1,-153,1500.0,50.0
22:55:15.560,GUIDED,-35.363262,149.1652373,49348,0.0018091127276420593,0.0010724099120125175,-0.08352688699960709,0.001409019692800939,0.0003477136488072574,0.0069374279119074345,0,0,-999,2,1,7,-1,1,-153,1500.0,50.0
22:55:15.761,GUIDED,-35.363262,149.1652373,50899,0.0015545946080237627,0.0014378450578078628,-0.07848138362169266,-0.00044795434223487973,-0.0013116085901856422,0.00555310258641839,0,0,-999,0,3,7,-1,1,-153,1500.0,50.0
22:55:15.962,GUIDED,-35.363262,149.1652373,50899,0.0015545946080237627,0.0014378450578078628,-0.07848138362169266,-0.00044795434223487973,-0.0013116085901856422,0.00555310258641839,0,0,-1000,0,0,5,-1,1,-153,1500.0,50.0
22:55:16.163,GUIDED,-35.363262,149.1652373,51288,0.0017195711843669415,0.0012962830951437354,-0.07725385576486588,0.0034084743820130825,-0.0007835637079551816,0.006088733207434416,0,0,-1001,4,0,6,-1,1,-153,1500.0,50.0
22:55:16.365,GUIDED,-35.363262,149.1652373,51676,0.0018359057139605284,0.0011026565916836262,-0.07615551352500916,0.0027782751712948084,0.00041965360287576914,0.007050082087516785,0,0,-1000,3,1,7,-1,1,-153,1500.0,50.0
22:55:16.566,GUIDED,-35.363262,149.1652373,52065,0.0017275824211537838,0.0008168490021489561,-0.07496758550405502,-0.003740810789167881,-0.0005764930392615497,0.005015666596591473,0,0,-999,-2,0,5,-1,1,-153,1500.0,50.0
22:55:16.767,GUIDED,-35.363262,149.1652373,52454,0.0018823628779500723,0.0008449792512692511,-0.0739387720823288,0.0006605705711990595,-0.00039059185655787587,0.004426306113600731,0,0,-999,-2,0,5,-1,1,-153,1500.0,50.0
22:55:16.968,LAND,-35.363262,149.1652373,52454,0.0018823628779500723,0.0008449792512692511,-0.0739387720823288,0.0006605705711990595,-0.00039059185655787587,0.004426306113600731,0,0,-1000,1,0,4,-1,1,-153,1500.0,50.0
22:55:17.169,LAND,-35.363262,149.1652373,52454,0.0018823628779500723,0.0008449792512692511,-0.0739387720823288,0.0006605705711990595,-0.00039059185655787587,0.004426306113600731,0,0,-1000,1,0,4,-1,1,-153,1500.0,50.0
22:55:17.372,LAND,-35.363262,149.1652373,52454,0.0018823628779500723,0.0008449792512692511,-0.0739387720823288,0.0006605705711990595,-0.00039059185655787587,0.004426306113600731,0,0,-1000,1,0,4,-1,1,-153,1500.0,50.0
22:55:17.575,LAND,-35.363262,149.1652373,52454,0.0018823628779500723,0.0008449792512692511,-0.0739387720823288,0.0006605705711990595,-0.00039059185655787587,0.004426306113600731,0,0,-1000,1,0,4,-1,1,-153,1500.0,50.0
22:55:17.777,LAND,-35.363262,149.1652372,54014,0.002429452957585454,0.0011119827395305037,-0.07000274211168289,-0.0036365953274071217,-0.00013864022912457585,0.007794147357344627,0,0,-999,-2,1,8,-1,1,-153,1500.0,50.0
22:55:17.980,LAND,-35.363262,149.1652372,54014,0.002429452957585454,0.0011119827395305037,-0.07000274211168289,-0.0036365953274071217,-0.00013864022912457585,0.007794147357344627,0,0,-999,-2,1,8,-1,1,-153,1500.0,50.0
22:55:18.181,LAND,-35.363262,149.1652372,54393,-0.019666574895381927,0.02319605089724064,-0.022544829174876213,-0.16204799711704254,0.1608927845954895,0.361112117767334,0,-1,-953,-160,161,361,-3,0,-144,1500.0,50.0
22:55:18.382,LAND,-35.3632621,149.1652371,54744,-0.060175903141498566,0.07260597497224808,0.11596117168664932,-0.1498917043209076,0.13077735900878906,0.6262227296829224,3,2,-937,-148,131,626,-13,-11,-131,1500.0,50.0
22:55:18.583,LAND,-35.3632625,149.1652365,55050,-0.05973895639181137,0.06433390080928802,0.23442719876766205,0.0452452190220356,-0.19046379625797272,0.35831400752067566,3,4,-906,46,-189,358,-26,-27,-108,1500.0,60.0
22:55:18.784,LAND,-35.3632632,149.1652355,55300,-0.03205210343003273,0.010727684944868088,0.30298173427581787,0.12142836302518845,-0.21465085446834564,0.18882505595684052,4,10,-911,122,-213,189,-31,-37,-84,1500.0,60.0
22:55:18.985,LAND,-35.3632632,149.1652355,55300,-0.03205210343003273,0.010727684944868088,0.30298173427581787,0.12142836302518845,-0.21465085446834564,0.18882505595684052,4,10,-911,122,-213,189,-31,-37,-84,1500.0,60.0
22:55:19.187,LAND,-35.3632632,149.1652355,55300,-0.03205210343003273,0.010727684944868088,0.30298173427581787,0.12142836302518845,-0.21465085446834564,0.18882505595684052,4,10,-911,122,-213,189,-31,-37,-84,1500.0,60.0
22:55:19.388,LAND,-35.3632632,149.1652355,55300,-0.03205210343003273,0.010727684944868088,0.30298173427581787,0.12142836302518845,-0.21465085446834564,0.18882505595684052,4,10,-911,122,-213,189,-31,-37,-84,1500.0,60.0
22:55:19.589,LAND,-35.3632632,149.1652355,55300,-0.03205210343003273,0.010727684944868088,0.30298173427581787,0.12142836302518845,-0.21465085446834564,0.18882505595684052,4,10,-911,122,-213,189,-31,-37,-84,1500.0,60.0
22:55:19.790,LAND,-35.3632647,149.1652323,55775,0.04877180606126785,-0.055514395236968994,0.3434847593307495,0.6251200437545776,0.019335398450493813,-0.029847195371985435,-2,13,-920,625,20,-29,0,-8,-10,1500.0,60.0
22:55:19.990,LAND,-35.3632647,149.1652323,55775,0.04877180606126785,-0.055514395236968994,0.3434847593307495,0.6251200437545776,0.019335398450493813,-0.029847195371985435,-2,13,-920,625,20,-29,0,-8,-10,1500.0,60.0
22:55:20.192,LAND,-35.3632646,149.1652322,55777,0.05002989247441292,-0.04741324856877327,0.3346743583679199,0.10601136088371277,0.03759876266121864,-0.04557300731539726,-2,-22,-937,103,38,-45,8,2,7,1500.0,60.0
22:55:20.392,LAND,-35.3632644,149.1652324,55744,0.041244473308324814,-0.03548875451087952,0.3243986666202545,-0.5389167666435242,0.05429036170244217,-0.04785076901316643,-3,-52,-952,-541,55,-47,15,13,17,1500.0,60.0
22:55:20.593,LAND,-35.363264,149.1652328,55682,0.028849951922893524,-0.023108556866645813,0.31524744629859924,-0.902789831161499,0.04605910927057266,-0.038287702947854996,0,-57,-962,-904,47,-37,18,22,28,1500.0,60.0
22:55:20.794,LAND,-35.3632636,149.1652335,55597,0.015443219803273678,-0.011163745075464249,0.30582454800605774,-1.0963438749313354,0.04291917383670807,-0.045088931918144226,-1,-59,-942,-1096,44,-44,20,28,37,1500.0,60.0
22:55:20.995,LAND,-35.3632636,149.1652335,55597,0.015443219803273678,-0.011163745075464249,0.30582454800605774,-1.0963438749313354,0.04291917383670807,-0.045088931918144226,-1,-59,-942,-1096,44,-44,20,28,37,1500.0,60.0
22:55:21.196,LAND,-35.3632636,149.1652335,55597,0.015443219803273678,-0.011163745075464249,0.30582454800605774,-1.0963438749313354,0.04291917383670807,-0.045088931918144226,-1,-59,-942,-1096,44,-44,20,28,37,1500.0,60.0
22:55:21.396,LAND,-35.3632636,149.1652335,55597,0.015443219803273678,-0.011163745075464249,0.30582454800605774,-1.0963438749313354,0.04291917383670807,-0.045088931918144226,-1,-59,-942,-1096,44,-44,20,28,37,1500.0,60.0
22:55:21.597,LAND,-35.3632636,149.1652335,55597,0.015443219803273678,-0.011163745075464249,0.30582454800605774,-1.0963438749313354,0.04291917383670807,-0.045088931918144226,-1,-59,-942,-1096,44,-44,20,28,37,1500.0,60.0
22:55:21.798,LAND,-35.3632619,149.1652366,55026,0.0004931239527650177,0.011840865015983582,0.2658589482307434,0.8031002879142761,0.011938327923417091,-0.029193274676799774,-1,62,-946,808,12,-28,14,30,72,1500.0,60.0
22:55:21.999,LAND,-35.3632619,149.1652366,55026,0.0004931239527650177,0.011840865015983582,0.2658589482307434,0.8031002879142761,0.011938327923417091,-0.029193274676799774,-1,62,-946,808,12,-28,14,30,72,1500.0,60.0
22:55:22.200,LAND,-35.3632616,149.1652372,54819,-0.003888676641508937,0.013612041249871254,0.25792500376701355,0.6163085103034973,0.004398415796458721,-0.034001391381025314,-2,62,-1010,621,5,-33,11,26,83,1500.0,60.0
22:55:22.415,LAND,-35.3632614,149.1652377,54613,-0.002997651696205139,0.012454920448362827,0.2513306736946106,0.769507110118866,-0.003408382646739483,-0.025573601946234703,0,58,-987,775,-2,-25,8,23,79,1500.0,60.0
22:55:22.643,LAND,-35.3632612,149.1652381,54416,-0.0029201549477875233,0.011884191073477268,0.24413873255252838,0.7823339700698853,-0.006086106877774,-0.028823712840676308,0,60,-1025,787,-5,-28,5,20,72,1500.0,60.0
22:55:22.845,LAND,-35.3632611,149.1652384,54232,-0.00026840000646188855,0.010073613375425339,0.23724576830863953,0.9455076456069946,-0.0026936568319797516,-0.02548603154718876,-2,58,-1044,950,-1,-25,2,17,67,1500.0,60.0
22:55:23.048,LAND,-35.3632611,149.1652384,54232,-0.00026840000646188855,0.010073613375425339,0.23724576830863953,0.9455076456069946,-0.0026936568319797516,-0.02548603154718876,-2,58,-1044,950,-1,-25,2,17,67,1500.0,60.0
22:55:23.249,LAND,-35.3632611,149.1652384,54232,-0.00026840000646188855,0.010073613375425339,0.23724576830863953,0.9455076456069946,-0.0026936568319797516,-0.02548603154718876,-2,58,-1044,950,-1,-25,2,17,67,1500.0,60.0
22:55:23.453,LAND,-35.3632611,149.1652384,54232,-0.00026840000646188855,0.010073613375425339,0.23724576830863953,0.9455076456069946,-0.0026936568319797516,-0.02548603154718876,-2,58,-1044,950,-1,-25,2,17,67,1500.0,60.0
22:55:23.656,LAND,-35.3632611,149.1652384,54232,-0.00026840000646188855,0.010073613375425339,0.23724576830863953,0.9455076456069946,-0.0026936568319797516,-0.02548603154718876,-2,58,-1044,950,-1,-25,2,17,67,1500.0,60.0
22:55:23.858,LAND,-35.3632611,149.1652387,53567,0.013553219847381115,0.0009169226395897567,0.21243877708911896,1.1164419651031494,-0.006856786087155342,-0.023597154766321182,1,48,-1022,1118,-5,-23,-2,7,58,1500.0,60.0
22:55:24.059,LAND,-35.3632611,149.1652386,53410,0.018288493156433105,-0.0008257185691036284,0.207278773188591,1.1242567300796509,-0.012321148067712784,-0.02875199355185032,1,40,-1006,1124,-11,-28,-3,6,60,1500.0,60.0
22:55:24.259,LAND,-35.3632611,149.1652386,53410,0.018288493156433105,-0.0008257185691036284,0.207278773188591,1.1242567300796509,-0.012321148067712784,-0.02875199355185032,1,40,-1006,1124,-11,-28,-3,6,60,1500.0,60.0
22:55:24.460,LAND,-35.3632611,149.1652385,53251,0.01994488574564457,-0.0017874697223305702,0.2016688883304596,0.8715407252311707,-0.005654052831232548,-0.02093576081097126,1,22,-1021,871,-4,-20,-3,5,58,1500.0,60.0
22:55:24.661,LAND,-35.3632612,149.1652384,53095,0.020256206393241882,-0.001956063322722912,0.19591407477855682,0.7883657217025757,-0.007379545364528894,-0.02574014849960804,1,15,-1014,787,-6,-25,-3,5,59,1500.0,60.0
22:55:24.862,LAND,-35.3632613,149.1652383,52937,0.013531642034649849,-0.002513066865503788,0.18976569175720215,0.09189428389072418,-0.007026016712188721,-0.023444509133696556,0,-26,-999,89,-6,-22,-2,4,57,1500.0,60.0
22:55:25.063,LAND,-35.3632613,149.1652383,52937,0.013531642034649849,-0.002513066865503788,0.18976569175720215,0.09189428389072418,-0.007026016712188721,-0.023444509133696556,0,-26,-999,89,-6,-22,-2,4,57,1500.0,60.0
22:55:25.265,LAND,-35.3632613,149.1652383,52937,0.013531642034649849,-0.002513066865503788,0.18976569175720215,0.09189428389072418,-0.007026016712188721,-0.023444509133696556,0,-26,-999,89,-6,-22,-2,4,57,1500.0,60.0
22:55:25.467,LAND,-35.3632613,149.1652383,52937,0.013531642034649849,-0.002513066865503788,0.18976569175720215,0.09189428389072418,-0.007026016712188721,-0.023444509133696556,0,-26,-999,89,-6,-22,-2,4,57,1500.0,60.0
22:55:25.668,LAND,-35.3632615,149.1652378,52482,0.002005918649956584,-0.005810022819787264,0.17456261813640594,-0.9064579010009766,-0.00703079579398036,-0.02101084031164646,0,-54,-984,-908,-5,-20,-2,4,57,1500.0,60.0
22:55:25.868,LAND,-35.3632616,149.1652375,52333,-0.0024207120295614004,-0.006232505198568106,0.169906884431839,-1.1167117357254028,-0.003497959580272436,-0.020112525671720505,0,-51,-1004,-1116,-2,-19,-2,5,56,1500.0,60.0
22:55:26.069,LAND,-35.3632616,149.1652372,52177,-0.00016978781786747277,-0.006677449215203524,0.16541863977909088,-1.130218267440796,-0.00124650401994586,-0.017776209861040115,-1,-47,-1009,-1129,0,-17,-1,4,60,1500.0,60.0
22:55:26.270,LAND,-35.3632616,149.1652372,52177,-0.00016978781786747277,-0.006677449215203524,0.16541863977909088,-1.130218267440796,-0.00124650401994586,-0.017776209861040115,-1,-47,-1009,-1129,0,-17,-1,4,60,1500.0,60.0
22:55:26.472,LAND,-35.3632617,149.1652368,52020,0.003708230098709464,-0.007622688543051481,0.1613229662179947,-1.029887318611145,-0.004445086698979139,-0.011231119744479656,0,-33,-1019,-1027,-3,-10,-1,6,57,1500.0,60.0
22:55:26.672,LAND,-35.3632617,149.1652365,51864,0.0036054186057299376,-0.007159452885389328,0.1577342003583908,-1.0559991598129272,0.005605211481451988,-0.010447702370584011,-1,-21,-1014,-1053,6,-10,-1,9,59,1500.0,60.0
22:55:26.873,LAND,-35.3632618,149.1652361,51709,0.005716386251151562,-0.0069619775749742985,0.15414606034755707,-0.7508488297462463,0.000365339161362499,-0.010314499959349632,0,-9,-1033,-746,1,-9,0,11,56,1500.0,60.0
22:55:27.075,LAND,-35.3632618,149.1652361,51709,0.005716386251151562,-0.0069619775749742985,0.15414606034755707,-0.7508488297462463,0.000365339161362499,-0.010314499959349632,0,-9,-1033,-746,1,-9,0,11,56,1500.0,60.0
22:55:27.277,LAND,-35.3632618,149.1652361,51709,0.005716386251151562,-0.0069619775749742985,0.15414606034755707,-0.7508488297462463,0.000365339161362499,-0.010314499959349632,0,-9,-1033,-746,1,-9,0,11,56,1500.0,60.0
22:55:27.480,LAND,-35.3632618,149.1652361,51709,0.005716386251151562,-0.0069619775749742985,0.15414606034755707,-0.7508488297462463,0.000365339161362499,-0.010314499959349632,0,-9,-1033,-746,1,-9,0,11,56,1500.0,60.0
22:55:27.681,LAND,-35.3632618,149.1652361,51709,0.005716386251151562,-0.0069619775749742985,0.15414606034755707,-0.7508488297462463,0.000365339161362499,-0.010314499959349632,0,-9,-1033,-746,1,-9,0,11,56,1500.0,60.0
22:55:27.885,LAND,-35.3632619,149.1652354,51090,0.005435332655906677,-0.00454517500475049,0.1397087126970291,-0.6737572550773621,0.004861690104007721,-0.017119986936450005,0,0,-1063,-669,5,-16,0,18,58,1500.0,60.0
22:55:28.087,LAND,-35.3632619,149.1652354,50942,0.0027182253543287516,-0.0030497615225613117,0.13606566190719604,-0.31236696243286133,0.0021149495150893927,-0.006928255315870047,-1,16,-1000,-306,3,-6,0,19,57,1500.0,60.0
22:55:28.288,LAND,-35.3632619,149.1652353,50795,0.012144229374825954,-0.0024146726354956627,0.13262628018856049,0.3610890507698059,0.000993097317405045,-0.010684759356081486,0,38,-1017,367,1,-10,0,20,54,1500.0,160.0
22:55:28.490,LAND,-35.3632619,149.1652353,50795,0.012144229374825954,-0.0024146726354956627,0.13262628018856049,0.3610890507698059,0.000993097317405045,-0.010684759356081486,0,38,-1017,367,1,-10,0,20,54,1500.0,160.0
22:55:28.690,LAND,-35.3632619,149.1652353,50640,0.016459330916404724,-0.0016562556847929955,0.12980008125305176,0.8130223155021667,0.0004523328389041126,-0.006860741414129734,0,64,-895,819,1,-6,1,21,69,1500.0,160.0
22:55:28.891,LAND,-35.3632619,149.1652354,50403,0.005108124576508999,-0.0003118850290775299,0.127105712890625,0.45766305923461914,0.005199903156608343,0.008763031102716923,0,68,-831,465,5,9,1,21,110,1500.0,160.0
22:55:29.092,LAND,-35.3632619,149.1652354,50403,0.005108124576508999,-0.0003118850290775299,0.127105712890625,0.45766305923461914,0.005199903156608343,0.008763031102716923,0,68,-831,465,5,9,1,21,110,1500.0,160.0
22:55:29.293,LAND,-35.3632619,149.1652354,50403,0.005108124576508999,-0.0003118850290775299,0.127105712890625,0.45766305923461914,0.005199903156608343,0.008763031102716923,0,68,-831,465,5,9,1,21,110,1500.0,160.0
22:55:29.494,LAND,-35.3632619,149.1652354,50403,0.005108124576508999,-0.0003118850290775299,0.127105712890625,0.45766305923461914,0.005199903156608343,0.008763031102716923,0,68,-831,465,5,9,1,21,110,1500.0,160.0
22:55:29.695,LAND,-35.3632619,149.1652357,49461,-0.01094125211238861,-0.00028148057754151523,0.1175946518778801,-1.0506858825683594,-0.0018124778289347887,-0.013527401722967625,0,-16,-1021,-1044,-1,-12,0,21,114,1500.0,160.0
22:55:29.895,LAND,-35.363262,149.1652359,49167,-0.012298917397856712,0.0004595374339260161,0.11512748152017593,-0.8433359861373901,0.0030443158466368914,-0.007132460363209248,0,-3,-1039,-837,3,-6,0,21,103,1500.0,160.0
22:55:30.096,LAND,-35.363262,149.1652361,48882,-0.015923645347356796,0.0010133081814274192,0.1119820699095726,-0.8975802063941956,0.004464108496904373,-0.016936004161834717,-2,-11,-1050,-892,5,-16,0,18,108,1500.0,160.0
22:55:30.297,LAND,-35.363262,149.1652361,48607,-0.01814534142613411,0.00041746447095647454,0.1104511246085167,-0.975784957408905,0.002620662096887827,-0.018810506910085678,-1,-3,-944,-969,3,-18,0,17,106,1500.0,160.0
22:55:30.498,LAND,-35.363262,149.1652361,48607,-0.01814534142613411,0.00041746447095647454,0.1104511246085167,-0.975784957408905,0.002620662096887827,-0.018810506910085678,-1,-3,-944,-969,3,-18,0,17,106,1500.0,160.0
22:55:30.699,LAND,-35.363262,149.1652362,48322,-0.011690327897667885,-0.0002974018279928714,0.1073392778635025,-1.2450250387191772,-0.00224112905561924,-0.011519210413098335,-3,-24,-1062,-1241,-1,-10,0,16,102,1500.0,160.0
