time_stamp,RTL_ALT,roll,pitch,yaw,rollspeed,pitchspeed,yawspeed,lat,lon,relative_alt,vx,vy,vz,MODE,xacc,yacc,zacc,xgyro,ygyro,zgyro
14:44:04,1500.0,-0.0011397535563446581,0.0009757885127328336,0.02242881339043379,0.00021975237177684903,0.0001937594497576356,0.0016061999485827982,-35.3632622,149.1652375,0.0,-1.0,1.0,1.0,STABILIZE,0.0,1.5,-1000.0,0.0,0.5,0.0
14:44:08,1500.0,-0.0008737220778129995,0.001140374515671283,0.02172219567000866,0.0003139908949378878,0.00023935292847454548,0.00151181808905676,-35.3632621,149.1652375,19.5,0.0,0.0,-1.0,AUTO,0.0,1.5,-1000.0,0.5,0.5,0.5
14:44:09,242968.0,-0.000701384138665162,0.0013269282935652882,0.021536907646805048,0.0003413696977077052,0.00027611159021034837,0.0014322845090646297,-35.3632621,149.1652375,21.5,0.0,0.0,-1.0,AUTO,0.0,1.75,-1000.0,0.25,0.75,0.25
14:44:10,242968.0,-0.0002638244768604636,0.0016894840518943965,0.021191922947764397,0.00037883492768742144,0.00026459619402885437,0.0014256073627620935,-35.3632621,149.1652375,22.5,0.0,0.0,0.0,AUTO,0.0,1.5,-1000.0,0.0,0.0,0.0
14:44:12,242968.0,0.02993036713451147,-0.0021538689616136253,0.02068359963595867,0.045997289940714836,-0.007500812411308289,0.0026426517870277166,-35.363262,149.1652376,1629.0,1.0,9.5,-146.5,AUTO,0.0,-0.5,-1011.0,46.0,-6.5,1.5
14:44:13,71413.0,0.05050618015229702,-0.0014909679302945733,3.0055176466703415e-05,-0.02656680764630437,0.026036678114905953,-0.03756423544837162,-35.363261675000004,149.16523949999998,2778.0,6.25,38.5,-147.25,AUTO,1.25,-6.5,-996.0,-25.75,26.5,-37.75
14:44:14,71413.0,-0.04246437922120094,0.00554510043002665,-0.07117678597569466,-0.06628219224512577,-0.013108466286212206,-0.03530379757285118,-35.36326085,149.1652455,4677.5,1.5,30.5,-149.0,AUTO,3.5,-6.5,-1001.0,-65.0,-12.0,-35.0
14:44:16,71413.0,0.0025651820469647646,0.007062765769660473,-0.10644189640879631,0.06750207021832466,0.010914347134530544,-0.0005350620194803923,-35.363261449999996,149.1652393,7750.5,-11.0,-57.5,-150.5,AUTO,-5.0,14.0,-1003.5,67.5,11.0,-0.5
14:44:17,130147.0,0.05060844589024782,0.010418781079351902,-0.10348462872207165,0.04986273613758385,-0.01038508873898536,0.014821950055193156,-35.363262525,149.165235475,8925.0,-17.5,-28.0,-152.25,AUTO,-1.5,9.5,-1001.25,49.75,-9.5,13.75
14:44:18,130147.0,0.0027236416935920715,-0.03856121003627777,-0.052895523607730865,-0.08804222568869591,0.061409104615449905,-0.036561253014951944,-35.36326365,149.16523565,10858.0,13.0,25.0,-147.5,AUTO,2.0,-5.5,-1001.5,-87.0,61.5,-37.0
14:44:20,130147.0,0.004744373960420489,0.01887519471347332,-0.15818225592374802,0.023852831684052944,0.0014485935680568218,-0.015989816281944513,-35.36326055,149.1652359,13958.5,3.0,-11.0,-152.0,AUTO,-3.0,0.5,-999.5,24.0,2.0,-16.0
14:44:21,229183.0,0.013220237102359533,0.014762986917048693,-0.16289396584033966,0.0032594240619800985,-0.008043219801038504,-0.0020835898467339575,-35.363260525,149.16523525,15133.75,-6.0,-2.25,-151.75,AUTO,-0.5,0.75,-999.5,4.0,-6.75,-2.0
14:44:22,229183.0,0.0054354541935026646,0.0031065051443874836,-0.1667039394378662,-0.0066764638759195805,-0.005729022668674588,-0.010413493495434523,-35.3632613,149.16523545,17072.5,-9.5,8.0,-151.0,AUTO,2.0,0.0,-1000.5,-5.5,-4.5,-10.0
14:44:24,229183.0,-0.0076833670027554035,0.013095900416374207,0.05042637325823307,0.14053090661764145,-0.15103349834680557,0.14634935557842255,-35.363263200000006,149.16523345000002,20060.0,-30.5,-37.0,-121.5,AUTO,1.5,10.5,-953.0,141.0,-149.5,145.5
14:44:25,300000.0,0.05474498216062784,-0.03712249826639891,0.055043126456439495,0.030291872681118548,-0.01007168274372816,-0.030156190739944577,-35.36326465,149.16523135,20858.5,-12.25,-7.25,-90.0,AUTO,0.5,4.25,-963.5,30.75,-9.25,-30.0
14:44:26,300000.0,0.021340622566640377,-0.004751602886244655,0.039492059499025345,-0.043009765446186066,0.029957191087305546,0.001365243166219443,-35.36326405,149.1652337,21770.0,18.0,39.5,-54.0,AUTO,0.5,-10.0,-977.0,-41.5,30.0,0.5
14:44:28,300000.0,-0.01713030133396387,0.015914492929975193,0.03478738789757093,-0.0306469714269042,0.034430371364578605,-0.003708329905445377,-35.363261599999994,149.16523923333332,22337.666666666668,6.666666666666667,17.333333333333332,-11.333333333333334,AUTO,0.3333333333333333,0.0,-957.3333333333334,-29.666666666666668,35.0,-3.3333333333333335
14:44:29,200.0,-0.010171588219236583,-0.007594852650072426,0.031319341622292995,-0.17892956919968128,-0.06941974069923162,-0.0015316037752199918,-35.3632613,149.16523982500001,22277.0,-0.75,-6.25,17.25,AUTO,-0.75,-12.75,-999.5,-178.25,-68.0,-1.75
14:44:30,200.0,0.06312613002955914,-0.06807825714349747,0.03429270442575216,-0.447449266910553,-0.030714611522853374,0.04756798967719078,-35.363259299999996,149.16524045,22128.0,48.0,30.0,1.0,AUTO,-3.5,-36.5,-1007.0,-446.0,-29.5,47.0
14:44:32,200.0,0.10495064407587051,-0.13584280014038086,0.15443089604377747,-0.21923412382602692,-0.03413737192749977,0.032159239053726196,-35.3632383,149.1652615,22092.0,203.0,159.0,1.0,AUTO,-25.0,-55.0,-1003.0,-218.0,-33.0,31.0
14:44:33,154410.0,0.11075074225664139,-0.13909156993031502,0.2103014886379242,0.06286945752799511,0.0038521666429005563,0.1935766343958676,-35.363224875,149.165275075,22078.25,261.5,203.25,-0.5,AUTO,-37.5,-67.5,-1007.25,63.25,4.5,192.75
14:44:34,154410.0,0.05662150681018829,-0.19302067160606384,0.6949771245320638,0.0341599207992355,-0.03219388301173846,0.2788904532790184,-35.36319283333333,149.16530673333332,22066.333333333332,354.6666666666667,279.0,0.3333333333333333,AUTO,-91.0,-52.333333333333336,-997.6666666666666,34.333333333333336,-30.666666666666668,278.6666666666667
14:44:36,154410.0,0.08117936551570892,-0.16637220978736877,0.7160197496414185,-0.02455728128552437,0.02779715321958065,0.00043257459765300155,-35.3631051,149.1653944,22083.0,498.0,407.0,-7.0,AUTO,-131.0,-78.0,-994.0,-24.0,28.0,0.0
14:44:37,200.0,0.08167109079658985,-0.1550496704876423,0.7151588052511215,-0.030905026360414922,0.0205920155858621,0.002068447422061581,-35.363076425,149.165423575,22119.5,515.0,422.5,-6.0,AUTO,-134.5,-90.75,-993.25,-30.25,21.25,1.5
14:44:38,200.0,0.08220101147890091,-0.13136198744177818,0.7137530446052551,0.006096292054280639,0.02717085089534521,0.000146682548802346,-35.36302954999999,149.16547155,22171.5,525.5,433.0,-4.0,AUTO,-125.0,-74.5,-979.5,6.5,27.5,0.0
14:44:40,200.0,0.08708107719818751,-0.13581951955954233,0.7104135950406393,0.009943687667449316,0.005370141472667456,0.0004667639926386376,-35.3629283,149.16557466666666,22163.333333333332,530.3333333333334,436.6666666666667,2.3333333333333335,AUTO,-132.33333333333334,-85.0,-987.0,10.0,6.0,0.0
14:44:41,212755.0,0.09303939901292324,-0.13035709038376808,0.7092568427324295,-0.005170406890101731,0.00727200205437839,-0.002768353238934651,-35.362879899999996,149.16562334999998,22152.0,531.0,439.25,0.5,AUTO,-136.25,-85.0,-990.25,-4.75,8.5,-2.5
14:44:42,212755.0,0.08665882050991058,-0.12007969617843628,0.7085728049278259,-0.0018511803355067968,0.012112470343708992,0.004773576743900776,-35.362821,149.1656829,22151.0,526.0,443.0,0.0,AUTO,-125.0,-72.0,-992.0,-1.0,13.0,4.0
14:44:44,212755.0,0.09422503039240837,-0.12613459676504135,0.7045857310295105,0.020746516529470682,-0.012283586896955967,-0.004565109731629491,-35.3627436,149.16576115,22150.5,520.0,437.5,1.5,AUTO,-137.0,-82.0,-989.5,21.0,-11.0,-4.5
14:44:45,253825.0,0.0909058153629303,-0.12611176259815693,0.7035717964172363,-0.012170727248303592,0.006235812325030565,-0.0008860162342898548,-35.362696424999996,149.16580922499998,22143.0,519.25,436.5,1.25,AUTO,-134.75,-93.25,-991.5,-11.5,7.75,-1.0
14:44:46,253825.0,0.08882654458284378,-0.12713075429201126,0.7022441029548645,-0.010253865271806717,-0.0038693000096827745,-0.0026009047651314177,-35.3626494,149.1658573,22133.5,520.5,434.5,0.5,AUTO,-134.5,-92.5,-987.5,-9.5,-2.5,-2.5
14:44:48,253825.0,0.09037290886044502,-0.12942427396774292,0.6995730996131897,0.0038284799084067345,-0.012082996079698205,0.0008023857371881604,-35.3625551,149.165953,22118.0,521.0,433.0,0.5,AUTO,-131.5,-79.5,-985.0,4.5,-11.0,0.5
14:44:49,200.0,0.09054175764322281,-0.12682621739804745,0.698562279343605,-0.0113526894710958,0.012999204453080893,0.005123353359522298,-35.362508074999994,149.16600055,22106.75,522.25,434.5,-0.25,AUTO,-131.75,-86.5,-988.75,-10.25,14.0,4.5
14:44:50,200.0,0.09148632362484932,-0.10915767401456833,0.6979016959667206,-0.01752969203516841,0.03487178555224091,0.0007889175321906805,-35.3624608,149.16604840000002,22109.5,520.5,433.0,-3.0,AUTO,-116.0,-84.0,-991.0,-16.5,36.0,1.0
14:44:52,200.0,0.08566280826926231,-0.019531073980033398,0.6996912360191345,-0.0160833103582263,0.05156698450446129,0.000720494834240526,-35.3623721,149.16613845,22208.0,441.0,370.5,-3.0,AUTO,-113.0,-86.0,-989.5,-15.5,52.0,0.5
14:44:53,76369.0,0.06974231079220772,0.0249499425990507,0.6994959861040115,0.2509961202740669,0.04631487186998129,-0.002942505292594433,-35.3623357,149.16617639999998,22207.0,366.75,308.25,3.25,AUTO,-90.5,-60.5,-995.25,251.5,47.0,-3.0
14:44:54,76369.0,0.05086337402462959,0.05072864331305027,0.6988636553287506,-0.01840043067932129,0.015271399170160294,0.016052756924182177,-35.36230715000001,149.16620655,22152.5,278.5,230.0,4.0,AUTO,-70.5,-70.5,-1006.5,-18.0,16.0,16.0
14:44:56,76369.0,0.01467030105413869,0.07223564013838768,0.6979170441627502,0.31287323124706745,-0.007991372607648373,0.0007655727677047253,-35.362273349999995,149.16624265000002,22081.5,116.5,88.0,0.0,AUTO,-27.5,2.0,-1011.5,314.0,-6.5,1.5
14:44:57,150576.0,0.0010414815478725359,0.05127581022679806,0.6976704448461533,-0.006418168544769287,-0.02162676304578781,0.00598811058443971,-35.36226655,149.166250025,22071.0,57.0,32.5,0.0,AUTO,-11.0,-14.25,-1005.75,-6.0,-19.75,5.75
14:44:58,150576.0,-0.01326601579785347,0.03156964108347893,0.6982865035533905,-0.2658785246312618,-0.01702557783573866,0.0005694888823200017,-35.36226425,149.16625240000002,22073.5,23.5,1.0,-1.0,AUTO,-2.0,-4.0,-1001.5,-265.0,-15.5,0.5
14:45:00,150576.0,-0.007410736288875341,-0.0035103114787489176,0.700227677822113,-0.36032840609550476,0.005591118009760976,-0.0057149301283061504,-35.3622637,149.16625175000001,22088.5,11.5,-11.5,-1.0,RTL,0.0,-15.0,-1005.5,-359.5,6.5,-4.5
14:45:01,237179.0,-0.0048667014634702355,0.0030482435831800103,0.699305534362793,-0.056099358946084976,0.0011824903776869178,-0.006927491049282253,-35.362263425,149.1662515,22147.5,9.5,-8.25,-15.75,RTL,-0.75,2.0,-1026.5,-55.75,1.5,-6.0
14:45:02,237179.0,-0.0021169548854231834,0.00443484669085592,0.6983256638050079,0.11249325796961784,-0.0017420848307665437,-0.005739124724641442,-35.3622632,149.16625134999998,22501.0,7.0,-8.0,-53.5,RTL,-1.5,10.0,-1044.5,112.5,-0.5,-4.5
14:45:04,237179.0,0.009751867066370323,0.004353414406068623,0.6962333917617798,0.02286961954087019,-0.0018866837490350008,-0.0006389102782122791,-35.36226275,149.16625105,24470.0,1.5,-5.5,-134.5,RTL,-1.0,0.0,-1027.5,22.5,-1.0,-0.5
14:45:05,68100.0,0.04839054076001048,-0.0006385465967468917,0.6959670186042786,0.044953225180506706,-0.008003360824659467,0.0025535818422213197,-35.362262875,149.16625155,25947.5,-11.25,13.0,-148.5,RTL,0.5,-2.25,-1001.25,44.25,-6.5,2.5
14:45:06,68100.0,-0.0005103312432765961,0.01078312355093658,0.6586977541446686,-0.07862367667257786,0.0352317588403821,-0.06372896023094654,-35.3622643,149.1662549,27467.5,-24.5,31.5,-146.5,RTL,2.0,-7.5,-1000.5,-78.0,36.5,-62.5
14:45:08,68100.0,-0.006141390651464462,0.008168450323864818,0.6059584617614746,0.06408989056944847,0.006491500651463866,-0.003403018694370985,-35.36226355,149.1662533,30532.5,15.0,-39.0,-150.0,RTL,-4.5,9.5,-1002.0,64.0,7.0,-3.0
14:45:09,238035.0,0.03621249459683895,-0.007409351353999227,0.6274359226226807,0.011380615644156933,-0.037120986729860306,0.052435947582125664,-35.36226215,149.166248775,32092.5,0.75,-25.25,-151.0,RTL,-1.75,8.5,-999.0,11.0,-35.5,52.75
14:45:10,238035.0,0.022050275467336178,-0.01120416377671063,0.6456039249897003,-0.02066979045048356,0.029162878170609474,-0.015602683648467064,-35.36226135,149.1662473,33647.0,0.5,5.5,-150.0,RTL,-2.5,0.5,-999.5,-20.0,30.0,-15.0
14:45:12,238035.0,0.013572984840720892,0.015458918176591396,0.591389924287796,0.005494774552062154,0.0008111184579320252,-0.016019228380173445,-35.3622596,149.16624810000002,36756.5,-8.5,6.5,-151.0,RTL,-0.5,-0.5,-1000.0,5.5,2.0,-15.0
14:45:13,300000.0,0.011118262074887753,0.0119080631993711,0.5759913772344589,-0.002035017270827666,-0.00424627517350018,-0.013216029154136777,-35.3622597,149.16624835,38321.5,-15.25,6.0,-151.25,RTL,0.5,-0.25,-1000.0,-1.5,-2.25,-12.0
14:45:14,300000.0,0.007274242350831628,0.007723401766270399,0.5575131177902222,0.0011994457163382322,-0.0013448044774122536,-0.021034215576946735,-35.3622603,149.16624860000002,39878.5,-15.5,6.0,-152.0,RTL,1.0,0.0,-1000.0,1.5,0.0,-20.0
14:45:16,300000.0,0.006568648852407932,0.005177306942641735,0.5086473971605301,0.0032733697444200516,0.00163284718291834,-0.025486232712864876,-35.3622613,149.166249,43002.5,-10.0,5.0,-152.0,RTL,0.5,0.0,-999.5,3.5,2.5,-23.5
14:45:17,53079.0,0.006525870179757476,0.005953354644589126,0.4824841842055321,0.0006919298466527835,0.0008665325585752726,-0.024903395678848028,-35.36226155,149.16624915,44562.5,-8.25,5.0,-152.0,RTL,0.0,0.0,-999.75,1.5,1.75,-23.25
14:45:18,53079.0,0.006494475062936544,0.006128052482381463,0.4578129053115845,0.002092403912683949,0.0008166234474629164,-0.022693620063364506,-35.36226175,149.16624925000002,46122.0,-7.5,4.5,-152.0,RTL,0.0,0.0,-999.5,2.5,2.0,-21.0
14:45:20,53079.0,0.006577224237844348,0.007164138602092862,0.41533155739307404,0.0037267070438247174,0.004351895826403052,-0.0077089229598641396,-35.36226205,149.16624954999997,49239.5,-7.0,4.0,-152.5,RTL,0.0,0.0,-999.5,4.0,5.5,-6.5
14:45:21,300000.0,0.007525922264903784,0.00839403085410595,0.4226992279291153,-0.0008535097003914416,-0.0011062319681514055,0.025645042303949594,-35.36226225,149.16624969999998,50795.0,-8.25,4.75,-152.0,RTL,0.25,0.0,-999.5,0.5,0.5,26.5
14:45:22,300000.0,0.004648231086321175,0.0055602905340492725,0.45022153854370117,-0.0034048273228108883,-0.0018074660329148173,0.027885353192687035,-35.362262650000005,149.16625,52346.5,-8.5,5.0,-152.0,RTL,0.5,0.0,-1000.0,-2.0,0.0,28.5
14:45:24,300000.0,0.0040638691280037165,0.003933426924049854,0.4978060871362686,0.002518089662771672,0.0008264074567705393,0.021495269611477852,-35.362263,149.1662502,55450.0,-3.5,2.5,-152.0,RTL,0.0,0.0,-1000.0,3.0,2.0,22.5
14:45:25,200.0,0.004853261401876807,0.003983732953201979,0.5162139981985092,0.0019033985736314207,0.0006188005500007421,0.018247985746711493,-35.362263,149.166250125,57001.0,-2.25,2.0,-152.0,RTL,0.0,0.0,-1000.0,2.5,2.0,19.25
14:45:26,200.0,0.005579517222940922,0.003857992240227759,0.5321881771087646,0.00212147762067616,0.00045645295176655054,0.014473493676632643,-35.36226285,149.1662501,58553.0,-2.0,2.0,-152.0,RTL,0.0,0.0,-1000.0,3.0,2.0,15.5
14:45:28,200.0,0.005906155565753579,0.004718989133834839,0.5578233897686005,0.003776667988859117,0.002281104330904782,0.012299560941755772,-35.362262650000005,149.16625005,61658.0,-2.0,2.5,-152.0,RTL,0.0,0.0,-1000.0,4.5,3.5,13.5
14:45:29,200.0,0.005859099328517914,0.005085916141979396,0.568342000246048,0.0013489699340425432,0.0006005986360833049,0.011026926338672638,-35.362262525,149.16625,63212.75,-2.75,2.0,-152.0,RTL,0.0,0.0,-1000.0,2.75,2.25,11.75
14:45:30,200.0,0.005575630348175764,0.0050837357994169,0.5772294998168945,0.0020040575764141977,0.0006437117699533701,0.008423274848610163,-35.36226245,149.16625,64766.5,-3.0,2.0,-152.0,RTL,0.0,0.0,-1000.0,3.0,2.0,9.5
14:45:32,200.0,0.005043183919042349,0.0045095146633684635,0.5919043719768524,0.004717705771327019,0.00043109169928357005,0.008466248866170645,-35.3622624,149.16625,67874.5,-3.0,2.0,-152.0,RTL,0.0,0.0,-1000.0,6.0,2.0,9.5
14:45:33,259149.0,0.004560203989967704,0.004648135392926633,0.5982319116592407,0.000252082129009068,0.0012997397570870817,0.006824254058301449,-35.3622624,149.16625005,69427.5,-3.0,2.0,-152.0,RTL,0.0,0.0,-999.75,1.25,2.75,7.75
14:45:34,259149.0,0.004245013697072864,0.004732639063149691,0.6041494607925415,0.0035241530276834965,0.000990179309155792,0.008328540250658989,-35.3622624,149.1662501,70980.5,-3.0,1.0,-152.0,RTL,0.0,0.0,-1000.0,4.5,2.5,9.0
14:45:36,259149.0,0.004337042570114136,0.004309935728088021,0.61488938331604,-0.0006282369722612202,0.0009187542018480599,0.005431153113022447,-35.3622624,149.1662501,74085.0,-3.0,1.0,-152.0,RTL,0.0,0.0,-999.5,1.0,2.5,6.0
14:45:37,300000.0,0.004120214027352631,0.004656039061956108,0.6200652718544006,-0.0008347792900167406,0.0005158653075341135,0.007026181323453784,-35.3622624,149.1662501,75642.25,-3.0,1.0,-152.0,RTL,0.0,0.0,-999.75,0.75,2.0,8.25
14:45:38,300000.0,0.0037506374064832926,0.0047067340929061174,0.6249765753746033,0.00047999806702136993,-0.0006482995813712478,0.004653772339224815,-35.3622624,149.16625015,77194.5,-3.0,0.5,-152.0,RTL,0.0,0.0,-1000.0,2.0,1.5,6.0
14:45:40,300000.0,0.0035359137691557407,0.0036848774179816246,0.6332012712955475,-0.0013527129776775837,0.0009428897756151855,0.0040005873888731,-35.3622624,149.1662502,80301.0,-2.5,0.0,-152.0,RTL,0.0,0.0,-999.5,0.5,2.5,5.0
14:45:41,184842.0,0.00385554030071944,0.004089729394763708,0.6367136240005493,0.0008517282549291849,0.000720069365343079,0.0048777698539197445,-35.3622624,149.1662502,81853.5,-2.0,0.0,-152.0,RTL,0.0,0.0,-999.75,2.25,2.25,6.0
14:45:42,184842.0,0.004299785592593253,0.003933091298677027,0.6400020122528076,0.0021313941688276827,0.000692239380441606,0.004546685144305229,-35.3622624,149.1662502,83407.5,-2.0,0.0,-152.0,RTL,0.0,0.0,-1000.0,3.5,2.0,5.5
14:45:44,184842.0,0.004321535117924213,0.004721235716715455,0.6463165283203125,0.00029687461210414767,0.0021160152973607183,0.004274326842278242,-35.3622624,149.1662502,86511.5,-3.0,1.0,-152.0,RTL,0.0,0.0,-999.5,1.5,4.0,5.5
14:45:45,187414.0,0.0035118055529892445,0.00493803562130779,0.6494675725698471,0.001026473066303879,0.0014062816044315696,0.0030188236851245165,-35.3622624,149.1662502,88063.75,-3.0,0.5,-152.0,RTL,0.0,0.0,-1000.0,2.25,3.0,4.5
14:45:46,187414.0,0.0033630606485530734,0.00493418681435287,0.6518346965312958,0.0003708451986312866,0.0016029805410653353,0.004082151222974062,-35.3622624,149.16625025000002,89616.5,-3.0,0.0,-152.0,RTL,0.0,0.0,-999.5,2.0,3.5,5.0
14:45:48,187414.0,0.0030995372217148542,0.003768287133425474,0.6565579473972321,-0.0002287785173393786,0.000768725061789155,0.001539212476927787,-35.3622624,149.1662503,92724.5,-2.5,0.0,-152.0,RTL,0.0,0.0,-999.5,1.5,2.5,2.5
14:45:49,80642.0,0.003343776275869459,0.004102011676877737,0.658541351556778,-0.00014584255404770374,0.0008820543880574405,0.0029936531209386885,-35.3622624,149.1662503,94276.0,-2.0,0.0,-152.0,RTL,0.0,0.0,-1000.0,1.5,2.5,4.5
14:45:50,80642.0,0.0036870629992336035,0.004070396302267909,0.6604516208171844,0.002851411118172109,0.0015464499592781067,0.0037565157981589437,-35.3622624,149.1662503,95833.0,-2.0,0.0,-152.0,RTL,0.0,0.0,-1000.0,4.5,3.0,5.0
14:45:52,80642.0,0.003723632777109742,0.004185448633506894,0.6638418436050415,-3.3708056434988976e-07,0.000853809411637485,0.00343239214271307,-35.3622624,149.1662503,98943.5,-2.0,0.0,-152.0,RTL,0.0,0.0,-999.5,2.0,2.5,4.5
14:45:53,128730.0,0.004164932994171977,0.004969888599589467,0.6660289168357849,0.0006308394658844918,0.0002674231946002692,0.00390846497612074,-35.3622624,149.1662503,100492.75,-2.5,0.0,-152.0,RTL,0.0,0.0,-1000.0,2.5,2.0,5.0
14:45:54,128730.0,0.003819874254986644,0.004749281564727426,0.6679890751838684,-0.00016086769755929708,0.000576180755160749,0.0019299390842206776,-35.3622624,149.1662503,102049.5,-3.0,0.0,-152.0,RTL,0.0,0.0,-1000.0,2.0,2.5,3.0
14:45:56,128730.0,0.0031428509391844273,0.003971736063249409,0.6706613004207611,-0.0005544162122532725,-0.0004675947711803019,0.001813677663449198,-35.3622624,149.1662503,105156.0,-2.5,0.0,-152.0,RTL,0.0,0.0,-999.5,1.0,1.5,3.0
14:45:57,200.0,0.0029697768623009324,0.004212608560919762,0.6717482954263687,0.0013221526169218123,0.0006760169635526836,0.0019981780205853283,-35.3622624,149.1662503,106713.5,-2.0,0.0,-152.0,RTL,0.0,0.0,-1000.0,3.0,2.5,3.5
14:45:58,200.0,0.0033730575814843178,0.0043209935538470745,0.672959566116333,-0.0012352893827483058,-2.5020388420671225e-05,0.0022434432175941765,-35.3622624,149.1662503,108266.5,-2.0,0.0,-152.0,RTL,0.0,0.0,-999.5,0.5,1.5,3.5
14:46:00,200.0,0.003331649350002408,0.004287226824089885,0.6747784316539764,-0.0016804137267172337,0.0005706521915271878,0.0005823554820381105,-35.3622624,149.1662503,111375.5,-2.0,0.0,-152.0,RTL,0.0,0.0,-1000.0,0.0,2.5,2.0
14:46:01,300000.0,0.003318886272609234,0.004219082184135914,0.675759881734848,0.0009452136000618339,0.0008109025075100362,0.0017456926871091127,-35.3622624,149.1662503,112927.25,-2.0,0.0,-152.0,RTL,0.0,0.0,-1000.0,2.5,2.75,3.25
14:46:02,300000.0,0.003507553832605481,0.004166056634858251,0.6766823530197144,0.0020121934358030558,0.0017509361496195197,0.0006850626086816192,-35.3622624,149.1662503,114481.5,-2.0,0.0,-152.0,RTL,0.0,0.0,-999.5,4.0,3.0,2.5
14:46:04,300000.0,0.003458577790297568,0.00426469836384058,0.6781872808933258,0.0027184595819562674,0.001558303483761847,0.001734942547045648,-35.3622624,149.1662503,117588.5,-2.0,0.0,-152.0,RTL,0.0,0.0,-1000.0,4.5,3.5,3.5
14:46:05,216681.0,0.003817607881501317,0.004997744341380894,0.6787362694740295,0.0006230213912203908,0.0013239448890089989,0.0001785985368769616,-35.3622624,149.1662503,119141.5,-2.0,0.0,-152.0,RTL,0.0,0.0,-1000.25,2.5,3.25,1.5
14:46:06,216681.0,0.0035219495184719563,0.0046980108600109816,0.6794645488262177,0.0004414234426803887,0.0010316334664821625,0.0018872878281399608,-35.3622624,149.1662503,120694.5,-2.5,0.0,-152.0,RTL,0.0,0.0,-999.5,2.0,3.0,3.5
14:46:08,216681.0,0.0027159627061337233,0.0036286235554143786,0.6805988252162933,0.00014852179447188973,2.859346568584442e-05,0.0008942941785790026,-35.36226245,149.1662503,123802.0,-2.0,0.0,-152.0,RTL,0.0,0.0,-1000.0,2.5,2.0,2.0
14:46:09,200.0,0.002949128218460828,0.003871457593049854,0.6811936497688293,0.0012734908086713403,0.0006761567201465368,0.001825295272283256,-35.3622625,149.1662503,125353.5,-1.25,0.0,-152.0,RTL,0.0,0.0,-1000.0,3.0,2.5,3.25
14:46:10,200.0,0.003289536223746836,0.003852674621157348,0.6821608245372772,-0.0018176261219196022,-0.0017224445473402739,0.001234545954503119,-35.3622625,149.1662503,126908.5,-1.0,0.0,-152.0,RTL,0.0,0.0,-1000.0,0.0,0.5,2.5
14:46:12,200.0,0.003621914656832814,0.004375140415504575,0.683097630739212,-0.0008921619737520814,-0.0013419596361927688,0.0020251101814210415,-35.3622625,149.1662503,130019.0,-2.0,0.0,-152.0,RTL,0.0,0.0,-1000.0,1.5,1.0,3.5
14:46:13,122496.0,0.003252487280406058,0.004301312379539013,0.6834222227334976,-0.001418019994162023,0.0002755215100478381,0.001062894007191062,-35.3622625,149.1662503,131571.25,-2.0,0.0,-152.0,RTL,0.0,0.0,-999.75,1.0,2.25,3.0
14:46:14,122496.0,0.0032117869704961777,0.004658764228224754,0.6837199032306671,0.0007256665267050266,0.0003699085209518671,0.000845277332700789,-35.3622625,149.1662503,133124.5,-2.0,0.0,-152.0,RTL,0.0,0.0,-1000.0,2.5,2.5,2.5
14:46:16,122496.0,0.003412370686419308,0.004876983119174838,0.6844456791877747,-0.0016969401622191072,0.0007409424288198352,0.001840872340835631,-35.3622624,149.1662503,136232.5,-3.0,0.0,-152.0,RTL,0.0,0.0,-999.5,0.5,3.0,3.5
14:46:17,225723.0,0.002470032835844904,0.004097356693819165,0.6847047507762909,0.00021865707822144032,-4.6279397793114185e-05,0.0011810300638899207,-35.3622624,149.1662503,137789.0,-2.5,0.0,-152.0,RTL,0.0,0.0,-999.5,2.25,2.25,3.0
14:46:18,225723.0,0.0025045902002602816,0.0036861414555460215,0.6848829090595245,-0.003296952578239143,-0.0008624574402347207,0.0018923614406958222,-35.36226245,149.1662503,139341.5,-2.0,0.0,-152.0,RTL,0.0,0.0,-999.0,-1.0,1.5,3.5
14:46:20,225723.0,0.0035325195640325546,0.0038615823723375797,0.6853783428668976,0.0007760816952213645,0.0020866519771516323,0.0017902859253808856,-35.3622625,149.1662503,142449.5,-1.0,0.0,-152.0,RTL,0.0,0.0,-999.5,3.0,4.0,3.5
14:46:21,148262.0,0.003392886952497065,0.004249665187671781,0.6857448369264603,-3.892710083164275e-05,0.0015900458092801273,-9.731983300298452e-05,-35.3622625,149.1662503,144008.5,-1.75,0.0,-152.0,RTL,0.0,0.0,-1000.0,2.0,4.0,1.5
14:46:22,148262.0,0.0034980245400220156,0.004268848104402423,0.6856416761875153,0.001466945861466229,0.0009837301913648844,0.0017084932187572122,-35.3622625,149.1662503,145560.0,-2.0,0.0,-152.0,RTL,0.0,0.0,-999.5,3.0,3.0,3.5
14:46:24,148262.0,0.003404833492822945,0.0040052346885204315,0.6862641870975494,0.0018620947375893593,0.000482741161249578,8.682138286530972e-06,-35.3622625,149.1662503,148671.5,-2.0,0.0,-152.0,RTL,0.0,0.0,-1000.0,4.0,3.0,1.5
14:46:25,104429.0,0.003265573875978589,0.0043047856306657195,0.6863515824079514,-0.000710835272911936,0.0003010291256941855,0.0012309325975365937,-35.3622625,149.1662503,150224.5,-2.0,0.0,-152.0,RTL,0.0,0.0,-1000.0,1.75,2.5,3.0
14:46:26,104429.0,0.002915531978942454,0.004591439152136445,0.6871040463447571,-0.00038554088678210974,7.972423918545246e-05,0.001017009955830872,-35.3622625,149.1662503,151777.5,-2.0,0.0,-152.0,RTL,0.0,0.0,-1000.0,1.5,2.5,2.5
14:46:28,104429.0,0.0032822362845763564,0.004146304912865162,0.6872853934764862,-0.0019446644000709057,-0.0006659951759502292,0.0010584952542558312,-35.3622625,149.1662503,154884.0,-2.0,0.0,-152.0,RTL,0.0,0.0,-999.5,0.0,2.0,3.0
14:46:29,300000.0,0.0028783940942957997,0.0044651603093370795,0.6873852759599686,0.00016992329619824886,0.0003174449084326625,0.00039481784915551543,-35.3622625,149.1662503,156441.0,-2.0,0.0,-152.0,RTL,0.0,0.0,-1000.25,2.5,2.75,2.5
14:46:30,300000.0,0.002938056248240173,0.004347221925854683,0.687379777431488,-0.000674428534694016,-0.0007930121500976384,-0.00041209091432392597,-35.3622625,149.1662503,157994.0,-2.0,0.0,-152.0,RTL,0.0,0.0,-1000.0,1.5,1.5,1.5
14:46:32,300000.0,0.003237601718865335,0.003946087206713855,0.6876374185085297,-0.0010335025726817548,-0.0003631036961451173,0.0011139255948364735,-35.3622625,149.1662503,161100.0,-2.0,0.0,-152.0,RTL,0.0,0.0,-1000.0,1.0,2.0,3.0
14:46:33,90093.0,0.003393023507669568,0.00407411390915513,0.6877108067274094,0.00019073343719355762,7.702701259404421e-05,0.0007074219756759703,-35.3622625,149.1662503,162651.25,-2.0,0.0,-152.0,RTL,0.0,0.0,-1000.0,2.5,2.5,2.25
14:46:34,90093.0,0.003143747802823782,0.004275164566934109,0.687580406665802,-0.00048498279647901654,0.001056396635249257,0.0013247741153463721,-35.3622625,149.1662503,164204.5,-2.0,0.0,-152.0,RTL,0.0,0.0,-1000.0,2.0,3.5,3.0
14:46:36,90093.0,0.0036244791699573398,0.003974612685851753,0.6878737807273865,-9.090639650821686e-05,4.2300671339035034e-05,0.0011321286438032985,-35.3622625,149.1662503,167311.5,-2.0,0.0,-152.0,RTL,0.0,0.0,-1000.0,2.5,2.5,3.0
14:46:37,272139.0,0.003381706599611789,0.0042763203382492065,0.6879974156618118,-3.116714651696384e-05,0.0012468865024857223,0.00020961271366104484,-35.3622625,149.1662503,168866.5,-2.0,0.0,-152.0,RTL,0.0,0.0,-1000.0,2.25,3.75,2.25
14:46:38,272139.0,0.0031080906046554446,0.004328045062720776,0.6877567768096924,0.00031643558759242296,0.0003306489670649171,6.207649130374193e-05,-35.3622625,149.1662503,170422.0,-2.0,0.0,-152.0,RTL,0.0,0.0,-1000.0,2.5,3.0,2.0
14:46:40,272139.0,0.003196485689841211,0.0042064799927175045,0.6880441904067993,-0.00022622034884989262,-0.0014119424158707261,0.0014399642823264003,-35.3622625,149.1662503,173529.5,-2.0,0.0,-152.0,RTL,0.0,0.0,-1000.0,2.0,1.0,3.5
14:46:41,134887.0,0.003232914605177939,0.004315415397286415,0.6882594972848892,0.00014456466306000948,0.0015065355109982193,0.001268376421649009,-35.3622625,149.1662503,175086.0,-2.0,0.0,-152.0,RTL,0.0,0.0,-999.75,2.5,3.75,3.25
14:46:42,134887.0,0.0028414891567081213,0.004664825741201639,0.6887939870357513,0.0009779417887330055,0.00046330783516168594,0.0011350744171068072,-35.3622625,149.1662503,176639.0,-2.0,0.0,-152.0,RTL,0.0,0.0,-1000.0,3.0,2.5,3.5
14:46:44,134887.0,0.0031949797412380576,0.004185250727459788,0.6886646747589111,-0.0012403466971591115,0.00036499975249171257,0.000601497245952487,-35.3622625,149.1662503,179746.0,-2.0,0.0,-152.0,RTL,0.0,0.0,-1000.0,1.0,2.5,3.0
14:46:45,300000.0,0.003295073751360178,0.003908909915480763,0.6887023597955704,0.0008840695663820952,-0.0002629192895255983,-0.00011903053382411599,-35.3622625,149.1662503,181302.75,-2.0,0.0,-152.0,RTL,0.0,0.0,-1000.25,3.25,2.25,1.75
14:46:46,300000.0,0.003437630017288029,0.0042260633781552315,0.6886807382106781,0.0011846960987895727,0.0005226304056122899,3.937474684789777e-05,-35.3622625,149.1662503,182856.5,-2.0,0.0,-152.0,RTL,0.0,0.0,-1000.5,3.5,3.0,2.0
14:46:48,300000.0,0.002933354349806905,0.003773503238335252,0.6887817680835724,-0.00039433990605175495,-1.0143616236746311e-05,0.0015364927239716053,-35.3622625,149.1662503,185965.0,-2.0,0.0,-152.0,RTL,0.0,0.0,-999.5,2.0,2.5,3.5
14:46:49,226950.0,0.00311174284433946,0.003944862983189523,0.6885941624641418,0.0004561927926260978,0.0004069351125508547,-0.00012768484884873033,-35.3622625,149.1662503,187518.25,-1.0,0.0,-152.0,RTL,0.0,0.0,-1000.0,2.75,2.75,2.0
14:46:50,226950.0,0.0035277835559099913,0.003952515893615782,0.6885367333889008,0.0015287987189367414,7.76925589889288e-05,9.102176409214735e-05,-35.3622625,149.1662503,189072.5,-1.0,0.0,-152.0,RTL,0.0,0.0,-1000.0,4.5,2.5,2.5
14:46:52,226950.0,0.0034903103951364756,0.004259343957528472,0.6887841522693634,0.0018878637347370386,0.0005565515020862222,0.0005023007979616523,-35.3622625,149.1662503,192177.5,-2.0,0.0,-152.0,RTL,0.0,0.0,-1000.5,5.0,3.0,2.5
14:46:53,300000.0,0.003090720158070326,0.004440199467353523,0.6887029707431793,0.0006696650525555015,0.0008457342628389597,0.0005627924401778728,-35.3622625,149.1662503,193730.75,-2.0,0.0,-152.0,RTL,0.0,0.0,-999.75,3.0,3.75,2.75
14:46:54,300000.0,0.0029488917207345366,0.004389053909108043,0.6885733008384705,-0.0013312841765582561,-8.589355275034904e-05,-0.0010376632562838495,-35.3622625,149.1662503,195284.5,-2.0,0.0,-152.0,RTL,0.0,0.0,-1000.0,1.5,2.5,1.0
14:46:56,300000.0,0.003130471333861351,0.004086199915036559,0.6886366903781891,0.0005741947097703815,0.0004166429862380028,0.0006055316189303994,-35.3622625,149.1662503,198394.0,-2.0,0.0,-152.0,RTL,0.0,0.0,-1000.0,3.0,3.0,3.0
14:46:57,289952.0,0.0028722434653900564,0.0044857567409053445,0.6886230409145355,-4.014349542558193e-05,0.0003323203418403864,-0.0007818616286385804,-35.3622625,149.1662503,199946.25,-2.0,0.0,-152.0,RTL,0.0,0.0,-1000.25,2.75,3.0,1.25
14:46:58,289952.0,0.0028855401324108243,0.0044443379156291485,0.6889848709106445,-0.0005838349461555481,4.516297485679388e-05,0.0008392019663006067,-35.3622625,149.1662503,201502.5,-2.0,0.0,-152.0,RTL,0.0,0.0,-1000.0,2.0,2.5,3.0
14:47:00,289952.0,0.003474331460893154,0.00398601358756423,0.6891590058803558,-0.0014732691925019026,-0.0007019427139312029,0.0012013075174763799,-35.3622625,149.1662503,204613.5,-2.0,0.0,-152.0,RTL,0.0,0.0,-1000.0,1.5,2.0,3.5
14:47:01,189440.0,0.0031397456186823547,0.004021873348392546,0.689108207821846,-0.0010965707479044795,-8.263153722509742e-05,-0.00029794115107506514,-35.3622625,149.1662503,206162.25,-2.0,0.0,-152.0,RTL,0.0,0.0,-1000.25,1.25,2.75,1.75
14:47:02,189440.0,0.0029332160484045744,0.0038779565365985036,0.6890392899513245,0.0008221720345318317,0.0003651294391602278,-0.00010589166777208447,-35.3622625,149.1662503,207719.5,-1.5,0.0,-152.0,RTL,0.0,0.0,-1000.0,3.5,3.0,2.0
14:47:04,189440.0,0.003561672638170421,0.003898379858583212,0.6890731751918793,0.0007400622125715017,0.00022471346892416477,-0.0003928063088096678,-35.3622625,149.1662503,210826.5,-1.0,0.0,-152.0,RTL,0.0,0.0,-1000.0,3.5,2.5,2.0
14:47:05,207961.0,0.003310800122562796,0.00417535612359643,0.6889251917600632,0.0001550152082927525,0.000907549518160522,0.0007837344310246408,-35.3622625,149.1662503,212383.25,-1.75,0.0,-152.0,RTL,0.0,0.0,-999.5,3.0,3.5,3.25
14:47:06,207961.0,0.0034803313901647925,0.004470188869163394,0.6888745427131653,0.0009171186247840524,0.0012504593469202518,5.258945748209953e-05,-35.3622625,149.1662503,213937.5,-2.0,0.0,-152.0,RTL,0.0,0.0,-1000.0,3.5,4.5,2.5
14:47:08,207961.0,0.003134276485070586,0.0043129578698426485,0.6891427636146545,0.0006371318595483899,-0.00038763764314353466,-0.0002026574220508337,-35.3622625,149.1662503,217045.5,-2.0,0.0,-152.0,RTL,0.0,0.0,-1000.0,3.0,2.5,2.5
14:47:09,211389.0,0.00279257568763569,0.004404744948260486,0.6889208257198334,0.0007432371785398573,0.0003098215092904866,0.001020859635900706,-35.3622625,149.1662503,218597.25,-2.0,0.0,-152.0,RTL,0.0,0.0,-1000.0,3.5,3.0,3.5
14:47:10,211389.0,0.0029167928732931614,0.004321577958762646,0.6890619099140167,0.00019906868692487478,-0.0007285216124728322,0.0006548753008246422,-35.3622625,149.1662503,220153.0,-2.0,0.0,-152.0,RTL,0.0,0.0,-1000.0,3.0,2.0,3.0
14:47:12,211389.0,0.003326503443531692,0.003951544989831746,0.6888021528720856,0.0016461395425722003,-0.0009471648372709751,0.00195646402426064,-35.3622625,149.1662503,223258.5,-2.0,0.0,-152.0,RTL,0.0,0.0,-1000.0,4.5,2.0,5.0
14:47:13,200.0,0.0032708978978917003,0.004065942543093115,0.6887502074241638,0.0002031393232755363,-0.00021798722445964813,0.0007028012478258461,-35.3622625,149.1662503,224811.25,-2.0,0.0,-152.0,RTL,0.0,0.0,-1000.0,3.0,2.75,3.0
14:47:14,200.0,0.002952948911115527,0.004077514633536339,0.68929323554039,0.00020492920884862542,-1.7062644474208355e-05,-7.070600986480713e-05,-35.3622625,149.1662503,226364.5,-2.0,0.0,-152.0,RTL,0.0,0.0,-1000.5,3.0,2.5,2.5
14:47:16,200.0,0.003530459711328149,0.0037882522447034717,0.6893608272075653,-0.0003635195316746831,0.00024737592320889235,-0.0007042441284283996,-35.3622625,149.1662503,229472.5,-1.0,0.0,-152.0,RTL,0.0,0.0,-1000.0,2.0,3.0,1.5
14:47:17,300000.0,0.00331792765064165,0.004026913200505078,0.689246654510498,-0.0008098327089101076,0.0005795019678771496,-7.282866863533854e-05,-35.3622625,149.1662503,231023.0,-1.0,0.0,-152.0,RTL,0.0,0.0,-999.75,2.0,3.5,2.25
14:47:18,300000.0,0.003671948448754847,0.004591785371303558,0.6891807317733765,0.001156510435976088,0.001305434387177229,0.0006699403747916222,-35.3622625,149.1662503,232578.0,-2.0,0.0,-152.0,RTL,0.0,0.0,-999.5,4.0,4.0,3.5
14:47:20,300000.0,0.0031192906899377704,0.004442624282091856,0.6891875267028809,0.0019458942115306854,0.0004036050522699952,4.222290590405464e-05,-35.3622625,149.1662503,235691.5,-2.0,0.0,-152.0,RTL,0.0,0.0,-1000.0,5.5,3.5,2.5
14:47:21,94585.0,0.00317384215304628,0.0042174088302999735,0.6889475733041763,0.00113983906339854,0.0010269716149196029,0.001486314577050507,-35.3622625,149.1662503,237241.0,-2.0,0.0,-152.0,RTL,0.0,0.0,-999.75,4.0,4.0,4.0
14:47:22,94585.0,0.0033170488895848393,0.004318842198699713,0.6892391443252563,-0.000609539682045579,0.0014423676766455173,0.0008131142240017653,-35.3622625,149.1662503,238794.5,-2.0,0.0,-152.0,RTL,0.0,0.0,-999.5,2.5,4.5,3.5
14:47:24,94585.0,0.0029122676933184266,0.00429396191611886,0.6890074610710144,-0.0021217521280050278,0.00037293380592018366,0.0008870261954143643,-35.3622625,149.1662503,241904.0,-2.0,0.0,-152.0,RTL,0.0,0.0,-999.5,0.5,3.5,3.0
14:47:25,200.0,0.00310416123829782,0.0041334511479362845,0.6890315413475037,0.00044095731573179364,-0.000418785959482193,0.00034260639222338796,-35.3622625,149.1662503,243461.75,-2.0,0.0,-152.0,RTL,0.0,0.0,-999.75,3.5,2.5,3.0
14:47:26,200.0,0.003283128491602838,0.004043194931000471,0.6888972520828247,-0.0007376424036920071,-0.0008551387581974268,0.0007443182403221726,-35.3622625,149.1662503,245016.5,-2.0,0.0,-152.0,RTL,0.0,0.0,-1000.0,2.5,2.5,3.5
14:47:28,200.0,0.0029034444596618414,0.004062813241034746,0.6888618469238281,0.0008754596346989274,0.0005102189024910331,0.0011707170633599162,-35.3622625,149.1662503,248124.5,-2.0,0.0,-152.0,RTL,0.0,0.0,-999.5,4.0,3.5,4.0
14:47:29,233428.0,0.002900092280469835,0.003789043112192303,0.6889167279005051,-1.8272665329277515e-05,-0.0004973119357600808,0.00019456850714050233,-35.3622625,149.1662503,249675.0,-1.5,0.0,-152.0,RTL,0.0,0.0,-1000.25,3.0,2.75,2.75
14:47:30,233428.0,0.003125672461465001,0.004103533923625946,0.6890674233436584,0.0018844050355255604,0.0009714862098917365,0.002330155810341239,-35.3622625,149.1662503,251230.5,-1.0,0.0,-152.0,RTL,0.0,0.0,-999.5,5.0,3.5,5.0
14:47:32,233428.0,0.0036186069482937455,0.004197319969534874,0.6892459988594055,0.00016097445040941238,-0.00019962608348578215,-0.00128557049902156,-35.3622625,149.1662503,254335.5,-1.5,0.0,-152.0,RTL,0.0,0.0,-1000.0,3.0,3.5,1.5
14:47:33,278036.0,0.0035106875584460795,0.004319915897212923,0.6893247216939926,-0.0002239620080217719,0.0003012854722328484,0.0006706620915792882,-35.3622625,149.1662503,255889.25,-2.0,0.0,-152.0,RTL,0.0,0.0,-999.75,3.0,3.25,3.75
14:47:34,278036.0,0.0034851031377911568,0.0043753995560109615,0.6893838047981262,-0.0005644285120069981,0.00026678224094212055,-4.043825902044773e-05,-35.3622625,149.1662503,256860.0,-2.0,0.0,-152.0,RTL,0.0,0.0,-1000.0,3.0,4.0,3.0
14:47:36,278036.0,0.0030404299031943083,0.004347080597653985,0.6892604231834412,-0.0026038484647870064,0.00015002908185124397,-0.0014505217550322413,-35.3622625,149.1662503,259931.5,-2.0,0.0,-152.0,RTL,0.0,0.0,-1000.0,1.0,3.5,1.5
14:47:37,131267.0,0.0032345096697099507,0.004188860068097711,0.6892129927873611,-0.0004922009538859129,-2.725905505940318e-05,0.0016949105774983764,-35.3622625,149.1662503,261869.25,-2.0,0.0,-152.0,RTL,0.0,0.0,-999.75,2.75,3.25,4.75
14:47:38,131267.0,0.0032980756368488073,0.004176493966951966,0.689243882894516,0.0009739241795614362,-0.0008701685001142323,0.0001684551825746894,-35.3622625,149.1662503,263038.0,-2.0,0.0,-152.0,RTL,0.0,0.0,-1000.5,4.0,2.5,3.0
14:47:40,131267.0,0.003067316603846848,0.004130070563405752,0.6890549659729004,-0.0002412291942164302,7.73165374994278e-05,0.0014568984042853117,-35.3622625,149.1662503,266152.0,-2.0,0.0,-152.0,RTL,0.0,0.0,-1000.0,3.0,3.5,4.0
14:47:41,196773.0,0.003260035300627351,0.004244103562086821,0.6889943778514862,0.000375873118173331,-0.00026867928681895137,0.0007280425634235144,-35.3622625,149.1662503,268088.0,-2.0,0.0,-152.0,RTL,0.0,0.0,-1000.0,3.5,3.0,3.5
14:47:42,196773.0,0.0030095874099060893,0.003925009514205158,0.6891009509563446,-0.0013840415049344301,-0.0018785236170515418,0.0015823082067072392,-35.3622625,149.1662503,269259.0,-2.0,0.0,-152.0,RTL,0.0,0.0,-1000.0,2.0,1.5,4.5
14:47:44,196773.0,0.0031349414493888617,0.004068577196449041,0.6889873147010803,-0.0004881463246420026,1.6389531083405018e-05,0.0014211892848834395,-35.3622625,149.1662503,272358.5,-1.0,0.0,-152.0,RTL,0.0,0.0,-999.5,2.5,3.5,4.5
14:47:45,300000.0,0.003240580903366208,0.0040718920063227415,0.6889358460903168,0.0007741839508526027,0.0005880097160115838,0.0007593326736241579,-35.3622625,149.1662503,274308.25,-1.25,0.0,-152.0,RTL,0.0,0.0,-999.75,4.25,4.0,3.75
14:47:46,300000.0,0.003519036457873881,0.004380799597129226,0.6888682842254639,-0.001125838840380311,-0.0003499321173876524,-1.7465208657085896e-05,-35.3622625,149.1662503,275473.0,-2.0,0.0,-152.0,RTL,0.0,0.0,-999.5,2.0,3.0,3.0
14:47:48,300000.0,0.0033285365207120776,0.004064002772793174,0.6895243227481842,0.001108967699110508,-0.0007171061588451266,0.000771834165789187,-35.3622625,149.1662503,278579.0,-2.0,0.0,-152.0,RTL,0.0,0.0,-1000.5,4.5,2.5,4.0
14:47:49,63029.0,0.003220692335162312,0.004199981573037803,0.6893232613801956,0.0007230250630527735,-0.0006242260569706559,0.0005725417868234217,-35.3622625,149.1662503,280522.5,-2.0,0.0,-152.0,RTL,0.0,0.0,-1000.25,4.25,2.75,3.5
14:47:50,63029.0,0.0034933823626488447,0.004013790283352137,0.6892760992050171,-0.0020668033976107836,0.0002392872702330351,-0.0004227929748594761,-35.3622625,149.1662503,281691.0,-2.0,0.0,-152.0,RTL,0.0,0.0,-999.5,1.5,3.5,2.5
14:47:52,63029.0,0.0033512996742501855,0.004244150593876839,0.6894499659538269,-0.0009158083703368902,0.0004185568541288376,0.0010585621930658817,-35.3622625,149.1662503,284795.5,-2.0,0.0,-152.0,RTL,0.0,0.0,-1000.0,2.5,4.0,4.0
14:47:53,300000.0,0.00296782492659986,0.004448196501471102,0.6891397833824158,-0.0005062615964561701,0.00038218131521716714,0.00029406551038846374,-35.3622625,149.1662503,286735.0,-2.0,0.0,-152.0,RTL,0.0,0.0,-1000.0,2.75,3.75,3.5
14:47:54,300000.0,0.0028613636968657374,0.00451920460909605,0.6890318095684052,-0.0008960911072790623,4.852656275033951e-06,0.0015168071258813143,-35.3622625,149.1662503,287900.0,-2.0,0.0,-152.0,RTL,0.0,0.0,-1000.0,2.5,3.5,4.5
14:47:56,300000.0,0.0029189317720010877,0.004043822176754475,0.6890554428100586,-0.0006291921017691493,0.00043555593583732843,0.0006388162728399038,-35.3622625,149.1662503,291007.5,-1.0,0.0,-152.0,RTL,0.0,0.0,-1000.0,2.5,4.0,3.5
14:47:57,111000.0,0.00311464536935091,0.003985761140938848,0.6891372203826904,0.0004472964210435748,-0.00031593756284564734,0.0005148541531525552,-35.3622625,149.1662503,292950.25,-1.0,0.0,-152.0,RTL,0.0,0.0,-999.75,4.0,3.0,3.75
14:47:58,111000.0,0.003213314921595156,0.004177041118964553,0.6891684234142303,0.0011147946352139115,0.001335612265393138,0.0005738514009863138,-35.3622625,149.1662503,294117.5,-1.0,0.0,-152.0,RTL,0.0,0.0,-999.5,4.5,5.0,4.0
14:48:00,111000.0,0.0032152088824659586,0.004165821708738804,0.6890222430229187,-0.00025936204474419355,0.000258228974416852,-0.00018923182506114244,-35.3622625,149.1662503,297224.5,-1.0,0.0,-152.0,RTL,0.0,0.0,-1000.0,3.5,4.0,3.0
14:48:01,155755.0,0.0032549501629546285,0.004455480724573135,0.6888711154460907,0.0006348935421556234,-0.00044923857785761356,0.0007831890252418816,-35.3622625,149.1662503,299168.0,-2.0,0.0,-152.0,RTL,0.0,0.0,-1000.25,4.25,3.0,4.25
14:48:02,155755.0,0.0031491300323978066,0.004233376821503043,0.6887390315532684,0.00039644911885261536,-0.0005658306181430817,0.00040871358942240477,-35.3622625,149.1662503,300335.0,-2.0,0.0,-152.0,RTL,0.0,0.0,-1000.0,3.5,3.0,3.5
14:48:04,155755.0,0.0031157247722148895,0.004120110999792814,0.6894199550151825,0.00029927422292530537,-0.0003386458847671747,-0.0014400193467736244,-35.3622625,149.1662503,303441.5,-2.0,0.0,-152.0,RTL,0.0,0.0,-1000.0,3.5,3.5,1.5
14:48:05,182638.0,0.003108964767307043,0.004219597904011607,0.6893357485532761,-0.0009423652663826942,-0.0002478464157320559,0.0004869157273788005,-35.3622625,149.1662503,305389.0,-2.0,0.0,-152.0,RTL,0.0,0.0,-1000.0,2.25,3.25,3.5
14:48:06,182638.0,0.0029620135901495814,0.004228058038279414,0.6892512440681458,-0.001994119258597493,-0.0009309971937909722,-8.353253360837698e-05,-35.3622625,149.1662503,306555.0,-2.0,0.0,-152.0,RTL,0.0,0.0,-1000.0,1.5,3.0,3.0
14:48:08,182638.0,0.0030587194487452507,0.003922920092009008,0.6893585026264191,0.0008292491547763348,0.001271720277145505,0.00026592833455652,-35.3622625,149.1662503,309662.0,-1.0,0.0,-152.0,RTL,0.0,0.0,-1000.0,4.5,5.0,3.5
14:48:09,224674.0,0.0030417011003009975,0.003961074689868838,0.6891792863607407,0.0002486818702891469,-0.0005256484146229923,0.0015152713167481124,-35.3622625,149.1662503,311596.0,-1.0,0.0,-152.0,RTL,0.0,0.0,-999.75,3.75,3.25,5.0
14:48:10,224674.0,0.0029429730493575335,0.003959614667110145,0.6893598139286041,-8.122064173221588e-06,0.0017392602749168873,5.4335687309503555e-06,-35.3622625,149.1662503,312761.5,-1.0,0.0,-152.0,RTL,0.0,0.0,-999.5,3.5,5.5,3.5
14:48:12,224674.0,0.003135883482173085,0.003725019283592701,0.6890852153301239,-0.0006186427781358361,-0.00016749079804867506,0.001772386021912098,-35.3622625,149.1662503,315875.5,-1.0,0.0,-152.0,RTL,0.0,0.0,-999.5,3.0,3.0,5.5
14:48:13,76643.0,0.002575336256995797,0.0036912456853315234,0.6890835464000702,-0.0007192647899501026,-0.0003943414194509387,-0.0006308289594016969,-35.3622625,149.1662503,317816.75,-1.0,0.0,-152.0,RTL,0.0,0.0,-1000.0,2.75,3.25,2.75
14:48:14,76643.0,0.0020577770192176104,0.0035164736909791827,0.6888745129108429,0.002368347253650427,0.0013422798365354538,0.0018891876097768545,-35.36226255,149.1662503,318982.0,-1.0,0.0,-152.0,RTL,0.0,0.0,-1000.0,6.0,5.0,5.0
14:48:16,76643.0,0.0022604361874982715,0.003013760317116976,0.6888508200645447,0.0007626398000866175,0.0006428947672247887,0.00016863562632352114,-35.3622626,149.1662503,322093.5,0.0,0.0,-152.0,RTL,0.0,0.0,-1000.0,4.5,4.5,3.5
14:48:17,200.0,0.002003716042963788,0.0035129364114254713,0.6888992637395859,-0.0006359444232657552,0.0001420030603185296,0.0008518722024746239,-35.3622626,149.1662503,324030.0,0.0,0.0,-152.0,RTL,0.0,0.0,-1000.0,3.25,4.25,4.0
14:48:18,200.0,0.0018268437124788761,0.0034461456816643476,0.6887298226356506,-0.0004661044804379344,0.0001788961235433817,-0.0010162737453356385,-35.3622626,149.1662503,325196.5,0.0,0.0,-152.0,RTL,0.0,0.0,-999.5,3.5,4.0,2.5
14:48:20,200.0,0.0016328508500009775,0.0027539440197870135,0.6896166205406189,-4.746881313621998e-05,0.00043743872083723545,-0.00017596583347767591,-35.3622627,149.1662503,328301.5,0.0,0.0,-152.0,RTL,0.0,0.0,-1000.0,4.0,4.5,3.0
14:48:21,126523.0,0.0022546026157215238,0.002584798145107925,0.6895064264535904,0.00011498836101964116,-0.00026523839915171266,0.0016751126386225224,-35.3622627,149.1662503,330244.0,0.0,0.0,-152.0,RTL,0.0,0.0,-1000.0,3.5,3.75,5.0
14:48:22,126523.0,0.0013669281615875661,0.002096806070767343,0.6896532475948334,-0.001458630315028131,-0.000548634328879416,-0.00048278633039444685,-35.3622627,149.1662503,331408.0,0.0,0.0,-152.0,RTL,0.0,0.0,-1000.0,2.5,3.0,3.0
14:48:24,126523.0,0.001994697959162295,0.002562691690400243,0.6893192529678345,0.0014952493365854025,0.0007046174723654985,0.0020647787023335695,-35.3622628,149.1662503,334519.0,0.5,0.0,-152.0,RTL,0.0,0.0,-1000.0,5.0,4.5,5.5
14:48:25,26146.0,0.002025279653025791,0.0031465617939829826,0.689267560839653,0.0005545233725570142,0.0016253095818683505,0.0008800264913588762,-35.3622628,149.1662503,336461.0,0.0,0.0,-152.0,RTL,0.0,0.0,-999.5,4.25,5.0,4.25
14:48:26,26146.0,0.0022748045157641172,0.0033188643865287304,0.6892229914665222,-0.0001769914524629712,9.83324134722352e-05,0.0006363083375617862,-35.3622628,149.1662503,337626.5,0.0,0.0,-152.0,RTL,0.0,0.0,-999.5,3.5,4.0,4.0
14:48:28,26146.0,0.001577011018525809,0.0026626141043379903,0.6893112361431122,-0.0013218062231317163,-0.0008378929924219847,0.00013603433035314083,-35.3622628,149.1662503,340740.5,0.0,0.0,-152.0,RTL,0.0,0.0,-1000.0,2.5,3.0,4.0
14:48:29,300000.0,0.0010762223682831973,0.002257464628200978,0.6890925616025925,-0.0009175322484225035,0.0005853981710970402,6.889028009027243e-05,-35.3622628,149.1662503,342674.0,0.75,0.0,-152.0,RTL,0.0,0.0,-999.25,2.75,4.25,3.5
14:48:30,300000.0,0.0014893493498675525,0.0023515590000897646,0.6891047358512878,-0.0004293868551030755,0.00030743726529181004,-0.0002841504756361246,-35.3622628,149.1662503,343846.5,1.0,0.0,-152.0,RTL,0.0,0.0,-1000.0,3.0,4.0,3.0
14:48:32,300000.0,0.0011751911952160299,0.0019271732307970524,0.6891128122806549,0.0005455223144963384,-4.669255577027798e-05,0.0008649993687868118,-35.3622628,149.1662503,346953.0,1.0,0.0,-152.0,RTL,0.0,0.0,-999.5,4.0,3.5,4.0
14:48:33,300000.0,0.0012171104899607599,0.0023900429368950427,0.689070388674736,-0.00045105908066034317,0.00026982586132362485,0.0003707547439262271,-35.3622628,149.1662503,348894.5,1.0,0.0,-152.0,RTL,0.0,0.0,-999.5,3.5,4.0,3.75
14:48:34,300000.0,0.0011741502094082534,0.0025498123141005635,0.6889615654945374,-0.0006704718107357621,-0.001644333591684699,0.0013156440109014511,-35.3622628,149.1662503,350059.5,1.0,0.0,-152.0,RTL,0.0,0.0,-1000.0,3.0,2.0,4.5
14:48:36,300000.0,0.0014736417215317488,0.0024448836920782924,0.6897391080856323,0.0002698511816561222,-0.0014203197788447142,0.0006100786849856377,-35.3622628,149.1662503,353169.0,1.0,0.0,-152.0,RTL,0.0,0.0,-1000.0,4.0,2.5,4.0
14:48:37,167924.0,0.0016280724084936082,0.002041001745965332,0.6896273195743561,-0.0010513541055843234,8.162233280017972e-05,-0.0004283565212972462,-35.3622628,149.1662503,355108.5,1.0,0.0,-152.0,RTL,0.0,0.0,-1000.25,2.5,3.5,3.0
14:48:38,167924.0,0.001493801479227841,0.002349981339648366,0.689490020275116,-0.00104212062433362,-0.00044996151700615883,-2.6368070393800735e-06,-35.3622628,149.1662503,356276.0,1.0,0.0,-152.0,RTL,0.0,0.0,-999.5,2.5,3.5,3.5
14:48:40,167924.0,0.001269045111257583,0.002335323137231171,0.6894986629486084,-0.0007246062159538269,0.0001248334301635623,-0.00032438687048852444,-35.3622628,149.1662503,359378.5,1.0,0.0,-152.0,RTL,0.0,0.0,-1000.0,2.5,4.0,3.5
14:48:41,208022.0,0.0013986672274768353,0.0021574780403170735,0.689382791519165,-6.188976112753153e-05,-0.00037130614509806037,0.0005616879789158702,-35.3622628,149.1662503,361320.0,1.0,0.0,-152.0,RTL,0.0,0.0,-1000.0,3.25,3.25,4.0
14:48:42,208022.0,0.0011385048856027424,0.0015630790730938315,0.6892317235469818,-0.0005699102766811848,-0.0012184700462967157,0.00012879329733550549,-35.3622628,149.1662503,362485.0,1.0,0.0,-152.0,RTL,0.0,0.0,-1000.0,3.0,2.5,3.5
14:48:44,208022.0,0.0014662073808722198,0.0021257696207612753,0.6892445981502533,-0.0007175026694312692,5.163927562534809e-05,0.0005967607721686363,-35.3622628,149.1662503,365600.5,1.0,0.0,-152.0,RTL,0.0,0.0,-1000.0,3.0,4.0,4.0
14:48:45,127321.0,0.0013011310365982354,0.002121351077221334,0.6891613006591797,-0.0001757730497047305,-0.00022469833493232727,-0.00015288777649402618,-35.3622628,149.1662503,367537.75,1.0,0.0,-152.0,RTL,0.0,0.0,-1000.0,3.25,3.25,3.5
14:48:46,127321.0,0.0010230194893665612,0.002371708396822214,0.6890321671962738,-0.000522968708537519,0.00022206176072359085,-0.0006548188393935561,-35.3622628,149.1662503,368703.0,1.0,0.0,-152.0,RTL,0.0,0.0,-1000.0,3.0,3.5,3.0
14:48:48,127321.0,0.0012515306007117033,0.0018464030581526458,0.6890538930892944,0.0005482910200953484,-0.00011876458302140236,0.0004135549534112215,-35.3622628,149.1662503,371809.5,1.0,0.0,-152.0,RTL,0.0,0.0,-1000.0,4.0,3.0,4.0
14:48:49,200.0,0.0013806537899654359,0.0024316769558936357,0.6890072524547577,0.0005387379205785692,-0.00013886106899008155,-0.0003345454460941255,-35.3622628,149.1662503,373755.75,1.0,0.0,-152.0,RTL,0.0,0.0,-1000.0,3.75,3.25,3.0
14:48:50,200.0,0.0014940723776817322,0.002426657476462424,0.6889767348766327,-0.001605254365131259,-0.0012547356309369206,0.0009774109348654747,-35.3622628,149.1662503,374924.0,1.0,0.0,-152.0,RTL,0.0,0.0,-999.5,2.0,2.5,5.0
14:48:52,200.0,0.0010499233612790704,0.002175023895688355,0.6897794008255005,0.0010152105242013931,-0.0015189123805612326,0.0015594963915646076,-35.3622628,149.1662503,378032.0,1.0,0.0,-152.0,RTL,0.0,0.0,-1000.0,4.0,2.0,5.0
14:48:53,200.0,0.001056406181305647,0.001673375372774899,0.6897718459367752,-0.0006370725459419191,-0.00046973483404144645,-0.00017774209845811129,-35.3622628,149.1662503,379972.25,1.0,0.0,-152.0,RTL,0.0,0.0,-1000.0,3.0,3.0,3.25
14:48:54,200.0,0.001106270938180387,0.0019680129480548203,0.6895380318164825,-0.0006805749144405127,0.00031968194525688887,-0.0015355250798165798,-35.3622629,149.1662503,381136.5,1.5,0.0,-152.0,RTL,0.0,0.0,-1000.0,3.0,3.5,2.0
14:48:56,200.0,0.0012208314728923142,0.0020169441704638302,0.6897069215774536,0.00016996567137539387,0.00036639580503106117,0.00014773337170481682,-35.3622629,149.1662503,384243.5,2.0,0.0,-152.0,RTL,0.0,0.0,-999.5,3.5,3.5,4.0
14:48:57,105287.0,0.001417169813066721,0.0017885127163026482,0.6894781738519669,0.0007984220865182579,-8.105306187644601e-05,0.0003842833102680743,-35.3622629,149.1662503,386188.25,1.0,0.0,-152.0,RTL,0.0,0.0,-999.75,4.0,3.25,3.75
14:48:58,105287.0,0.001596554124262184,0.0017904421547427773,0.6893870830535889,-0.0008495779475197196,-0.0009249129798263311,-0.0002023747656494379,-35.3622629,149.1662503,387354.0,2.0,0.0,-152.0,RTL,0.0,0.0,-1000.0,2.5,2.5,3.0
14:49:00,105287.0,0.0013775393599644303,0.002029535244219005,0.6892247200012207,-2.3295404389500618e-05,-0.0006017911946401,0.0007731383666396141,-35.3622629,149.1662503,390460.5,1.0,0.0,-152.0,RTL,0.0,0.0,-1000.0,3.0,3.0,4.0
14:49:01,192223.0,0.0013871346891392022,0.0020064068085048348,0.6892282366752625,-0.0005443771369755268,0.00016604625852778554,-0.0006240038783289492,-35.3622629,149.1662503,392398.5,1.0,0.0,-152.0,RTL,0.0,0.0,-999.75,2.75,3.5,2.75
14:49:02,192223.0,0.0013478851178660989,0.0020245526102371514,0.6893284618854523,-0.002264505485072732,-0.0004410677356645465,-0.0003563470672816038,-35.3622629,149.1662503,393563.5,1.0,0.0,-152.0,RTL,0.0,0.0,-1000.0,1.5,3.0,3.0
14:49:04,192223.0,0.0010349210351705551,0.0019301638239994645,0.6893648207187653,-0.0014299872564151883,-0.00024397019296884537,-0.0017466619610786438,-35.3622629,149.1662503,396682.0,1.0,0.0,-152.0,RTL,0.0,0.0,-1000.0,2.0,3.0,2.0
14:49:05,34577.0,0.0012736597855109721,0.0019618023943621665,0.6891449093818665,-0.0011367356637492776,-9.422836592420936e-05,-0.0008623094763606787,-35.3622629,149.1662503,398616.25,1.0,0.0,-152.0,RTL,0.0,0.0,-1000.0,2.25,3.25,2.75
14:49:06,34577.0,0.0013617249787785113,0.002126500476151705,0.6890933215618134,0.00046226021368056536,-0.0005596074042841792,0.00018118624575436115,-35.3622629,149.1662503,399782.0,1.0,0.0,-152.0,RTL,0.0,0.0,-1000.0,3.5,3.0,3.5
14:49:08,34577.0,0.0012732751201838255,0.0019515759777277708,0.6896711587905884,0.0028144154930487275,-0.0010442596394568682,0.0006605549715459347,-35.3622629,149.1662503,402888.0,1.0,0.0,-152.0,RTL,0.0,0.0,-1000.0,6.0,2.0,4.0
14:49:09,284076.0,0.0016367521602660418,0.001714918325887993,0.6896682530641556,-0.0005919898976571858,-0.00039081426803022623,-0.0005604823236353695,-35.3622629,149.1662502,404836.75,1.0,0.0,-152.0,RTL,0.0,0.0,-1000.0,2.75,3.25,3.0
14:49:10,284076.0,0.0013831926044076681,0.001931196718942374,0.6896303594112396,-0.001372556493151933,-0.0005808105925098062,-1.620757393538952e-05,-35.3622629,149.1662502,406001.0,1.0,0.0,-152.0,RTL,0.0,0.0,-1000.0,1.5,2.5,3.5
14:49:12,284076.0,0.0011931441258639097,0.0018710584845393896,0.6894640624523163,0.0006221194053068757,-0.0004911844152957201,-0.000848203431814909,-35.3622629,149.1662502,409112.0,1.0,0.0,-152.0,RTL,0.0,0.0,-1000.0,4.0,2.5,2.5
14:49:13,89366.0,0.0015115560090634972,0.0019979483040515333,0.6896175444126129,-7.754121907055378e-05,3.8311060052365065e-05,-2.0853185560554266e-05,-35.3622629,149.1662502,411050.5,1.25,0.0,-152.0,RTL,0.0,0.0,-999.5,3.0,3.25,3.25
14:49:14,89366.0,0.0014316372107714415,0.0018975957063958049,0.6895860731601715,-0.00011952512431889772,0.0003241525264456868,-0.0003732128534466028,-35.3622629,149.1662502,412217.0,1.0,0.0,-152.0,RTL,0.0,0.0,-999.5,3.0,3.5,3.0
14:49:16,89366.0,0.0012734074844047427,0.0020668028155341744,0.689346432685852,0.0007857468444854021,0.00047550909221172333,-0.00023053609766066074,-35.3622629,149.1662502,415322.0,1.0,0.0,-152.0,RTL,0.0,0.0,-1000.0,4.0,3.5,3.0
14:49:17,300000.0,0.0014221162418834865,0.0019445858779363334,0.6893124133348465,-4.425883525982499e-05,-0.00040220757364295423,-0.00028405518969520926,-35.3622629,149.1662502,417263.5,1.25,0.0,-152.0,RTL,0.0,0.0,-1000.25,3.0,2.5,3.0
14:49:18,300000.0,0.0013750817743130028,0.0018796059885062277,0.6893468201160431,-7.725181058049202e-05,0.000189652550034225,-0.0017583713633939624,-35.3622629,149.1662502,418429.0,1.0,0.0,-152.0,RTL,0.0,0.0,-1000.0,3.0,3.5,1.5
14:49:20,300000.0,0.0011243362678214908,0.001988279924262315,0.6891736090183258,0.0013627555454149842,-5.6216493248939514e-05,0.0003674033796414733,-35.3622629,149.1662502,421539.0,1.0,0.0,-152.0,RTL,0.0,0.0,-1000.0,4.5,3.0,3.5
14:49:21,200.0,0.001054951673722826,0.001904435659525916,0.6892508715391159,-0.0001255375682376325,-0.0004567492287606001,-0.0009155328734777868,-35.3622629,149.1662502,423477.25,2.0,0.0,-152.0,RTL,0.0,0.0,-1000.25,3.0,2.5,2.5
14:49:22,200.0,0.0010632638586685061,0.002129937056452036,0.6891071498394012,0.0013359490549191833,-0.00037643383257091045,0.00037579541094601154,-35.3622629,149.1662502,424646.0,2.0,0.0,-152.0,RTL,0.0,0.0,-1000.0,4.5,2.5,4.0
14:49:24,200.0,0.0012074207770638168,0.0019402421894483268,0.6899733245372772,0.0011835305485874414,-0.0006654333556070924,0.0005653779953718185,-35.3622629,149.1662502,427761.0,2.0,0.0,-152.0,RTL,0.0,0.0,-1000.5,4.0,2.5,3.5
14:49:25,173787.0,0.0014019894297234714,0.0018164041975978762,0.6897058933973312,-0.0014337848988361657,-0.0010341196320950985,-0.00044352246914058924,-35.3622629,149.1662502,429693.25,2.0,0.0,-152.0,RTL,0.0,0.0,-1000.0,1.75,2.0,2.75
14:49:26,173787.0,0.0012782533303834498,0.0019577823113650084,0.6896480321884155,-0.000780132133513689,0.00044046121183782816,-0.0004680758574977517,-35.3622629,149.1662502,430866.5,2.0,0.0,-152.0,RTL,0.0,0.0,-999.5,2.5,3.5,3.0
14:49:28,173787.0,0.0010907048708759248,0.00159543746849522,0.6895686686038971,0.0012223194353282452,0.0012181196361780167,0.000981570454314351,-35.3622629,149.1662502,433965.0,2.0,0.0,-152.0,RTL,0.0,0.0,-999.5,4.5,4.0,4.0
14:49:29,216157.0,0.0013389209634624422,0.0017443503020331264,0.6896522045135498,0.0005559768178500235,-5.474750651046634e-05,-0.00043600413482636213,-35.3622629,149.1662502,435914.0,2.0,0.0,-152.0,RTL,0.0,0.0,-1000.0,3.5,2.75,2.75
14:49:30,216157.0,0.0012957908911630511,0.0017632789677008986,0.6894486546516418,-0.00041134003549814224,-6.166647654026747e-05,-0.0013929767301306129,-35.3622629,149.1662502,437078.5,2.0,0.0,-152.0,RTL,0.0,0.0,-1000.0,2.5,2.5,2.0
14:49:32,216157.0,0.0014483967097476125,0.0019361228332854807,0.6893331408500671,0.0004940765211358666,-0.0007297939155250788,0.0003097256412729621,-35.3622629,149.1662502,440191.0,1.0,0.0,-152.0,RTL,0.0,0.0,-1000.0,3.5,2.0,3.5
14:49:33,27711.0,0.001320817245868966,0.0019414557318668813,0.6892694383859634,0.00011852860916405916,-0.00013022118946537375,-0.001100791385397315,-35.3622629,149.1662502,442129.25,1.0,0.0,-152.0,RTL,0.0,0.0,-999.75,3.0,2.75,2.25
14:49:34,27711.0,0.0014148522750474513,0.0019020257168449461,0.6893484592437744,-8.931511547416449e-05,0.0007804728811606765,0.0004449663683772087,-35.3622629,149.1662502,443297.0,1.0,0.0,-152.0,RTL,0.0,0.0,-1000.0,3.0,3.5,3.5
14:49:36,27711.0,0.0013280943967401981,0.0017958073294721544,0.6892696022987366,0.0017555644735693932,-4.161032848060131e-06,1.0262825526297092e-05,-35.3622629,149.1662502,446399.5,1.0,0.0,-152.0,RTL,0.0,0.0,-1000.0,4.5,3.0,3.5
14:49:37,104466.0,0.0014175429823808372,0.0019258642569184303,0.6892154812812805,0.0002399460063315928,-0.0007980580849107355,-0.0001767710200510919,-35.3622629,149.1662502,448341.25,1.0,0.0,-152.0,RTL,0.0,0.0,-1000.25,3.0,1.75,2.75
14:49:38,104466.0,0.0013607234577648342,0.0018926372868008912,0.6891261339187622,-0.001059007248841226,1.974229235202074e-05,0.0003732711775228381,-35.3622629,149.1662502,449506.0,1.0,0.0,-152.0,RTL,0.0,0.0,-1000.0,2.0,3.0,3.5
14:49:40,104466.0,0.001130912161897868,0.0020937424851581454,0.6898551285266876,-0.0014199090073816478,0.00038327311631292105,0.002183731528930366,-35.3622629,149.1662502,452613.0,1.0,0.0,-152.0,RTL,0.0,0.0,-999.5,1.0,3.0,5.0
14:49:41,242921.0,0.0013940506905782968,0.0018233209557365626,0.6896538138389587,0.00033518311101943254,-0.0008091681520454586,-3.397889668121934e-05,-35.3622629,149.1662502,454556.75,2.0,0.0,-152.0,RTL,0.0,0.0,-999.75,2.75,2.0,2.75
14:49:42,242921.0,0.0014235284179449081,0.001886331825517118,0.6897373497486115,-0.0020868032588623464,0.0006987936794757843,-0.00219039514195174,-35.3622629,149.1662502,455723.0,1.5,0.0,-152.0,RTL,0.0,0.0,-999.5,1.0,3.5,1.0
14:49:44,242921.0,0.0013072278816252947,0.0018880766001529992,0.6894963681697845,0.0018318481743335724,0.001978008891455829,0.000693910988047719,-35.3622629,149.1662502,458829.0,2.0,0.0,-152.0,RTL,0.0,0.0,-999.5,4.5,4.5,3.5
14:49:45,200.0,0.0012617116153705865,0.0019014071149285883,0.6897088289260864,-0.0003026057966053486,0.00034228249569423497,0.0007561577949672937,-35.3622629,149.1662502,460774.75,2.0,0.0,-152.0,RTL,0.0,0.0,-999.5,2.5,3.25,3.5
14:49:46,200.0,0.0009892905363813043,0.002124469610862434,0.6895580291748047,-0.0002903473796322942,-0.0008475627982988954,-0.0007230070186778903,-35.3622629,149.1662502,461943.5,2.0,0.0,-152.0,RTL,0.0,0.0,-1000.5,2.5,1.5,2.5
14:49:48,200.0,0.0011922665871679783,0.001873760367743671,0.6895337104797363,0.0012640415225178003,0.0004883873043581843,-0.0007541964296251535,-35.3622629,149.1662502,465049.5,2.0,0.0,-152.0,RTL,0.0,0.0,-1000.5,4.0,3.0,2.0
14:49:49,200.0,0.0013380333839450032,0.001872066204668954,0.6891534477472305,0.0005658064619638026,-0.00011502252891659737,-0.0008006346179172397,-35.3622629,149.1662502,466991.5,2.0,0.0,-152.0,RTL,0.0,0.0,-1000.25,2.75,2.5,1.75
14:49:50,200.0,0.0016051732236519456,0.0016794026596471667,0.6895421743392944,-0.000216136802919209,0.0015080728335306048,0.0002559733111411333,-35.3622629,149.1662502,468156.5,2.0,0.0,-152.0,RTL,0.0,0.0,-999.5,2.0,4.5,3.0
14:49:52,200.0,0.0013271600473672152,0.0019027218804694712,0.6893423795700073,0.00023142702411860228,0.00030532432720065117,-0.0010487270774319768,-35.3622629,149.1662502,471263.5,1.0,0.0,-152.0,RTL,0.0,0.0,-999.5,3.0,3.0,2.0
