time_stamp,MODE,lat,lon,relative_alt,roll,pitch,yaw,rollspeed,pitchspeed,yawspeed,xacc,yacc,zacc,xgyro,ygyro,zgyro,vx,vy,vz,RTL_ALT
23:15:23.184,STABILIZE,-35.3632621,149.1652375,0,0.00012501289893407375,0.0015741424867883325,0.026725146919488907,0.00025277608074247837,0.00034360549761913717,0.0022471039555966854,0,1,-1000,0,0,0,-2,2,0,1500.0
23:15:23.385,STABILIZE,-35.3632621,149.1652375,0,0.00012501289893407375,0.0015741424867883325,0.026725146919488907,0.00025277608074247837,0.00034360549761913717,0.0022471039555966854,0,1,-1000,0,0,0,-2,2,0,1500.0
23:15:23.585,STABILIZE,-35.3632621,149.1652375,0,0.00012501289893407375,0.0015741424867883325,0.026725146919488907,0.00025277608074247837,0.00034360549761913717,0.0022471039555966854,0,1,-1000,0,0,0,-2,2,0,1500.0
23:15:23.786,STABILIZE,-35.3632621,149.1652375,0,0.00012501289893407375,0.0015741424867883325,0.026725146919488907,0.00025277608074247837,0.00034360549761913717,0.0022471039555966854,0,1,-1000,0,0,0,-2,2,0,1500.0
23:15:23.987,STABILIZE,-35.3632621,149.1652375,0,0.00012501289893407375,0.0015741424867883325,0.026725146919488907,0.00025277608074247837,0.00034360549761913717,0.0022471039555966854,0,1,-1000,0,0,0,-2,2,0,1500.0
23:15:24.187,STABILIZE,-35.3632621,149.1652375,0,0.00012501289893407375,0.0015741424867883325,0.026725146919488907,0.00025277608074247837,0.00034360549761913717,0.0022471039555966854,0,1,-1000,0,0,0,-2,2,0,1500.0
23:15:24.388,STABILIZE,-35.3632621,149.1652375,0,0.00012501289893407375,0.0015741424867883325,0.026725146919488907,0.00025277608074247837,0.00034360549761913717,0.0022471039555966854,0,1,-1000,0,0,0,-2,2,0,1500.0
23:15:24.589,STABILIZE,-35.3632621,149.1652375,0,0.00012501289893407375,0.0015741424867883325,0.026725146919488907,0.00025277608074247837,0.00034360549761913717,0.0022471039555966854,0,1,-1000,0,0,0,-2,2,0,1500.0
23:15:24.789,STABILIZE,-35.3632621,149.1652375,0,0.00012501289893407375,0.0015741424867883325,0.026725146919488907,0.00025277608074247837,0.00034360549761913717,0.0022471039555966854,0,1,-1000,0,0,0,-2,2,0,1500.0
23:15:24.990,STABILIZE,-35.3632621,149.1652375,0,0.00012501289893407375,0.0015741424867883325,0.026725146919488907,0.00025277608074247837,0.00034360549761913717,0.0022471039555966854,0,1,-1000,0,0,0,-2,2,0,1500.0
23:15:25.191,STABILIZE,-35.3632621,149.1652375,0,0.00012501289893407375,0.0015741424867883325,0.026725146919488907,0.00025277608074247837,0.00034360549761913717,0.0022471039555966854,0,1,-1000,0,0,0,-2,2,0,1500.0
23:15:25.392,STABILIZE,-35.3632621,149.1652375,0,0.00012501289893407375,0.0015741424867883325,0.026725146919488907,0.00025277608074247837,0.00034360549761913717,0.0022471039555966854,0,1,-1000,0,1,0,-2,2,0,1500.0
23:15:25.592,STABILIZE,-35.3632621,149.1652375,0,0.00012501289893407375,0.0015741424867883325,0.026725146919488907,0.00025277608074247837,0.00034360549761913717,0.0022471039555966854,0,1,-1000,0,1,0,-2,2,0,1500.0
23:15:25.793,STABILIZE,-35.3632621,149.1652375,0,0.00012501289893407375,0.0015741424867883325,0.026725146919488907,0.00025277608074247837,0.00034360549761913717,0.0022471039555966854,0,1,-1000,0,1,0,-2,2,0,1500.0
23:15:25.994,STABILIZE,-35.3632621,149.1652375,0,0.00012501289893407375,0.0015741424867883325,0.026725146919488907,0.00025277608074247837,0.00034360549761913717,0.0022471039555966854,0,1,-1000,0,0,0,-2,2,0,1500.0
23:15:26.194,STABILIZE,-35.3632621,149.1652375,0,0.00012501289893407375,0.0015741424867883325,0.026725146919488907,0.00025277608074247837,0.00034360549761913717,0.0022471039555966854,0,1,-1000,0,0,0,-2,2,0,1500.0
23:15:26.395,STABILIZE,-35.3632621,149.1652375,0,0.00012501289893407375,0.0015741424867883325,0.026725146919488907,0.00025277608074247837,0.00034360549761913717,0.0022471039555966854,0,1,-1000,0,0,0,-2,2,0,1500.0
23:15:26.596,STABILIZE,-35.3632621,149.1652375,0,0.00012501289893407375,0.0015741424867883325,0.026725146919488907,0.00025277608074247837,0.00034360549761913717,0.0022471039555966854,0,1,-1000,0,0,0,-2,2,0,1500.0
23:15:26.796,STABILIZE,-35.3632621,149.1652375,0,0.00012501289893407375,0.0015741424867883325,0.026725146919488907,0.00025277608074247837,0.00034360549761913717,0.0022471039555966854,0,1,-1000,0,0,0,-2,2,0,1500.0
23:15:26.997,STABILIZE,-35.3632621,149.1652375,0,-0.0007566025014966726,0.0009846192551776767,0.0249246247112751,0.0002301910426467657,0.00011826548143289983,0.0019082175567746162,0,1,-1000,0,1,0,-1,1,0,1500.0
23:15:27.198,STABILIZE,-35.3632621,149.1652375,0,-0.0007841978222131729,0.0009715049527585506,0.02483481727540493,0.00034702621633186936,0.0001774920674506575,0.0020852675661444664,0,1,-1000,0,0,0,-1,1,0,1500.0
23:15:27.400,STABILIZE,-35.3632621,149.1652375,0,-0.0007841978222131729,0.0009715049527585506,0.02483481727540493,0.00034702621633186936,0.0001774920674506575,0.0020852675661444664,0,1,-1000,0,0,0,-1,1,0,1500.0
23:15:27.601,STABILIZE,-35.3632621,149.1652375,0,-0.0007841978222131729,0.0009715049527585506,0.02483481727540493,0.00034702621633186936,0.0001774920674506575,0.0020852675661444664,0,1,-1000,0,0,0,-1,1,0,1500.0
23:15:27.802,STABILIZE,-35.3632621,149.1652375,0,-0.0007841978222131729,0.0009715049527585506,0.02483481727540493,0.00034702621633186936,0.0001774920674506575,0.0020852675661444664,0,1,-1000,0,0,0,-1,1,0,1500.0
23:15:28.003,STABILIZE,-35.3632621,149.1652375,0,-0.0007841978222131729,0.0009715049527585506,0.02483481727540493,0.00034702621633186936,0.0001774920674506575,0.0020852675661444664,0,1,-1000,0,0,0,-1,1,0,1500.0
23:15:28.204,STABILIZE,-35.3632621,149.1652375,0,-0.0007841978222131729,0.0009715049527585506,0.02483481727540493,0.00034702621633186936,0.0001774920674506575,0.0020852675661444664,0,1,-1000,0,0,0,-1,1,0,1500.0
23:15:28.406,STABILIZE,-35.3632621,149.1652375,0,-0.0007841978222131729,0.0009715049527585506,0.02483481727540493,0.00034702621633186936,0.0001774920674506575,0.0020852675661444664,0,1,-1000,0,0,0,-1,1,0,1500.0
23:15:28.607,STABILIZE,-35.3632621,149.1652375,0,-0.0007841978222131729,0.0009715049527585506,0.02483481727540493,0.00034702621633186936,0.0001774920674506575,0.0020852675661444664,0,1,-1000,0,0,0,-1,1,0,1500.0
23:15:28.808,STABILIZE,-35.3632621,149.1652375,0,-0.0007841978222131729,0.0009715049527585506,0.02483481727540493,0.00034702621633186936,0.0001774920674506575,0.0020852675661444664,0,1,-1000,0,0,0,-1,1,0,1500.0
23:15:29.009,STABILIZE,-35.3632621,149.1652375,0,-0.0008792783482931554,0.0009535400313325226,0.02425726130604744,0.00031645025592297316,0.0002478049136698246,0.001886251731775701,0,1,-1000,0,0,0,-1,1,0,1500.0
23:15:29.211,STABILIZE,-35.3632621,149.1652375,0,-0.0008792783482931554,0.0009535400313325226,0.02425726130604744,0.00031645025592297316,0.0002478049136698246,0.001886251731775701,0,1,-1000,0,0,0,-1,1,0,1500.0
23:15:29.412,STABILIZE,-35.3632621,149.1652375,0,-0.0008981348946690559,0.0009385190205648541,0.02410108782351017,0.000306873582303524,0.00028292270144447684,0.0019050044938921928,0,1,-1000,0,0,0,-1,1,0,1500.0
23:15:29.613,STABILIZE,-35.3632621,149.1652375,0,-0.0008963402360677719,0.0009407994220964611,0.02402098849415779,0.0001996267237700522,0.0002783699310384691,0.001809854176826775,0,1,-1000,0,0,0,-1,1,0,1500.0
23:15:29.814,STABILIZE,-35.3632621,149.1652375,0,-0.0008963402360677719,0.0009407994220964611,0.02402098849415779,0.0001996267237700522,0.0002783699310384691,0.001809854176826775,0,1,-1000,0,0,0,-1,1,0,1500.0
23:15:30.016,STABILIZE,-35.3632621,149.1652375,0,-0.0008963402360677719,0.0009407994220964611,0.02402098849415779,0.0001996267237700522,0.0002783699310384691,0.001809854176826775,0,1,-1000,0,0,0,-1,1,0,1500.0
23:15:30.218,STABILIZE,-35.3632621,149.1652375,0,-0.00040885648922994733,0.0009353742352686822,0.02387528121471405,0.008030174300074577,0.000193242565728724,0.0018553892150521278,0,82,-879,8,0,0,-1,4,4,1500.0
23:15:30.419,STABILIZE,-35.3632621,149.1652375,0,-0.00040885648922994733,0.0009353742352686822,0.02387528121471405,0.008030174300074577,0.000193242565728724,0.0018553892150521278,0,82,-879,8,0,0,-1,4,4,1500.0
23:15:30.621,STABILIZE,-35.3632621,149.1652375,0,-0.00040885648922994733,0.0009353742352686822,0.02387528121471405,0.008030174300074577,0.000193242565728724,0.0018553892150521278,0,82,-879,8,0,0,-1,4,4,1500.0
23:15:30.823,STABILIZE,-35.3632621,149.1652375,0,-0.00040885648922994733,0.0009353742352686822,0.02387528121471405,0.008030174300074577,0.000193242565728724,0.0018553892150521278,0,82,-879,8,0,0,-1,4,4,1500.0
23:15:31.025,STABILIZE,-35.3632621,149.1652375,0,-0.00040885648922994733,0.0009353742352686822,0.02387528121471405,0.008030174300074577,0.000193242565728724,0.0018553892150521278,0,82,-879,8,0,0,-1,4,4,1500.0
23:15:31.226,STABILIZE,-35.3632621,149.1652375,0,-0.00040885648922994733,0.0009353742352686822,0.02387528121471405,0.008030174300074577,0.000193242565728724,0.0018553892150521278,0,1,-1000,0,0,0,-1,4,4,1500.0
23:15:31.427,STABILIZE,-35.3632621,149.1652375,0,-0.00040885648922994733,0.0009353742352686822,0.02387528121471405,0.008030174300074577,0.000193242565728724,0.0018553892150521278,0,1,-1000,0,0,0,-1,4,4,1500.0
23:15:31.628,STABILIZE,-35.3632622,149.1652376,0,-0.0009092109394259751,0.0009604705846868455,0.02333063632249832,0.0001265463070012629,0.00021235330495983362,0.0017015906050801277,0,1,-1000,0,0,0,-1,2,3,1500.0
23:15:31.830,STABILIZE,-35.3632622,149.1652376,0,-0.0009092109394259751,0.0009604705846868455,0.02333063632249832,0.0001265463070012629,0.00021235330495983362,0.0017015906050801277,0,1,-1000,0,0,0,-1,2,3,1500.0
23:15:32.031,STABILIZE,-35.3632622,149.1652376,0,-0.000985838589258492,0.0009679088834673166,0.023253027349710464,0.0001556354109197855,0.000110177556052804,0.001821927260607481,0,1,-1000,0,0,0,-1,2,3,1500.0
23:15:32.232,STABILIZE,-35.3632622,149.1652376,0,-0.000985838589258492,0.0009679088834673166,0.023253027349710464,0.0001556354109197855,0.000110177556052804,0.001821927260607481,0,1,-1000,0,0,0,-1,2,3,1500.0
23:15:32.433,STABILIZE,-35.3632622,149.1652376,0,-0.000985838589258492,0.0009679088834673166,0.023253027349710464,0.0001556354109197855,0.000110177556052804,0.001821927260607481,0,1,-1000,0,0,0,-1,2,3,1500.0
23:15:32.634,STABILIZE,-35.3632622,149.1652376,0,-0.000985838589258492,0.0009679088834673166,0.023253027349710464,0.0001556354109197855,0.000110177556052804,0.001821927260607481,0,1,-1000,0,0,0,-1,2,3,1500.0
23:15:32.835,STABILIZE,-35.3632622,149.1652376,0,-0.000985838589258492,0.0009679088834673166,0.023253027349710464,0.0001556354109197855,0.000110177556052804,0.001821927260607481,0,1,-1000,0,0,0,-1,2,3,1500.0
23:15:33.037,STABILIZE,-35.3632622,149.1652376,0,-0.000985838589258492,0.0009679088834673166,0.023253027349710464,0.0001556354109197855,0.000110177556052804,0.001821927260607481,0,1,-1000,0,0,0,-1,2,3,1500.0
23:15:33.238,STABILIZE,-35.3632622,149.1652375,0,-0.000985838589258492,0.0009679088834673166,0.023253027349710464,0.0001556354109197855,0.000110177556052804,0.001821927260607481,0,2,-1000,0,0,1,-1,1,2,1500.0
23:15:33.439,STABILIZE,-35.3632622,149.1652375,0,-0.0012930574594065547,0.0009756945655681193,0.022882360965013504,0.00027027627220377326,0.000300772488117218,0.0016417588340118527,0,2,-1000,0,0,1,-1,1,1,1500.0
23:15:33.640,STABILIZE,-35.3632622,149.1652375,0,-0.0012930574594065547,0.0009756945655681193,0.022882360965013504,0.00027027627220377326,0.000300772488117218,0.0016417588340118527,0,2,-1000,0,0,1,-1,1,1,1500.0
23:15:33.841,STABILIZE,-35.3632622,149.1652375,0,-0.0012930574594065547,0.0009756945655681193,0.022882360965013504,0.00027027627220377326,0.000300772488117218,0.0016417588340118527,0,2,-1000,0,0,1,-1,1,1,1500.0
23:15:34.042,STABILIZE,-35.3632622,149.1652375,0,-0.0012930574594065547,0.0009756945655681193,0.022882360965013504,0.00027027627220377326,0.000300772488117218,0.0016417588340118527,0,2,-1000,0,0,1,-1,1,1,1500.0
23:15:34.244,STABILIZE,-35.3632622,149.1652375,0,-0.0012930574594065547,0.0009756945655681193,0.022882360965013504,0.00027027627220377326,0.000300772488117218,0.0016417588340118527,0,2,-1000,0,0,1,-1,1,1,1500.0
23:15:34.445,STABILIZE,-35.3632622,149.1652375,0,-0.0012930574594065547,0.0009756945655681193,0.022882360965013504,0.00027027627220377326,0.000300772488117218,0.0016417588340118527,0,2,-1000,0,0,1,-1,1,1,1500.0
23:15:34.646,STABILIZE,-35.3632622,149.1652375,0,-0.0012930574594065547,0.0009756945655681193,0.022882360965013504,0.00027027627220377326,0.000300772488117218,0.0016417588340118527,0,2,-1000,0,0,1,-1,1,1,1500.0
23:15:34.848,STABILIZE,-35.3632622,149.1652375,0,-0.0012930574594065547,0.0009756945655681193,0.022882360965013504,0.00027027627220377326,0.000300772488117218,0.0016417588340118527,0,2,-1000,0,0,1,-1,1,1,1500.0
23:15:35.049,STABILIZE,-35.3632622,149.1652375,0,-0.0011575438547879457,0.0009749903110787272,0.02255832403898239,0.00025595526676625013,0.0002474517095834017,0.0017332666320726275,0,1,-1000,0,1,0,-1,1,2,1500.0
23:15:35.250,STABILIZE,-35.3632622,149.1652375,0,-0.0011575438547879457,0.0009749903110787272,0.02255832403898239,0.00025595526676625013,0.0002474517095834017,0.0017332666320726275,0,1,-1000,0,1,0,-1,1,2,1500.0
23:15:35.451,STABILIZE,-35.3632622,149.1652375,0,-0.0012228518025949597,0.0009744734852574766,0.022453343495726585,0.00024244585074484348,0.0002258105669170618,0.0015345399733632803,0,1,-1000,0,1,0,-1,1,1,1500.0
23:15:35.653,STABILIZE,-35.3632622,149.1652375,0,-0.0012384747387841344,0.0009784422582015395,0.022404013201594353,0.00019048521062359214,0.000250686367508024,0.0016581497620791197,0,2,-1000,0,1,0,-1,1,1,1500.0
23:15:35.854,STABILIZE,-35.3632622,149.1652375,0,-0.0012384747387841344,0.0009784422582015395,0.022404013201594353,0.00019048521062359214,0.000250686367508024,0.0016581497620791197,0,2,-1000,0,1,0,-1,1,1,1500.0
23:15:36.055,STABILIZE,-35.3632622,149.1652375,0,-0.0012555447174236178,0.000978468800894916,0.022356916218996048,0.00016256183153018355,0.00030592887196689844,0.0015714105684310198,0,1,-1000,0,1,0,-1,1,1,1500.0
23:15:36.257,STABILIZE,-35.3632622,149.1652375,0,-0.001266404171474278,0.0009821217972785234,0.02230686880648136,0.00035868672421202064,0.00025990576250478625,0.001559397205710411,0,1,-1000,1,0,0,-1,1,0,1500.0
23:15:36.464,STABILIZE,-35.3632622,149.1652375,0,-0.001266404171474278,0.0009821217972785234,0.02230686880648136,0.00035868672421202064,0.00025990576250478625,0.001559397205710411,0,1,-1000,1,0,0,-1,1,0,1500.0
23:15:36.667,STABILIZE,-35.3632622,149.1652375,0,-0.001266404171474278,0.0009821217972785234,0.02230686880648136,0.00035868672421202064,0.00025990576250478625,0.001559397205710411,0,1,-1000,1,0,0,-1,1,0,1500.0
23:15:36.880,STABILIZE,-35.3632622,149.1652375,0,-0.0012868550838902593,0.0009906977647915483,0.022175494581460953,0.00023751647677272558,0.00021811755141243339,0.0014714018907397985,0,1,-1000,0,0,0,-1,0,0,1500.0
23:15:37.081,STABILIZE,-35.3632622,149.1652375,0,-0.0012868550838902593,0.0009906977647915483,0.022175494581460953,0.00023751647677272558,0.00021811755141243339,0.0014714018907397985,0,1,-1000,0,0,0,-1,0,0,1500.0
23:15:37.282,STABILIZE,-35.3632622,149.1652375,0,-0.0011341929202899337,0.0009895303519442677,0.022132551297545433,0.00015535182319581509,0.00034696556394919753,0.0015685207908973098,0,1,-1000,0,0,0,-1,0,0,1500.0
23:15:37.485,AUTO,-35.3632622,149.1652375,0,-0.0011419341899454594,0.000988244661130011,0.02209341712296009,0.00017567805480211973,0.0001948586432263255,0.0014955156948417425,0,2,-1000,0,1,0,-1,0,0,1500.0
23:15:37.686,AUTO,-35.3632622,149.1652375,6,-0.0011369939893484116,0.0009900020668283105,0.02205238863825798,0.00021846068557351828,0.0002231891849078238,0.0015643831575289369,0,1,-1000,0,1,0,-1,0,0,1500.0
23:15:37.888,AUTO,-35.3632622,149.1652375,6,-0.0011256439611315727,0.000996558228507638,0.021992938593029976,0.00023353792494162917,0.0003429307835176587,0.0014897964429110289,0,1,-1000,0,0,0,-1,0,0,1500.0
23:15:38.090,AUTO,-35.3632622,149.1652375,6,-0.0011256439611315727,0.000996558228507638,0.021992938593029976,0.00023353792494162917,0.0003429307835176587,0.0014897964429110289,0,1,-1000,0,0,0,-1,0,0,1500.0
23:15:38.291,AUTO,-35.3632622,149.1652375,7,-0.0011205674381926656,0.0010030922712758183,0.021956389769911766,0.0002318157348781824,0.000291361880954355,0.0015127579681575298,0,2,-1000,0,0,0,-1,0,0,1500.0
23:15:38.493,AUTO,-35.3632622,149.1652375,7,-0.0011205674381926656,0.0010030922712758183,0.021956389769911766,0.0002318157348781824,0.000291361880954355,0.0015127579681575298,0,2,-1000,0,0,0,-1,0,0,1500.0
23:15:38.694,AUTO,-35.3632622,149.1652375,7,-0.0011205674381926656,0.0010030922712758183,0.021956389769911766,0.0002318157348781824,0.000291361880954355,0.0015127579681575298,0,2,-1000,0,0,0,-1,0,0,1500.0
23:15:38.896,AUTO,-35.3632621,149.1652375,9,-0.001023953896947205,0.0011151793878525496,0.02182704024016857,0.0002892366028390825,0.00021332158939912915,0.0014593012165278196,0,1,-1000,0,0,0,0,0,0,1500.0
23:15:39.099,AUTO,-35.3632621,149.1652375,9,-0.001023953896947205,0.0011151793878525496,0.02182704024016857,0.0002892366028390825,0.00021332158939912915,0.0014593012165278196,0,1,-1000,0,0,0,0,0,0,1500.0
23:15:39.300,AUTO,-35.3632621,149.1652375,9,-0.0009810456540435553,0.0011768555268645287,0.021782120689749718,0.00035738665610551834,0.0002530221827328205,0.0014774957671761513,0,1,-1000,1,1,0,0,0,0,1500.0
23:15:39.545,AUTO,-35.3632621,149.1652375,10,-0.0009347967570647597,0.0012388317845761776,0.021708182990550995,0.00018115987768396735,0.00032889103749766946,0.0014680923195555806,0,2,-1000,0,0,0,0,0,0,1500.0
23:15:39.786,AUTO,-35.3632621,149.1652375,11,-0.0008815258042886853,0.0013069561682641506,0.021658340469002724,0.0003576930030249059,0.00031746888998895884,0.0014751225244253874,0,1,-1000,0,0,0,0,0,0,1500.0
23:15:40.018,AUTO,-35.3632621,149.1652375,11,-0.0008270175894722342,0.0013784085167571902,0.021600520238280296,0.00039582187309861183,0.0002946410095319152,0.001480548526160419,0,2,-1000,0,1,0,0,0,0,1500.0
23:15:40.225,AUTO,-35.3632621,149.1652375,12,-0.0007752251694910228,0.0014473506016656756,0.021533934399485588,0.0003389514167793095,0.00036528758937492967,0.0015125685604289174,0,2,-1000,0,1,0,0,0,0,1500.0
23:15:40.427,AUTO,-35.3632621,149.1652375,12,-0.0007752251694910228,0.0014473506016656756,0.021533934399485588,0.0003389514167793095,0.00036528758937492967,0.0015125685604289174,0,2,-1000,0,1,0,0,0,0,1500.0
23:15:40.630,AUTO,-35.3632621,149.1652375,12,-0.0007752251694910228,0.0014473506016656756,0.021533934399485588,0.0003389514167793095,0.00036528758937492967,0.0015125685604289174,0,2,-1000,0,1,0,0,0,0,1500.0
23:15:40.832,AUTO,-35.3632621,149.1652375,12,-0.0007752251694910228,0.0014473506016656756,0.021533934399485588,0.0003389514167793095,0.00036528758937492967,0.0015125685604289174,0,2,-1000,0,1,0,0,0,0,1500.0
23:15:41.034,AUTO,-35.3632621,149.1652375,13,-0.00047024976811371744,0.0016564842080697417,0.02134886011481285,0.0003004524623975158,0.00036808958975598216,0.001433510915376246,0,1,-1000,1,1,1,0,0,0,10822.0
23:15:41.236,AUTO,-35.3632621,149.1652375,14,-0.0004008206306025386,0.0017298365710303187,0.02127789333462715,0.00030070607317611575,0.00032078870572149754,0.0014008241705596447,0,1,-1000,0,0,1,0,0,0,10822.0
23:15:41.437,AUTO,-35.3632621,149.1652375,17,0.0006435185787267983,0.0009579664911143482,0.02127404510974884,0.012146537192165852,-0.008760344237089157,0.0008435237687081099,0,0,-1101,12,-8,0,0,0,-7,10822.0
23:15:41.639,AUTO,-35.3632621,149.1652375,79,0.003002636134624481,-0.0005110161146149039,0.021294906735420227,0.009505831636488438,0.0005837178905494511,0.002214674837887287,0,0,-1140,9,1,1,0,0,-41,10822.0
23:15:41.840,AUTO,-35.3632621,149.1652375,79,0.003002636134624481,-0.0005110161146149039,0.021294906735420227,0.009505831636488438,0.0005837178905494511,0.002214674837887287,0,0,-1140,9,1,1,0,0,-41,10822.0
23:15:42.042,AUTO,-35.3632621,149.1652375,225,0.0023112930357456207,0.0002635337586980313,0.02115648426115513,-0.011512655764818192,0.00473812036216259,0.002868256764486432,0,0,-1128,-10,5,2,0,0,-74,10822.0
23:15:42.244,AUTO,-35.3632621,149.1652375,445,0.001544462749734521,0.0011932089691981673,0.0210871621966362,-0.0014819171046838164,0.0016923827352002263,0.0021360369864851236,0,0,-1108,0,2,1,0,0,-102,10822.0
23:15:42.446,AUTO,-35.3632621,149.1652375,445,0.001544462749734521,0.0011932089691981673,0.0210871621966362,-0.0014819171046838164,0.0016923827352002263,0.0021360369864851236,0,0,-1108,0,2,1,0,0,-102,10822.0
23:15:42.648,AUTO,-35.3632621,149.1652375,445,0.001544462749734521,0.0011932089691981673,0.0210871621966362,-0.0014819171046838164,0.0016923827352002263,0.0021360369864851236,0,0,-1108,0,2,1,0,0,-102,10822.0
23:15:42.849,AUTO,-35.3632621,149.1652375,445,0.001544462749734521,0.0011932089691981673,0.0210871621966362,-0.0014819171046838164,0.0016923827352002263,0.0021360369864851236,0,0,-1108,0,2,1,0,0,-102,10822.0
23:15:43.051,AUTO,-35.3632621,149.1652375,1431,0.022760195657610893,-0.0009003669256344438,0.020608654245734215,0.04692695289850235,-0.007081580348312855,0.002113090129569173,0,0,-1017,47,-6,1,0,5,-146,10822.0
23:15:43.252,AUTO,-35.363262,149.1652377,1810,0.034208379685878754,-0.0028305700980126858,0.020701298490166664,0.04520222917199135,-0.008515844121575356,0.0027840882539749146,0,-1,-1007,45,-7,2,1,11,-148,10822.0
23:15:43.454,AUTO,-35.3632619,149.1652381,2195,0.04505407065153122,-0.005032355431467295,0.020900670439004898,0.042154163122177124,-0.008790576830506325,0.003218658734112978,1,-3,-1002,42,-8,2,3,20,-149,10822.0
23:15:43.655,AUTO,-35.3632618,149.1652387,2582,0.05515708774328232,-0.007705335970968008,0.02110653929412365,0.03912770003080368,-0.011238664388656616,0.003625457873567939,1,-5,-1000,39,-10,3,5,31,-149,10822.0
23:15:43.858,AUTO,-35.3632616,149.1652397,2968,0.06209276616573334,-0.008906499482691288,-0.00786411203444004,-0.012439407408237457,0.022285588085651398,-0.04175116866827011,0,-7,-992,-11,23,-42,8,43,-148,10822.0
23:15:44.060,AUTO,-35.3632616,149.1652397,2968,0.06209276616573334,-0.008906499482691288,-0.00786411203444004,-0.012439407408237457,0.022285588085651398,-0.04175116866827011,0,-7,-992,-11,23,-42,8,43,-148,10822.0
23:15:44.262,AUTO,-35.3632614,149.165241,3352,0.04063569754362106,0.01311257854104042,-0.030598865821957588,-0.14385250210762024,0.0947791039943695,-0.10073433816432953,4,-12,-990,-143,95,-101,9,53,-146,10822.0
23:15:44.464,AUTO,-35.3632614,149.165241,3352,0.04063569754362106,0.01311257854104042,-0.030598865821957588,-0.14385250210762024,0.0947791039943695,-0.10073433816432953,4,-12,-990,-143,95,-101,9,53,-146,10822.0
23:15:44.666,AUTO,-35.3632614,149.165241,3352,0.04063569754362106,0.01311257854104042,-0.030598865821957588,-0.14385250210762024,0.0947791039943695,-0.10073433816432953,4,-12,-990,-143,95,-101,9,53,-146,10822.0
23:15:44.872,AUTO,-35.3632607,149.165245,4487,-0.026285724714398384,-0.020898908376693726,-0.03138083964586258,0.0038798260502517223,-0.055082906037569046,0.039168622344732285,1,-9,-1006,4,-54,38,10,37,-150,10822.0
23:15:45.111,AUTO,-35.3632604,149.1652459,4873,-0.03448010981082916,-0.02130366861820221,-0.034805044531822205,-0.06229447200894356,0.06449783593416214,-0.06376805156469345,1,-9,-1006,4,-54,38,17,27,-150,10822.0
23:15:45.321,AUTO,-35.3632604,149.1652459,4873,-0.03448010981082916,-0.02130366861820221,-0.034805044531822205,-0.06229447200894356,0.06449783593416214,-0.06376805156469345,0,-8,-998,-61,65,-64,17,27,-150,10822.0
23:15:45.523,AUTO,-35.36326,149.1652465,5259,-0.05306753143668175,0.0019367299973964691,-0.06023965775966644,-0.08440475910902023,0.10819272696971893,-0.1149696484208107,0,-7,-999,-83,108,-115,20,14,-149,10822.0
23:15:45.730,AUTO,-35.3632596,149.1652467,5643,-0.07804787904024124,0.02394372597336769,-0.09335345774888992,-0.10816880315542221,0.08326911926269531,-0.1254517138004303,-2,-3,-998,-107,84,-125,15,-2,-149,10822.0
23:15:45.983,AUTO,-35.3632593,149.1652463,6026,-0.08338256180286407,0.031293947249650955,-0.11711759120225906,0.037293508648872375,0.009900250472128391,-0.07486497610807419,-4,0,-1006,38,10,-75,5,-23,-149,10822.0
23:15:46.186,AUTO,-35.3632593,149.1652455,6409,-0.07169349491596222,0.03154519572854042,-0.13282452523708344,0.054088082164525986,0.005391258280724287,-0.05418611690402031,-4,5,-1001,54,6,-54,-5,-40,-149,10822.0
23:15:46.389,AUTO,-35.3632593,149.1652455,6409,-0.07169349491596222,0.03154519572854042,-0.13282452523708344,0.054088082164525986,0.005391258280724287,-0.05418611690402031,-4,5,-1001,54,6,-54,-5,-40,-149,10822.0
23:15:46.591,AUTO,-35.3632593,149.1652455,6409,-0.07169349491596222,0.03154519572854042,-0.13282452523708344,0.054088082164525986,0.005391258280724287,-0.05418611690402031,-4,5,-1001,54,6,-54,-5,-40,-149,10822.0
23:15:46.793,AUTO,-35.3632593,149.1652455,6409,-0.07169349491596222,0.03154519572854042,-0.13282452523708344,0.054088082164525986,0.005391258280724287,-0.05418611690402031,-4,5,-1001,54,6,-54,-5,-40,-149,13779.0
23:15:46.995,AUTO,-35.3632605,149.1652409,7555,-0.02419438026845455,0.03454145789146423,-0.15587422251701355,0.07094232738018036,0.004961059894412756,-0.017722660675644875,-3,17,-1002,71,5,-18,-35,-65,-149,13779.0
23:15:47.197,AUTO,-35.3632614,149.1652391,7942,-0.005740922410041094,0.03530428931117058,-0.158845454454422,0.07343688607215881,0.0014031080063432455,-0.011022866703569889,-2,19,-1004,74,2,-11,-43,-63,-150,13779.0
23:15:47.399,AUTO,-35.3632625,149.1652374,8328,0.01303834281861782,0.03504582494497299,-0.15990182757377625,0.07504734396934509,-0.003352716565132141,-0.0061525264754891396,0,16,-1004,75,-2,-6,-51,-57,-151,13779.0
23:15:47.600,AUTO,-35.3632625,149.1652374,8328,0.01303834281861782,0.03504582494497299,-0.15990182757377625,0.07504734396934509,-0.003352716565132141,-0.0061525264754891396,0,16,-1004,75,-2,-6,-51,-57,-151,13779.0
23:15:47.802,AUTO,-35.3632637,149.1652358,8715,0.030467553064227104,0.03237074613571167,-0.15754254162311554,0.04016633704304695,-0.032691456377506256,0.02895939163863659,1,16,-1000,40,-32,28,-57,-47,-152,13779.0
23:15:48.004,AUTO,-35.363265,149.1652346,9103,0.02827230654656887,0.0099277189001441,-0.13867907226085663,-0.03566087782382965,-0.12328673899173737,0.10397133976221085,4,16,-998,-35,-122,103,-60,-36,-151,13779.0
23:15:48.205,AUTO,-35.3632663,149.1652337,9490,0.021458987146615982,-0.02286389097571373,-0.10942327231168747,-0.01213156245648861,-0.12130898982286453,0.12093386799097061,4,15,-1005,-11,-120,120,-55,-28,-151,13779.0
23:15:48.407,AUTO,-35.3632663,149.1652337,9490,0.021458987146615982,-0.02286389097571373,-0.10942327231168747,-0.01213156245648861,-0.12130898982286453,0.12093386799097061,4,15,-1005,-11,-120,120,-55,-28,-151,13779.0
23:15:48.609,AUTO,-35.3632663,149.1652337,9490,0.021458987146615982,-0.02286389097571373,-0.10942327231168747,-0.01213156245648861,-0.12130898982286453,0.12093386799097061,4,15,-1005,-11,-120,120,-55,-28,-151,13779.0
23:15:48.811,AUTO,-35.3632663,149.1652337,9490,0.021458987146615982,-0.02286389097571373,-0.10942327231168747,-0.01213156245648861,-0.12130898982286453,0.12093386799097061,4,15,-1005,-11,-120,120,-55,-28,-151,13779.0
23:15:49.013,AUTO,-35.3632687,149.1652322,10667,0.04958515241742134,-0.06585843861103058,-0.0464429073035717,0.05180775746703148,-0.023096488788723946,0.057827178388834,3,3,-1001,52,-22,57,-11,-1,-154,13779.0
23:15:49.215,AUTO,-35.3632688,149.1652321,11059,0.059118736535310745,-0.07262123376131058,-0.033829215914011,0.029691282659769058,-0.029637180268764496,0.059563398361206055,0,0,-997,30,-28,58,7,10,-153,13779.0
23:15:49.417,AUTO,-35.3632685,149.1652325,11447,0.06544417887926102,-0.07979017496109009,-0.022671299055218697,0.030215822160243988,-0.019531160593032837,0.04766299948096275,-1,-4,-996,30,-18,47,26,23,-151,13779.0
23:15:49.625,AUTO,-35.3632685,149.1652325,11447,0.07234669476747513,-0.08303475379943848,-0.014222039841115475,0.03197000175714493,-0.0026844730600714684,0.03661062940955162,-1,-4,-996,30,-18,47,26,23,-151,13779.0
23:15:49.867,AUTO,-35.3632665,149.1652344,12209,0.07069765776395798,-0.08219367265701294,-0.009713851846754551,-0.09435638040304184,0.034438468515872955,-0.01664135418832302,-6,-15,-982,-93,35,-17,66,51,-145,13779.0
23:15:50.105,AUTO,-35.3632665,149.1652344,12209,0.07069765776395798,-0.08219367265701294,-0.009713851846754551,-0.09435638040304184,0.034438468515872955,-0.01664135418832302,-6,-15,-982,-93,35,-17,66,51,-145,13779.0
23:15:50.393,AUTO,-35.3632648,149.1652358,12575,0.029005642980337143,-0.0530661903321743,-0.031055644154548645,-0.18475331366062164,0.1517953872680664,-0.10907663404941559,-7,-20,-997,-184,152,-109,81,57,-142,13779.0
23:15:50.605,AUTO,-35.3632648,149.1652358,12575,0.029005642980337143,-0.0530661903321743,-0.031055644154548645,-0.18475331366062164,0.1517953872680664,-0.10907663404941559,-7,-20,-997,-184,152,-109,81,57,-142,13779.0
23:15:50.808,AUTO,-35.3632648,149.1652358,12575,0.029005642980337143,-0.0530661903321743,-0.031055644154548645,-0.18475331366062164,0.1517953872680664,-0.10907663404941559,-7,-20,-997,-184,152,-109,81,57,-142,13779.0
23:15:51.010,AUTO,-35.363259,149.1652397,13704,-0.0199626162648201,0.023309238255023956,-0.12558645009994507,-0.024375231936573982,0.06437389552593231,-0.11036694794893265,-10,-20,-1012,-23,65,-110,80,37,-152,13779.0
23:15:51.212,AUTO,-35.3632573,149.1652406,14091,-0.055146150290966034,0.026506947353482246,-0.1425573229789734,-0.10215942561626434,0.025002993643283844,-0.07160638272762299,-10,-17,-1008,-101,25,-71,70,23,-152,33229.0
23:15:51.414,AUTO,-35.3632557,149.165241,14490,-0.06646186113357544,0.03578846529126167,-0.162648543715477,-0.00934595987200737,0.05210193619132042,-0.07340263575315475,-7,-14,-1009,-8,52,-73,58,5,-154,33229.0
23:15:51.616,AUTO,-35.3632557,149.165241,14490,-0.06646186113357544,0.03578846529126167,-0.162648543715477,-0.00934595987200737,0.05210193619132042,-0.07340263575315475,-7,-14,-1009,-8,52,-73,58,5,-154,33229.0
23:15:51.817,AUTO,-35.3632545,149.1652409,14884,-0.06531932204961777,0.046686191111803055,-0.18088741600513458,0.016636637970805168,0.04354249686002731,-0.06286290287971497,-12,-7,-1005,17,44,-63,43,-11,-155,33229.0
23:15:52.019,AUTO,-35.3632537,149.1652404,15277,-0.058481913059949875,0.053950387984514236,-0.19458450376987457,0.039514731615781784,0.02546967752277851,-0.045372091233730316,-9,-2,-1002,40,26,-45,25,-25,-154,33229.0
23:15:52.221,AUTO,-35.3632533,149.1652396,15669,-0.04786798730492592,0.05868148431181908,-0.2041029930114746,0.04920509457588196,0.018325714394450188,-0.03310929238796234,-9,1,-1000,49,19,-33,8,-35,-154,33229.0
23:15:52.423,AUTO,-35.3632533,149.1652396,15669,-0.04786798730492592,0.05868148431181908,-0.2041029930114746,0.04920509457588196,0.018325714394450188,-0.03310929238796234,-9,1,-1000,49,19,-33,8,-35,-154,33229.0
23:15:52.626,AUTO,-35.3632533,149.1652396,15669,-0.04786798730492592,0.05868148431181908,-0.2041029930114746,0.04920509457588196,0.018325714394450188,-0.03310929238796234,-9,1,-1000,49,19,-33,8,-35,-154,33229.0
23:15:52.828,AUTO,-35.3632533,149.1652396,15669,-0.04786798730492592,0.05868148431181908,-0.2041029930114746,0.04920509457588196,0.018325714394450188,-0.03310929238796234,-9,1,-1000,49,19,-33,8,-35,-154,33229.0
23:15:53.030,AUTO,-35.3632542,149.1652362,16830,-0.005412898492068052,0.06563856452703476,-0.21641476452350616,0.06611760705709457,0.0008255664724856615,-0.010201515629887581,-1,11,-1001,66,1,-10,-41,-41,-152,33229.0
23:15:53.232,AUTO,-35.3632552,149.1652351,17217,0.011266671121120453,0.0645228773355484,-0.21683815121650696,0.06838775426149368,-0.008439590223133564,-0.0051803565584123135,-1,16,-1001,68,-7,-5,-55,-34,-152,33229.0
23:15:53.434,AUTO,-35.3632565,149.1652342,17603,0.02851678803563118,0.06103098765015602,-0.2161138951778412,0.07068541646003723,-0.01761547289788723,-0.0009421854047104716,4,15,-1002,71,-16,-1,-67,-23,-152,33229.0
23:15:53.637,AUTO,-35.3632581,149.1652337,17989,0.045992493629455566,0.05495915934443474,-0.21479590237140656,0.07010318338871002,-0.029362760484218597,0.002733994275331497,7,14,-1002,70,-28,2,-76,-9,-151,33229.0
23:15:53.839,AUTO,-35.3632581,149.1652337,17989,0.045992493629455566,0.05495915934443474,-0.21479590237140656,0.07010318338871002,-0.029362760484218597,0.002733994275331497,7,14,-1002,70,-28,2,-76,-9,-151,33229.0
23:15:54.041,AUTO,-35.3632598,149.1652336,18375,0.06314505636692047,0.04621054232120514,-0.2129172384738922,0.06780000776052475,-0.037605270743370056,0.006337959319353104,16,12,-1002,68,-36,6,-81,7,-151,33229.0
23:15:54.243,AUTO,-35.3632616,149.1652338,18760,0.07850954681634903,0.034009747207164764,-0.20944182574748993,0.034223347902297974,-0.06744008511304855,0.03711387887597084,12,9,-997,34,-66,36,-82,27,-151,33229.0
23:15:54.445,AUTO,-35.3632616,149.1652338,18760,0.07850954681634903,0.034009747207164764,-0.20944182574748993,0.034223347902297974,-0.06744008511304855,0.03711387887597084,12,9,-997,34,-66,36,-82,27,-151,33229.0
23:15:54.647,AUTO,-35.3632616,149.1652338,18760,0.07850954681634903,0.034009747207164764,-0.20944182574748993,0.034223347902297974,-0.06744008511304855,0.03711387887597084,12,9,-997,34,-66,36,-82,27,-151,33229.0
23:15:54.849,AUTO,-35.3632616,149.1652338,18760,0.07850954681634903,0.034009747207164764,-0.20944182574748993,0.034223347902297974,-0.06744008511304855,0.03711387887597084,12,9,-997,34,-66,36,-82,27,-151,33229.0
23:15:55.051,AUTO,-35.3632663,149.165238,19914,0.04284844920039177,-0.09238965064287186,-0.12196561694145203,-0.07743684947490692,-0.18961545825004578,0.18979236483573914,17,-5,-1009,-76,-188,189,-40,71,-151,33229.0
23:15:55.259,AUTO,-35.3632668,149.1652399,20299,0.008708826266229153,-0.13470178842544556,-0.08013109862804413,-0.17017124593257904,-0.09408611804246902,0.10811448097229004,13,-10,-1001,-169,-93,107,-7,72,-150,33229.0
23:15:55.583,AUTO,-35.3632665,149.1652417,20678,-0.03972577676177025,-0.1274026483297348,-0.07907602190971375,-0.20414289832115173,0.1147795170545578,-0.06383560597896576,7,-14,-1000,-203,115,-64,28,61,-148,33229.0
23:15:55.863,AUTO,-35.3632657,149.165243,21053,-0.08386124670505524,-0.09168815612792969,-0.11464489251375198,-0.17880737781524658,0.15795323252677917,-0.1734854280948639,0,-15,-1008,-178,158,-173,53,38,-147,33229.0
23:15:56.065,AUTO,-35.3632643,149.1652436,21427,-0.1125865951180458,-0.05836817994713783,-0.1666305512189865,-0.06580175459384918,0.12888644635677338,-0.1734192669391632,-7,-13,-1015,-64,129,-173,67,7,-148,33229.0
23:15:56.267,AUTO,-35.3632628,149.1652434,21804,-0.11668168753385544,-0.03968000039458275,-0.20856556296348572,0.003978164400905371,0.0686131939291954,-0.13655415177345276,-15,-8,-1009,4,69,-136,70,-26,-148,33229.0
23:15:56.476,AUTO,-35.3632628,149.1652434,21804,-0.11668168753385544,-0.03968000039458275,-0.20856556296348572,0.003978164400905371,0.0686131939291954,-0.13655415177345276,-15,-8,-1009,4,69,-136,70,-26,-148,33229.0
23:15:56.681,AUTO,-35.3632628,149.1652434,21804,-0.11668168753385544,-0.03968000039458275,-0.20856556296348572,0.003978164400905371,0.0686131939291954,-0.13655415177345276,-15,-8,-1009,4,69,-136,70,-26,-148,33229.0
23:15:56.884,AUTO,-35.3632584,149.1652377,22925,-0.08657251298427582,-0.0060237497091293335,-0.27882006764411926,0.05274055898189545,0.06405606865882874,-0.0544443279504776,-20,6,-1002,53,64,-54,55,-103,-146,79588.0
23:15:57.086,AUTO,-35.3632584,149.1652377,22925,-0.08657251298427582,-0.0060237497091293335,-0.27882006764411926,0.05274055898189545,0.06405606865882874,-0.0544443279504776,-20,6,-1002,53,64,-54,55,-103,-146,79588.0
23:15:57.287,AUTO,-35.3632573,149.1652346,23297,-0.0724046602845192,0.009643263183534145,-0.29185861349105835,0.06060801073908806,0.06879668682813644,-0.04037436842918396,-28,8,-1006,61,69,-40,43,-119,-147,79588.0
23:15:57.489,AUTO,-35.3632564,149.1652311,23674,-0.05672869831323624,0.02721281908452511,-0.3016115427017212,0.06570961326360703,0.07381244748830795,-0.0305399838835001,-27,12,-1008,66,74,-30,29,-129,-148,79588.0
23:15:57.691,AUTO,-35.3632559,149.1652275,24052,-0.039541229605674744,0.04481055587530136,-0.30882906913757324,0.07307284325361252,0.07075069099664688,-0.02145245298743248,-26,16,-1010,73,71,-21,11,-133,-150,79588.0
23:15:57.893,AUTO,-35.3632558,149.1652238,24435,-0.021055374294519424,0.06169160455465317,-0.31362342834472656,0.07655960321426392,0.06668847054243088,-0.015617338940501213,-25,17,-1011,77,67,-15,-6,-130,-152,79588.0
23:15:58.095,AUTO,-35.3632558,149.1652238,24435,-0.021055374294519424,0.06169160455465317,-0.31362342834472656,0.07655960321426392,0.06668847054243088,-0.015617338940501213,-25,17,-1011,77,67,-15,-6,-130,-152,79588.0
23:15:58.297,AUTO,-35.3632561,149.1652203,24822,-0.0012882431037724018,0.07669756561517715,-0.31646227836608887,0.08006352931261063,0.05588775500655174,-0.007110124453902245,-15,29,-1010,80,56,-7,-26,-121,-153,79588.0
23:15:58.498,AUTO,-35.3632561,149.1652203,24822,-0.0012882431037724018,0.07669756561517715,-0.31646227836608887,0.08006352931261063,0.05588775500655174,-0.007110124453902245,-15,29,-1010,80,56,-7,-26,-121,-153,79588.0
23:15:58.700,AUTO,-35.3632561,149.1652203,24822,-0.0012882431037724018,0.07669756561517715,-0.31646227836608887,0.08006352931261063,0.05588775500655174,-0.007110124453902245,-15,29,-1010,80,56,-7,-26,-121,-153,79588.0
23:15:58.902,AUTO,-35.3632598,149.1652122,25992,0.06172487884759903,0.10121677070856094,-0.3174878656864166,0.08794445544481277,0.007568532135337591,0.0032228215131908655,-4,27,-1004,88,8,3,-85,-61,-154,79588.0
23:15:59.104,AUTO,-35.3632598,149.1652122,25992,0.06172487884759903,0.10121677070856094,-0.3174878656864166,0.08794445544481277,0.007568532135337591,0.0032228215131908655,-4,27,-1004,88,8,3,-85,-61,-154,79588.0
23:15:59.305,AUTO,-35.3632618,149.1652109,26381,0.08287361264228821,0.10004998743534088,-0.3166700303554535,0.08332522213459015,-0.012954000383615494,0.005117571912705898,6,19,-1002,84,-12,4,-100,-32,-152,79588.0
23:15:59.507,AUTO,-35.3632641,149.1652103,26765,0.1033090278506279,0.09348779171705246,-0.31548404693603516,0.0791502594947815,-0.03524881973862648,0.00794617086648941,14,18,-1000,80,-34,7,-110,0,-150,79588.0
23:15:59.717,AUTO,-35.3632666,149.1652108,27143,0.1226646825671196,0.08154965192079544,-0.3144580125808716,0.07561630755662918,-0.05498483031988144,0.012694185599684715,19,14,-998,76,-54,12,-116,34,-147,79588.0
23:16:00.029,AUTO,-35.3632692,149.1652121,27514,0.14061665534973145,0.0643538311123848,-0.31411808729171753,0.06876292824745178,-0.07675092667341232,0.012803410179913044,22,13,-998,69,-75,12,-116,71,-144,79588.0
23:16:00.303,AUTO,-35.3632716,149.1652146,27877,0.15597087144851685,0.04202670603990555,-0.31406745314598083,0.05761174485087395,-0.09541713446378708,0.01731790043413639,32,6,-998,58,-94,17,-108,109,-141,79588.0
23:16:00.511,AUTO,-35.3632716,149.1652146,27877,0.15597087144851685,0.04202670603990555,-0.31406745314598083,0.05761174485087395,-0.09541713446378708,0.01731790043413639,32,6,-998,58,-94,17,-108,109,-141,79588.0
23:16:00.730,AUTO,-35.3632716,149.1652146,27877,0.15597087144851685,0.04202670603990555,-0.31406745314598083,0.05761174485087395,-0.09541713446378708,0.01731790043413639,32,6,-998,58,-94,17,-108,109,-141,79588.0
23:16:00.932,AUTO,-35.3632769,149.1652279,28910,0.1338595300912857,-0.08996782451868057,-0.27318254113197327,-0.14126068353652954,-0.2524249851703644,0.21125385165214539,42,-24,-1015,-140,-251,211,-37,204,-132,79588.0
23:16:01.134,AUTO,-35.3632772,149.1652337,29246,0.08943754434585571,-0.1601792424917221,-0.2195899337530136,-0.15628424286842346,-0.24115528166294098,0.25205087661743164,39,-34,-1027,-155,-240,251,8,214,-133,79588.0
23:16:01.336,AUTO,-35.3632772,149.1652337,29246,0.08943754434585571,-0.1601792424917221,-0.2195899337530136,-0.15628424286842346,-0.24115528166294098,0.25205087661743164,39,-34,-1027,-155,-240,251,8,214,-133,45825.0
23:16:01.538,AUTO,-35.3632765,149.1652395,29585,0.033918216824531555,-0.19121983647346497,-0.18842767179012299,-0.24264225363731384,-0.008906180039048195,0.04385926201939583,26,-47,-1019,-241,-8,43,61,209,-133,45825.0
23:16:01.739,AUTO,-35.3632746,149.165245,29925,-0.01909644715487957,-0.17238779366016388,-0.19682995975017548,-0.20753313601016998,0.11816323548555374,-0.0840463936328888,17,-45,-1032,-206,119,-84,110,188,-135,45825.0
23:16:01.941,AUTO,-35.3632717,149.1652498,30272,-0.06588950008153915,-0.14115825295448303,-0.23397600650787354,-0.20355260372161865,0.1362977921962738,-0.1730521321296692,3,-50,-1038,-202,137,-173,146,156,-140,45825.0
23:16:02.143,AUTO,-35.3632681,149.1652536,30633,-0.10538329929113388,-0.11286169290542603,-0.2828371822834015,-0.16508688032627106,0.12550406157970428,-0.1931721568107605,0,-50,-1040,-164,126,-193,169,114,-145,45825.0
23:16:02.345,AUTO,-35.3632681,149.1652536,30633,-0.10538329929113388,-0.11286169290542603,-0.2828371822834015,-0.16508688032627106,0.12550406157970428,-0.1931721568107605,0,-50,-1040,-164,126,-193,169,114,-145,45825.0
23:16:02.547,AUTO,-35.3632681,149.1652536,30633,-0.10538329929113388,-0.11286169290542603,-0.2828371822834015,-0.16508688032627106,0.12550406157970428,-0.1931721568107605,0,-50,-1040,-164,126,-193,169,114,-145,45825.0
23:16:02.750,AUTO,-35.3632681,149.1652536,30633,-0.10538329929113388,-0.11286169290542603,-0.2828371822834015,-0.16508688032627106,0.12550406157970428,-0.1931721568107605,0,-50,-1040,-164,126,-193,169,114,-145,45825.0
23:16:02.952,AUTO,-35.3632565,149.1652573,31768,-0.14530885219573975,-0.006122751627117395,-0.3876361548900604,0.03765123337507248,0.18245796859264374,-0.02880110591650009,-27,-32,-1022,38,183,-29,160,-24,-152,45825.0
23:16:03.154,AUTO,-35.3632531,149.1652563,32156,-0.1320187896490097,0.034817006438970566,-0.3948846459388733,0.0620960108935833,0.15103363990783691,0.012580648064613342,-26,-22,-1020,63,151,12,135,-58,-154,45825.0
23:16:03.355,AUTO,-35.3632531,149.1652563,32156,-0.1320187896490097,0.034817006438970566,-0.3948846459388733,0.0620960108935833,0.15103363990783691,0.012580648064613342,-26,-22,-1020,63,151,12,135,-58,-154,45825.0
23:16:03.557,AUTO,-35.3632504,149.1652543,32551,-0.11640606820583344,0.06982214003801346,-0.39428460597991943,0.059224776923656464,0.12616348266601562,0.024446895346045494,-30,-14,-1016,60,126,24,102,-83,-155,45825.0
23:16:03.759,AUTO,-35.3632485,149.1652519,32945,-0.10205328464508057,0.09855883568525314,-0.3909820020198822,0.05362532660365105,0.10169031471014023,0.02069041132926941,-28,-4,-1012,54,102,20,65,-98,-155,45825.0
23:16:03.961,AUTO,-35.3632475,149.1652491,33338,-0.0873340368270874,0.12160001695156097,-0.38777482509613037,0.059442661702632904,0.08092417567968369,0.019175827503204346,-27,8,-1007,60,81,19,25,-106,-154,45825.0
23:16:04.163,AUTO,-35.3632473,149.1652461,33726,-0.07159972935914993,0.13920798897743225,-0.3860032856464386,0.06771919131278992,0.06246097758412361,0.01341252401471138,-19,9,-1002,68,63,13,-15,-108,-152,45825.0
23:16:04.364,AUTO,-35.3632473,149.1652461,33726,-0.07159972935914993,0.13920798897743225,-0.3860032856464386,0.06771919131278992,0.06246097758412361,0.01341252401471138,-19,9,-1002,68,63,13,-15,-108,-152,45825.0
23:16:04.577,AUTO,-35.3632473,149.1652461,33726,-0.07159972935914993,0.13920798897743225,-0.3860032856464386,0.06771919131278992,0.06246097758412361,0.01341252401471138,-19,9,-1002,68,63,13,-15,-108,-152,45825.0
23:16:04.779,AUTO,-35.3632473,149.1652461,33726,-0.07159972935914993,0.13920798897743225,-0.3860032856464386,0.06771919131278992,0.06246097758412361,0.01341252401471138,-19,9,-1002,68,63,13,-15,-108,-152,45825.0
23:16:04.980,AUTO,-35.3632522,149.1652381,34835,-0.008357850834727287,0.16351884603500366,-0.379078209400177,0.09627245366573334,0.003217251505702734,0.01135800126940012,0,28,-997,97,4,11,-131,-77,-141,45825.0
23:16:05.182,AUTO,-35.3632555,149.1652363,35188,0.016982821747660637,0.16054826974868774,-0.37590065598487854,0.09918498247861862,-0.02235848270356655,0.018915241584181786,12,29,-999,99,-21,18,-162,-54,-138,45825.0
23:16:05.420,AUTO,-35.3632595,149.1652351,35534,0.03441314771771431,0.1422998160123825,-0.36353448033332825,0.038968946784734726,-0.11008315533399582,0.07397730648517609,19,40,-1000,39,-109,74,-188,-27,-134,45825.0
23:16:05.626,AUTO,-35.3632639,149.1652347,35874,0.046776920557022095,0.1084776446223259,-0.3432736396789551,0.04484511911869049,-0.1426655650138855,0.09243915975093842,19,40,-1000,39,-109,74,-205,-1,-134,45825.0
23:16:05.842,AUTO,-35.3632639,149.1652347,35874,0.046776920557022095,0.1084776446223259,-0.3432736396789551,0.04484511911869049,-0.1426655650138855,0.09243915975093842,25,38,-1011,45,-141,92,-205,-1,-134,45825.0
23:16:06.123,AUTO,-35.3632733,149.165236,36572,0.08294577896595001,0.034250520169734955,-0.3025331497192383,0.07374295592308044,-0.14294423162937164,0.09256420284509659,42,31,-1026,74,-142,92,-207,50,-142,45825.0
23:16:06.326,AUTO,-35.3632733,149.165236,36572,0.08294577896595001,0.034250520169734955,-0.3025331497192383,0.07374295592308044,-0.14294423162937164,0.09256420284509659,42,31,-1026,74,-142,92,-207,50,-142,45825.0
23:16:06.528,AUTO,-35.3632733,149.165236,36572,0.08294577896595001,0.034250520169734955,-0.3025331497192383,0.07374295592308044,-0.14294423162937164,0.09256420284509659,42,31,-1026,74,-142,92,-207,50,-142,45825.0
23:16:06.729,AUTO,-35.3632733,149.165236,36572,0.08294577896595001,0.034250520169734955,-0.3025331497192383,0.07374295592308044,-0.14294423162937164,0.09256420284509659,42,31,-1026,74,-142,92,-207,50,-142,54812.0
23:16:06.931,AUTO,-35.3632733,149.165236,36572,0.08294577896595001,0.034250520169734955,-0.3025331497192383,0.07374295592308044,-0.14294423162937164,0.09256420284509659,42,31,-1026,74,-142,92,-207,50,-142,54812.0
23:16:07.133,AUTO,-35.3632862,149.1652442,37870,0.04513052850961685,-0.1524529755115509,-0.1749100387096405,-0.24185945093631744,-0.3586124777793884,0.37044423818588257,47,1,-1023,-241,-357,370,-108,115,-156,54812.0
23:16:07.335,AUTO,-35.363288,149.1652472,38265,-0.07172335684299469,-0.2576613426208496,-0.05518200621008873,-0.5250647068023682,-0.4088137447834015,0.4767465889453888,34,-17,-1023,-524,-407,476,-48,103,-155,54812.0
23:16:07.537,AUTO,-35.3632882,149.1652495,38641,-0.24461710453033447,-0.34609267115592957,0.02890153042972088,-0.589462399482727,-0.4055839478969574,0.07937472313642502,19,-13,-984,-588,-405,79,29,60,-137,54812.0
23:16:07.738,AUTO,-35.3632867,149.1652502,38950,-0.2850700616836548,-0.3419301509857178,0.03187897801399231,0.11919655650854111,0.3416599929332733,-0.014412756077945232,-14,-9,-952,120,342,-14,111,-5,-104,54812.0
23:16:07.940,AUTO,-35.3632867,149.1652502,38950,-0.2850700616836548,-0.3419301509857178,0.03187897801399231,0.11919655650854111,0.3416599929332733,-0.014412756077945232,-14,-9,-952,120,342,-14,111,-5,-104,54812.0
23:16:08.142,AUTO,-35.3632837,149.1652492,39180,-0.1941715031862259,-0.22513671219348907,-0.010002249851822853,0.4292144477367401,0.549294114112854,-0.05619387701153755,-35,-5,-951,430,550,-56,169,-63,-76,54812.0
23:16:08.344,AUTO,-35.3632796,149.165247,39356,-0.08317402005195618,-0.09104063361883163,-0.04510951787233353,0.4107992351055145,0.5171509981155396,-0.06001359224319458,-50,-6,-975,411,518,-59,193,-99,-63,54812.0
23:16:08.546,AUTO,-35.3632796,149.165247,39356,-0.08317402005195618,-0.09104063361883163,-0.04510951787233353,0.4107992351055145,0.5171509981155396,-0.06001359224319458,-50,-6,-975,411,518,-59,193,-99,-63,54812.0
23:16:08.748,AUTO,-35.3632796,149.165247,39356,-0.08317402005195618,-0.09104063361883163,-0.04510951787233353,0.4107992351055145,0.5171509981155396,-0.06001359224319458,-50,-6,-975,411,518,-59,193,-99,-63,54812.0
23:16:08.950,AUTO,-35.3632796,149.165247,39356,-0.08317402005195618,-0.09104063361883163,-0.04510951787233353,0.4107992351055145,0.5171509981155396,-0.06001359224319458,-50,-6,-975,411,518,-59,193,-99,-63,54812.0
23:16:09.151,AUTO,-35.3632679,149.1652383,39761,0.08258313685655594,0.0900002270936966,-0.06911654025316238,-0.21623563766479492,0.0690562054514885,0.0035884310491383076,-37,-31,-942,-216,69,3,140,-87,-38,54812.0
23:16:09.353,AUTO,-35.363265,149.1652361,39832,0.08984909951686859,0.103078693151474,-0.07025314122438431,-0.6349891424179077,0.02582119032740593,0.01500257570296526,-33,-44,-979,-634,26,15,111,-67,-22,54812.0
23:16:09.555,AUTO,-35.3632628,149.1652345,39876,0.07786653190851212,0.09878498315811157,-0.07337077707052231,-0.6802467107772827,-0.027183063328266144,-0.01363188773393631,-21,-15,-978,-678,-26,-13,83,-43,-14,54812.0
23:16:09.769,AUTO,-35.3632612,149.1652335,39897,0.0744720995426178,0.09147433936595917,-0.07639999687671661,0.06308408826589584,-0.04005730152130127,-0.022494187578558922,-15,17,-979,65,-39,-22,58,-21,-6,54812.0
23:16:09.999,AUTO,-35.3632601,149.1652332,39897,0.06244896724820137,0.08004330098628998,-0.08079724758863449,0.43495360016822815,-0.04632382467389107,-0.02372010238468647,-6,33,-989,437,-45,-23,37,-4,2,54812.0
23:16:10.229,AUTO,-35.3632601,149.1652332,39897,0.06244896724820137,0.08004330098628998,-0.08079724758863449,0.43495360016822815,-0.04632382467389107,-0.02372010238468647,-6,33,-989,437,-45,-23,37,-4,2,54812.0
23:16:10.444,AUTO,-35.3632594,149.1652333,39879,0.0485178604722023,0.06692589819431305,-0.08480941504240036,0.7646962404251099,-0.046279121190309525,-0.012484290637075901,-1,29,-987,765,-45,-12,20,7,8,54812.0
23:16:10.690,AUTO,-35.3632594,149.1652333,39879,0.0485178604722023,0.06692589819431305,-0.08480941504240036,0.7646962404251099,-0.046279121190309525,-0.012484290637075901,-1,29,-987,765,-45,-12,20,7,8,54812.0
23:16:10.892,AUTO,-35.3632594,149.1652333,39879,0.0485178604722023,0.06692589819431305,-0.08480941504240036,0.7646962404251099,-0.046279121190309525,-0.012484290637075901,-1,29,-987,765,-45,-12,20,7,8,54812.0
23:16:11.103,AUTO,-35.3632599,149.1652353,39734,0.0130398478358984,0.06377064436674118,-0.09422891587018967,-0.05676954612135887,-0.08651117980480194,-0.015390418469905853,12,-24,-999,-56,-85,-15,-36,31,18,54812.0
23:16:11.305,AUTO,-35.3632608,149.1652364,39688,-0.0024811383336782455,0.05005926266312599,-0.09758033603429794,-0.7133440971374512,-0.042469318956136703,-0.018933095037937164,15,-40,-1001,-713,-41,-18,-46,34,12,50882.0
23:16:11.507,AUTO,-35.363262,149.1652375,39651,-0.017314167693257332,0.043309248983860016,-0.10063932090997696,-0.669170081615448,-0.01584724895656109,-0.011722417548298836,17,-14,-1014,-668,-15,-11,-53,36,10,50882.0
23:16:11.708,AUTO,-35.363262,149.1652375,39651,-0.017314167693257332,0.043309248983860016,-0.10063932090997696,-0.669170081615448,-0.01584724895656109,-0.011722417548298836,17,-14,-1014,-668,-15,-11,-53,36,10,50882.0
23:16:11.910,AUTO,-35.3632633,149.1652387,39620,-0.014972464181482792,0.04073026403784752,-0.10374382883310318,0.11793968081474304,-0.0030957721173763275,0.001991965575143695,19,26,-1005,120,-2,1,-59,37,8,50882.0
23:16:12.112,AUTO,-35.3632647,149.1652398,39592,-0.002650030655786395,0.042235445231199265,-0.10582508146762848,0.7835760116577148,0.018593087792396545,0.003851877525448799,19,37,-1005,784,19,4,-65,36,7,50882.0
23:16:12.314,AUTO,-35.3632663,149.1652409,39563,0.0031323719304054976,0.04671812430024147,-0.10659617930650711,0.40109267830848694,0.014393205754458904,0.02357625402510166,21,4,-980,400,15,23,-71,36,8,50882.0
23:16:12.516,AUTO,-35.3632663,149.1652409,39563,0.0031323719304054976,0.04671812430024147,-0.10659617930650711,0.40109267830848694,0.014393205754458904,0.02357625402510166,21,4,-980,400,15,23,-71,36,8,50882.0
23:16:12.718,AUTO,-35.3632663,149.1652409,39563,0.0031323719304054976,0.04671812430024147,-0.10659617930650711,0.40109267830848694,0.014393205754458904,0.02357625402510166,21,4,-980,400,15,23,-71,36,8,50882.0
23:16:12.920,AUTO,-35.3632663,149.1652409,39563,0.0031323719304054976,0.04671812430024147,-0.10659617930650711,0.40109267830848694,0.014393205754458904,0.02357625402510166,21,4,-980,400,15,23,-71,36,8,50882.0
23:16:13.122,AUTO,-35.3632722,149.1652444,39466,0.03226412087678909,0.06138113886117935,0.37472641468048096,-0.5738271474838257,0.022098194807767868,0.841924786567688,27,-24,-999,-572,22,842,-97,45,11,50882.0
23:16:13.323,AUTO,-35.3632746,149.1652459,39424,0.058547891676425934,0.05978504568338394,0.5787774324417114,0.007594599854201078,0.033372439444065094,0.8073014616966248,28,8,-997,9,34,807,-110,52,14,50882.0
23:16:13.526,AUTO,-35.3632774,149.1652475,39376,0.09031856060028076,0.05288451910018921,0.7695366740226746,0.5255208015441895,0.0371677428483963,0.7639302015304565,28,23,-967,527,38,764,-125,61,19,50882.0
23:16:13.727,AUTO,-35.3632805,149.1652494,39318,0.12272131443023682,0.04301013797521591,0.9527464509010315,0.7951126098632812,0.04909733682870865,0.7234960198402405,26,-2,-995,796,49,724,-142,70,21,50882.0
23:16:13.929,AUTO,-35.3632805,149.1652494,39318,0.12272131443023682,0.04301013797521591,0.9527464509010315,0.7951126098632812,0.04909733682870865,0.7234960198402405,26,-2,-995,796,49,724,-142,70,21,50882.0
23:16:14.131,AUTO,-35.3632839,149.1652516,39252,0.1466124802827835,0.025698577985167503,1.1285569667816162,0.34683045744895935,0.02580542117357254,0.7041335701942444,25,-48,-973,346,26,704,-161,79,24,50882.0
23:16:14.333,AUTO,-35.3632879,149.1652541,39173,0.1576739251613617,0.0034384860191494226,1.3029791116714478,-0.23857781291007996,0.009897753596305847,0.6765618920326233,17,-88,-978,-238,10,676,-183,90,28,50882.0
23:16:14.535,AUTO,-35.3632879,149.1652541,39173,0.1576739251613617,0.0034384860191494226,1.3029791116714478,-0.23857781291007996,0.009897753596305847,0.6765618920326233,17,-88,-978,-238,10,676,-183,90,28,50882.0
23:16:14.737,AUTO,-35.3632879,149.1652541,39173,0.1576739251613617,0.0034384860191494226,1.3029791116714478,-0.23857781291007996,0.009897753596305847,0.6765618920326233,17,-88,-978,-238,10,676,-183,90,28,50882.0
23:16:14.939,AUTO,-35.3632879,149.1652541,39173,0.1576739251613617,0.0034384860191494226,1.3029791116714478,-0.23857781291007996,0.009897753596305847,0.6765618920326233,17,-88,-978,-238,10,676,-183,90,28,50882.0
23:16:15.140,AUTO,-35.3633029,149.1652636,38873,0.1566409468650818,-0.07798311859369278,1.817577600479126,-0.10896378010511398,-0.008409912697970867,0.6952775716781616,-13,-59,-1016,-107,-7,695,-261,127,41,50882.0
23:16:15.365,AUTO,-35.3633089,149.1652674,38755,0.1583891063928604,-0.10513309389352798,1.990369200706482,0.5556219816207886,0.012062156572937965,0.7009479999542236,-22,-34,-998,556,12,701,-287,139,44,50882.0
23:16:15.717,AUTO,-35.3633156,149.1652715,38628,0.148240327835083,-0.1323561668395996,2.1656558513641357,0.5169568657875061,0.0139921260997653,0.7131384611129761,-39,-70,-986,517,14,713,-312,151,48,50882.0
23:16:15.943,AUTO,-35.3633229,149.165276,38494,0.12013911455869675,-0.1550097018480301,2.3431055545806885,-0.22834248840808868,0.004570843651890755,0.7312101721763611,-50,-103,-988,-228,5,731,-337,163,51,50882.0
23:16:16.244,AUTO,-35.3633389,149.1652858,38194,0.0532662495970726,-0.17007751762866974,2.702258348464966,-0.7137416005134583,0.03079059347510338,0.7062962055206299,-81,-77,-999,-712,31,706,-381,184,57,50882.0
23:16:16.469,AUTO,-35.3633389,149.1652858,38194,0.0532662495970726,-0.17007751762866974,2.702258348464966,-0.7137416005134583,0.03079059347510338,0.7062962055206299,-81,-77,-999,-712,31,706,-381,184,57,50882.0
23:16:16.671,AUTO,-35.3633389,149.1652858,38194,0.0532662495970726,-0.17007751762866974,2.702258348464966,-0.7137416005134583,0.03079059347510338,0.7062962055206299,-81,-77,-999,-712,31,706,-381,184,57,50882.0
23:16:16.891,AUTO,-35.3633389,149.1652858,38194,0.0532662495970726,-0.17007751762866974,2.702258348464966,-0.7137416005134583,0.03079059347510338,0.7062962055206299,-81,-77,-999,-712,31,706,-381,184,57,50882.0
23:16:17.093,AUTO,-35.3633663,149.1653023,37702,0.03880513459444046,-0.17036400735378265,2.8441696166992188,0.09281551092863083,0.02844690904021263,-0.15991196036338806,-105,-12,-986,94,29,-159,-430,206,66,108531.0
23:16:17.295,AUTO,-35.363376,149.1653083,37525,0.05706106871366501,-0.1664547175168991,2.8144400119781494,0.5452553629875183,-0.00020006019622087479,-0.1850137710571289,-108,-23,-985,546,0,-184,-443,213,69,108531.0
23:16:17.497,AUTO,-35.363386,149.1653144,37343,0.06973988562822342,-0.16484351456165314,2.790198802947998,0.5700569748878479,-0.009365699253976345,-0.08979902416467667,-112,-29,-1001,570,-8,-89,-457,218,70,108531.0
23:16:17.698,AUTO,-35.363386,149.1653144,37343,0.06973988562822342,-0.16484351456165314,2.790198802947998,0.5700569748878479,-0.009365699253976345,-0.08979902416467667,-112,-29,-1001,570,-8,-89,-457,218,70,108531.0
23:16:17.900,AUTO,-35.3633964,149.1653206,37158,0.06980583816766739,-0.16177530586719513,2.7776594161987305,-0.03441561013460159,0.03167351707816124,0.013380439952015877,-112,-85,-982,-34,32,13,-469,224,72,108531.0
23:16:18.102,AUTO,-35.363407,149.1653269,36970,0.05840955302119255,-0.15355311334133148,2.772381067276001,-0.8271032571792603,0.03651547431945801,0.024540061131119728,-110,-90,-986,-826,37,25,-480,227,72,108531.0
23:16:18.304,AUTO,-35.363418,149.1653335,36773,0.05973367020487785,-0.14509904384613037,2.770526170730591,-0.1833973526954651,0.03507149964570999,-0.044639673084020615,-112,-54,-991,-181,35,-44,-488,231,73,108531.0
23:16:18.506,AUTO,-35.363418,149.1653335,36773,0.05973367020487785,-0.14509904384613037,2.770526170730591,-0.1833973526954651,0.03507149964570999,-0.044639673084020615,-112,-54,-991,-181,35,-44,-488,231,73,108531.0
23:16:18.707,AUTO,-35.363418,149.1653335,36773,0.05973367020487785,-0.14509904384613037,2.770526170730591,-0.1833973526954651,0.03507149964570999,-0.044639673084020615,-112,-54,-991,-181,35,-44,-488,231,73,108531.0
23:16:18.909,AUTO,-35.363418,149.1653335,36773,0.05973367020487785,-0.14509904384613037,2.770526170730591,-0.1833973526954651,0.03507149964570999,-0.044639673084020615,-112,-54,-991,-181,35,-44,-488,231,73,108531.0
23:16:19.111,AUTO,-35.3634511,149.1653534,36191,0.08476502448320389,-0.11813724786043167,2.7693674564361572,0.45067068934440613,0.05209415405988693,0.022089572623372078,-120,-68,-1006,450,52,22,-502,237,75,108531.0
23:16:19.313,AUTO,-35.3634624,149.1653601,35994,0.07849607616662979,-0.10909546911716461,2.7706291675567627,-0.354115754365921,0.03177467733621597,0.054932139813899994,-119,-100,-988,-354,32,55,-502,236,75,108531.0
23:16:19.515,AUTO,-35.3634737,149.1653668,35797,0.06854940205812454,-0.10282440483570099,2.769589900970459,-0.7923083901405334,0.009825905784964561,0.023615747690200806,-121,-110,-989,-791,10,24,-500,236,74,108531.0
23:16:19.718,AUTO,-35.3634737,149.1653668,35797,0.06854940205812454,-0.10282440483570099,2.769589900970459,-0.7923083901405334,0.009825905784964561,0.023615747690200806,-121,-110,-989,-791,10,24,-500,236,74,108531.0
23:16:19.919,AUTO,-35.3634849,149.1653735,35597,0.0690993219614029,-0.10441119223833084,2.7671916484832764,-0.5912320017814636,-0.014293132349848747,-0.025686141103506088,-110,-87,-993,-589,-13,-25,-499,234,78,108531.0
23:16:20.121,AUTO,-35.3634962,149.1653801,35397,0.0729006677865982,-0.10550688207149506,2.7644829750061035,0.05650249123573303,-0.004324784968048334,-0.05807410925626755,-113,-54,-990,58,-3,-57,-498,232,76,108531.0
23:16:20.323,AUTO,-35.3635074,149.1653866,35194,0.07917387038469315,-0.09900234639644623,2.7630059719085693,0.659007728099823,0.03271908685564995,-0.056455135345458984,-116,-25,-1007,660,33,-55,-496,230,77,108531.0
23:16:20.525,AUTO,-35.3635074,149.1653866,35194,0.07917387038469315,-0.09900234639644623,2.7630059719085693,0.659007728099823,0.03271908685564995,-0.056455135345458984,-116,-25,-1007,660,33,-55,-496,230,77,108531.0
23:16:20.727,AUTO,-35.3635074,149.1653866,35194,0.07917387038469315,-0.09900234639644623,2.7630059719085693,0.659007728099823,0.03271908685564995,-0.056455135345458984,-116,-25,-1007,660,33,-55,-496,230,77,108531.0
23:16:20.929,AUTO,-35.3635074,149.1653866,35194,0.07917387038469315,-0.09900234639644623,2.7630059719085693,0.659007728099823,0.03271908685564995,-0.056455135345458984,-116,-25,-1007,660,33,-55,-496,230,77,108531.0
23:16:21.136,AUTO,-35.3635403,149.1654056,34615,0.07856299728155136,-0.05993635579943657,2.7630319595336914,-0.408961683511734,0.09115229547023773,0.04835212603211403,-109,-110,-1007,-409,91,48,-477,224,70,108531.0
23:16:21.358,AUTO,-35.3635513,149.1654119,34427,0.062034085392951965,-0.04294193163514137,2.7600395679473877,-1.1433324813842773,0.019550850614905357,0.054709888994693756,-99,-124,-1019,-1143,20,55,-466,218,69,108531.0
