time_stamp,MODE,lat,lon,relative_alt,roll,pitch,yaw,rollspeed,pitchspeed,yawspeed,xacc,yacc,zacc,xgyro,ygyro,zgyro,vx,vy,vz,RTL_ALT
09:10:27.188,STABILIZE,-35.3632622,149.1652375,0,-0.00011630111839622259,0.001445173635147512,0.027000101283192635,0.000218547647818923,0.0003757700033020228,0.002343230415135622,0,1,-1000,1,0,0,-2,1,0,1500.0
09:10:27.389,STABILIZE,-35.3632622,149.1652375,0,-0.00011630111839622259,0.001445173635147512,0.027000101283192635,0.000218547647818923,0.0003757700033020228,0.002343230415135622,0,1,-1000,1,0,0,-2,1,0,1500.0
09:10:27.590,STABILIZE,-35.3632622,149.1652375,0,-0.0003888116916641593,0.0012414451921358705,0.026481349021196365,0.00020836439216509461,0.00040321724372915924,0.002241188194602728,0,1,-1000,0,0,0,-1,1,0,1500.0
09:10:27.791,STABILIZE,-35.3632622,149.1652375,0,-0.0003888116916641593,0.0012414451921358705,0.026481349021196365,0.00020836439216509461,0.00040321724372915924,0.002241188194602728,0,1,-1000,0,0,0,-1,1,0,1500.0
09:10:27.992,STABILIZE,-35.3632622,149.1652375,0,-0.0003888116916641593,0.0012414451921358705,0.026481349021196365,0.00020836439216509461,0.00040321724372915924,0.002241188194602728,0,1,-1000,0,0,0,-1,1,0,1500.0
09:10:28.194,STABILIZE,-35.3632622,149.1652375,0,-0.0005137232947163284,0.0011473313206806779,0.026230182498693466,0.00015274772886186838,0.0001510264992248267,0.0020653745159506798,0,1,-1000,0,0,0,-1,1,0,1500.0
09:10:28.395,STABILIZE,-35.3632622,149.1652375,0,-0.0005137232947163284,0.0011473313206806779,0.026230182498693466,0.00015274772886186838,0.0001510264992248267,0.0020653745159506798,0,1,-1000,0,0,0,-1,1,0,1500.0
09:10:28.597,STABILIZE,-35.3632622,149.1652375,0,-0.0005137232947163284,0.0011473313206806779,0.026230182498693466,0.00015274772886186838,0.0001510264992248267,0.0020653745159506798,0,1,-1000,0,0,0,-1,1,0,1500.0
09:10:28.798,STABILIZE,-35.3632622,149.1652375,0,-0.0005137232947163284,0.0011473313206806779,0.026230182498693466,0.00015274772886186838,0.0001510264992248267,0.0020653745159506798,0,1,-1000,0,0,0,-1,1,0,1500.0
09:10:28.999,STABILIZE,-35.3632622,149.1652375,0,-0.0005137232947163284,0.0011473313206806779,0.026230182498693466,0.00015274772886186838,0.0001510264992248267,0.0020653745159506798,0,1,-1000,0,0,0,-1,1,0,1500.0
09:10:29.201,STABILIZE,-35.3632622,149.1652375,0,-0.0005137232947163284,0.0011473313206806779,0.026230182498693466,0.00015274772886186838,0.0001510264992248267,0.0020653745159506798,0,1,-1000,0,0,0,-1,1,0,1500.0
09:10:29.402,STABILIZE,-35.3632622,149.1652375,0,-0.0005137232947163284,0.0011473313206806779,0.026230182498693466,0.00015274772886186838,0.0001510264992248267,0.0020653745159506798,0,1,-1000,0,0,0,-1,1,0,1500.0
09:10:29.603,STABILIZE,-35.3632622,149.1652375,0,-0.0005137232947163284,0.0011473313206806779,0.026230182498693466,0.00015274772886186838,0.0001510264992248267,0.0020653745159506798,0,1,-1000,0,0,0,-1,1,0,1500.0
09:10:29.804,STABILIZE,-35.3632622,149.1652375,0,-0.0007209288305602968,0.000988504383713007,0.025495626032352448,0.00026268267538398504,0.00025644717970862985,0.0019498332403600216,0,1,-1000,0,0,0,-1,1,0,1500.0
09:10:30.005,STABILIZE,-35.3632622,149.1652375,0,-0.0007209288305602968,0.000988504383713007,0.025495626032352448,0.00026268267538398504,0.00025644717970862985,0.0019498332403600216,0,1,-1000,0,0,0,-1,1,0,1500.0
09:10:30.207,STABILIZE,-35.3632621,149.1652375,0,-0.0007744791219010949,0.0009784562280401587,0.025414520874619484,0.00030680326744914055,0.0002264426730107516,0.0019231277983635664,0,1,-1000,0,0,0,-1,1,1,1500.0
09:10:30.408,STABILIZE,-35.3632621,149.1652375,0,-0.0008201973396353424,0.0009728052536956966,0.025326641276478767,0.0003935962449759245,0.0003081801114603877,0.0020985545124858618,0,1,-1000,0,0,0,-1,1,1,1500.0
09:10:30.609,STABILIZE,-35.3632621,149.1652375,0,-0.0008201973396353424,0.0009728052536956966,0.025326641276478767,0.0003935962449759245,0.0003081801114603877,0.0020985545124858618,0,1,-1000,0,0,0,-1,1,1,1500.0
09:10:30.810,STABILIZE,-35.3632621,149.1652375,0,-0.0009098720038309693,0.0009546777582727373,0.025146890431642532,0.00020585645688697696,0.00033974021789617836,0.0019822833128273487,0,1,-1000,0,0,0,-1,1,1,1500.0
09:10:31.019,STABILIZE,-35.3632621,149.1652375,0,-0.0009098720038309693,0.0009546777582727373,0.025146890431642532,0.00020585645688697696,0.00033974021789617836,0.0019822833128273487,0,1,-1000,0,0,0,-1,1,1,1500.0
09:10:31.221,STABILIZE,-35.3632621,149.1652375,0,-0.0009098720038309693,0.0009546777582727373,0.025146890431642532,0.00020585645688697696,0.00033974021789617836,0.0019822833128273487,0,1,-1000,0,0,0,-1,1,1,1500.0
09:10:31.422,STABILIZE,-35.3632621,149.1652375,0,-0.0009098720038309693,0.0009546777582727373,0.025146890431642532,0.00020585645688697696,0.00033974021789617836,0.0019822833128273487,0,1,-1000,0,0,0,-1,1,1,1500.0
09:10:31.624,STABILIZE,-35.3632621,149.1652375,0,-0.0009098720038309693,0.0009546777582727373,0.025146890431642532,0.00020585645688697696,0.00033974021789617836,0.0019822833128273487,0,1,-1000,0,0,0,-1,1,1,1500.0
09:10:31.826,STABILIZE,-35.3632621,149.1652375,0,-0.0009098720038309693,0.0009546777582727373,0.025146890431642532,0.00020585645688697696,0.00033974021789617836,0.0019822833128273487,0,1,-1000,0,0,0,-1,1,1,1500.0
09:10:32.028,STABILIZE,-35.3632621,149.1652375,0,-0.0010535236215218902,0.0009287793072871864,0.02473999373614788,0.0003100429312326014,0.000244960596319288,0.0018235541647300124,0,1,-1000,0,0,1,-1,1,0,1500.0
09:10:32.229,STABILIZE,-35.3632621,149.1652375,0,-0.0010535236215218902,0.0009287793072871864,0.02473999373614788,0.0003100429312326014,0.000244960596319288,0.0018235541647300124,0,1,-1000,0,0,1,-1,1,0,1500.0
09:10:32.431,STABILIZE,-35.3632621,149.1652375,0,-0.0010535236215218902,0.0009287793072871864,0.02473999373614788,0.0003100429312326014,0.000244960596319288,0.0018235541647300124,0,1,-1000,0,0,1,-1,1,0,1500.0
09:10:32.632,STABILIZE,-35.3632621,149.1652375,0,-0.0010685385204851627,0.0009359101532027125,0.02460561692714691,0.0001480414066463709,0.0002557471161708236,0.0018176557496190071,0,1,-1000,0,0,0,-1,1,0,1500.0
09:10:32.833,STABILIZE,-35.3632621,149.1652375,0,-0.0009138595196418464,0.0009370371699333191,0.024534765630960464,0.00029734353302046657,0.00022691948106512427,0.001911150524392724,0,2,-998,0,0,1,-1,0,-2,1500.0
09:10:33.035,STABILIZE,-35.3632621,149.1652375,0,-0.0009138595196418464,0.0009370371699333191,0.024534765630960464,0.00029734353302046657,0.00022691948106512427,0.001911150524392724,0,2,-998,0,0,1,-1,0,-2,1500.0
09:10:33.236,STABILIZE,-35.3632621,149.1652375,0,-0.0009138595196418464,0.0009370371699333191,0.024534765630960464,0.00029734353302046657,0.00022691948106512427,0.001911150524392724,0,2,-998,0,0,1,-1,0,-2,1500.0
09:10:33.438,STABILIZE,-35.3632621,149.1652375,0,-0.0009138595196418464,0.0009370371699333191,0.024534765630960464,0.00029734353302046657,0.00022691948106512427,0.001911150524392724,0,2,-998,0,0,1,-1,0,-2,1500.0
09:10:33.639,STABILIZE,-35.3632621,149.1652374,0,-0.0007960242219269276,0.000946893822401762,0.0243122186511755,0.00019897305173799396,0.000302379485219717,0.0017230972880497575,0,1,-1000,0,0,0,-1,0,-2,1500.0
09:10:33.841,STABILIZE,-35.3632621,149.1652374,0,-0.0007960242219269276,0.000946893822401762,0.0243122186511755,0.00019897305173799396,0.000302379485219717,0.0017230972880497575,0,1,-1000,0,0,0,-1,0,-2,1500.0
09:10:34.042,STABILIZE,-35.3632621,149.1652374,0,-0.0007960242219269276,0.000946893822401762,0.0243122186511755,0.00019897305173799396,0.000302379485219717,0.0017230972880497575,0,1,-1000,0,0,0,-1,0,-2,1500.0
09:10:34.243,STABILIZE,-35.3632621,149.1652374,0,-0.0007960242219269276,0.000946893822401762,0.0243122186511755,0.00019897305173799396,0.000302379485219717,0.0017230972880497575,0,1,-1000,0,0,0,-1,0,-2,1500.0
09:10:34.444,STABILIZE,-35.3632621,149.1652374,0,-0.0007960242219269276,0.000946893822401762,0.0243122186511755,0.00019897305173799396,0.000302379485219717,0.0017230972880497575,0,1,-1000,0,0,0,-1,0,-2,1500.0
09:10:34.646,STABILIZE,-35.3632621,149.1652374,0,-0.0007960242219269276,0.000946893822401762,0.0243122186511755,0.00019897305173799396,0.000302379485219717,0.0017230972880497575,0,1,-1000,0,0,0,-1,0,-2,1500.0
09:10:34.847,STABILIZE,-35.3632621,149.1652375,0,-0.0005959217669442296,0.0009523999760858715,0.023897681385278702,0.00030912045622244477,0.00026457529747858644,0.0017993946094065905,0,1,-1000,0,0,0,-1,0,-1,1500.0
09:10:35.048,STABILIZE,-35.3632621,149.1652375,0,-0.0005959217669442296,0.0009523999760858715,0.023897681385278702,0.00030912045622244477,0.00026457529747858644,0.0017993946094065905,0,1,-1000,0,0,0,-1,0,-1,1500.0
09:10:35.249,STABILIZE,-35.3632621,149.1652375,0,-0.0005959217669442296,0.0009523999760858715,0.023897681385278702,0.00030912045622244477,0.00026457529747858644,0.0017993946094065905,0,1,-1000,0,0,0,-1,0,-1,1500.0
09:10:35.450,STABILIZE,-35.3632621,149.1652375,0,-0.0005959217669442296,0.0009523999760858715,0.023897681385278702,0.00030912045622244477,0.00026457529747858644,0.0017993946094065905,0,1,-1000,0,0,0,-1,0,-1,1500.0
09:10:35.651,STABILIZE,-35.3632622,149.1652375,0,-0.0005731320707127452,0.0009632624569348991,0.023646218702197075,0.00016092561418190598,0.00029943365370854735,0.0017697419971227646,0,1,-1000,0,0,1,-1,1,-1,1500.0
09:10:35.853,STABILIZE,-35.3632622,149.1652375,0,-0.0005731320707127452,0.0009632624569348991,0.023646218702197075,0.00016092561418190598,0.00029943365370854735,0.0017697419971227646,0,1,-1000,0,0,1,-1,1,-1,1500.0
09:10:36.055,STABILIZE,-35.3632622,149.1652375,0,-0.0005731320707127452,0.0009632624569348991,0.023646218702197075,0.00016092561418190598,0.00029943365370854735,0.0017697419971227646,0,1,-1000,0,0,1,-1,1,-1,1500.0
09:10:36.256,STABILIZE,-35.3632622,149.1652375,0,-0.0005731320707127452,0.0009632624569348991,0.023646218702197075,0.00016092561418190598,0.00029943365370854735,0.0017697419971227646,0,1,-1000,0,0,1,-1,1,-1,1500.0
09:10:36.458,STABILIZE,-35.3632622,149.1652375,0,-0.00043718304368667305,0.0009591333218850195,0.02339179627597332,0.000270803808234632,0.00027226487873122096,0.0018338728696107864,0,1,-1000,0,0,0,-1,0,-2,1500.0
09:10:36.659,STABILIZE,-35.3632622,149.1652375,0,-0.00043092170380987227,0.0009633902227506042,0.02330249547958374,0.0003133450518362224,0.00021064048632979393,0.0016861162148416042,0,1,-1000,1,1,0,-1,0,-2,1500.0
09:10:36.861,STABILIZE,-35.3632622,149.1652375,0,-0.00043092170380987227,0.0009633902227506042,0.02330249547958374,0.0003133450518362224,0.00021064048632979393,0.0016861162148416042,0,1,-1000,1,1,0,-1,0,-2,1500.0
09:10:37.062,STABILIZE,-35.3632622,149.1652375,0,-0.00043092170380987227,0.0009633902227506042,0.02330249547958374,0.0003133450518362224,0.00021064048632979393,0.0016861162148416042,0,1,-1000,1,1,0,-1,0,-2,1500.0
09:10:37.264,STABILIZE,-35.3632622,149.1652375,0,-0.00043092170380987227,0.0009633902227506042,0.02330249547958374,0.0003133450518362224,0.00021064048632979393,0.0016861162148416042,0,1,-1000,1,1,0,-1,0,-2,1500.0
09:10:37.465,STABILIZE,-35.3632622,149.1652375,0,-0.00043092170380987227,0.0009633902227506042,0.02330249547958374,0.0003133450518362224,0.00021064048632979393,0.0016861162148416042,0,1,-1000,1,1,0,-1,0,-2,1500.0
09:10:37.667,STABILIZE,-35.3632622,149.1652375,0,-0.00043092170380987227,0.0009633902227506042,0.02330249547958374,0.0003133450518362224,0.00021064048632979393,0.0016861162148416042,0,1,-1000,1,1,0,-1,0,-2,1500.0
09:10:37.868,STABILIZE,-35.3632622,149.1652375,0,-0.00039300729986280203,0.0009503255714662373,0.022920025512576103,0.00031939090695232153,0.0002699821488931775,0.0017740349285304546,0,1,-1000,0,0,0,-1,1,-1,1500.0
09:10:38.070,AUTO,-35.3632622,149.1652375,0,-0.0003973006969317794,0.0009437024127691984,0.0228181853890419,0.0003601957578212023,0.000297004880849272,0.0015645860694348812,0,1,-1000,0,0,1,-1,1,-1,1500.0
09:10:38.276,AUTO,-35.3632622,149.1652375,9,-0.0004062012885697186,0.0009461908484809101,0.022734539583325386,0.00030970765510573983,0.00019186368444934487,0.0014868942089378834,0,2,-1000,0,0,0,-1,1,-1,208790.0
09:10:38.478,AUTO,-35.3632622,149.1652375,9,-0.0004062012885697186,0.0009461908484809101,0.022734539583325386,0.00030970765510573983,0.00019186368444934487,0.0014868942089378834,0,2,-1000,0,0,0,-1,1,-1,208790.0
09:10:38.680,AUTO,-35.3632622,149.1652375,10,-0.00042191558168269694,0.0009497683495283127,0.022672368213534355,0.0003005550242960453,0.0003793786163441837,0.0015126010403037071,0,1,-1000,0,0,0,-1,1,-1,208790.0
09:10:38.882,AUTO,-35.3632622,149.1652375,10,-0.0004299205611459911,0.0009603266371414065,0.022573990747332573,0.00019758689450100064,0.00025266228476539254,0.0015435810200870037,0,2,-1000,0,0,0,-1,1,0,208790.0
09:10:39.083,AUTO,-35.3632622,149.1652375,10,-0.0004299205611459911,0.0009603266371414065,0.022573990747332573,0.00019758689450100064,0.00025266228476539254,0.0015435810200870037,0,2,-1000,0,0,0,-1,1,0,208790.0
09:10:39.285,AUTO,-35.3632622,149.1652375,10,-0.0004299205611459911,0.0009603266371414065,0.022573990747332573,0.00019758689450100064,0.00025266228476539254,0.0015435810200870037,0,2,-1000,0,0,0,-1,1,0,208790.0
09:10:39.487,AUTO,-35.3632622,149.1652375,10,-0.0004299205611459911,0.0009603266371414065,0.022573990747332573,0.00019758689450100064,0.00025266228476539254,0.0015435810200870037,0,2,-1000,0,0,0,-1,1,0,208790.0
09:10:39.688,AUTO,-35.3632621,149.1652375,10,-0.0003738530504051596,0.001080865040421486,0.02234395407140255,0.00023610418429598212,0.000375429168343544,0.0015323543921113014,0,1,-1000,0,0,0,0,0,0,208790.0
09:10:39.890,AUTO,-35.3632621,149.1652375,7,-8.437460564891808e-06,0.0011411185842007399,0.022266825661063194,0.00023187434999272227,0.00023988686734810472,0.0016064508818089962,0,1,-1000,0,1,0,0,1,1,208790.0
09:10:40.091,AUTO,-35.3632621,149.1652375,5,3.504043706925586e-05,0.001197217614389956,0.02218104526400566,0.00031250197207555175,0.00023854675237089396,0.001688942313194275,0,1,-1000,0,1,1,0,0,1,208790.0
09:10:40.293,AUTO,-35.3632621,149.1652375,4,9.284748375648633e-05,0.0012627501273527741,0.02208442986011505,0.00039859639946371317,0.0003670294536277652,0.0014949077740311623,0,1,-1000,0,0,0,0,0,1,208790.0
09:10:40.494,AUTO,-35.3632621,149.1652375,4,9.284748375648633e-05,0.0012627501273527741,0.02208442986011505,0.00039859639946371317,0.0003670294536277652,0.0014949077740311623,0,1,-1000,0,0,0,0,0,1,208790.0
09:10:40.696,AUTO,-35.3632621,149.1652375,3,0.00014804357488173991,0.0013255116064101458,0.021992426365613937,0.000327957677654922,0.0001849038526415825,0.0014215420233085752,0,1,-1000,0,0,1,0,0,1,208790.0
09:10:40.898,AUTO,-35.3632621,149.1652375,2,0.00021033614757470787,0.0013951949076727033,0.021907184273004532,0.00032137485686689615,0.0002770903520286083,0.0015520196175202727,0,1,-1000,1,1,1,0,0,1,208790.0
09:10:41.100,AUTO,-35.3632621,149.1652375,2,0.00021033614757470787,0.0013951949076727033,0.021907184273004532,0.00032137485686689615,0.0002770903520286083,0.0015520196175202727,0,1,-1000,1,1,1,0,0,1,65899.0
09:10:41.302,AUTO,-35.3632621,149.1652375,2,0.00021033614757470787,0.0013951949076727033,0.021907184273004532,0.00032137485686689615,0.0002770903520286083,0.0015520196175202727,0,1,-1000,1,1,1,0,0,1,65899.0
09:10:41.504,AUTO,-35.3632621,149.1652375,2,0.00021033614757470787,0.0013951949076727033,0.021907184273004532,0.00032137485686689615,0.0002770903520286083,0.0015520196175202727,0,1,-1000,1,1,1,0,0,1,65899.0
09:10:41.706,AUTO,-35.3632621,149.1652375,0,0.0004183132550679147,0.001616280060261488,0.02162308059632778,0.00034272571792826056,0.0003824222949333489,0.0014809088315814734,0,1,-1000,0,0,1,0,0,0,65899.0
09:10:41.907,AUTO,-35.3632621,149.1652375,0,0.0004954683827236295,0.0016995682381093502,0.021525932475924492,0.0003303074627183378,0.00038868607953190804,0.0015466460026800632,0,2,-1000,0,0,1,0,0,0,65899.0
09:10:42.108,AUTO,-35.3632621,149.1652375,0,0.0015583327040076256,0.0011638556607067585,0.02147199772298336,0.010904178023338318,-0.012544008903205395,0.0019274652004241943,0,0,-1077,11,-11,1,0,0,-3,65899.0
09:10:42.310,AUTO,-35.3632621,149.1652375,52,0.004538178909569979,-0.0005757614271715283,0.021509848535060883,0.006323188543319702,-0.0014902050606906414,0.002772135194391012,0,0,-1141,6,0,2,0,0,-36,65899.0
09:10:42.512,AUTO,-35.3632621,149.1652375,188,0.003963396418839693,0.0001474494783906266,0.021542036905884743,-0.002237488515675068,0.00461062416434288,0.0032033557072281837,0,0,-1130,-1,5,2,0,0,-70,65899.0
09:10:42.714,AUTO,-35.3632621,149.1652375,188,0.003963396418839693,0.0001474494783906266,0.021542036905884743,-0.002237488515675068,0.00461062416434288,0.0032033557072281837,0,0,-1130,-1,5,2,0,0,-70,65899.0
09:10:42.915,AUTO,-35.3632621,149.1652375,401,0.002718378324061632,0.001139341271482408,0.0214910339564085,-0.006998784840106964,0.0036792131140828133,0.001904105767607689,0,0,-1109,-6,4,1,0,1,-98,65899.0
09:10:43.117,AUTO,-35.3632621,149.1652375,401,0.002718378324061632,0.001139341271482408,0.0214910339564085,-0.006998784840106964,0.0036792131140828133,0.001904105767607689,0,0,-1109,-6,4,1,0,1,-98,65899.0
09:10:43.326,AUTO,-35.3632621,149.1652375,401,0.002718378324061632,0.001139341271482408,0.0214910339564085,-0.006998784840106964,0.0036792131140828133,0.001904105767607689,0,0,-1109,-6,4,1,0,1,-98,65899.0
09:10:43.529,AUTO,-35.363262,149.1652375,1385,0.0229328703135252,-0.0007159149972721934,0.02099519968032837,0.0466708280146122,-0.007161213085055351,0.0021272641606628895,0,0,-1018,47,-6,1,0,5,-144,65899.0
09:10:43.731,AUTO,-35.363262,149.1652375,1385,0.0229328703135252,-0.0007159149972721934,0.02099519968032837,0.0466708280146122,-0.007161213085055351,0.0021272641606628895,0,0,-1018,47,-6,1,0,5,-144,65899.0
09:10:43.933,AUTO,-35.363262,149.1652377,1761,0.0343785434961319,-0.002714987378567457,0.021060563623905182,0.04510502517223358,-0.008497514761984348,0.0027682336512953043,0,-1,-1007,45,-7,2,1,11,-146,65899.0
09:10:44.135,AUTO,-35.3632619,149.1652381,2143,0.0452297180891037,-0.004945723805576563,0.02121073193848133,0.04238671064376831,-0.009718049317598343,0.00321072805672884,0,-3,-1002,42,-9,2,3,19,-147,156271.0
09:10:44.336,AUTO,-35.3632618,149.1652388,2526,0.055403225123882294,-0.007612605579197407,0.021437104791402817,0.03911936655640602,-0.010542423464357853,0.003766616340726614,1,-4,-1000,39,-9,3,5,30,-147,156271.0
09:10:44.538,AUTO,-35.3632616,149.1652397,2909,0.06314452737569809,-0.00959815550595522,-0.009116055443882942,-0.00556076830253005,0.014343665912747383,-0.0413251668214798,1,-9,-992,-5,14,-41,8,42,-147,156271.0
09:10:44.740,AUTO,-35.3632616,149.1652397,2909,0.06314452737569809,-0.00959815550595522,-0.009116055443882942,-0.00556076830253005,0.014343665912747383,-0.0413251668214798,1,-9,-992,-5,14,-41,8,42,-147,156271.0
09:10:44.942,AUTO,-35.3632614,149.165241,3288,0.04380951449275017,0.01159382238984108,-0.03079528547823429,-0.1326773762702942,0.1019163578748703,-0.1030506119132042,2,-11,-991,-132,102,-103,9,52,-144,156271.0
09:10:45.144,AUTO,-35.3632614,149.165241,3288,0.04380951449275017,0.01159382238984108,-0.03079528547823429,-0.1326773762702942,0.1019163578748703,-0.1030506119132042,2,-11,-991,-132,102,-103,9,52,-144,156271.0
09:10:45.346,AUTO,-35.3632614,149.165241,3288,0.04380951449275017,0.01159382238984108,-0.03079528547823429,-0.1326773762702942,0.1019163578748703,-0.1030506119132042,2,-11,-991,-132,102,-103,9,52,-144,156271.0
09:10:45.548,AUTO,-35.3632608,149.165245,4420,-0.026176992803812027,-0.008280351758003235,-0.04893023148179054,-0.017238890752196312,-0.025000663474202156,-0.012696660123765469,3,-9,-1006,-16,-24,-13,7,38,-148,156271.0
09:10:45.750,AUTO,-35.3632608,149.165245,4420,-0.026176992803812027,-0.008280351758003235,-0.04893023148179054,-0.017238890752196312,-0.025000663474202156,-0.012696660123765469,3,-9,-1006,-16,-24,-13,7,38,-148,156271.0
09:10:45.952,AUTO,-35.3632606,149.165246,4805,-0.03665657341480255,-0.005657310597598553,-0.05827972665429115,-0.06223979592323303,0.03792316094040871,-0.05674433708190918,2,-9,-999,-61,38,-57,10,28,-148,156271.0
09:10:46.154,AUTO,-35.3632603,149.1652466,5188,-0.05676986277103424,0.0054254853166639805,-0.07687275856733322,-0.0925092101097107,0.04892970621585846,-0.07846466451883316,1,-6,-999,-91,49,-78,10,14,-148,156271.0
09:10:46.356,AUTO,-35.3632602,149.1652467,5569,-0.08267898112535477,0.015524941496551037,-0.09838155657052994,-0.08015073835849762,0.03574031963944435,-0.07061062008142471,0,-1,-1004,-79,36,-71,6,-4,-147,156271.0
09:10:46.558,AUTO,-35.3632601,149.1652464,5951,-0.08149410784244537,0.016548465937376022,-0.11259306967258453,0.044182952493429184,4.949502181261778e-05,-0.04734481871128082,-2,1,-1004,44,0,-47,0,-25,-148,156271.0
09:10:46.760,AUTO,-35.3632601,149.1652464,5951,-0.08149410784244537,0.016548465937376022,-0.11259306967258453,0.044182952493429184,4.949502181261778e-05,-0.04734481871128082,-2,1,-1004,44,0,-47,0,-25,-148,156271.0
09:10:46.962,AUTO,-35.3632601,149.1652455,6333,-0.06876202672719955,0.016042349860072136,-0.1225908100605011,0.05551253631711006,0.002557123079895973,-0.03387514874339104,-3,6,-1001,55,3,-34,-6,-42,-147,156271.0
09:10:47.164,AUTO,-35.3632601,149.1652455,6333,-0.06876202672719955,0.016042349860072136,-0.1225908100605011,0.05551253631711006,0.002557123079895973,-0.03387514874339104,-3,6,-1001,55,3,-34,-6,-42,-147,239091.0
09:10:47.367,AUTO,-35.3632601,149.1652455,6333,-0.06876202672719955,0.016042349860072136,-0.1225908100605011,0.05551253631711006,0.002557123079895973,-0.03387514874339104,-3,6,-1001,55,3,-34,-6,-42,-147,239091.0
09:10:47.569,AUTO,-35.3632611,149.1652408,7478,-0.02070530317723751,0.019973719492554665,-0.13651391863822937,0.07002126425504684,0.007781445048749447,-0.008967208676040173,-3,16,-1003,70,8,-9,-25,-66,-148,239091.0
09:10:47.771,AUTO,-35.3632618,149.1652389,7862,-0.0027795748319476843,0.021787766367197037,-0.1376357078552246,0.07356962561607361,0.006105031818151474,-0.004233705811202526,-6,17,-1004,74,6,-4,-31,-65,-149,239091.0
09:10:47.973,AUTO,-35.3632618,149.1652389,7862,-0.0027795748319476843,0.021787766367197037,-0.1376357078552246,0.07356962561607361,0.006105031818151474,-0.004233705811202526,-6,17,-1004,74,6,-4,-31,-65,-149,239091.0
09:10:48.174,AUTO,-35.3632625,149.1652371,8256,0.015823734924197197,0.02290395461022854,-0.13739697635173798,0.07389703392982483,0.0032533914782106876,-0.0013607209548354149,-3,16,-1005,74,4,-1,-36,-59,-150,239091.0
09:10:48.376,AUTO,-35.3632634,149.1652355,8646,0.034134820103645325,0.023039083927869797,-0.13618533313274384,0.0729825347661972,-0.0024582077749073505,0.002369238995015621,-1,16,-1005,73,-1,1,-40,-50,-151,239091.0
09:10:48.578,AUTO,-35.3632643,149.1652343,9036,0.05111245810985565,0.021128317341208458,-0.13340264558792114,0.043920617550611496,-0.02412395365536213,0.035097118467092514,0,13,-1000,44,-23,34,-43,-36,-152,239091.0
09:10:48.780,AUTO,-35.3632653,149.1652334,9426,0.04647301137447357,-0.0019801128655672073,-0.11346999555826187,-0.04364854469895363,-0.12615403532981873,0.10867585986852646,5,11,-998,-43,-125,108,-43,-21,-150,239091.0
09:10:48.981,AUTO,-35.3632653,149.1652334,9426,0.04647301137447357,-0.0019801128655672073,-0.11346999555826187,-0.04364854469895363,-0.12615403532981873,0.10867585986852646,5,11,-998,-43,-125,108,-43,-21,-150,239091.0
09:10:49.183,AUTO,-35.3632653,149.1652334,9426,0.04647301137447357,-0.0019801128655672073,-0.11346999555826187,-0.04364854469895363,-0.12615403532981873,0.10867585986852646,5,11,-998,-43,-125,108,-43,-21,-150,239091.0
09:10:49.385,AUTO,-35.3632653,149.1652334,9426,0.04647301137447357,-0.0019801128655672073,-0.11346999555826187,-0.04364854469895363,-0.12615403532981873,0.10867585986852646,5,11,-998,-43,-125,108,-43,-21,-150,239091.0
09:10:49.588,AUTO,-35.3632672,149.1652328,10589,0.056902069598436356,-0.05889993533492088,-0.04893570393323898,0.012992502190172672,-0.055792804807424545,0.08746102452278137,4,2,-999,13,-55,87,-8,12,-151,239091.0
09:10:49.789,AUTO,-35.3632672,149.1652331,10978,0.05758063867688179,-0.07482265681028366,-0.02867940254509449,0.01278611272573471,-0.05248964577913284,0.08289004862308502,2,-2,-999,13,-51,82,9,24,-150,239091.0
09:10:49.991,AUTO,-35.3632672,149.1652331,10978,0.05758063867688179,-0.07482265681028366,-0.02867940254509449,0.01278611272573471,-0.05248964577913284,0.08289004862308502,2,-2,-999,13,-51,82,9,24,-150,239091.0
09:10:50.193,AUTO,-35.3632669,149.1652339,11363,0.06141030788421631,-0.0852024108171463,-0.012073091231286526,0.024969926103949547,-0.02693057805299759,0.06461720913648605,0,-6,-997,25,-26,63,30,36,-149,184124.0
09:10:50.395,AUTO,-35.363266,149.1652349,11743,0.059785015881061554,-0.0853954553604126,-0.004376513883471489,-0.08165951073169708,0.0516696572303772,-0.017909735441207886,-3,-13,-985,-81,52,-18,51,47,-145,184124.0
09:10:50.596,AUTO,-35.3632647,149.1652363,12114,0.022289706394076347,-0.05542346090078354,-0.02384178899228573,-0.17816485464572906,0.15203827619552612,-0.1213996484875679,-3,-20,-996,-177,152,-121,67,52,-142,184124.0
09:10:50.798,AUTO,-35.3632631,149.1652376,12483,-0.016765903681516647,-0.016191286966204643,-0.061714645475149155,-0.12026869505643845,0.1411243975162506,-0.14910979568958282,-10,-16,-1015,-119,141,-149,74,46,-144,184124.0
09:10:51.000,AUTO,-35.3632631,149.1652376,12483,-0.016765903681516647,-0.016191286966204643,-0.061714645475149155,-0.12026869505643845,0.1411243975162506,-0.14910979568958282,-10,-16,-1015,-119,141,-149,74,46,-144,184124.0
09:10:51.202,AUTO,-35.3632631,149.1652376,12483,-0.016765903681516647,-0.016191286966204643,-0.061714645475149155,-0.12026869505643845,0.1411243975162506,-0.14910979568958282,-10,-16,-1015,-119,141,-149,74,46,-144,184124.0
09:10:51.404,AUTO,-35.3632631,149.1652376,12483,-0.016765903681516647,-0.016191286966204643,-0.061714645475149155,-0.12026869505643845,0.1411243975162506,-0.14910979568958282,-10,-16,-1015,-119,141,-149,74,46,-144,184124.0
09:10:51.605,AUTO,-35.3632586,149.1652397,13643,-0.053427208214998245,0.04181166738271713,-0.16730546951293945,-0.0016674109501764178,0.05248643830418587,-0.10975950211286545,-9,-10,-1007,-1,53,-110,50,4,-153,184124.0
09:10:51.807,AUTO,-35.3632576,149.1652396,14037,-0.05566531792283058,0.051719989627599716,-0.19361372292041779,-0.004495363216847181,0.04122370481491089,-0.08971681445837021,-8,-7,-1002,-3,42,-90,34,-9,-153,184124.0
09:10:52.009,AUTO,-35.3632576,149.1652396,14037,-0.05566531792283058,0.051719989627599716,-0.19361372292041779,-0.004495363216847181,0.04122370481491089,-0.08971681445837021,-8,-7,-1002,-3,42,-90,34,-9,-153,184124.0
09:10:52.211,AUTO,-35.3632569,149.1652392,14429,-0.04950939491391182,0.05710139498114586,-0.21224835515022278,0.04099889472126961,0.017797695472836494,-0.06338540464639664,-8,-2,-1002,41,18,-63,17,-21,-153,184124.0
09:10:52.414,AUTO,-35.3632567,149.1652385,14822,-0.03883115202188492,0.05999533087015152,-0.22544565796852112,0.04954850673675537,0.012875057756900787,-0.0462958849966526,-6,2,-1000,50,13,-46,0,-29,-152,184124.0
09:10:52.616,AUTO,-35.3632568,149.1652377,15213,-0.026332193985581398,0.06196727976202965,-0.2345014065504074,0.05571794509887695,0.007351974956691265,-0.03301934525370598,-3,5,-1000,56,8,-33,-16,-32,-152,184124.0
09:10:52.818,AUTO,-35.3632572,149.1652367,15602,-0.012280846945941448,0.06279844790697098,-0.2406698614358902,0.06041690334677696,0.0013053922448307276,-0.02305055595934391,-3,9,-1000,61,1,-23,-32,-32,-151,184124.0
09:10:53.020,AUTO,-35.3632572,149.1652367,15602,-0.012280846945941448,0.06279844790697098,-0.2406698614358902,0.06041690334677696,0.0013053922448307276,-0.02305055595934391,-3,9,-1000,61,1,-23,-32,-32,-151,184124.0
09:10:53.231,AUTO,-35.3632572,149.1652367,15602,-0.012280846945941448,0.06279844790697098,-0.2406698614358902,0.06041690334677696,0.0013053922448307276,-0.02305055595934391,-3,9,-1000,61,1,-23,-32,-32,-151,5919.0
09:10:53.433,AUTO,-35.3632572,149.1652367,15602,-0.012280846945941448,0.06279844790697098,-0.2406698614358902,0.06041690334677696,0.0013053922448307276,-0.02305055595934391,-3,9,-1000,61,1,-23,-32,-32,-151,5919.0
09:10:53.635,AUTO,-35.3632605,149.1652346,16764,0.035700391978025436,0.05399196967482567,-0.24642474949359894,0.06776472181081772,-0.024025924503803253,-0.002431347267702222,7,13,-1001,68,-23,-2,-67,-9,-151,5919.0
09:10:53.836,AUTO,-35.363262,149.1652345,17151,0.0505443774163723,0.04534700885415077,-0.2445281594991684,0.027164286002516747,-0.05972675606608391,0.038304321467876434,11,10,-996,27,-59,37,-73,5,-150,5919.0
09:10:54.038,AUTO,-35.3632636,149.1652347,17539,0.045910999178886414,0.015159856528043747,-0.22574634850025177,-0.03695632517337799,-0.14509715139865875,0.10303959995508194,12,9,-1000,-36,-144,102,-73,19,-149,5919.0
09:10:54.240,AUTO,-35.3632636,149.1652347,17539,0.045910999178886414,0.015159856528043747,-0.22574634850025177,-0.03695632517337799,-0.14509715139865875,0.10303959995508194,12,9,-1000,-36,-144,102,-73,19,-149,5919.0
09:10:54.442,AUTO,-35.3632651,149.1652353,17923,0.03672381490468979,-0.02427925169467926,-0.19655807316303253,-0.03520701453089714,-0.15416578948497772,0.13333138823509216,13,7,-1007,-34,-153,132,-65,29,-150,5919.0
09:10:54.644,AUTO,-35.3632664,149.1652361,18311,0.02661641128361225,-0.06346675008535385,-0.16064225137233734,-0.03214416652917862,-0.14817862212657928,0.15527591109275818,16,3,-1009,-31,-147,155,-49,34,-152,5919.0
09:10:54.846,AUTO,-35.3632672,149.165237,18701,0.014531871303915977,-0.10037637501955032,-0.12073017656803131,-0.02359159290790558,-0.13329783082008362,0.15091578662395477,12,0,-1009,-22,-132,150,-24,35,-153,5919.0
09:10:55.048,AUTO,-35.3632672,149.165237,18701,0.014531871303915977,-0.10037637501955032,-0.12073017656803131,-0.02359159290790558,-0.13329783082008362,0.15091578662395477,12,0,-1009,-22,-132,150,-24,35,-153,5919.0
09:10:55.250,AUTO,-35.3632672,149.165237,18701,0.014531871303915977,-0.10037637501955032,-0.12073017656803131,-0.02359159290790558,-0.13329783082008362,0.15091578662395477,12,0,-1009,-22,-132,150,-24,35,-153,5919.0
09:10:55.452,AUTO,-35.3632672,149.165237,18701,0.014531871303915977,-0.10037637501955032,-0.12073017656803131,-0.02359159290790558,-0.13329783082008362,0.15091578662395477,12,0,-1009,-22,-132,150,-24,35,-153,5919.0
09:10:55.654,AUTO,-35.3632659,149.1652394,19852,-0.025772755965590477,-0.0890648290514946,-0.0954638123512268,-0.12414208054542542,0.16681399941444397,-0.1239672526717186,-7,-10,-997,-123,167,-124,62,22,-145,5919.0
09:10:55.856,AUTO,-35.3632643,149.1652397,20224,-0.05829533189535141,-0.048780303448438644,-0.1434343457221985,-0.16198304295539856,0.178203284740448,-0.22483381628990173,-12,-13,-1002,-161,178,-225,76,5,-145,5919.0
09:10:56.058,AUTO,-35.3632625,149.1652395,20594,-0.09951509535312653,-0.009227593429386616,-0.2050761878490448,-0.1476021707057953,0.1914084255695343,-0.15200184285640717,-16,-10,-992,-146,192,-152,75,-17,-144,5919.0
09:10:56.260,AUTO,-35.3632625,149.1652395,20594,-0.09951509535312653,-0.009227593429386616,-0.2050761878490448,-0.1476021707057953,0.1914084255695343,-0.15200184285640717,-16,-10,-992,-146,192,-152,75,-17,-144,291358.0
09:10:56.461,AUTO,-35.363261,149.1652387,20955,-0.11104275286197662,0.058276910334825516,-0.19357028603553772,0.011729964055120945,0.2959776818752289,0.28080853819847107,-14,-5,-982,12,296,280,60,-44,-138,291358.0
09:10:56.663,AUTO,-35.3632599,149.1652371,21298,-0.07975689321756363,0.11908771842718124,-0.10015696287155151,0.18142364919185638,0.05640503391623497,0.361499547958374,-16,3,-948,182,56,361,31,-64,-127,291358.0
09:10:56.865,AUTO,-35.3632595,149.1652352,21602,-0.015264729969203472,0.09784822165966034,-0.034569691866636276,0.24399760365486145,-0.17587147653102875,0.1671334058046341,-12,12,-941,244,-175,166,1,-72,-111,291358.0
09:10:57.067,AUTO,-35.3632595,149.1652352,21602,-0.015264729969203472,0.09784822165966034,-0.034569691866636276,0.24399760365486145,-0.17587147653102875,0.1671334058046341,-12,12,-941,244,-175,166,1,-72,-111,291358.0
09:10:57.269,AUTO,-35.3632595,149.1652352,21602,-0.015264729969203472,0.09784822165966034,-0.034569691866636276,0.24399760365486145,-0.17587147653102875,0.1671334058046341,-12,12,-941,244,-175,166,1,-72,-111,291358.0
09:10:57.471,AUTO,-35.3632595,149.1652352,21602,-0.015264729969203472,0.09784822165966034,-0.034569691866636276,0.24399760365486145,-0.17587147653102875,0.1671334058046341,-12,12,-941,244,-175,166,1,-72,-111,291358.0
09:10:57.673,AUTO,-35.3632604,149.1652305,22297,0.08700449019670486,0.005873832385987043,-0.030216708779335022,0.029449768364429474,-0.05628008022904396,-0.044539082795381546,0,11,-958,30,-55,-44,-27,-28,-71,291358.0
09:10:57.875,AUTO,-35.363261,149.16523,22467,0.08553827553987503,-0.00391780212521553,-0.04003471881151199,-0.027194585651159286,-0.030920011922717094,-0.031877342611551285,3,5,-964,-26,-30,-31,-25,-6,-61,291358.0
09:10:58.076,AUTO,-35.3632615,149.16523,22613,0.07452471554279327,-0.008954034186899662,-0.04583524540066719,-0.061561841517686844,-0.016030076891183853,-0.017106615006923676,5,1,-970,-60,-15,-17,-21,12,-52,291358.0
09:10:58.278,AUTO,-35.3632619,149.1652305,22738,0.05852878466248512,-0.010749618522822857,-0.04866299033164978,-0.05824071168899536,-0.002278648316860199,-0.006595756858587265,5,-2,-975,-57,-1,-6,-16,26,-45,291358.0
09:10:58.480,AUTO,-35.3632619,149.1652305,22738,0.05852878466248512,-0.010749618522822857,-0.04866299033164978,-0.05824071168899536,-0.002278648316860199,-0.006595756858587265,5,-2,-975,-57,-1,-6,-16,26,-45,291358.0
09:10:58.682,AUTO,-35.3632622,149.1652313,22845,0.041831646114587784,-0.010265031829476357,-0.049477409571409225,-0.06733465194702148,0.005948564503341913,-0.0014471502508968115,7,-4,-978,-66,6,-1,-11,36,-39,291358.0
09:10:58.885,AUTO,-35.3632623,149.1652323,22938,0.026452545076608658,-0.007713888306170702,-0.049804601818323135,-0.061595477163791656,0.012174694798886776,-0.0004205959558021277,7,-7,-979,-60,12,0,-6,42,-34,291358.0
09:10:59.087,AUTO,-35.3632623,149.1652323,22938,0.026452545076608658,-0.007713888306170702,-0.049804601818323135,-0.061595477163791656,0.012174694798886776,-0.0004205959558021277,7,-7,-979,-60,12,0,-6,42,-34,291358.0
09:10:59.289,AUTO,-35.3632623,149.1652323,22938,0.026452545076608658,-0.007713888306170702,-0.049804601818323135,-0.061595477163791656,0.012174694798886776,-0.0004205959558021277,7,-7,-979,-60,12,0,-6,42,-34,87088.0
09:10:59.491,AUTO,-35.3632623,149.1652323,22938,0.026452545076608658,-0.007713888306170702,-0.049804601818323135,-0.061595477163791656,0.012174694798886776,-0.0004205959558021277,7,-7,-979,-60,12,0,-6,42,-34,87088.0
09:10:59.693,AUTO,-35.3632624,149.1652359,23135,-0.007083734031766653,0.0008952334173955023,-0.05194240063428879,-0.03571648895740509,0.008398381061851978,-0.003503994084894657,5,-9,-977,-35,9,-3,1,39,-18,87088.0
09:10:59.894,AUTO,-35.3632624,149.1652369,23172,-0.010943909175693989,0.0023996613454073668,-0.05290267989039421,0.05261540785431862,0.004660973325371742,-0.002591713797301054,4,-5,-975,53,5,-2,2,35,-12,87088.0
09:11:00.096,AUTO,-35.3632624,149.1652378,23192,-0.01636427268385887,0.003131226636469364,-0.05392355099320412,-0.1356433480978012,0.0009348547901026905,-0.003947092220187187,3,-14,-968,-135,1,-4,2,29,-5,87088.0
09:11:00.298,AUTO,-35.3632623,149.1652386,23189,-0.04255316033959389,0.002696376759558916,-0.054921817034482956,-0.20010200142860413,-0.0021303207613527775,-0.003547115484252572,2,-1,-924,-199,-1,-3,2,22,6,87088.0
09:11:00.500,AUTO,-35.3632623,149.1652386,23189,-0.04255316033959389,0.002696376759558916,-0.054921817034482956,-0.20010200142860413,-0.0021303207613527775,-0.003547115484252572,2,-1,-924,-199,-1,-3,2,22,6,87088.0
09:11:00.701,AUTO,-35.3632623,149.1652391,23153,-0.0436880961060524,0.0022307822946459055,-0.05615540221333504,0.36833715438842773,-0.01216927170753479,-0.003130671102553606,1,6,-981,368,-11,-3,2,9,16,87088.0
09:11:00.903,AUTO,-35.3632622,149.1652392,23104,-0.023313093930482864,-0.002786469180136919,-0.05660383403301239,-0.5328843593597412,-0.024822447448968887,-0.0010191072942689061,0,-38,-989,-533,-23,-1,2,0,20,87088.0
09:11:01.105,AUTO,-35.3632622,149.1652392,23104,-0.023313093930482864,-0.002786469180136919,-0.05660383403301239,-0.5328843593597412,-0.024822447448968887,-0.0010191072942689061,0,-38,-989,-533,-23,-1,2,0,20,87088.0
09:11:01.306,AUTO,-35.3632622,149.1652392,23104,-0.023313093930482864,-0.002786469180136919,-0.05660383403301239,-0.5328843593597412,-0.024822447448968887,-0.0010191072942689061,0,-38,-989,-533,-23,-1,2,0,20,87088.0
09:11:01.508,AUTO,-35.3632622,149.1652392,23104,-0.023313093930482864,-0.002786469180136919,-0.05660383403301239,-0.5328843593597412,-0.024822447448968887,-0.0010191072942689061,0,-38,-989,-533,-23,-1,2,0,20,87088.0
09:11:01.710,AUTO,-35.3632619,149.1652396,22964,0.06702800840139389,-0.01515746396034956,-0.059420038014650345,0.7388953566551208,-0.004441267345100641,-0.001129371696151793,0,32,-1020,740,-3,-1,11,17,9,87088.0
09:11:01.911,AUTO,-35.3632616,149.1652402,22938,0.0820607841014862,-0.01669054850935936,-0.06066812202334404,0.34096354246139526,-0.008411828428506851,-0.006055761128664017,1,-10,-1024,341,-7,-6,16,30,5,87088.0
09:11:02.113,AUTO,-35.3632611,149.1652412,22921,0.08817575126886368,-0.018945900723338127,-0.05146847665309906,-0.3932153284549713,-0.01823117397725582,0.15456856787204742,1,-43,-1019,-393,-17,154,22,47,2,87088.0
09:11:02.315,AUTO,-35.3632605,149.1652427,22913,0.0903661698102951,-0.03158348426222801,0.06175347417593002,-0.3069537580013275,-0.02444804459810257,0.7335394620895386,2,-17,-1008,-305,-23,733,29,67,0,15974.0
09:11:02.517,AUTO,-35.3632605,149.1652427,22913,0.0903661698102951,-0.03158348426222801,0.06175347417593002,-0.3069537580013275,-0.02444804459810257,0.7335394620895386,2,-17,-1008,-305,-23,733,29,67,0,15974.0
09:11:02.719,AUTO,-35.3632598,149.1652447,22908,0.09929485619068146,-0.06082858145236969,0.33377981185913086,0.4167534410953522,0.00893439818173647,1.3536070585250854,-4,8,-1009,418,9,1353,36,87,0,15974.0
09:11:02.921,AUTO,-35.3632589,149.1652473,22904,0.08905007690191269,-0.10020027309656143,0.6971668004989624,0.44308948516845703,-0.01425706036388874,1.4893481731414795,-13,-18,-1009,443,-13,1489,44,109,0,15974.0
09:11:03.125,AUTO,-35.3632589,149.1652473,22904,0.08905007690191269,-0.10020027309656143,0.6971668004989624,0.44308948516845703,-0.01425706036388874,1.4893481731414795,-13,-18,-1009,443,-13,1489,44,109,0,15974.0
09:11:03.328,AUTO,-35.3632589,149.1652473,22904,0.08905007690191269,-0.10020027309656143,0.6971668004989624,0.44308948516845703,-0.01425706036388874,1.4893481731414795,-13,-18,-1009,443,-13,1489,44,109,0,15974.0
09:11:03.532,AUTO,-35.3632551,149.1652589,22892,0.008500768803060055,-0.16124285757541656,1.3954793214797974,0.40293943881988525,-0.0647323802113533,0.11046268790960312,-43,6,-1005,404,-63,110,68,186,0,15974.0
09:11:03.734,AUTO,-35.3632551,149.1652589,22892,0.008500768803060055,-0.16124285757541656,1.3954793214797974,0.40293943881988525,-0.0647323802113533,0.11046268790960312,-43,6,-1005,404,-63,110,68,186,0,15974.0
09:11:03.936,AUTO,-35.3632535,149.1652642,22884,0.01365693099796772,-0.17538152635097504,1.385791540145874,0.2954567074775696,-0.06569626927375793,-0.11764225363731384,-47,-15,-1008,295,-64,-117,77,214,1,15974.0
09:11:04.138,AUTO,-35.3632517,149.1652703,22876,0.009299888275563717,-0.19011835753917694,1.3407191038131714,-0.3754524290561676,-0.06176748126745224,-0.18058116734027863,-53,-44,-1002,-374,-60,-180,88,243,1,15974.0
09:11:04.340,AUTO,-35.3632497,149.1652773,22867,0.01846037060022354,-0.19786876440048218,1.2977324724197388,-0.06519855558872223,-0.010260333307087421,-0.1439177542924881,-53,-25,-1006,-63,-9,-144,99,275,2,15974.0
09:11:04.543,AUTO,-35.3632473,149.1652852,22857,0.032714735716581345,-0.19313473999500275,1.2731143236160278,0.3063381016254425,0.022611984983086586,-0.06701306998729706,-68,-26,-1009,307,23,-67,110,305,2,15974.0
09:11:04.746,AUTO,-35.3632473,149.1652852,22857,0.032714735716581345,-0.19313473999500275,1.2731143236160278,0.3063381016254425,0.022611984983086586,-0.06701306998729706,-68,-26,-1009,307,23,-67,110,305,2,15974.0
09:11:04.948,AUTO,-35.3632448,149.1652938,22850,0.03281330689787865,-0.1915704309940338,1.2657417058944702,-0.1446913331747055,-0.017118852585554123,-0.004473175387829542,-72,-50,-1003,-144,-16,-4,122,332,1,15974.0
09:11:05.150,AUTO,-35.3632448,149.1652938,22850,0.03281330689787865,-0.1915704309940338,1.2657417058944702,-0.1446913331747055,-0.017118852585554123,-0.004473175387829542,-72,-50,-1003,-144,-16,-4,122,332,1,15974.0
09:11:05.352,AUTO,-35.3632448,149.1652938,22850,0.03281330689787865,-0.1915704309940338,1.2657417058944702,-0.1446913331747055,-0.017118852585554123,-0.004473175387829542,-72,-50,-1003,-144,-16,-4,122,332,1,129496.0
09:11:05.554,AUTO,-35.3632356,149.1653242,22826,0.0469776913523674,-0.19870728254318237,1.2670313119888306,-0.04373985901474953,-0.014186399057507515,0.005570006091147661,-92,-49,-1001,-42,-13,5,150,411,2,129496.0
09:11:05.756,AUTO,-35.3632356,149.1653242,22826,0.0469776913523674,-0.19870728254318237,1.2670313119888306,-0.04373985901474953,-0.014186399057507515,0.005570006091147661,-92,-49,-1001,-42,-13,5,150,411,2,129496.0
09:11:05.958,AUTO,-35.3632321,149.1653358,22818,0.05203839763998985,-0.203842431306839,1.2667549848556519,-0.0005438117077574134,-0.030394328758120537,0.0027127263601869345,-96,-53,-999,0,-29,2,158,436,2,129496.0
09:11:06.160,AUTO,-35.3632284,149.1653482,22809,0.05711038410663605,-0.2107396423816681,1.2657506465911865,0.04804553836584091,-0.023187166079878807,0.0011472618207335472,-104,-58,-999,49,-22,0,167,461,3,129496.0
09:11:06.362,AUTO,-35.3632245,149.1653612,22798,0.06019015982747078,-0.2167586237192154,1.2645012140274048,0.015011882409453392,-0.021515201777219772,-0.005123394075781107,-107,-65,-996,16,-20,-4,175,487,3,129496.0
09:11:06.565,AUTO,-35.3632204,149.165375,22785,0.0619262233376503,-0.21436558663845062,1.263662576675415,-0.05761757493019104,0.037053871899843216,0.0008622249588370323,-102,-58,-1002,-56,37,0,183,513,3,129496.0
09:11:06.767,AUTO,-35.3632204,149.165375,22785,0.0619262233376503,-0.21436558663845062,1.263662576675415,-0.05761757493019104,0.037053871899843216,0.0008622249588370323,-102,-58,-1002,-56,37,0,183,513,3,129496.0
09:11:06.970,AUTO,-35.3632161,149.1653895,22777,0.06426218152046204,-0.20273098349571228,1.262895107269287,0.00981574784964323,0.03874930739402771,-0.006531266495585442,-104,-79,-1004,10,39,-6,190,536,0,129496.0
09:11:07.172,AUTO,-35.3632161,149.1653895,22777,0.06426218152046204,-0.20273098349571228,1.262895107269287,0.00981574784964323,0.03874930739402771,-0.006531266495585442,-104,-79,-1004,10,39,-6,190,536,0,129496.0
09:11:07.374,AUTO,-35.3632161,149.1653895,22777,0.06426218152046204,-0.20273098349571228,1.262895107269287,0.00981574784964323,0.03874930739402771,-0.006531266495585442,-104,-79,-1004,10,39,-6,190,536,0,129496.0
09:11:07.576,AUTO,-35.3632025,149.1654362,22786,0.07246728986501694,-0.17552770674228668,1.2604584693908691,-0.04253515973687172,0.05759350210428238,-0.0003050939994864166,-142,-73,-1006,-41,58,0,205,588,-3,129496.0
09:11:07.778,AUTO,-35.3631977,149.1654527,22795,0.07174503058195114,-0.17072324454784393,1.260971188545227,0.007009296678006649,0.011627819389104843,0.0007824123604223132,-134,-73,-993,7,12,0,209,600,-4,129496.0
09:11:07.980,AUTO,-35.3631977,149.1654527,22795,0.07174503058195114,-0.17072324454784393,1.260971188545227,0.007009296678006649,0.011627819389104843,0.0007824123604223132,-134,-73,-993,7,12,0,209,600,-4,129496.0
09:11:08.181,AUTO,-35.3631929,149.1654693,22805,0.07365944236516953,-0.17359352111816406,1.2607847452163696,0.026563627645373344,-0.00742846354842186,-0.0033896281383931637,-128,-74,-982,27,-6,-3,213,610,-3,129496.0
09:11:08.396,AUTO,-35.3631881,149.1654863,22810,0.0749237984418869,-0.17280179262161255,1.2603391408920288,-0.0011745798401534557,0.009960906580090523,-0.004668933805078268,-135,-64,-984,0,10,-4,215,619,-1,284596.0
09:11:08.598,AUTO,-35.3631832,149.1655034,22813,0.07590176910161972,-0.168877974152565,1.2596714496612549,-0.031031014397740364,0.0240075271576643,0.004001179244369268,-131,-76,-987,-30,24,3,219,628,-1,284596.0
09:11:08.800,AUTO,-35.3631782,149.1655208,22814,0.07852375507354736,-0.16194632649421692,1.2584208250045776,0.02374904975295067,0.03150220587849617,-0.009200909174978733,-133,-70,-990,24,32,-9,221,636,-1,284596.0
09:11:09.002,AUTO,-35.3631782,149.1655208,22814,0.07852375507354736,-0.16194632649421692,1.2584208250045776,0.02374904975295067,0.03150220587849617,-0.009200909174978733,-133,-70,-990,24,32,-9,221,636,-1,284596.0
09:11:09.204,AUTO,-35.3631782,149.1655208,22814,0.07852375507354736,-0.16194632649421692,1.2584208250045776,0.02374904975295067,0.03150220587849617,-0.009200909174978733,-133,-70,-990,24,32,-9,221,636,-1,284596.0
09:11:09.406,AUTO,-35.3631782,149.1655208,22814,0.07852375507354736,-0.16194632649421692,1.2584208250045776,0.02374904975295067,0.03150220587849617,-0.009200909174978733,-133,-70,-990,24,32,-9,221,636,-1,284596.0
09:11:09.607,AUTO,-35.3631629,149.1655742,22825,0.07963616400957108,-0.13855765759944916,1.2576830387115479,0.027394745498895645,0.034042563289403915,-0.01321442797780037,-144,-78,-993,28,34,-13,225,647,-2,284596.0
09:11:09.809,AUTO,-35.3631578,149.1655922,22830,0.08054998517036438,-0.12576960027217865,1.2577831745147705,0.03172320872545242,0.03870874643325806,-0.004510715138167143,-130,-98,-992,33,39,-4,227,648,-3,284596.0
09:11:10.011,AUTO,-35.3631578,149.1655922,22830,0.08054998517036438,-0.12576960027217865,1.2577831745147705,0.03172320872545242,0.03870874643325806,-0.004510715138167143,-130,-98,-992,33,39,-4,227,648,-3,284596.0
09:11:10.213,AUTO,-35.3631526,149.1656101,22836,0.08348173648118973,-0.12151668220758438,1.2566372156143188,-0.023345965892076492,0.003605883801355958,-0.003918361850082874,-131,-94,-983,-22,4,-3,226,645,-2,284596.0
09:11:10.415,AUTO,-35.3631474,149.1656281,22838,0.0862739160656929,-0.12941843271255493,1.2553678750991821,0.049175065010786057,-0.044744983315467834,-0.006021058652549982,-127,-78,-965,50,-43,-6,225,642,0,284596.0
09:11:10.617,AUTO,-35.3631424,149.1656458,22829,0.08373464643955231,-0.13857421278953552,1.2543833255767822,-0.005474210251122713,-0.03659582883119583,0.001944986404851079,-138,-80,-973,-4,-35,1,224,641,5,284596.0
09:11:10.819,AUTO,-35.3631374,149.1656635,22809,0.0807548388838768,-0.14484640955924988,1.2542617321014404,-0.031050633639097214,-0.0011279958998784423,0.003973446320742369,-111,-75,-971,-29,0,3,225,643,9,284596.0
09:11:11.029,AUTO,-35.3631374,149.1656635,22809,0.0807548388838768,-0.14484640955924988,1.2542617321014404,-0.031050633639097214,-0.0011279958998784423,0.003973446320742369,-111,-75,-971,-29,0,3,225,643,9,284596.0
09:11:11.232,AUTO,-35.3631374,149.1656635,22809,0.0807548388838768,-0.14484640955924988,1.2542617321014404,-0.031050633639097214,-0.0011279958998784423,0.003973446320742369,-111,-75,-971,-29,0,3,225,643,9,265259.0
09:11:11.436,AUTO,-35.3631374,149.1656635,22809,0.0807548388838768,-0.14484640955924988,1.2542617321014404,-0.031050633639097214,-0.0011279958998784423,0.003973446320742369,-111,-75,-971,-29,0,3,225,643,9,265259.0
09:11:11.638,AUTO,-35.3631222,149.1657167,22760,0.07958484441041946,-0.11717478930950165,1.2541747093200684,0.028420433402061462,0.05855582654476166,-0.000736283662263304,-152,-78,-1009,29,59,-1,226,643,1,265259.0
09:11:11.840,AUTO,-35.3631172,149.1657344,22757,0.07910025864839554,-0.10173937678337097,1.2535825967788696,0.015255417674779892,0.06557360291481018,-0.0053479429334402084,-130,-79,-1000,16,66,-5,224,638,0,265259.0
09:11:12.041,AUTO,-35.3631122,149.165752,22762,0.08037438988685608,-0.0823451355099678,1.2534676790237427,-0.005394252948462963,0.04777010902762413,-0.004572117701172829,-123,-81,-993,-4,48,-4,222,630,-3,265259.0
09:11:12.243,AUTO,-35.3631122,149.165752,22762,0.08037438988685608,-0.0823451355099678,1.2534676790237427,-0.005394252948462963,0.04777010902762413,-0.004572117701172829,-123,-81,-993,-4,48,-4,222,630,-3,265259.0
09:11:12.445,AUTO,-35.3631072,149.1657692,22772,0.07995156943798065,-0.06876660883426666,1.253577709197998,-0.046386878937482834,0.05203929543495178,0.00817422941327095,-134,-78,-993,-45,52,8,217,617,-4,265259.0
09:11:12.647,AUTO,-35.3631024,149.165786,22782,0.08006829023361206,-0.06178350746631622,1.2537868022918701,0.09170487523078918,0.028552696108818054,-0.0023961085826158524,-128,-76,-986,92,29,-2,212,602,-3,265259.0
09:11:12.849,AUTO,-35.3630977,149.1658024,22789,0.08007792383432388,-0.050725020468235016,1.2537404298782349,-0.014413686469197273,0.059136658906936646,-0.004264539573341608,-126,-92,-993,-13,59,-4,207,586,-1,265259.0
09:11:13.051,AUTO,-35.3630977,149.1658024,22789,0.08007792383432388,-0.050725020468235016,1.2537404298782349,-0.014413686469197273,0.059136658906936646,-0.004264539573341608,-126,-92,-993,-13,59,-4,207,586,-1,265259.0
09:11:13.255,AUTO,-35.3630977,149.1658024,22789,0.08007792383432388,-0.050725020468235016,1.2537404298782349,-0.014413686469197273,0.059136658906936646,-0.004264539573341608,-126,-92,-993,-13,59,-4,207,586,-1,265259.0
09:11:13.457,AUTO,-35.3630977,149.1658024,22789,0.08007792383432388,-0.050725020468235016,1.2537404298782349,-0.014413686469197273,0.059136658906936646,-0.004264539573341608,-126,-92,-993,-13,59,-4,207,586,-1,265259.0
09:11:13.660,AUTO,-35.3630842,149.165849,22796,0.08069594949483871,-0.012928104028105736,1.25348961353302,-0.0029067182913422585,0.05362837761640549,-0.0025317962281405926,-104,-82,-986,-2,54,-2,186,526,1,265259.0
09:11:13.862,AUTO,-35.3630801,149.1658633,22792,0.07483304291963577,0.0012309197336435318,1.2536736726760864,-0.21604523062705994,0.07255201786756516,0.004185596480965614,-112,-71,-992,-214,73,3,176,503,2,265259.0
09:11:14.064,AUTO,-35.3630762,149.165877,22785,0.07723536342382431,0.014647864736616611,1.2531540393829346,0.4352337121963501,0.06230659410357475,-0.020623838528990746,-90,-24,-990,436,63,-20,165,479,4,265259.0
09:11:14.266,AUTO,-35.3630762,149.165877,22785,0.07723536342382431,0.014647864736616611,1.2531540393829346,0.4352337121963501,0.06230659410357475,-0.020623838528990746,-90,-24,-990,436,63,-20,165,479,4,111439.0
09:11:14.467,AUTO,-35.3630726,149.16589,22773,0.0732036605477333,0.03092336468398571,1.2539129257202148,0.14562904834747314,0.05879470705986023,0.02286885492503643,-96,-76,-977,145,59,22,156,451,6,111439.0
09:11:14.669,AUTO,-35.3630692,149.1659021,22756,0.057516757398843765,0.03946436569094658,1.2541753053665161,-0.7286269664764404,0.02855778858065605,0.029384078457951546,-81,-89,-988,-728,29,29,146,421,8,111439.0
09:11:14.871,AUTO,-35.363066,149.1659135,22738,0.05190105736255646,0.05140760913491249,1.2537672519683838,-0.22774003446102142,0.04325026646256447,-0.018440159037709236,-83,-42,-993,-225,44,-18,134,392,8,111439.0
09:11:15.073,AUTO,-35.363066,149.1659135,22738,0.05190105736255646,0.05140760913491249,1.2537672519683838,-0.22774003446102142,0.04325026646256447,-0.018440159037709236,-83,-42,-993,-225,44,-18,134,392,8,111439.0
09:11:15.275,AUTO,-35.363066,149.1659135,22738,0.05190105736255646,0.05140760913491249,1.2537672519683838,-0.22774003446102142,0.04325026646256447,-0.018440159037709236,-83,-42,-993,-225,44,-18,134,392,8,111439.0
09:11:15.477,AUTO,-35.363066,149.1659135,22738,0.05190105736255646,0.05140760913491249,1.2537672519683838,-0.22774003446102142,0.04325026646256447,-0.018440159037709236,-83,-42,-993,-225,44,-18,134,392,8,111439.0
09:11:15.679,AUTO,-35.363058,149.1659427,22681,0.05004658177495003,0.05393056944012642,1.2524064779281616,-0.3208076059818268,-0.0020375594031065702,0.026300989091396332,-59,-75,-988,-321,-1,26,104,305,9,111439.0
09:11:15.881,AUTO,-35.3630559,149.1659509,22662,0.031076036393642426,0.05578303709626198,1.2520796060562134,-0.7657064199447632,0.0076223514042794704,0.015935182571411133,-58,-78,-1012,-765,8,15,95,278,7,111439.0
09:11:16.083,AUTO,-35.363054,149.1659584,22649,0.023951584473252296,0.06155814975500107,1.2517584562301636,-0.41595014929771423,0.025607071816921234,-0.008284926414489746,-56,-39,-1011,-414,26,-8,85,252,6,111439.0
09:11:16.285,AUTO,-35.3630522,149.1659653,22638,0.033672645688056946,0.06824462115764618,1.2511732578277588,0.6288117170333862,0.03160654380917549,-0.015230606310069561,-49,-1,-1024,630,32,-15,77,225,4,111439.0
09:11:16.486,AUTO,-35.3630522,149.1659653,22638,0.033672645688056946,0.06824462115764618,1.2511732578277588,0.6288117170333862,0.03160654380917549,-0.015230606310069561,-49,-1,-1024,630,32,-15,77,225,4,111439.0
09:11:16.688,AUTO,-35.3630506,149.1659713,22631,0.033885445445775986,0.07588044553995132,1.250882625579834,0.3702464699745178,0.03758041188120842,0.008895107544958591,-45,-28,-1006,370,38,8,69,198,4,111439.0
09:11:16.890,AUTO,-35.3630492,149.1659766,22624,0.024265291169285774,0.08085796236991882,1.2507644891738892,-0.33538490533828735,0.032778915017843246,0.007683078292757273,-39,-61,-1005,-335,33,7,62,170,4,111439.0
09:11:17.092,AUTO,-35.3630492,149.1659766,22624,0.024265291169285774,0.08085796236991882,1.2507644891738892,-0.33538490533828735,0.032778915017843246,0.007683078292757273,-39,-61,-1005,-335,33,7,62,170,4,111439.0
09:11:17.294,AUTO,-35.3630492,149.1659766,22624,0.024265291169285774,0.08085796236991882,1.2507644891738892,-0.33538490533828735,0.032778915017843246,0.007683078292757273,-39,-61,-1005,-335,33,7,62,170,4,294243.0
09:11:17.496,AUTO,-35.3630492,149.1659766,22624,0.024265291169285774,0.08085796236991882,1.2507644891738892,-0.33538490533828735,0.032778915017843246,0.007683078292757273,-39,-61,-1005,-335,33,7,62,170,4,294243.0
09:11:17.698,AUTO,-35.3630461,149.1659883,22613,0.017062092199921608,0.072881780564785,1.2493380308151245,0.5385633111000061,-0.026574408635497093,-0.004373334348201752,-22,18,-1012,539,-25,-4,37,96,2,294243.0
09:11:17.899,AUTO,-35.3630455,149.1659909,22611,0.01563340239226818,0.06567075103521347,1.2492090463638306,0.21602366864681244,-0.019842248409986496,0.006548325065523386,-18,-19,-993,216,-18,6,32,76,2,294243.0
09:11:18.101,AUTO,-35.3630449,149.165993,22608,0.0009528746595606208,0.06072934344410896,1.249636173248291,-0.5799028873443604,-0.014982779510319233,0.007300379686057568,-17,-45,-1003,-579,-13,7,26,58,2,294243.0
09:11:18.303,AUTO,-35.3630445,149.1659947,22605,-0.009481842629611492,0.05573005974292755,1.2491809129714966,-0.4446754455566406,-0.02583690546452999,0.004855204839259386,-12,-13,-1010,-443,-24,4,21,43,2,294243.0
09:11:18.505,AUTO,-35.3630445,149.1659947,22605,-0.009481842629611492,0.05573005974292755,1.2491809129714966,-0.4446754455566406,-0.02583690546452999,0.004855204839259386,-12,-13,-1010,-443,-24,4,21,43,2,294243.0
09:11:18.707,AUTO,-35.3630442,149.165996,22603,-0.001057882560417056,0.05047982931137085,1.2488449811935425,0.42871421575546265,-0.011712579056620598,-0.0025585030671209097,-8,27,-1006,430,-10,-2,17,29,1,294243.0
09:11:18.909,AUTO,-35.363044,149.1659969,22604,0.003546058665961027,0.04604218155145645,1.2485979795455933,0.44531187415122986,-0.016341716051101685,-0.002268062438815832,-4,-1,-997,445,-15,-2,15,17,1,294243.0
09:11:19.111,AUTO,-35.363044,149.1659969,22604,0.003546058665961027,0.04604218155145645,1.2485979795455933,0.44531187415122986,-0.016341716051101685,-0.002268062438815832,-4,-1,-997,445,-15,-2,15,17,1,294243.0
09:11:19.313,AUTO,-35.363044,149.1659969,22604,0.003546058665961027,0.04604218155145645,1.2485979795455933,0.44531187415122986,-0.016341716051101685,-0.002268062438815832,-4,-1,-997,445,-15,-2,15,17,1,294243.0
09:11:19.516,AUTO,-35.363044,149.1659969,22604,0.003546058665961027,0.04604218155145645,1.2485979795455933,0.44531187415122986,-0.016341716051101685,-0.002268062438815832,-4,-1,-997,445,-15,-2,15,17,1,294243.0
09:11:19.718,AUTO,-35.3630435,149.165998,22608,-0.0037976938765496016,0.02810409665107727,1.2481907606124878,0.4521307945251465,-0.025003332644701004,-0.0027828665915876627,-1,30,-998,453,-23,-2,7,-8,0,294243.0
09:11:19.920,AUTO,-35.3630435,149.165998,22609,0.0031956066377460957,0.021608898416161537,1.2482447624206543,0.5774253010749817,-0.020420894026756287,0.00025028781965374947,0,16,-1010,577,-19,0,6,-13,0,294243.0
09:11:20.122,AUTO,-35.3630434,149.1659978,22609,-0.003073901403695345,0.014224364422261715,1.247939944267273,-0.1257120817899704,-0.026729539036750793,0.003131138626486063,0,-17,-1006,-126,-25,3,6,-17,0,294243.0
09:11:20.323,AUTO,-35.3630433,149.1659976,22612,-0.012025625444948673,0.0064442153088748455,1.2474790811538696,-0.591034471988678,-0.035206545144319534,-0.0031768628396093845,0,-15,-998,-590,-33,-2,5,-18,0,56351.0
09:11:20.527,AUTO,-35.3630431,149.1659973,22614,-0.006989532615989447,-0.0022434021811932325,1.2468172311782837,0.18327750265598297,-0.0278573427349329,-0.0033893007785081863,0,29,-999,184,-26,-2,5,-17,0,56351.0
09:11:20.730,AUTO,-35.3630431,149.1659973,22614,-0.006989532615989447,-0.0022434021811932325,1.2468172311782837,0.18327750265598297,-0.0278573427349329,-0.0033893007785081863,0,29,-999,184,-26,-2,5,-17,0,56351.0
09:11:20.932,AUTO,-35.363043,149.1659971,22615,0.006232887506484985,-0.00683181406930089,1.246322512626648,0.5700842142105103,0.008305495604872704,-0.0003140399348922074,-1,30,-1011,570,9,0,6,-15,0,56351.0
09:11:21.135,RTL,-35.363043,149.1659971,22615,0.006232887506484985,-0.00683181406930089,1.246322512626648,0.5700842142105103,0.008305495604872704,-0.0003140399348922074,-1,30,-1011,570,9,0,6,-15,0,56351.0
09:11:21.341,RTL,-35.363043,149.1659971,22615,0.006232887506484985,-0.00683181406930089,1.246322512626648,0.5700842142105103,0.008305495604872704,-0.0003140399348922074,-1,30,-1011,570,9,0,6,-15,0,56351.0
09:11:21.543,RTL,-35.3630423,149.1659966,22618,0.007157871499657631,0.0005380132352001965,1.245334267616272,0.24271827936172485,0.014995543286204338,0.0012719705700874329,-2,27,-1008,244,16,1,3,-9,-1,56351.0
09:11:21.744,RTL,-35.3630423,149.1659966,22618,0.007157871499657631,0.0005380132352001965,1.245334267616272,0.24271827936172485,0.014995543286204338,0.0012719705700874329,-2,27,-1008,244,16,1,3,-9,-1,56351.0
09:11:21.946,RTL,-35.3630421,149.1659965,22624,0.01803942769765854,0.0019062594510614872,1.2450240850448608,0.4752032458782196,0.00542448041960597,-0.00039830972673371434,-1,14,-1021,475,6,0,1,-8,-3,56351.0
09:11:22.148,RTL,-35.3630421,149.1659964,22640,0.00673258863389492,0.002798138651996851,1.2446380853652954,-0.3231360912322998,0.0051263077184557915,-0.0027326832059770823,0,-27,-1018,-323,6,-2,0,-8,-8,56351.0
09:11:22.350,RTL,-35.363042,149.1659964,22671,0.0019914957229048014,0.0039363461546599865,1.2441513538360596,-0.14898988604545593,0.003307044506072998,0.002684580394998193,0,7,-1027,-147,4,3,-1,-7,-15,56351.0
09:11:22.552,RTL,-35.363042,149.1659964,22722,0.010155409574508667,0.005207558162510395,1.2440850734710693,0.410128653049469,0.007453286089003086,-0.0017202339367941022,1,16,-1041,410,8,-1,-2,-6,-24,56351.0
09:11:22.754,RTL,-35.363042,149.1659964,22722,0.010155409574508667,0.005207558162510395,1.2440850734710693,0.410128653049469,0.007453286089003086,-0.0017202339367941022,1,16,-1041,410,8,-1,-2,-6,-24,56351.0
09:11:22.957,RTL,-35.3630419,149.1659964,22797,0.004578821361064911,0.005701127462089062,1.243552565574646,-0.13005223870277405,-0.002267455914989114,-0.0012670240830630064,1,-19,-1038,-130,0,-1,-2,-7,-34,56351.0
09:11:23.158,RTL,-35.3630419,149.1659964,22797,0.004578821361064911,0.005701127462089062,1.243552565574646,-0.13005223870277405,-0.002267455914989114,-0.0012670240830630064,1,-19,-1038,-130,0,-1,-2,-7,-34,56351.0
09:11:23.360,RTL,-35.3630419,149.1659964,22797,0.004578821361064911,0.005701127462089062,1.243552565574646,-0.13005223870277405,-0.002267455914989114,-0.0012670240830630064,1,-19,-1038,-130,0,-1,-2,-7,-34,120708.0
09:11:23.562,RTL,-35.3630421,149.1659965,23196,-0.004013557452708483,0.005483594723045826,1.2428069114685059,-0.051645610481500626,0.0016121943481266499,-0.0022828103974461555,0,-7,-1046,-51,3,-1,-2,-7,-70,120708.0
09:11:23.764,RTL,-35.3630421,149.1659965,23196,-0.004013557452708483,0.005483594723045826,1.2428069114685059,-0.051645610481500626,0.0016121943481266499,-0.0022828103974461555,0,-7,-1046,-51,3,-1,-2,-7,-70,120708.0
