time_stamp,MODE,lat,lon,relative_alt,roll,pitch,yaw,rollspeed,pitchspeed,yawspeed,xacc,yacc,zacc,xgyro,ygyro,zgyro,vx,vy,vz,RTL_ALT
17:27:58.356,STABILIZE,-35.3632621,149.1652374,49,-0.00028434369596652687,0.0015602314379066229,0.028305402025580406,0.00016345360199920833,0.0001818752207327634,0.002303415210917592,0,1,-1000,0,0,0,-2,0,-2,1500.0
17:27:58.558,STABILIZE,-35.3632621,149.1652374,49,-0.00028434369596652687,0.0015602314379066229,0.028305402025580406,0.00016345360199920833,0.0001818752207327634,0.002303415210917592,0,1,-1000,0,0,0,-2,0,-2,1500.0
17:27:58.759,STABILIZE,-35.3632621,149.1652374,49,-0.00028434369596652687,0.0015602314379066229,0.028305402025580406,0.00016345360199920833,0.0001818752207327634,0.002303415210917592,0,1,-1000,0,0,0,-2,0,-2,1500.0
17:27:58.960,STABILIZE,-35.3632621,149.1652374,49,-0.00028434369596652687,0.0015602314379066229,0.028305402025580406,0.00016345360199920833,0.0001818752207327634,0.002303415210917592,0,1,-1000,0,0,0,-2,0,-2,1500.0
17:27:59.162,STABILIZE,-35.3632621,149.1652374,49,-0.00028434369596652687,0.0015602314379066229,0.028305402025580406,0.00016345360199920833,0.0001818752207327634,0.002303415210917592,0,1,-1000,0,0,0,-2,0,-2,1500.0
17:27:59.363,STABILIZE,-35.3632621,149.1652374,49,-0.00028434369596652687,0.0015602314379066229,0.028305402025580406,0.00016345360199920833,0.0001818752207327634,0.002303415210917592,0,1,-1000,0,0,0,-2,0,-2,1500.0
17:27:59.564,STABILIZE,-35.3632621,149.1652374,49,-0.00028434369596652687,0.0015602314379066229,0.028305402025580406,0.00016345360199920833,0.0001818752207327634,0.002303415210917592,0,1,-1000,0,0,0,-2,0,-2,1500.0
17:27:59.766,STABILIZE,-35.3632621,149.1652374,49,-0.00028434369596652687,0.0015602314379066229,0.028305402025580406,0.00016345360199920833,0.0001818752207327634,0.002303415210917592,0,1,-1000,0,0,0,-2,0,-2,1500.0
17:27:59.967,STABILIZE,-35.3632621,149.1652374,49,-0.00028434369596652687,0.0015602314379066229,0.028305402025580406,0.00016345360199920833,0.0001818752207327634,0.002303415210917592,0,1,-1000,0,0,0,-2,0,-2,1500.0
17:28:00.170,STABILIZE,-35.3632622,149.1652374,71,-0.0002423214609734714,0.0011624031467363238,0.027077114209532738,0.00015306368004530668,0.00014997721882537007,0.0020793795119971037,0,1,-1000,0,0,0,-1,1,-2,1500.0
17:28:00.371,STABILIZE,-35.3632622,149.1652374,71,-0.0002423214609734714,0.0011624031467363238,0.027077114209532738,0.00015306368004530668,0.00014997721882537007,0.0020793795119971037,0,1,-1000,0,0,0,-1,1,-2,1500.0
17:28:00.572,STABILIZE,-35.3632622,149.1652374,72,-0.0002777363988570869,0.0011267445515841246,0.026932962238788605,0.00020749919349327683,0.0002736554597504437,0.002290525706484914,0,1,-1000,0,0,0,-1,1,-2,1500.0
17:28:00.774,STABILIZE,-35.3632622,149.1652374,74,-0.00031767674954608083,0.001089591532945633,0.02680237591266632,0.00028642243705689907,0.00032550012110732496,0.002009002026170492,0,1,-1000,0,0,0,-1,1,-2,1500.0
17:28:00.975,STABILIZE,-35.3632622,149.1652374,74,-0.00031767674954608083,0.001089591532945633,0.02680237591266632,0.00028642243705689907,0.00032550012110732496,0.002009002026170492,0,1,-1000,0,0,0,-1,1,-2,1500.0
17:28:01.178,STABILIZE,-35.3632622,149.1652374,74,-0.00031767674954608083,0.001089591532945633,0.02680237591266632,0.00028642243705689907,0.00032550012110732496,0.002009002026170492,0,1,-1000,0,0,0,-1,1,-2,1500.0
17:28:01.385,STABILIZE,-35.3632622,149.1652374,74,-0.00031767674954608083,0.001089591532945633,0.02680237591266632,0.00028642243705689907,0.00032550012110732496,0.002009002026170492,0,1,-1000,0,0,0,-1,1,-2,1500.0
17:28:01.587,STABILIZE,-35.3632622,149.1652374,74,-0.00031767674954608083,0.001089591532945633,0.02680237591266632,0.00028642243705689907,0.00032550012110732496,0.002009002026170492,0,1,-1000,0,0,0,-1,1,-2,1500.0
17:28:01.788,STABILIZE,-35.3632621,149.1652374,85,-0.00045367973507381976,0.0010046499082818627,0.026257265359163284,9.544059867039323e-05,0.0003153161669615656,0.0020641323644667864,0,1,-1000,0,0,0,-1,0,-4,1500.0
17:28:01.990,STABILIZE,-35.3632621,149.1652374,85,-0.000427190272603184,0.0009967193473130465,0.026128755882382393,0.00026937463553622365,0.0002802243398036808,0.0019505091477185488,0,1,-1000,0,0,0,-1,0,-4,1500.0
17:28:02.191,STABILIZE,-35.3632621,149.1652374,85,-0.000427190272603184,0.0009967193473130465,0.026128755882382393,0.00026937463553622365,0.0002802243398036808,0.0019505091477185488,0,1,-1000,0,1,0,-1,0,-4,1500.0
17:28:02.392,STABILIZE,-35.3632621,149.1652374,85,-0.000427190272603184,0.0009967193473130465,0.026128755882382393,0.00026937463553622365,0.0002802243398036808,0.0019505091477185488,0,1,-1000,0,1,0,-1,0,-4,1500.0
17:28:02.594,STABILIZE,-35.3632621,149.1652374,94,-0.00034974829759448767,0.0009739159722812474,0.025907134637236595,0.000412606168538332,0.00030673365108668804,0.0020658960565924644,0,1,-1000,0,0,0,-1,0,-3,1500.0
17:28:02.795,STABILIZE,-35.3632621,149.1652374,94,-0.00034974829759448767,0.0009739159722812474,0.025907134637236595,0.000412606168538332,0.00030673365108668804,0.0020658960565924644,0,1,-1000,0,1,0,-1,0,-3,1500.0
17:28:02.997,STABILIZE,-35.3632621,149.1652374,94,-0.00034974829759448767,0.0009739159722812474,0.025907134637236595,0.000412606168538332,0.00030673365108668804,0.0020658960565924644,0,1,-1000,0,1,0,-1,0,-3,1500.0
17:28:03.198,STABILIZE,-35.3632621,149.1652374,94,-0.00034974829759448767,0.0009739159722812474,0.025907134637236595,0.000412606168538332,0.00030673365108668804,0.0020658960565924644,0,1,-1000,0,1,0,-1,0,-3,1500.0
17:28:03.400,STABILIZE,-35.3632621,149.1652374,94,-0.00034974829759448767,0.0009739159722812474,0.025907134637236595,0.000412606168538332,0.00030673365108668804,0.0020658960565924644,0,1,-1000,0,1,0,-1,0,-3,1500.0
17:28:03.601,STABILIZE,-35.3632621,149.1652374,94,-0.00034974829759448767,0.0009739159722812474,0.025907134637236595,0.000412606168538332,0.00030673365108668804,0.0020658960565924644,0,1,-1000,0,1,0,-1,0,-3,1500.0
17:28:03.803,STABILIZE,-35.3632621,149.1652374,98,-0.0003160236228723079,0.0009317707736045122,0.025280339643359184,0.0002050271723419428,0.00022129536955617368,0.0018482476007193327,0,1,-1000,0,1,0,-1,1,-2,1500.0
17:28:04.004,STABILIZE,-35.3632621,149.1652374,98,-0.0003345425066072494,0.0009314100025221705,0.025172723457217216,0.00022724643349647522,0.00023728911764919758,0.0017311680130660534,0,1,-1000,0,0,0,-1,1,-2,1500.0
17:28:04.205,STABILIZE,-35.3632621,149.1652374,98,-0.0003345425066072494,0.0009314100025221705,0.025172723457217216,0.00022724643349647522,0.00023728911764919758,0.0017311680130660534,0,1,-1000,0,0,0,-1,1,-2,1500.0
17:28:04.407,STABILIZE,-35.3632621,149.1652374,98,-0.0003345425066072494,0.0009314100025221705,0.025172723457217216,0.00022724643349647522,0.00023728911764919758,0.0017311680130660534,0,1,-1000,0,0,0,-1,1,-2,1500.0
17:28:04.608,STABILIZE,-35.3632621,149.1652374,98,-0.0003345425066072494,0.0009314100025221705,0.025172723457217216,0.00022724643349647522,0.00023728911764919758,0.0017311680130660534,0,1,-1000,0,0,0,-1,1,-2,1500.0
17:28:04.810,STABILIZE,-35.3632621,149.1652375,97,-0.0003859856224153191,0.0009320277604274452,0.02481045573949814,0.00017113098874688148,0.0002532434300519526,0.0018485960317775607,0,1,-1000,0,0,0,-1,1,-1,1500.0
17:28:05.011,STABILIZE,-35.3632621,149.1652375,97,-0.0003859856224153191,0.0009320277604274452,0.02481045573949814,0.00017113098874688148,0.0002532434300519526,0.0018485960317775607,0,1,-1001,0,0,1,-1,1,-1,1500.0
17:28:05.213,STABILIZE,-35.3632621,149.1652375,97,-0.0003859856224153191,0.0009320277604274452,0.02481045573949814,0.00017113098874688148,0.0002532434300519526,0.0018485960317775607,0,1,-1001,0,0,1,-1,1,-1,1500.0
17:28:05.414,STABILIZE,-35.3632621,149.1652375,97,-0.0003859856224153191,0.0009320277604274452,0.02481045573949814,0.00017113098874688148,0.0002532434300519526,0.0018485960317775607,0,1,-1001,0,0,1,-1,1,-1,1500.0
17:28:05.616,STABILIZE,-35.3632621,149.1652375,97,-0.0003859856224153191,0.0009320277604274452,0.02481045573949814,0.00017113098874688148,0.0002532434300519526,0.0018485960317775607,0,1,-1001,0,0,1,-1,1,-1,1500.0
17:28:05.817,STABILIZE,-35.3632621,149.1652375,97,-0.0003859856224153191,0.0009320277604274452,0.02481045573949814,0.00017113098874688148,0.0002532434300519526,0.0018485960317775607,0,1,-1001,0,0,1,-1,1,-1,1500.0
17:28:06.019,STABILIZE,-35.3632621,149.1652375,97,-0.0003859856224153191,0.0009320277604274452,0.02481045573949814,0.00017113098874688148,0.0002532434300519526,0.0018485960317775607,0,1,-1000,1,1,0,-1,1,-1,1500.0
17:28:06.220,STABILIZE,-35.3632621,149.1652376,81,-0.0003758975362870842,0.0009391644853167236,0.0240817591547966,0.0002727544051595032,0.0001935606705956161,0.001611536368727684,0,1,-1000,1,1,0,-1,2,0,1500.0
17:28:06.422,STABILIZE,-35.3632621,149.1652376,79,-0.0004385601496323943,0.0009468905627727509,0.02399061806499958,0.00025090837152674794,0.0002975420211441815,0.001736471545882523,0,1,-1000,0,0,0,-1,2,0,1500.0
17:28:06.623,STABILIZE,-35.3632621,149.1652376,79,-0.0004385601496323943,0.0009468905627727509,0.02399061806499958,0.00025090837152674794,0.0002975420211441815,0.001736471545882523,0,1,-1000,0,0,0,-1,2,0,1500.0
17:28:06.825,STABILIZE,-35.3632622,149.1652376,78,-0.0005046525038778782,0.0009539925376884639,0.023875368759036064,0.00031273410422727466,0.00024985166965052485,0.001753832446411252,0,2,-1000,0,0,0,-1,2,0,1500.0
17:28:07.026,STABILIZE,-35.3632622,149.1652376,76,-0.0005657916772179306,0.0009575890726409853,0.023759588599205017,0.0002624953049235046,0.00027676468016579747,0.0017593984957784414,0,1,-1000,0,0,0,-1,2,0,1500.0
17:28:07.228,STABILIZE,-35.3632622,149.1652376,76,-0.0005657916772179306,0.0009575890726409853,0.023759588599205017,0.0002624953049235046,0.00027676468016579747,0.0017593984957784414,0,1,-1000,0,0,0,-1,2,0,1500.0
17:28:07.429,STABILIZE,-35.3632622,149.1652376,76,-0.0005657916772179306,0.0009575890726409853,0.023759588599205017,0.0002624953049235046,0.00027676468016579747,0.0017593984957784414,0,1,-1000,0,0,0,-1,2,0,1500.0
17:28:07.631,STABILIZE,-35.3632622,149.1652376,76,-0.0005657916772179306,0.0009575890726409853,0.023759588599205017,0.0002624953049235046,0.00027676468016579747,0.0017593984957784414,0,1,-1000,0,0,0,-1,2,0,1500.0
17:28:07.833,STABILIZE,-35.3632622,149.1652375,72,-0.0007443474605679512,0.0009666532860137522,0.02348562516272068,0.00013085507089272141,0.00029921019449830055,0.0017517900560051203,0,1,-1000,0,0,1,-1,2,0,1500.0
17:28:08.034,STABILIZE,-35.3632622,149.1652375,72,-0.0007443474605679512,0.0009666532860137522,0.02348562516272068,0.00013085507089272141,0.00029921019449830055,0.0017517900560051203,0,1,-1000,0,0,1,-1,2,0,1500.0
17:28:08.235,STABILIZE,-35.3632622,149.1652375,72,-0.0007443474605679512,0.0009666532860137522,0.02348562516272068,0.00013085507089272141,0.00029921019449830055,0.0017517900560051203,0,1,-1000,0,0,1,-1,2,0,1500.0
17:28:08.437,STABILIZE,-35.3632622,149.1652375,68,-0.0008942958666011691,0.0009649723651818931,0.02323654294013977,0.0002361775259487331,0.0002722187782637775,0.001790112815797329,0,1,-1000,0,0,1,-1,1,0,1500.0
17:28:08.638,STABILIZE,-35.3632622,149.1652375,68,-0.0008942958666011691,0.0009649723651818931,0.02323654294013977,0.0002361775259487331,0.0002722187782637775,0.001790112815797329,0,1,-1000,0,0,1,-1,1,0,1500.0
17:28:08.839,STABILIZE,-35.3632622,149.1652375,68,-0.0008942958666011691,0.0009649723651818931,0.02323654294013977,0.0002361775259487331,0.0002722187782637775,0.001790112815797329,0,1,-1000,0,0,1,-1,1,0,1500.0
17:28:09.041,STABILIZE,-35.3632622,149.1652375,68,-0.0008942958666011691,0.0009649723651818931,0.02323654294013977,0.0002361775259487331,0.0002722187782637775,0.001790112815797329,0,1,-1000,0,0,1,-1,1,0,1500.0
17:28:09.242,STABILIZE,-35.3632622,149.1652375,68,-0.0008942958666011691,0.0009649723651818931,0.02323654294013977,0.0002361775259487331,0.0002722187782637775,0.001790112815797329,0,1,-1000,0,0,1,-1,1,0,1500.0
17:28:09.443,STABILIZE,-35.3632622,149.1652375,68,-0.0008942958666011691,0.0009649723651818931,0.02323654294013977,0.0002361775259487331,0.0002722187782637775,0.001790112815797329,0,1,-1000,0,0,1,-1,1,0,1500.0
17:28:09.645,STABILIZE,-35.3632622,149.1652375,68,-0.0008942958666011691,0.0009649723651818931,0.02323654294013977,0.0002361775259487331,0.0002722187782637775,0.001790112815797329,0,1,-1000,0,0,1,-1,1,0,1500.0
17:28:09.846,STABILIZE,-35.3632622,149.1652375,68,-0.0008942958666011691,0.0009649723651818931,0.02323654294013977,0.0002361775259487331,0.0002722187782637775,0.001790112815797329,0,1,-1000,0,0,1,-1,1,0,1500.0
17:28:10.047,STABILIZE,-35.3632622,149.1652375,68,-0.0008942958666011691,0.0009649723651818931,0.02323654294013977,0.0002361775259487331,0.0002722187782637775,0.001790112815797329,0,1,-1000,0,0,0,-1,1,0,1500.0
17:28:10.249,STABILIZE,-35.3632622,149.1652375,68,-0.0008942958666011691,0.0009649723651818931,0.02323654294013977,0.0002361775259487331,0.0002722187782637775,0.001790112815797329,0,1,-1000,0,0,0,-1,1,0,1500.0
17:28:10.450,STABILIZE,-35.3632622,149.1652375,68,-0.001082326634787023,0.0009550906834192574,0.022733954712748528,0.000269133597612381,0.0001910979044623673,0.0014661748427897692,0,2,-1000,0,0,0,-1,1,0,1500.0
17:28:10.651,STABILIZE,-35.3632622,149.1652375,68,-0.001082326634787023,0.0009550906834192574,0.022733954712748528,0.000269133597612381,0.0001910979044623673,0.0014661748427897692,0,2,-1000,0,0,0,-1,1,0,1500.0
17:28:10.853,STABILIZE,-35.3632622,149.1652375,68,-0.001082326634787023,0.0009550906834192574,0.022733954712748528,0.000269133597612381,0.0001910979044623673,0.0014661748427897692,0,2,-1000,0,0,0,-1,1,0,1500.0
17:28:11.054,STABILIZE,-35.3632622,149.1652375,68,-0.0011007143184542656,0.0009594006696715951,0.022616952657699585,0.00017508416203781962,0.0002288182731717825,0.001521959900856018,0,2,-1000,0,0,0,-1,1,0,1500.0
17:28:11.256,STABILIZE,-35.3632622,149.1652375,68,-0.0011007143184542656,0.0009594006696715951,0.022616952657699585,0.00017508416203781962,0.0002288182731717825,0.001521959900856018,0,2,-1000,0,0,0,-1,1,0,1500.0
17:28:11.457,STABILIZE,-35.3632622,149.1652375,68,-0.0011007143184542656,0.0009594006696715951,0.022616952657699585,0.00017508416203781962,0.0002288182731717825,0.001521959900856018,0,2,-1000,0,0,0,-1,1,0,1500.0
17:28:11.658,STABILIZE,-35.3632622,149.1652375,68,-0.0011007143184542656,0.0009594006696715951,0.022616952657699585,0.00017508416203781962,0.0002288182731717825,0.001521959900856018,0,2,-1000,0,0,0,-1,1,0,1500.0
17:28:11.860,STABILIZE,-35.3632622,149.1652375,68,-0.0011007143184542656,0.0009594006696715951,0.022616952657699585,0.00017508416203781962,0.0002288182731717825,0.001521959900856018,0,2,-1000,0,0,0,-1,1,0,1500.0
17:28:12.061,STABILIZE,-35.3632622,149.1652375,68,-0.0011007143184542656,0.0009594006696715951,0.022616952657699585,0.00017508416203781962,0.0002288182731717825,0.001521959900856018,0,2,-1000,0,0,0,-1,1,0,1500.0
17:28:12.263,STABILIZE,-35.3632622,149.1652375,68,-0.0011007143184542656,0.0009594006696715951,0.022616952657699585,0.00017508416203781962,0.0002288182731717825,0.001521959900856018,0,2,-1000,0,0,0,-1,1,0,1500.0
17:28:12.464,STABILIZE,-35.3632622,149.1652375,68,-0.0011007143184542656,0.0009594006696715951,0.022616952657699585,0.00017508416203781962,0.0002288182731717825,0.001521959900856018,0,2,-1000,0,0,0,-1,1,0,1500.0
17:28:12.665,STABILIZE,-35.3632622,149.1652375,68,-0.0011007143184542656,0.0009594006696715951,0.022616952657699585,0.00017508416203781962,0.0002288182731717825,0.001521959900856018,0,2,-1000,0,0,0,-1,1,0,1500.0
17:28:12.867,STABILIZE,-35.3632622,149.1652375,49,-0.0010810784297063947,0.0009755137143656611,0.0222308412194252,0.00026813370641320944,0.0001634813379496336,0.0013918502954766154,0,1,-1000,0,0,1,-1,1,1,1500.0
17:28:13.068,STABILIZE,-35.3632622,149.1652375,49,-0.0010810784297063947,0.0009755137143656611,0.0222308412194252,0.00026813370641320944,0.0001634813379496336,0.0013918502954766154,0,1,-1000,0,0,1,-1,1,1,1500.0
17:28:13.270,AUTO,-35.3632622,149.1652375,49,-0.0010810784297063947,0.0009755137143656611,0.0222308412194252,0.00026813370641320944,0.0001634813379496336,0.0013918502954766154,0,1,-1000,0,0,1,-1,1,1,1500.0
17:28:13.471,AUTO,-35.3632622,149.1652375,49,-0.0010810784297063947,0.0009755137143656611,0.0222308412194252,0.00026813370641320944,0.0001634813379496336,0.0013918502954766154,0,1,-1000,0,0,1,-1,1,1,1500.0
17:28:13.673,AUTO,-35.3632622,149.1652375,49,-0.0010810784297063947,0.0009755137143656611,0.0222308412194252,0.00026813370641320944,0.0001634813379496336,0.0013918502954766154,0,1,-1000,0,0,1,-1,1,1,1500.0
17:28:13.878,AUTO,-35.3632622,149.1652375,5,-0.0011696735164150596,0.0009981165640056133,0.022045619785785675,0.0002550237695686519,0.0003605860401876271,0.001435629092156887,0,1,-1000,0,0,0,-1,1,1,1500.0
17:28:14.079,AUTO,-35.3632622,149.1652375,4,-0.0011698117014020681,0.0010132377501577139,0.021999653428792953,0.00029218551935628057,0.0003528253873810172,0.0015261565567925572,0,1,-1000,0,1,1,-1,1,1,1500.0
17:28:14.286,AUTO,-35.3632621,149.1652375,4,-0.0011691887630149722,0.0010338738793507218,0.02195153757929802,0.0003211865550838411,0.0002769191632978618,0.0015845925081521273,0,1,-1000,0,1,1,0,0,1,1500.0
17:28:14.487,AUTO,-35.3632621,149.1652375,3,-0.001145268906839192,0.0010709427297115326,0.021894678473472595,0.000204848765861243,0.00023814401356503367,0.0015660410281270742,0,1,-1000,1,1,1,0,0,1,158986.0
17:28:14.689,AUTO,-35.3632621,149.1652375,3,-0.0011128151090815663,0.0011214017868041992,0.02184854820370674,0.00023561326088383794,0.00023700756719335914,0.0014541627606377006,0,2,-1000,0,1,1,0,0,1,158986.0
17:28:14.891,AUTO,-35.3632621,149.1652375,3,-0.0011128151090815663,0.0011214017868041992,0.02184854820370674,0.00023561326088383794,0.00023700756719335914,0.0014541627606377006,0,2,-1000,0,1,1,0,0,1,158986.0
17:28:15.092,AUTO,-35.3632621,149.1652375,2,-0.0010762418387457728,0.0011699554743245244,0.021796636283397675,0.0002544528106227517,0.0002873224439099431,0.0014809616841375828,0,1,-1000,0,1,0,0,0,0,158986.0
17:28:15.294,AUTO,-35.3632621,149.1652375,2,-0.0010762418387457728,0.0011699554743245244,0.021796636283397675,0.0002544528106227517,0.0002873224439099431,0.0014809616841375828,0,1,-1000,0,1,0,0,0,0,158986.0
17:28:15.495,AUTO,-35.3632621,149.1652375,2,-0.0010762418387457728,0.0011699554743245244,0.021796636283397675,0.0002544528106227517,0.0002873224439099431,0.0014809616841375828,0,1,-1000,0,1,0,0,0,0,158986.0
17:28:15.697,AUTO,-35.3632621,149.1652374,14,-0.0009338727686554193,0.0013483039801940322,0.02164432592689991,0.00029520137468352914,0.00017965532606467605,0.0014399646315723658,0,2,-1000,0,1,1,0,-2,-3,158986.0
17:28:15.898,AUTO,-35.3632621,149.1652374,14,-0.0009338727686554193,0.0013483039801940322,0.02164432592689991,0.00029520137468352914,0.00017965532606467605,0.0014399646315723658,0,2,-1000,0,1,1,0,-2,-3,158986.0
17:28:16.100,AUTO,-35.3632621,149.1652374,17,-0.0008828236605040729,0.0014186210464686155,0.02159719169139862,0.00031892902916297317,0.0003190211718901992,0.0014045838033780456,0,1,-1000,1,0,0,0,-1,-3,158986.0
17:28:16.302,AUTO,-35.3632621,149.1652374,18,-0.000831437879242003,0.0014912255574017763,0.021544521674513817,0.00032224785536527634,0.0003028517821803689,0.0014494641218334436,0,1,-1000,1,0,0,0,-1,-3,158986.0
17:28:16.503,AUTO,-35.3632621,149.1652374,19,-0.0007785635534673929,0.0015560039319097996,0.021496305242180824,0.00029067229479551315,0.000321683706715703,0.0015139487804844975,0,2,-1000,0,1,0,0,0,-2,158986.0
17:28:16.705,AUTO,-35.3632621,149.1652374,20,-0.0007171498727984726,0.001633643638342619,0.021436799317598343,0.00035324780037626624,0.00037652638275176287,0.0013400353491306305,0,1,-1000,0,0,1,0,0,-2,158986.0
17:28:16.907,AUTO,-35.3632621,149.1652374,20,-0.0007171498727984726,0.001633643638342619,0.021436799317598343,0.00035324780037626624,0.00037652638275176287,0.0013400353491306305,0,1,-1000,0,0,1,0,0,-2,158986.0
17:28:17.108,AUTO,-35.3632621,149.1652375,20,-0.0006486631464213133,0.0017146494938060641,0.021374886855483055,0.0002836845815181732,0.00026949559105560184,0.001357401255518198,0,1,-1000,0,1,1,0,0,-2,158986.0
17:28:17.310,AUTO,-35.3632621,149.1652375,20,-0.0006486631464213133,0.0017146494938060641,0.021374886855483055,0.0002836845815181732,0.00026949559105560184,0.001357401255518198,0,1,-1000,0,1,1,0,0,-2,158986.0
17:28:17.512,AUTO,-35.3632621,149.1652375,20,-0.0006486631464213133,0.0017146494938060641,0.021374886855483055,0.0002836845815181732,0.00026949559105560184,0.001357401255518198,0,1,-1000,0,1,1,0,0,-2,158986.0
17:28:17.713,AUTO,-35.3632621,149.1652374,234,0.0002680938923731446,0.0002659427700564265,0.02110818400979042,-0.0006464958423748612,0.005341595970094204,0.0020927421282976866,0,0,-1130,0,6,1,0,0,-77,158986.0
17:28:17.915,AUTO,-35.3632621,149.1652374,234,0.0002680938923731446,0.0002659427700564265,0.02110818400979042,-0.0006464958423748612,0.005341595970094204,0.0020927421282976866,0,0,-1130,0,6,1,0,0,-77,158986.0
17:28:18.116,AUTO,-35.3632621,149.1652374,457,7.285392348421738e-05,0.0011470385361462831,0.021097851917147636,-0.0001458129845559597,0.0030158357694745064,0.0005998302367515862,0,0,-1108,0,3,0,0,0,-105,158986.0
17:28:18.318,AUTO,-35.3632621,149.1652374,748,0.0011311303824186325,0.0015083622420206666,0.020939435809850693,0.023233337327837944,-0.0005109233316034079,-0.00010990435839630663,0,0,-1083,23,0,0,0,0,-128,100852.0
17:28:18.520,AUTO,-35.3632621,149.1652374,1091,0.012138869613409042,0.00042818280053325,0.020786762237548828,0.048387311398983,-0.005758598446846008,0.001614643493667245,0,0,-1036,49,-4,1,0,1,-141,100852.0
17:28:18.722,AUTO,-35.3632621,149.1652374,1460,0.024071473628282547,-0.001219303929246962,0.020840145647525787,0.0473003052175045,-0.007120021153241396,0.002350812777876854,0,0,-1015,47,-6,2,0,5,-146,100852.0
17:28:18.924,AUTO,-35.363262,149.1652376,1839,0.0355696976184845,-0.0030518474522978067,0.02102554775774479,0.04504091665148735,-0.007318718358874321,0.002864209469407797,0,-1,-1006,45,-6,2,1,12,-149,100852.0
17:28:19.126,AUTO,-35.363262,149.1652376,1839,0.0355696976184845,-0.0030518474522978067,0.02102554775774479,0.04504091665148735,-0.007318718358874321,0.002864209469407797,0,-1,-1006,45,-6,2,1,12,-149,100852.0
17:28:19.328,AUTO,-35.363262,149.1652376,1839,0.0355696976184845,-0.0030518474522978067,0.02102554775774479,0.04504091665148735,-0.007318718358874321,0.002864209469407797,0,-1,-1006,45,-6,2,1,12,-149,100852.0
17:28:19.529,AUTO,-35.363262,149.1652376,1839,0.0355696976184845,-0.0030518474522978067,0.02102554775774479,0.04504091665148735,-0.007318718358874321,0.002864209469407797,0,-1,-1006,45,-6,2,1,12,-149,100852.0
17:28:19.731,AUTO,-35.3632616,149.1652396,2992,0.061712395399808884,-0.007837081328034401,-0.008249800652265549,-0.027930108830332756,0.03594735637307167,-0.060434430837631226,0,-9,-991,-27,36,-60,8,45,-148,100852.0
17:28:19.932,AUTO,-35.3632614,149.1652409,3371,0.03687069192528725,0.015230339020490646,-0.03143269568681717,-0.1570037603378296,0.0829702764749527,-0.09474939107894897,3,-13,-991,-156,83,-95,9,54,-145,100852.0
17:28:20.134,AUTO,-35.3632614,149.1652409,3371,0.03687069192528725,0.015230339020490646,-0.03143269568681717,-0.1570037603378296,0.0829702764749527,-0.09474939107894897,3,-13,-991,-156,83,-95,9,54,-145,100852.0
17:28:20.336,AUTO,-35.3632612,149.1652424,3753,-0.0052866749465465546,0.022657884284853935,-0.05025801807641983,-0.11748269200325012,-0.005115649197250605,-0.06274238973855972,6,-12,-1009,-117,-4,-62,6,54,-145,100852.0
17:28:20.537,AUTO,-35.363261,149.1652437,4132,-0.022684866562485695,0.017862334847450256,-0.06253421306610107,-0.03919767960906029,-0.020528556779026985,-0.050351228564977646,5,-10,-1010,-38,-19,-50,2,47,-148,100852.0
17:28:20.739,AUTO,-35.363261,149.1652449,4515,-0.031238911673426628,0.012678625993430614,-0.07203458249568939,-0.04135105013847351,-0.018209317699074745,-0.03863071650266647,5,-7,-1003,-40,-17,-39,0,38,-149,100852.0
17:28:20.941,AUTO,-35.3632609,149.1652457,4900,-0.047117967158555984,0.006721291691064835,-0.07855518162250519,-0.07759801298379898,-0.025942396372556686,-0.02418128028512001,4,-7,-1000,-76,-25,-24,0,26,-149,100852.0
17:28:21.143,AUTO,-35.3632609,149.1652457,4900,-0.047117967158555984,0.006721291691064835,-0.07855518162250519,-0.07759801298379898,-0.025942396372556686,-0.02418128028512001,4,-7,-1000,-76,-25,-24,0,26,-149,100852.0
17:28:21.345,AUTO,-35.3632609,149.1652457,4900,-0.047117967158555984,0.006721291691064835,-0.07855518162250519,-0.07759801298379898,-0.025942396372556686,-0.02418128028512001,4,-7,-1000,-76,-25,-24,0,26,-149,100852.0
17:28:21.547,AUTO,-35.3632609,149.1652457,4900,-0.047117967158555984,0.006721291691064835,-0.07855518162250519,-0.07759801298379898,-0.025942396372556686,-0.02418128028512001,4,-7,-1000,-76,-25,-24,0,26,-149,100852.0
17:28:21.748,AUTO,-35.363261,149.1652458,6042,-0.07235948741436005,-0.005908654071390629,-0.08902407437562943,0.051048118621110916,-0.0036990696098655462,-0.010403631255030632,-2,4,-1002,51,-2,-10,-1,-28,-149,100852.0
17:28:21.950,AUTO,-35.363261,149.1652448,6426,-0.058720316737890244,-0.006174902431666851,-0.09163352847099304,0.05731850862503052,0.00213073194026947,-0.0063752830028533936,-4,7,-1000,57,2,-6,-2,-43,-149,100852.0
17:28:22.152,AUTO,-35.363261,149.1652448,6426,-0.058720316737890244,-0.006174902431666851,-0.09163352847099304,0.05731850862503052,0.00213073194026947,-0.0063752830028533936,-4,7,-1000,57,2,-6,-2,-43,-149,100852.0
17:28:22.353,AUTO,-35.3632611,149.1652434,6809,-0.04388180002570152,-0.004872988443821669,-0.09354250133037567,0.06170105189085007,0.007756429724395275,-0.003450726391747594,-5,8,-1001,62,8,-3,-2,-54,-149,200.0
17:28:22.555,AUTO,-35.3632611,149.1652418,7191,-0.028051402419805527,-0.002370825270190835,-0.09477434307336807,0.06589726358652115,0.01183540839701891,-0.0013373543042689562,-7,12,-1002,66,12,-1,-3,-60,-149,200.0
17:28:22.757,AUTO,-35.3632612,149.1652401,7576,-0.011677520349621773,0.0008784819510765374,-0.095187246799469,0.06638919562101364,0.013873334974050522,0.001014291075989604,-6,9,-1003,67,14,0,-5,-62,-150,200.0
17:28:22.959,AUTO,-35.3632614,149.1652384,7963,0.005144139286130667,0.004410041030496359,-0.09496023505926132,0.06687409430742264,0.01373320259153843,0.0029079802334308624,-8,15,-1004,67,14,2,-7,-60,-151,200.0
17:28:23.161,AUTO,-35.3632614,149.1652384,7963,0.005144139286130667,0.004410041030496359,-0.09496023505926132,0.06687409430742264,0.01373320259153843,0.0029079802334308624,-8,15,-1004,67,14,2,-7,-60,-151,200.0
17:28:23.362,AUTO,-35.3632614,149.1652384,7963,0.005144139286130667,0.004410041030496359,-0.09496023505926132,0.06687409430742264,0.01373320259153843,0.0029079802334308624,-8,15,-1004,67,14,2,-7,-60,-151,200.0
17:28:23.564,AUTO,-35.3632614,149.1652384,7963,0.005144139286130667,0.004410041030496359,-0.09496023505926132,0.06687409430742264,0.01373320259153843,0.0029079802334308624,-8,15,-1004,67,14,2,-7,-60,-151,200.0
17:28:23.766,AUTO,-35.3632621,149.1652342,9143,0.05476861819624901,0.011790221557021141,-0.09154054522514343,0.06269627809524536,0.003614271292462945,0.005122618284076452,-4,12,-1002,63,4,4,-14,-29,-153,200.0
17:28:23.967,AUTO,-35.3632624,149.1652336,9536,0.06977848708629608,0.011728480458259583,-0.0902644619345665,0.058927975594997406,-0.0025440596509724855,0.005108778364956379,0,6,-1001,59,-1,4,-15,-13,-153,200.0
17:28:24.169,AUTO,-35.3632624,149.1652336,9536,0.06977848708629608,0.011728480458259583,-0.0902644619345665,0.058927975594997406,-0.0025440596509724855,0.005108778364956379,0,6,-1001,59,-1,4,-15,-13,-153,200.0
17:28:24.371,AUTO,-35.3632627,149.1652334,9928,0.07977107167243958,0.006965356878936291,-0.08566460758447647,-0.002839053049683571,-0.0516376793384552,0.05443968251347542,1,3,-994,-2,-50,54,-15,6,-151,200.0
17:28:24.572,AUTO,-35.363263,149.1652337,10315,0.06566441059112549,-0.01897703856229782,-0.06687437742948532,-0.09911007434129715,-0.10181186348199844,0.07689212262630463,3,0,-991,-98,-101,76,-11,23,-149,200.0
17:28:24.774,AUTO,-35.3632632,149.1652343,10696,0.033267565071582794,-0.02970469743013382,-0.05843140557408333,-0.13617007434368134,0.004698794800788164,0.01077316701412201,4,-3,-997,-135,5,10,-2,33,-147,200.0
17:28:24.976,AUTO,-35.3632631,149.1652352,11074,0.0033480573911219835,-0.022884182631969452,-0.06319594383239746,-0.09719299525022507,0.03734415024518967,-0.032147116959095,4,-6,-1003,-96,38,-32,5,34,-147,200.0
17:28:25.178,AUTO,-35.3632631,149.1652352,11074,0.0033480573911219835,-0.022884182631969452,-0.06319594383239746,-0.09719299525022507,0.03734415024518967,-0.032147116959095,4,-6,-1003,-96,38,-32,5,34,-147,200.0
17:28:25.379,AUTO,-35.3632631,149.1652352,11074,0.0033480573911219835,-0.022884182631969452,-0.06319594383239746,-0.09719299525022507,0.03734415024518967,-0.032147116959095,4,-6,-1003,-96,38,-32,5,34,-147,200.0
17:28:25.581,AUTO,-35.3632631,149.1652352,11074,0.0033480573911219835,-0.022884182631969452,-0.06319594383239746,-0.09719299525022507,0.03734415024518967,-0.032147116959095,4,-6,-1003,-96,38,-32,5,34,-147,200.0
17:28:25.783,AUTO,-35.3632624,149.1652371,12224,-0.03195173293352127,-0.002515639876946807,-0.1028519794344902,0.00019047153182327747,0.017225779592990875,-0.05365932732820511,0,-5,-1004,0,18,-53,14,12,-150,200.0
17:28:25.984,AUTO,-35.3632621,149.1652373,12612,-0.029524875804781914,0.0014474225463345647,-0.11649202555418015,0.019196290522813797,0.016255833208560944,-0.049514248967170715,-1,-4,-1003,19,16,-49,14,2,-151,200.0
17:28:26.185,AUTO,-35.3632618,149.1652373,13005,-0.02354309894144535,0.004756287671625614,-0.12856756150722504,0.026228927075862885,0.014111340045928955,-0.041701219975948334,-3,-1,-1001,26,15,-42,12,-4,-151,200.0
17:28:26.387,AUTO,-35.3632618,149.1652373,13005,-0.02354309894144535,0.004756287671625614,-0.12856756150722504,0.026228927075862885,0.014111340045928955,-0.041701219975948334,-3,-1,-1001,26,15,-42,12,-4,-151,300000.0
17:28:26.589,AUTO,-35.3632615,149.1652371,13395,-0.01583734154701233,0.007456205785274506,-0.1383306235074997,0.03483492136001587,0.009979977272450924,-0.033548612147569656,-3,0,-1001,35,10,-34,9,-9,-152,300000.0
17:28:26.790,AUTO,-35.3632613,149.1652369,13784,-0.007448241580277681,0.009612624533474445,-0.14610368013381958,0.035011958330869675,0.007947749458253384,-0.02788781188428402,-3,0,-1001,35,8,-28,6,-12,-152,300000.0
17:28:26.992,AUTO,-35.3632612,149.1652365,14175,0.00031298448448069394,0.01117691770195961,-0.15191325545310974,0.028468819335103035,0.005501022562384605,-0.019537191838026047,-3,1,-1000,29,6,-19,3,-13,-152,300000.0
17:28:27.194,AUTO,-35.3632612,149.1652365,14175,0.00031298448448069394,0.01117691770195961,-0.15191325545310974,0.028468819335103035,0.005501022562384605,-0.019537191838026047,-3,1,-1000,29,6,-19,3,-13,-152,300000.0
17:28:27.395,AUTO,-35.3632612,149.1652365,14175,0.00031298448448069394,0.01117691770195961,-0.15191325545310974,0.028468819335103035,0.005501022562384605,-0.019537191838026047,-3,1,-1000,29,6,-19,3,-13,-152,300000.0
17:28:27.597,AUTO,-35.3632612,149.1652365,14175,0.00031298448448069394,0.01117691770195961,-0.15191325545310974,0.028468819335103035,0.005501022562384605,-0.019537191838026047,-3,1,-1000,29,6,-19,3,-13,-152,300000.0
17:28:27.798,AUTO,-35.363261,149.1652355,15340,0.011899759992957115,0.01086918544024229,-0.16006648540496826,0.0031221515964716673,-0.004115906544029713,-0.006491362117230892,-1,1,-999,3,-3,-6,-3,-6,-151,300000.0
17:28:28.000,AUTO,-35.363261,149.1652354,15730,0.01243946235626936,0.009696499444544315,-0.16114169359207153,-0.001356988912448287,-0.004517214838415384,-0.00408903555944562,0,1,-999,0,-3,-4,-4,-3,-151,300000.0
17:28:28.201,AUTO,-35.3632611,149.1652353,16118,0.0115113640204072,0.008159143850207329,-0.16199706494808197,-0.0052467891946434975,-0.00544070964679122,-0.0037284770514816046,0,1,-999,-4,-4,-3,-6,0,-151,300000.0
17:28:28.403,AUTO,-35.3632611,149.1652353,16118,0.0115113640204072,0.008159143850207329,-0.16199706494808197,-0.0052467891946434975,-0.00544070964679122,-0.0037284770514816046,0,1,-999,-4,-4,-3,-6,0,-151,300000.0
17:28:28.604,AUTO,-35.3632612,149.1652353,16507,0.010128151625394821,0.006806408986449242,-0.16326625645160675,-0.005641805939376354,-0.005378819070756435,-0.004638114012777805,0,0,-1000,-5,-4,-4,-6,2,-151,300000.0
17:28:28.806,AUTO,-35.3632613,149.1652352,16896,0.008169995620846748,0.005449910182505846,-0.16501925885677338,-0.0074129896238446236,-0.004388300236314535,-0.009185509756207466,0,0,-1000,-6,-3,-9,-6,4,-151,300000.0
17:28:29.007,AUTO,-35.3632614,149.1652353,17284,0.006141441874206066,0.004612931981682777,-0.16765974462032318,-0.008172382600605488,-0.0015908714849501848,-0.00937338825315237,1,0,-1000,-7,0,-9,-6,5,-151,300000.0
17:28:29.209,AUTO,-35.3632614,149.1652353,17284,0.006141441874206066,0.004612931981682777,-0.16765974462032318,-0.008172382600605488,-0.0015908714849501848,-0.00937338825315237,1,0,-1000,-7,0,-9,-6,5,-151,300000.0
17:28:29.411,AUTO,-35.3632614,149.1652353,17284,0.006141441874206066,0.004612931981682777,-0.16765974462032318,-0.008172382600605488,-0.0015908714849501848,-0.00937338825315237,1,0,-1000,-7,0,-9,-6,5,-151,300000.0
17:28:29.613,AUTO,-35.3632614,149.1652353,17284,0.006141441874206066,0.004612931981682777,-0.16765974462032318,-0.008172382600605488,-0.0015908714849501848,-0.00937338825315237,1,0,-1000,-7,0,-9,-6,5,-151,300000.0
17:28:29.814,AUTO,-35.3632617,149.1652356,18450,0.002303219633176923,0.0019621476531028748,-0.17829236388206482,-0.004219694994390011,-0.0019161284435540438,-0.017651867121458054,1,0,-1000,-3,-1,-17,-5,6,-151,300000.0
17:28:30.016,AUTO,-35.3632617,149.1652357,18838,0.0016707710456103086,0.001382172224111855,-0.18263152241706848,0.00060521240811795,-0.001148981973528862,-0.017717480659484863,1,0,-1001,1,0,-18,-4,6,-152,300000.0
17:28:30.217,AUTO,-35.3632618,149.1652358,19228,0.0012326694559305906,0.0012000264832749963,-0.1874931901693344,-0.0018066964112222195,0.0002401340752840042,-0.019144199788570404,1,0,-1000,-1,0,-19,-4,5,-152,300000.0
17:28:30.419,AUTO,-35.3632618,149.1652358,19228,0.0012326694559305906,0.0012000264832749963,-0.1874931901693344,-0.0018066964112222195,0.0002401340752840042,-0.019144199788570404,1,0,-1000,-1,0,-19,-4,5,-152,70849.0
17:28:30.620,AUTO,-35.3632618,149.1652359,19617,0.0007609476451762021,0.0012125553330406547,-0.1927165985107422,-0.001304707257077098,0.0007615734357386827,-0.022430885583162308,0,0,-1000,0,1,-22,-3,5,-152,70849.0
17:28:30.822,AUTO,-35.3632619,149.165236,20006,0.0007755483384244144,0.0012159080943092704,-0.19810771942138672,0.00024729338474571705,0.0009688492282293737,-0.02378443442285061,0,0,-1000,1,1,-24,-3,4,-152,70849.0
17:28:31.024,AUTO,-35.3632619,149.1652361,20396,0.0005329209379851818,0.0013517431216314435,-0.20363421738147736,-0.0013726818142458797,0.0018124992493540049,-0.022396882995963097,0,0,-1000,0,2,-22,-2,4,-152,70849.0
17:28:31.225,AUTO,-35.3632619,149.1652361,20396,0.0005329209379851818,0.0013517431216314435,-0.20363421738147736,-0.0013726818142458797,0.0018124992493540049,-0.022396882995963097,0,0,-1000,0,2,-22,-2,4,-152,70849.0
17:28:31.427,AUTO,-35.3632619,149.1652361,20396,0.0005329209379851818,0.0013517431216314435,-0.20363421738147736,-0.0013726818142458797,0.0018124992493540049,-0.022396882995963097,0,0,-1000,0,2,-22,-2,4,-152,70849.0
17:28:31.628,AUTO,-35.3632619,149.1652361,20396,0.0005329209379851818,0.0013517431216314435,-0.20363421738147736,-0.0013726818142458797,0.0018124992493540049,-0.022396882995963097,0,0,-1000,0,2,-22,-2,4,-152,70849.0
17:28:31.830,AUTO,-35.3632619,149.1652362,21564,0.0014018436195328832,0.0017685191705822945,-0.21988461911678314,0.0014605181058868766,0.000877318496350199,-0.021571863442659378,0,0,-1000,2,1,-21,-1,3,-152,70849.0
17:28:32.031,AUTO,-35.3632619,149.1652362,21954,0.0016714725643396378,0.002120636636391282,-0.22539979219436646,0.0004329101648181677,0.003986069466918707,-0.02288924902677536,0,0,-1000,1,4,-23,-1,3,-152,70849.0
17:28:32.233,AUTO,-35.3632619,149.1652363,22347,0.0020299223251640797,0.002585496287792921,-0.23089741170406342,0.0015814295038580894,0.001727467868477106,-0.02258354052901268,0,0,-1000,2,2,-22,-1,2,-152,70849.0
17:28:32.434,AUTO,-35.3632619,149.1652363,22736,0.00225278758443892,0.0030709977727383375,-0.2363898605108261,0.002177890855818987,0.001473971176892519,-0.021342163905501366,0,0,-1000,2,2,-21,-1,2,-152,70849.0
17:28:32.636,AUTO,-35.3632619,149.1652363,22736,0.00225278758443892,0.0030709977727383375,-0.2363898605108261,0.002177890855818987,0.001473971176892519,-0.021342163905501366,0,0,-1000,2,2,-21,-1,2,-152,70849.0
17:28:32.837,AUTO,-35.3632619,149.1652363,23126,0.002647085813805461,0.0031942555215209723,-0.24159285426139832,0.0022089702542871237,0.0006847869954071939,-0.020525533705949783,0,0,-1000,3,1,-20,-1,3,-152,70849.0
17:28:33.039,AUTO,-35.3632619,149.1652363,23516,0.002570288721472025,0.003247053362429142,-0.24668700993061066,0.0006489834631793201,0.0016450518742203712,-0.020286554470658302,0,0,-1000,1,2,-20,-1,3,-152,70849.0
17:28:33.241,AUTO,-35.3632619,149.1652363,23516,0.002570288721472025,0.003247053362429142,-0.24668700993061066,0.0006489834631793201,0.0016450518742203712,-0.020286554470658302,0,0,-1000,1,2,-20,-1,3,-152,70849.0
17:28:33.443,AUTO,-35.3632619,149.1652363,23516,0.002570288721472025,0.003247053362429142,-0.24668700993061066,0.0006489834631793201,0.0016450518742203712,-0.020286554470658302,0,0,-1000,1,2,-20,-1,3,-152,70849.0
17:28:33.644,AUTO,-35.3632619,149.1652363,23516,0.002570288721472025,0.003247053362429142,-0.24668700993061066,0.0006489834631793201,0.0016450518742203712,-0.020286554470658302,0,0,-1000,1,2,-20,-1,3,-152,70849.0
17:28:33.846,AUTO,-35.3632619,149.1652365,24680,0.0016290396451950073,0.0029281743336468935,-0.2610088586807251,-0.0005963094299659133,-0.0007826177752576768,-0.02153698541224003,0,0,-1000,0,0,-21,-1,3,-152,70849.0
17:28:34.047,AUTO,-35.363262,149.1652365,25069,-0.0034156639594584703,0.003019224386662245,-0.2648788392543793,-0.1093449741601944,0.009164071641862392,-0.005874326918274164,0,-1,-983,-108,9,-6,-1,3,-151,70849.0
17:28:34.249,AUTO,-35.363262,149.1652365,25455,-0.012560168281197548,0.005316160153597593,-0.26449641585350037,0.003134719794616103,0.0063488418236374855,0.007016658317297697,0,0,-1003,3,7,6,-2,0,-151,70849.0
17:28:34.450,AUTO,-35.363262,149.1652364,25843,-0.005300417542457581,0.0057210358791053295,-0.2615188956260681,0.03734137490391731,-0.0022355206310749054,0.015611697919666767,0,0,-1003,37,-1,15,-4,-1,-152,203623.0
17:28:34.652,AUTO,-35.363262,149.1652364,25843,-0.005300417542457581,0.0057210358791053295,-0.2615188956260681,0.03734137490391731,-0.0022355206310749054,0.015611697919666767,0,0,-1003,37,-1,15,-4,-1,-152,203623.0
17:28:34.854,AUTO,-35.3632621,149.1652364,26232,0.0027985309716314077,0.0050394898280501366,-0.2566011846065521,0.02913884073495865,-0.0016793332761153579,0.022903285920619965,0,1,-1000,29,0,22,-5,-1,-152,203623.0
17:28:35.055,AUTO,-35.3632621,149.1652364,26621,0.00814586691558361,0.004354001022875309,-0.2503805458545685,0.015466847456991673,-0.0028369897045195103,0.028259551152586937,0,1,-999,16,-1,28,-5,0,-152,203623.0
17:28:35.257,AUTO,-35.3632621,149.1652364,26621,0.00814586691558361,0.004354001022875309,-0.2503805458545685,0.015466847456991673,-0.0028369897045195103,0.028259551152586937,0,1,-999,16,-1,28,-5,0,-152,203623.0
17:28:35.459,AUTO,-35.3632621,149.1652364,26621,0.00814586691558361,0.004354001022875309,-0.2503805458545685,0.015466847456991673,-0.0028369897045195103,0.028259551152586937,0,1,-999,16,-1,28,-5,0,-152,203623.0
17:28:35.660,AUTO,-35.3632621,149.1652364,26621,0.00814586691558361,0.004354001022875309,-0.2503805458545685,0.015466847456991673,-0.0028369897045195103,0.028259551152586937,0,1,-999,16,-1,28,-5,0,-152,203623.0
17:28:35.862,AUTO,-35.3632623,149.1652364,27787,0.009629562497138977,0.0017577833496034145,-0.23097635805606842,-0.002129468135535717,-0.0008087106980383396,0.02449442446231842,0,0,-999,-1,0,24,-3,6,-152,203623.0
17:28:36.064,AUTO,-35.3632624,149.1652365,28176,0.008010565303266048,0.0016267913160845637,-0.22529584169387817,-0.007111833430826664,0.0015680139185860753,0.02226608619093895,0,0,-999,-6,2,22,-2,7,-152,203623.0
17:28:36.265,AUTO,-35.3632624,149.1652367,28563,0.005887520965188742,0.0017079462995752692,-0.219728484749794,-0.009567131288349628,0.0009903497993946075,0.023230675607919693,1,-1,-999,-8,1,23,-1,8,-152,203623.0
17:28:36.467,AUTO,-35.3632624,149.1652369,28950,0.003755737328901887,0.0017273547127842903,-0.21433159708976746,-0.004135440103709698,-0.0007577979704365134,0.02228810079395771,1,0,-1001,-3,0,21,-1,9,-152,203623.0
17:28:36.668,AUTO,-35.3632624,149.1652369,28950,0.003755737328901887,0.0017273547127842903,-0.21433159708976746,-0.004135440103709698,-0.0007577979704365134,0.02228810079395771,1,0,-1001,-3,0,21,-1,9,-152,203623.0
17:28:36.870,AUTO,-35.3632624,149.1652371,29338,0.0016205506399273872,0.001631259685382247,-0.20931388437747955,-0.008349278010427952,-0.0007622039993293583,0.01988985762000084,0,-1,-1000,-7,0,19,0,9,-152,203623.0
17:28:37.071,AUTO,-35.3632624,149.1652372,29726,0.0001748484355630353,0.001525845262221992,-0.20434565842151642,-0.0039045317098498344,0.001153313321992755,0.02141699753701687,0,-1,-1000,-3,2,21,0,8,-152,203623.0
17:28:37.273,AUTO,-35.3632624,149.1652372,29726,0.0001748484355630353,0.001525845262221992,-0.20434565842151642,-0.0039045317098498344,0.001153313321992755,0.02141699753701687,0,-1,-1000,-3,2,21,0,8,-152,203623.0
17:28:37.474,AUTO,-35.3632624,149.1652372,29726,0.0001748484355630353,0.001525845262221992,-0.20434565842151642,-0.0039045317098498344,0.001153313321992755,0.02141699753701687,0,-1,-1000,-3,2,21,0,8,-152,203623.0
17:28:37.676,AUTO,-35.3632624,149.1652372,29726,0.0001748484355630353,0.001525845262221992,-0.20434565842151642,-0.0039045317098498344,0.001153313321992755,0.02141699753701687,0,-1,-1000,-3,2,21,0,8,-152,203623.0
17:28:37.878,AUTO,-35.3632624,149.1652377,30889,-0.0019037388265132904,0.0016928272088989615,-0.19041283428668976,0.0014549316838383675,-0.0006447610212489963,0.01820964738726616,0,0,-1000,2,0,18,0,5,-152,203623.0
17:28:38.079,AUTO,-35.3632624,149.1652378,31277,-0.0017631258815526962,0.0013385521015152335,-0.18587665259838104,0.0028714893851429224,0.00044446683023124933,0.019964871928095818,0,0,-1000,3,1,19,0,4,-152,203623.0
17:28:38.280,AUTO,-35.3632624,149.1652378,31670,-0.0017295886063948274,0.0013083016965538263,-0.1816329061985016,-7.797795115038753e-05,-0.0008247891091741621,0.018419316038489342,0,0,-1000,0,0,18,0,3,-152,203623.0
17:28:38.482,AUTO,-35.3632624,149.1652379,32058,-0.001465347595512867,0.0011930676409974694,-0.17766276001930237,0.0024340436793863773,0.0004877708852291107,0.014926283620297909,0,0,-1000,3,1,15,0,2,-152,200.0
17:28:38.683,AUTO,-35.3632623,149.1652379,32446,-0.0010142710525542498,0.0013628540327772498,-0.17393836379051208,0.001385713811032474,0.00056700618006289,0.015533511526882648,0,0,-1000,2,1,15,0,1,-152,200.0
17:28:38.885,AUTO,-35.3632623,149.1652379,32446,-0.0010142710525542498,0.0013628540327772498,-0.17393836379051208,0.001385713811032474,0.00056700618006289,0.015533511526882648,0,0,-1000,2,1,15,0,1,-152,200.0
17:28:39.087,AUTO,-35.3632623,149.1652379,32835,-0.0007597612566314638,0.001334010623395443,-0.17038437724113464,0.00240675313398242,0.0010450994595885277,0.014841794967651367,0,0,-1000,3,2,15,0,1,-152,200.0
17:28:39.293,AUTO,-35.3632623,149.1652379,32835,-0.0007597612566314638,0.001334010623395443,-0.17038437724113464,0.00240675313398242,0.0010450994595885277,0.014841794967651367,0,0,-1000,3,2,15,0,1,-152,200.0
17:28:39.495,AUTO,-35.3632623,149.1652379,32835,-0.0007597612566314638,0.001334010623395443,-0.17038437724113464,0.00240675313398242,0.0010450994595885277,0.014841794967651367,0,0,-1000,3,2,15,0,1,-152,200.0
17:28:39.697,AUTO,-35.3632623,149.1652379,33999,0.0004522522212937474,0.001480407197959721,-0.15983566641807556,0.00014770426787436008,0.001095993909984827,0.014166219159960747,0,0,-999,1,2,14,0,0,-152,200.0
17:28:39.898,AUTO,-35.3632623,149.1652379,33999,0.0004522522212937474,0.001480407197959721,-0.15983566641807556,0.00014770426787436008,0.001095993909984827,0.014166219159960747,0,0,-999,1,2,14,0,0,-152,200.0
17:28:40.100,AUTO,-35.3632623,149.1652379,34387,0.0006197611219249666,0.0012372451601549983,-0.15683607757091522,0.003789398353546858,-0.0005578042473644018,0.01236056350171566,0,0,-1001,4,0,12,0,0,-152,200.0
17:28:40.301,AUTO,-35.3632623,149.1652378,34776,0.000724109064321965,0.001232881797477603,-0.1537027806043625,-0.0026138308458030224,0.0002722438075579703,0.013081157580018044,0,0,-999,-1,1,13,0,0,-152,200.0
17:28:40.503,AUTO,-35.3632622,149.1652378,35164,0.0007970575243234634,0.0011181392474099994,-0.15069067478179932,0.0020664785988628864,-0.00041240238351747394,0.011740226298570633,0,0,-1001,3,0,11,0,0,-152,200.0
17:28:40.704,AUTO,-35.3632622,149.1652377,35552,0.0010633395286276937,0.0010207531740888953,-0.1477573662996292,0.0055898502469062805,0.0008399122743867338,0.013703994452953339,0,0,-1000,6,1,13,0,0,-152,200.0
17:28:40.906,AUTO,-35.3632622,149.1652377,35552,0.0010633395286276937,0.0010207531740888953,-0.1477573662996292,0.0055898502469062805,0.0008399122743867338,0.013703994452953339,0,0,-1000,6,1,13,0,0,-152,200.0
17:28:41.108,AUTO,-35.3632622,149.1652377,35941,0.0013435372384265065,0.0010377347934991121,-0.14509056508541107,-0.0011457502841949463,0.0003436646657064557,0.010793197900056839,0,0,-999,0,1,10,0,0,-152,200.0
17:28:41.309,AUTO,-35.3632622,149.1652377,35941,0.0013435372384265065,0.0010377347934991121,-0.14509056508541107,-0.0011457502841949463,0.0003436646657064557,0.010793197900056839,0,0,-999,0,1,10,0,0,-152,200.0
17:28:41.511,AUTO,-35.3632622,149.1652377,35941,0.0013435372384265065,0.0010377347934991121,-0.14509056508541107,-0.0011457502841949463,0.0003436646657064557,0.010793197900056839,0,0,-999,0,1,10,0,0,-152,200.0
17:28:41.713,AUTO,-35.3632622,149.1652376,37105,0.0015949358930811286,0.0015121516771614552,-0.1372770518064499,0.0006698780925944448,0.0011137583060190082,0.01246057078242302,0,0,-1000,1,2,12,0,0,-152,200.0
17:28:41.914,AUTO,-35.3632622,149.1652376,37105,0.0015949358930811286,0.0015121516771614552,-0.1372770518064499,0.0006698780925944448,0.0011137583060190082,0.01246057078242302,0,0,-1000,1,2,12,0,0,-152,200.0
17:28:42.115,AUTO,-35.3632622,149.1652375,37493,0.0016773195238783956,0.001429181662388146,-0.13458769023418427,0.0011118248803541064,0.003339140908792615,0.01089125219732523,0,0,-999,2,4,10,0,0,-152,200.0
17:28:42.317,AUTO,-35.3632621,149.1652375,37882,0.0014546283055096865,0.001691945013590157,-0.13199840486049652,-0.0018676134059205651,-0.00023626215988770127,0.010027297772467136,0,0,-1000,-1,0,10,0,0,-152,200.0
17:28:42.518,AUTO,-35.3632621,149.1652375,38269,0.001196188386529684,0.0018588877283036709,-0.12988993525505066,-0.001563649158924818,-0.00039852934423834085,0.007583083119243383,0,0,-1000,0,0,7,0,0,-152,98774.0
17:28:42.720,AUTO,-35.3632621,149.1652374,38666,0.0012577343732118607,0.0017854238394647837,-0.12776689231395721,-0.001320909126661718,0.0005230441456660628,0.006146903615444899,0,0,-1000,0,1,6,0,0,-152,98774.0
17:28:42.921,AUTO,-35.3632621,149.1652374,38666,0.0012577343732118607,0.0017854238394647837,-0.12776689231395721,-0.001320909126661718,0.0005230441456660628,0.006146903615444899,0,0,-1000,0,1,6,0,0,-152,98774.0
17:28:43.123,AUTO,-35.3632621,149.1652374,39054,0.0014198313001543283,0.0017644701292738318,-0.12547670304775238,0.0019710990600287914,0.0009010573849081993,0.011005274951457977,0,0,-1000,3,1,10,0,0,-152,98774.0
17:28:43.325,AUTO,-35.3632621,149.1652374,39054,0.0014198313001543283,0.0017644701292738318,-0.12547670304775238,0.0019710990600287914,0.0009010573849081993,0.011005274951457977,0,0,-1000,3,1,10,0,0,-152,98774.0
17:28:43.527,AUTO,-35.3632621,149.1652374,39054,0.0014198313001543283,0.0017644701292738318,-0.12547670304775238,0.0019710990600287914,0.0009010573849081993,0.011005274951457977,0,0,-1000,3,1,10,0,0,-152,98774.0
17:28:43.729,AUTO,-35.3632621,149.1652373,40211,0.0012452935334295034,0.0015312264440581203,-0.1203235387802124,-0.0017803609371185303,0.0009884471073746681,0.009179912507534027,0,0,-999,0,1,9,-1,0,-152,98774.0
17:28:43.930,AUTO,-35.3632621,149.1652373,40211,0.0012452935334295034,0.0015312264440581203,-0.1203235387802124,-0.0017803609371185303,0.0009884471073746681,0.009179912507534027,0,0,-999,0,1,9,-1,0,-152,98774.0
17:28:44.131,AUTO,-35.3632621,149.1652373,40599,0.0014245531056076288,0.0016645899740979075,-0.11845491081476212,0.0006514815613627434,0.001022102078422904,0.010020479559898376,0,0,-1000,1,2,10,-1,0,-152,98774.0
17:28:44.333,AUTO,-35.3632621,149.1652373,40987,0.0014627304626628757,0.0017283963970839977,-0.1165008693933487,-0.0031691216863691807,0.00011205009650439024,0.006538539193570614,0,0,-1000,-2,1,6,-1,0,-152,98774.0
17:28:44.534,AUTO,-35.3632621,149.1652373,41375,0.00137095816899091,0.0015930244699120522,-0.11490923166275024,0.00478236423805356,0.0011161441216245294,0.008342741057276726,0,0,-1000,5,2,8,-1,0,-152,98774.0
17:28:44.736,AUTO,-35.3632621,149.1652373,41764,0.0014897622168064117,0.001622311770915985,-0.11309395730495453,-0.0024623193312436342,0.0005074806977063417,0.007488269358873367,0,0,-999,-1,1,7,-1,0,-152,98774.0
17:28:44.938,AUTO,-35.363262,149.1652372,42151,0.0018232690636068583,0.0017354286974295974,-0.11149749904870987,0.0038116038776934147,0.0023466988932341337,0.00772720854729414,0,0,-1000,4,3,7,-1,1,-152,98774.0
17:28:45.139,AUTO,-35.363262,149.1652372,42151,0.0018232690636068583,0.0017354286974295974,-0.11149749904870987,0.0038116038776934147,0.0023466988932341337,0.00772720854729414,0,0,-1000,4,3,7,-1,1,-152,98774.0
17:28:45.341,AUTO,-35.363262,149.1652372,42151,0.0018232690636068583,0.0017354286974295974,-0.11149749904870987,0.0038116038776934147,0.0023466988932341337,0.00772720854729414,0,0,-1000,4,3,7,-1,1,-152,98774.0
17:28:45.543,AUTO,-35.363262,149.1652372,42151,0.0018232690636068583,0.0017354286974295974,-0.11149749904870987,0.0038116038776934147,0.0023466988932341337,0.00772720854729414,0,0,-1000,4,3,7,-1,1,-152,98774.0
17:28:45.745,AUTO,-35.363262,149.1652372,42151,0.0018232690636068583,0.0017354286974295974,-0.11149749904870987,0.0038116038776934147,0.0023466988932341337,0.00772720854729414,0,0,-1000,4,3,7,-1,1,-152,98774.0
17:28:45.946,AUTO,-35.3632621,149.1652371,43450,-0.043611615896224976,0.05068260431289673,0.018190491944551468,-0.15681132674217224,0.13433603942394257,0.5143494009971619,1,0,-972,-155,135,514,-10,-6,-139,98774.0
17:28:46.148,AUTO,-35.3632624,149.1652367,43793,-0.06265223771333694,0.0706598088145256,0.15050682425498962,-0.01620708964765072,-0.08681095391511917,0.42362508177757263,2,4,-941,-15,-85,423,-23,-21,-128,98774.0
17:28:46.349,AUTO,-35.363263,149.1652359,44100,-0.04204609617590904,0.02921360358595848,0.22781290113925934,0.10818661004304886,-0.21623219549655914,0.21328963339328766,3,8,-941,109,-215,213,-32,-33,-113,98774.0
17:28:46.551,AUTO,-35.3632637,149.1652348,44371,-0.0132514089345932,-0.016934534534811974,0.26395049691200256,0.11470885574817657,-0.1516237109899521,0.0935019850730896,4,9,-948,115,-150,93,-31,-37,-99,300000.0
17:28:46.752,AUTO,-35.3632637,149.1652348,44371,-0.0132514089345932,-0.016934534534811974,0.26395049691200256,0.11470885574817657,-0.1516237109899521,0.0935019850730896,4,9,-948,115,-150,93,-31,-37,-99,300000.0
17:28:46.954,AUTO,-35.3632643,149.1652338,44612,0.010869723744690418,-0.04321420565247536,0.275924950838089,0.08228396624326706,-0.07347127795219421,0.025629304349422455,3,9,-955,83,-72,25,-23,-33,-87,300000.0
17:28:47.156,AUTO,-35.3632647,149.165233,44822,0.027500975877046585,-0.05353183671832085,0.27583378553390503,0.050055522471666336,-0.01964491792023182,-0.0077132913284003735,1,8,-962,51,-18,-7,-13,-23,-77,300000.0
17:28:47.358,AUTO,-35.3632647,149.165233,44822,0.027500975877046585,-0.05353183671832085,0.27583378553390503,0.050055522471666336,-0.01964491792023182,-0.0077132913284003735,1,8,-962,51,-18,-7,-13,-23,-77,300000.0
17:28:47.560,AUTO,-35.3632647,149.165233,44822,0.027500975877046585,-0.05353183671832085,0.27583378553390503,0.050055522471666336,-0.01964491792023182,-0.0077132913284003735,1,8,-962,51,-18,-7,-13,-23,-77,300000.0
17:28:47.761,AUTO,-35.3632647,149.165233,44822,0.027500975877046585,-0.05353183671832085,0.27583378553390503,0.050055522471666336,-0.01964491792023182,-0.0077132913284003735,1,8,-962,51,-18,-7,-13,-23,-77,300000.0
17:28:47.963,AUTO,-35.3632647,149.1652323,45315,0.037976447492837906,-0.0363759845495224,0.25239524245262146,-0.022459767758846283,0.038665883243083954,-0.0346793606877327,-2,-2,-976,-21,39,-34,12,11,-53,300000.0
17:28:48.165,AUTO,-35.3632643,149.1652326,45443,0.03434550017118454,-0.02578490599989891,0.24336965382099152,0.016312086954712868,0.04422447830438614,-0.0323539562523365,-3,-3,-978,17,45,-31,17,19,-47,300000.0
17:28:48.366,AUTO,-35.3632639,149.1652332,45557,0.026891252025961876,-0.014284636825323105,0.2349441647529602,-0.10486607253551483,0.04416745901107788,-0.02970316633582115,-2,-10,-979,-103,45,-29,20,25,-42,300000.0
17:28:48.568,AUTO,-35.3632634,149.1652339,45659,0.018835119903087616,-0.004531558137387037,0.227219358086586,0.01798420026898384,0.03541159629821777,-0.026081588119268417,-2,0,-980,19,36,-25,21,29,-37,300000.0
17:28:48.770,AUTO,-35.3632634,149.1652339,45659,0.018835119903087616,-0.004531558137387037,0.227219358086586,0.01798420026898384,0.03541159629821777,-0.026081588119268417,-2,0,-980,19,36,-25,21,29,-37,300000.0
17:28:48.972,AUTO,-35.3632629,149.1652347,45746,0.017957942560315132,0.003021609503775835,0.22034099698066711,0.1479751169681549,0.02790011465549469,-0.02479410357773304,-2,-10,-976,148,28,-24,20,30,-32,300000.0
17:28:49.173,AUTO,-35.3632624,149.1652355,45816,0.0024007719475775957,0.008890382945537567,0.2135286033153534,-0.6409411430358887,0.025744032114744186,-0.02389795333147049,-1,-37,-968,-640,27,-23,18,30,-24,300000.0
17:28:49.375,AUTO,-35.3632624,149.1652355,45816,0.0024007719475775957,0.008890382945537567,0.2135286033153534,-0.6409411430358887,0.025744032114744186,-0.02389795333147049,-1,-37,-968,-640,27,-23,18,30,-24,300000.0
17:28:49.577,AUTO,-35.3632624,149.1652355,45816,0.0024007719475775957,0.008890382945537567,0.2135286033153534,-0.6409411430358887,0.025744032114744186,-0.02389795333147049,-1,-37,-968,-640,27,-23,18,30,-24,300000.0
17:28:49.778,AUTO,-35.3632614,149.1652374,45916,-0.011424091644585133,0.016692928969860077,0.19792751967906952,-0.5465335845947266,0.0033618351444602013,-0.020176349207758904,0,-17,-987,-545,4,-19,11,23,-9,300000.0
17:28:49.980,AUTO,-35.3632611,149.165238,45929,-0.009973426349461079,0.016655506566166878,0.19270506501197815,0.23988430202007294,0.004662972409278154,-0.017230438068509102,0,27,-964,242,5,-17,8,21,-2,300000.0
17:28:50.181,AUTO,-35.3632611,149.165238,45929,-0.009973426349461079,0.016655506566166878,0.19270506501197815,0.23988430202007294,0.004662972409278154,-0.017230438068509102,0,27,-964,242,5,-17,8,21,-2,200.0
17:28:50.383,AUTO,-35.363261,149.1652386,45917,-0.025226550176739693,0.04263121262192726,0.19195739924907684,0.8313571214675903,0.049806855618953705,-0.03746386244893074,2,30,-938,832,51,-37,3,13,11,200.0
17:28:50.584,AUTO,-35.363261,149.1652388,45874,-0.027289973571896553,0.028932791203260422,0.18610256910324097,0.643913745880127,-0.12106052041053772,-0.01510655414313078,3,7,-1002,644,-119,-14,-3,1,17,200.0
17:28:50.786,AUTO,-35.3632611,149.1652389,45831,-0.029805641621351242,-0.0015088963555172086,0.1798781454563141,-0.19044768810272217,-0.11152003705501556,-0.014727897942066193,0,-29,-998,-190,-110,-14,-4,-7,14,200.0
17:28:50.988,AUTO,-35.3632611,149.1652388,45795,-0.030867215245962143,-0.020933620631694794,0.17394103109836578,-0.7538275718688965,-0.057146888226270676,-0.019888363778591156,-1,-34,-1017,-753,-56,-19,0,-12,10,200.0
17:28:51.189,AUTO,-35.3632611,149.1652388,45795,-0.030867215245962143,-0.020933620631694794,0.17394103109836578,-0.7538275718688965,-0.057146888226270676,-0.019888363778591156,-1,-34,-1017,-753,-56,-19,0,-12,10,200.0
17:28:51.391,AUTO,-35.3632611,149.1652388,45795,-0.030867215245962143,-0.020933620631694794,0.17394103109836578,-0.7538275718688965,-0.057146888226270676,-0.019888363778591156,-1,-34,-1017,-753,-56,-19,0,-12,10,200.0
17:28:51.592,AUTO,-35.3632611,149.1652388,45795,-0.030867215245962143,-0.020933620631694794,0.17394103109836578,-0.7538275718688965,-0.057146888226270676,-0.019888363778591156,-1,-34,-1017,-753,-56,-19,0,-12,10,200.0
17:28:51.795,AUTO,-35.3632601,149.1652376,45731,-0.006819151341915131,-0.060066014528274536,0.1568964421749115,-0.07601989060640335,-0.06023144721984863,-0.001835459377616644,-7,-19,-1016,-76,-58,-1,31,-18,2,200.0
17:28:51.996,AUTO,-35.3632601,149.1652376,45731,-0.006819151341915131,-0.060066014528274536,0.1568964421749115,-0.07601989060640335,-0.06023144721984863,-0.001835459377616644,-7,-19,-1016,-76,-58,-1,31,-18,2,200.0
17:28:52.198,AUTO,-35.3632593,149.1652371,45724,-0.016129588708281517,-0.07543601095676422,0.1524808555841446,-0.6891220808029175,-0.0652989074587822,-0.03847668692469597,-9,-32,-1007,-688,-64,-38,45,-19,0,200.0
17:28:52.399,AUTO,-35.3632582,149.1652367,45717,-0.017086854204535484,-0.09588511288166046,0.09538313001394272,-0.40380728244781494,-0.06231008097529411,-0.3289816379547119,-15,-5,-1008,-402,-61,-328,63,-18,0,200.0
17:28:52.601,AUTO,-35.3632566,149.1652363,45714,-0.004488059319555759,-0.1105118915438652,0.03335300832986832,0.3681395947933197,-0.04224520921707153,-0.1997717171907425,-15,20,-1012,370,-41,-199,84,-19,0,200.0
17:28:52.803,AUTO,-35.3632546,149.1652358,45712,0.004810941871255636,-0.11972484737634659,0.004410310182720423,0.5399771332740784,-0.04234674572944641,-0.07147886604070663,-23,9,-1003,541,-41,-70,107,-21,0,200.0
17:28:53.005,AUTO,-35.3632546,149.1652358,45712,0.004810941871255636,-0.11972484737634659,0.004410310182720423,0.5399771332740784,-0.04234674572944641,-0.07147886604070663,-23,9,-1003,541,-41,-70,107,-21,0,200.0
17:28:53.207,AUTO,-35.363252,149.1652353,45710,0.002343973610550165,-0.13181236386299133,-0.0041899955831468105,-0.08418421447277069,-0.0545927919447422,0.004920599516481161,-27,-32,-997,-84,-53,5,131,-25,0,200.0
17:28:53.409,AUTO,-35.363252,149.1652353,45710,0.002343973610550165,-0.13181236386299133,-0.0041899955831468105,-0.08418421447277069,-0.0545927919447422,0.004920599516481161,-27,-32,-997,-84,-53,5,131,-25,0,200.0
17:28:53.611,AUTO,-35.363252,149.1652353,45710,0.002343973610550165,-0.13181236386299133,-0.0041899955831468105,-0.08418421447277069,-0.0545927919447422,0.004920599516481161,-27,-32,-997,-84,-53,5,131,-25,0,200.0
17:28:53.813,AUTO,-35.3632409,149.1652329,45692,0.010407572612166405,-0.16611476242542267,-0.002847106661647558,0.5123567581176758,-0.04101632162928581,-0.018720325082540512,-46,5,-1000,513,-39,-18,211,-35,1,200.0
17:28:54.015,AUTO,-35.3632409,149.1652329,45692,0.010407572612166405,-0.16611476242542267,-0.002847106661647558,0.5123567581176758,-0.04101632162928581,-0.018720325082540512,-46,5,-1000,513,-39,-18,211,-35,1,200.0
17:28:54.216,AUTO,-35.3632359,149.1652318,45684,0.014190125279128551,-0.17566916346549988,-0.004950617905706167,0.08082520216703415,-0.020158277824521065,0.007143901661038399,-50,-31,-1003,81,-19,7,241,-40,2,300000.0
17:28:54.418,AUTO,-35.3632304,149.1652306,45677,0.015523303300142288,-0.1660030633211136,-0.008444581180810928,-0.40206220746040344,0.09290725737810135,0.0035223730374127626,-55,-45,-1011,-401,93,3,268,-43,1,300000.0
17:28:54.620,AUTO,-35.3632242,149.1652293,45676,0.030460137873888016,-0.12819154560565948,-0.012589535675942898,0.26783087849617004,0.1732448786497116,-0.021151283755898476,-57,-8,-1015,269,174,-20,289,-44,-1,300000.0
17:28:54.822,AUTO,-35.3632176,149.165228,45682,0.0412452407181263,-0.11712672561407089,-0.015301046893000603,0.34980887174606323,-0.07585867494344711,0.005683261435478926,-63,-19,-993,350,-74,6,302,-44,-3,300000.0
17:28:55.024,AUTO,-35.3632176,149.165228,45682,0.0412452407181263,-0.11712672561407089,-0.015301046893000603,0.34980887174606323,-0.07585867494344711,0.005683261435478926,-63,-19,-993,350,-74,6,302,-44,-3,300000.0
