time_stamp,MODE,lat,lon,relative_alt,roll,pitch,yaw,rollspeed,pitchspeed,yawspeed,xacc,yacc,zacc,xgyro,ygyro,zgyro,vx,vy,vz,alt,VFR_HUD_alt,EK2_ALT_SOURCE,RTL_ALT
13:56:02.651,AUTO,-35.3632622,149.1652375,5,-0.0008699414320290089,0.0010011702543124557,0.021727127954363823,0.00023326644441112876,0.00032175384694710374,0.0014567922335118055,0,2,-1000,0,1,0,-1,1,0,583920,583.9199829101562,0.0,1500.0
13:56:02.852,AUTO,-35.363262,149.1652375,1401,0.022240865975618362,-0.0008317902102135122,0.02074732445180416,0.046937137842178345,-0.007176437880843878,0.0023825091775506735,0,0,-1018,47,-6,2,0,5,-144,585320,585.3200073242188,0.0,1500.0
13:56:03.054,AUTO,-35.363262,149.1652375,1401,0.022240865975618362,-0.0008317902102135122,0.02074732445180416,0.046937137842178345,-0.007176437880843878,0.0023825091775506735,0,0,-1018,47,-6,2,0,5,-144,585320,585.3200073242188,0.0,1500.0
13:56:03.255,AUTO,-35.363262,149.1652377,1780,0.03373090550303459,-0.002789438934996724,0.02092289738357067,0.04516992345452309,-0.007819045335054398,0.0030254367738962173,0,-1,-1007,45,-6,2,1,11,-147,585700,585.7000122070312,0.0,1500.0
13:56:03.457,AUTO,-35.3632619,149.1652381,2165,0.044635627418756485,-0.004945250693708658,0.021175457164645195,0.04235554486513138,-0.009113837033510208,0.00322812981903553,0,-2,-1002,43,-8,2,3,20,-148,586080,586.0800170898438,0.0,1500.0
13:56:03.658,AUTO,-35.3632618,149.1652387,2551,0.054801151156425476,-0.007616318296641111,0.021440785378217697,0.03954532742500305,-0.010821639560163021,0.0038675616960972548,1,-5,-1000,40,-10,3,5,30,-148,586470,586.469970703125,0.0,1500.0
13:56:03.859,AUTO,-35.3632616,149.1652397,2936,0.0624222457408905,-0.00938587449491024,-0.007247221190482378,-0.005632583983242512,0.015147770754992962,-0.037606921046972275,0,-7,-992,-5,16,-38,8,42,-147,586850,586.8499755859375,0.0,1500.0
13:56:04.061,AUTO,-35.3632616,149.1652397,2936,0.0624222457408905,-0.00938587449491024,-0.007247221190482378,-0.005632583983242512,0.015147770754992962,-0.037606921046972275,0,-7,-992,-5,16,-38,8,42,-147,586850,586.8499755859375,0.0,1500.0
13:56:04.262,AUTO,-35.3632616,149.1652397,2936,0.0624222457408905,-0.00938587449491024,-0.007247221190482378,-0.005632583983242512,0.015147770754992962,-0.037606921046972275,0,-7,-992,-5,16,-38,8,42,-147,586850,586.8499755859375,0.0,1500.0
13:56:04.463,AUTO,-35.3632616,149.1652397,2936,0.0624222457408905,-0.00938587449491024,-0.007247221190482378,-0.005632583983242512,0.015147770754992962,-0.037606921046972275,0,-7,-992,-5,16,-38,8,42,-147,586850,586.8499755859375,0.0,1500.0
13:56:04.664,AUTO,-35.3632616,149.1652397,2936,0.0624222457408905,-0.00938587449491024,-0.007247221190482378,-0.005632583983242512,0.015147770754992962,-0.037606921046972275,0,-7,-992,-5,16,-38,8,42,-147,586850,586.8499755859375,0.0,1500.0
13:56:04.866,AUTO,-35.3632611,149.1652449,4454,-0.036550067365169525,0.041381899267435074,-0.10926225781440735,-0.022658612579107285,-0.03149089217185974,-0.06768353283405304,7,-6,-1006,-22,-30,-67,-9,37,-148,588370,588.3699951171875,0.0,1500.0
13:56:05.067,AUTO,-35.3632611,149.1652449,4454,-0.036550067365169525,0.041381899267435074,-0.10926225781440735,-0.022658612579107285,-0.03149089217185974,-0.06768353283405304,7,-6,-1006,-22,-30,-67,-9,37,-148,588370,588.3699951171875,0.0,1500.0
13:56:05.268,AUTO,-35.3632613,149.1652457,4840,-0.047519832849502563,0.03079409711062908,-0.12116160243749619,-0.05830293521285057,-0.03916429728269577,-0.0458417609333992,8,-6,-1000,-57,-38,-46,-17,25,-149,588760,588.760009765625,0.0,1500.0
13:56:05.469,AUTO,-35.3632617,149.1652463,5228,-0.06661424040794373,0.01793290115892887,-0.12384608387947083,-0.06968638300895691,-0.0916917622089386,0.02991161122918129,7,0,-1002,-69,-91,29,-23,10,-148,589140,589.1400146484375,0.0,1500.0
13:56:05.670,AUTO,-35.3632622,149.1652463,5611,-0.07395937293767929,-0.006558226887136698,-0.11197378486394882,0.009831763803958893,-0.08054349571466446,0.03454772010445595,4,2,-1006,10,-79,34,-24,-7,-149,589530,589.5299682617188,0.0,1500.0
13:56:05.871,AUTO,-35.3632627,149.165246,5997,-0.06405001878738403,-0.017648255452513695,-0.10440853238105774,0.05419106408953667,-0.026246452704072,0.022562291473150253,2,6,-1003,54,-25,22,-21,-24,-149,589910,589.9099731445312,0.0,1500.0
13:56:06.072,AUTO,-35.3632627,149.165246,5997,-0.06405001878738403,-0.017648255452513695,-0.10440853238105774,0.05419106408953667,-0.026246452704072,0.022562291473150253,2,6,-1003,54,-25,22,-21,-24,-149,589910,589.9099731445312,0.0,1500.0
13:56:06.272,AUTO,-35.3632627,149.165246,5997,-0.06405001878738403,-0.017648255452513695,-0.10440853238105774,0.05419106408953667,-0.026246452704072,0.022562291473150253,2,6,-1003,54,-25,22,-21,-24,-149,589910,589.9099731445312,0.0,1500.0
13:56:06.474,AUTO,-35.3632627,149.165246,5997,-0.06405001878738403,-0.017648255452513695,-0.10440853238105774,0.05419106408953667,-0.026246452704072,0.022562291473150253,2,6,-1003,54,-25,22,-21,-24,-149,589910,589.9099731445312,0.0,1500.0
13:56:06.675,AUTO,-35.3632627,149.165246,5997,-0.06405001878738403,-0.017648255452513695,-0.10440853238105774,0.05419106408953667,-0.026246452704072,0.022562291473150253,2,6,-1003,54,-25,22,-21,-24,-149,589910,589.9099731445312,0.0,1500.0
13:56:06.876,AUTO,-35.363264,149.1652412,7541,-0.002802943577989936,-0.02129424549639225,-0.09214811772108078,0.06579301506280899,0.007223088294267654,0.01158301904797554,-5,11,-1002,66,8,11,-4,-52,-151,591460,591.4599609375,0.0,1500.0
13:56:07.077,AUTO,-35.363264,149.1652412,7541,-0.002802943577989936,-0.02129424549639225,-0.09214811772108078,0.06579301506280899,0.007223088294267654,0.01158301904797554,-5,11,-1002,66,8,11,-4,-52,-151,591460,591.4599609375,0.0,1500.0
13:56:07.278,AUTO,-35.3632641,149.1652398,7931,0.013277496211230755,-0.01907840371131897,-0.0900254026055336,0.0637739971280098,0.010020805522799492,0.010359262116253376,-6,11,-1003,64,10,9,0,-49,-151,591850,591.8499755859375,0.0,1500.0
13:56:07.479,AUTO,-35.3632641,149.1652385,8322,0.02892821654677391,-0.016410473734140396,-0.08817090094089508,0.06100351735949516,0.011065671220421791,0.00921504944562912,-6,9,-1003,61,11,8,3,-42,-152,592240,592.239990234375,0.0,1500.0
13:56:07.680,AUTO,-35.3632641,149.1652374,8716,0.04191051051020622,-0.015148775652050972,-0.08484648913145065,0.034793611615896225,-0.007808199618011713,0.028089839965105057,-6,10,-1000,35,-7,27,6,-32,-152,592630,592.6300048828125,0.0,1500.0
13:56:07.882,AUTO,-35.3632639,149.1652366,9107,0.04520101472735405,-0.022927772253751755,-0.07431000471115112,0.004563538357615471,-0.04287907853722572,0.060173287987709045,-5,3,-998,5,-42,59,11,-21,-152,593020,593.0199584960938,0.0,1500.0
13:56:08.083,AUTO,-35.3632639,149.1652366,9107,0.04520101472735405,-0.022927772253751755,-0.07431000471115112,0.004563538357615471,-0.04287907853722572,0.060173287987709045,-5,3,-998,5,-42,59,11,-21,-152,593020,593.0199584960938,0.0,1500.0
13:56:08.284,AUTO,-35.3632639,149.1652366,9107,0.04520101472735405,-0.022927772253751755,-0.07431000471115112,0.004563538357615471,-0.04287907853722572,0.060173287987709045,-5,3,-998,5,-42,59,11,-21,-152,593020,593.0199584960938,0.0,1500.0
13:56:08.487,AUTO,-35.3632639,149.1652366,9107,0.04520101472735405,-0.022927772253751755,-0.07431000471115112,0.004563538357615471,-0.04287907853722572,0.060173287987709045,-5,3,-998,5,-42,59,11,-21,-152,593020,593.0199584960938,0.0,1500.0
13:56:08.688,AUTO,-35.3632639,149.1652366,9107,0.04520101472735405,-0.022927772253751755,-0.07431000471115112,0.004563538357615471,-0.04287907853722572,0.060173287987709045,-5,3,-998,5,-42,59,11,-21,-152,593020,593.0199584960938,0.0,1500.0
13:56:08.890,AUTO,-35.3632615,149.1652357,10651,0.003152612829580903,-0.002752787433564663,-0.06656617671251297,-0.03389202803373337,0.0856655016541481,-0.07349663227796555,-7,-4,-1003,-33,86,-73,39,0,-149,594570,594.5700073242188,0.0,1500.0
13:56:09.091,AUTO,-35.3632615,149.1652357,10651,0.003152612829580903,-0.002752787433564663,-0.06656617671251297,-0.03389202803373337,0.0856655016541481,-0.07349663227796555,-7,-4,-1003,-33,86,-73,39,0,-149,594570,594.5700073242188,0.0,1500.0
13:56:09.292,AUTO,-35.3632606,149.1652356,11037,-0.0025509714614599943,0.01474485918879509,-0.08557140082120895,-0.01709645800292492,0.0590982623398304,-0.07378590852022171,-5,-3,-1004,-16,59,-73,35,-1,-150,594950,594.9500122070312,0.0,1500.0
13:56:09.493,AUTO,-35.3632599,149.1652355,11425,-0.005726022180169821,0.026214618235826492,-0.10299443453550339,-8.448149310424924e-05,0.034715041518211365,-0.05792535841464996,-7,-4,-1004,0,35,-58,29,-3,-151,595340,595.3399658203125,0.0,1500.0
13:56:09.694,AUTO,-35.3632593,149.1652354,11815,-0.004330378957092762,0.03156539425253868,-0.1160571351647377,0.009481484070420265,0.014074074104428291,-0.04128313809633255,-5,-2,-1002,10,15,-41,20,-5,-152,595730,595.72998046875,0.0,1500.0
13:56:09.896,AUTO,-35.3632589,149.1652352,12206,-0.0010854603024199605,0.03363320976495743,-0.12537118792533875,0.01587379164993763,0.002190543804317713,-0.02645820565521717,-4,-1,-1001,16,2,-26,11,-6,-152,596120,596.1199951171875,0.0,1500.0
13:56:10.097,AUTO,-35.3632589,149.1652352,12206,-0.0010854603024199605,0.03363320976495743,-0.12537118792533875,0.01587379164993763,0.002190543804317713,-0.02645820565521717,-4,-1,-1001,16,2,-26,11,-6,-152,596120,596.1199951171875,0.0,1500.0
13:56:10.298,AUTO,-35.3632589,149.1652352,12206,-0.0010854603024199605,0.03363320976495743,-0.12537118792533875,0.01587379164993763,0.002190543804317713,-0.02645820565521717,-4,-1,-1001,16,2,-26,11,-6,-152,596120,596.1199951171875,0.0,1500.0
13:56:10.501,AUTO,-35.3632589,149.1652352,12206,-0.0010854603024199605,0.03363320976495743,-0.12537118792533875,0.01587379164993763,0.002190543804317713,-0.02645820565521717,-4,-1,-1001,16,2,-26,11,-6,-152,596120,596.1199951171875,0.0,1500.0
13:56:10.702,AUTO,-35.3632589,149.1652352,12206,-0.0010854603024199605,0.03363320976495743,-0.12537118792533875,0.01587379164993763,0.002190543804317713,-0.02645820565521717,-4,-1,-1001,16,2,-26,11,-6,-152,596120,596.1199951171875,0.0,1500.0
13:56:10.903,AUTO,-35.363259,149.1652346,13769,0.013042167760431767,0.02151411958038807,-0.12973624467849731,0.0015504275215789676,-0.021704338490962982,0.007880710996687412,1,1,-999,2,-20,7,-15,2,-152,597680,597.6799926757812,0.0,1500.0
13:56:11.104,AUTO,-35.3632593,149.1652346,14159,0.012836053967475891,0.016668500378727913,-0.127208411693573,-0.003110695630311966,-0.01770835556089878,0.008969270624220371,3,2,-999,-2,-16,8,-18,5,-152,598070,598.0700073242188,0.0,1500.0
13:56:11.305,AUTO,-35.3632593,149.1652346,14159,0.012836053967475891,0.016668500378727913,-0.127208411693573,-0.003110695630311966,-0.01770835556089878,0.008969270624220371,3,2,-999,-2,-16,8,-18,5,-152,598070,598.0700073242188,0.0,1500.0
13:56:11.506,AUTO,-35.3632597,149.1652347,14552,0.011188850738108158,0.011520087718963623,-0.1245868131518364,-0.009079796262085438,-0.020175864920020103,0.007385818753391504,4,1,-999,-8,-19,7,-19,8,-152,598470,598.469970703125,0.0,1500.0
13:56:11.707,AUTO,-35.3632601,149.1652348,14941,0.00876292772591114,0.006774875335395336,-0.12280876934528351,-0.009511523880064487,-0.01775730401277542,0.004114602226763964,4,1,-1000,-8,-16,3,-19,9,-152,598860,598.8599853515625,0.0,1500.0
13:56:11.908,AUTO,-35.3632606,149.165235,15330,0.006489379331469536,0.0028135853353887796,-0.12243698537349701,-0.009018508717417717,-0.0133339399471879,-0.003947724122554064,4,1,-1000,-8,-12,-4,-19,11,-152,599250,599.25,0.0,1500.0
13:56:12.109,AUTO,-35.3632606,149.165235,15330,0.006489379331469536,0.0028135853353887796,-0.12243698537349701,-0.009018508717417717,-0.0133339399471879,-0.003947724122554064,4,1,-1000,-8,-12,-4,-19,11,-152,599250,599.25,0.0,1500.0
13:56:12.311,AUTO,-35.3632606,149.165235,15330,0.006489379331469536,0.0028135853353887796,-0.12243698537349701,-0.009018508717417717,-0.0133339399471879,-0.003947724122554064,4,1,-1000,-8,-12,-4,-19,11,-152,599250,599.25,0.0,1500.0
13:56:12.512,AUTO,-35.3632606,149.165235,15330,0.006489379331469536,0.0028135853353887796,-0.12243698537349701,-0.009018508717417717,-0.0133339399471879,-0.003947724122554064,4,1,-1000,-8,-12,-4,-19,11,-152,599250,599.25,0.0,1500.0
13:56:12.714,AUTO,-35.3632606,149.165235,15330,0.006489379331469536,0.0028135853353887796,-0.12243698537349701,-0.009018508717417717,-0.0133339399471879,-0.003947724122554064,4,1,-1000,-8,-12,-4,-19,11,-152,599250,599.25,0.0,1500.0
13:56:12.915,AUTO,-35.3632618,149.1652359,16884,-0.0015807420713827014,-0.0052210562862455845,-0.1353399157524109,-0.0026806509122252464,-0.002360327634960413,-0.021400149911642075,3,0,-1001,-2,-1,-21,-10,8,-152,600800,600.7999877929688,0.0,1500.0
13:56:13.117,AUTO,-35.363262,149.1652361,17274,-0.0021055652759969234,-0.005508871283382177,-0.1415633261203766,0.0014717810554429889,0.0008282435592263937,-0.02646316960453987,2,0,-1001,2,1,-26,-8,7,-153,601190,601.1900024414062,0.0,1500.0
13:56:13.317,AUTO,-35.363262,149.1652361,17274,-0.0021055652759969234,-0.005508871283382177,-0.1415633261203766,0.0014717810554429889,0.0008282435592263937,-0.02646316960453987,2,0,-1001,2,1,-26,-8,7,-153,601190,601.1900024414062,0.0,1500.0
13:56:13.518,AUTO,-35.3632621,149.1652362,17665,-0.001705806003883481,-0.004948529414832592,-0.148734912276268,0.0037730135954916477,0.00404832698404789,-0.028937192633748055,1,0,-1000,4,4,-29,-6,5,-153,601580,601.5799560546875,0.0,1500.0
13:56:13.720,AUTO,-35.3632622,149.1652363,18056,-0.0011334149166941643,-0.003894050605595112,-0.15642422437667847,0.0011869320878759027,0.005297729279845953,-0.03035890683531761,1,0,-1000,1,5,-30,-4,3,-153,601970,601.969970703125,0.0,1500.0
13:56:13.921,AUTO,-35.3632622,149.1652363,18446,-8.003014227142558e-05,-0.0028022145852446556,-0.16415980458259583,0.0061273109167814255,0.004306181333959103,-0.03145606070756912,0,0,-1001,6,5,-31,-2,2,-153,602360,602.3599853515625,0.0,1500.0
13:56:14.122,AUTO,-35.3632622,149.1652363,18446,-8.003014227142558e-05,-0.0028022145852446556,-0.16415980458259583,0.0061273109167814255,0.004306181333959103,-0.03145606070756912,0,0,-1001,6,5,-31,-2,2,-153,602360,602.3599853515625,0.0,1500.0
13:56:14.323,AUTO,-35.3632622,149.1652363,18446,-8.003014227142558e-05,-0.0028022145852446556,-0.16415980458259583,0.0061273109167814255,0.004306181333959103,-0.03145606070756912,0,0,-1001,6,5,-31,-2,2,-153,602360,602.3599853515625,0.0,1500.0
13:56:14.524,AUTO,-35.3632622,149.1652363,18446,-8.003014227142558e-05,-0.0028022145852446556,-0.16415980458259583,0.0061273109167814255,0.004306181333959103,-0.03145606070756912,0,0,-1001,6,5,-31,-2,2,-153,602360,602.3599853515625,0.0,1500.0
13:56:14.727,AUTO,-35.3632622,149.1652362,19623,0.003424648893997073,0.0012017593253403902,-0.1868792623281479,0.0026940079405903816,0.004124483559280634,-0.026931997388601303,0,0,-1001,6,5,-31,0,1,-153,603540,603.5399780273438,0.0,1500.0
13:56:14.928,AUTO,-35.3632622,149.1652362,20014,0.004171911161392927,0.0021387177985161543,-0.19370383024215698,0.002386207226663828,0.0033438769169151783,-0.02590065635740757,0,0,-1000,3,4,-26,0,1,-153,603930,603.9299926757812,0.0,1500.0
13:56:15.129,AUTO,-35.3632622,149.1652362,20405,0.00463199382647872,0.0029023492243140936,-0.20005975663661957,0.0022464022040367126,0.0028161436785012484,-0.024074047803878784,0,0,-1000,2,3,-24,0,1,-153,604320,604.3200073242188,0.0,1500.0
13:56:15.330,AUTO,-35.3632622,149.1652362,20405,0.00463199382647872,0.0029023492243140936,-0.20005975663661957,0.0022464022040367126,0.0028161436785012484,-0.024074047803878784,0,0,-1000,2,3,-24,0,1,-153,604320,604.3200073242188,0.0,1500.0
13:56:15.531,AUTO,-35.3632622,149.1652362,20796,0.004962210077792406,0.0034831755328923464,-0.20602868497371674,1.9980943761765957e-06,0.003797793760895729,-0.024754391983151436,0,0,-999,0,4,-24,0,2,-153,604710,604.7099609375,0.0,1500.0
13:56:15.732,AUTO,-35.3632622,149.1652362,21185,0.005153896287083626,0.004139868542551994,-0.21178029477596283,0.000510958896484226,0.003428879426792264,-0.022405073046684265,0,0,-1000,1,4,-22,0,2,-153,605100,605.0999755859375,0.0,1500.0
13:56:15.933,AUTO,-35.3632621,149.1652362,21585,0.004989576525986195,0.004578338470309973,-0.2173524796962738,-0.0027669351547956467,0.0017652931855991483,-0.021498583257198334,0,0,-1000,-1,2,-21,0,3,-153,605500,605.5,0.0,1500.0
13:56:16.135,AUTO,-35.3632621,149.1652362,21585,0.004989576525986195,0.004578338470309973,-0.2173524796962738,-0.0027669351547956467,0.0017652931855991483,-0.021498583257198334,0,0,-1000,-1,2,-21,0,3,-153,605500,605.5,0.0,1500.0
13:56:16.336,AUTO,-35.3632621,149.1652362,21585,0.004989576525986195,0.004578338470309973,-0.2173524796962738,-0.0027669351547956467,0.0017652931855991483,-0.021498583257198334,0,0,-1000,-1,2,-21,0,3,-153,605500,605.5,0.0,1500.0
13:56:16.537,AUTO,-35.3632621,149.1652362,21585,0.004989576525986195,0.004578338470309973,-0.2173524796962738,-0.0027669351547956467,0.0017652931855991483,-0.021498583257198334,0,0,-1000,-1,2,-21,0,3,-153,605500,605.5,0.0,1500.0
13:56:16.739,AUTO,-35.3632621,149.1652364,22748,0.00408453494310379,0.004437836818397045,-0.23204359412193298,-0.0004862486384809017,-0.0016208314336836338,-0.017651444301009178,0,0,-1000,0,0,-17,-1,4,-153,606660,606.6599731445312,0.0,1500.0
13:56:16.940,AUTO,-35.3632621,149.1652364,23139,0.0033560404554009438,0.004264055285602808,-0.23666028678417206,-0.005033751018345356,-0.0005698061431758106,-0.01843068189918995,0,0,-999,-4,0,-18,-1,4,-153,607050,607.0499877929688,0.0,1500.0
13:56:17.141,AUTO,-35.3632621,149.1652365,23529,0.0027559574227780104,0.0041164373978972435,-0.24131442606449127,-0.00016723806038498878,0.0007901956560090184,-0.018738068640232086,0,0,-1000,0,1,-19,-2,4,-153,607440,607.4400024414062,0.0,1500.0
13:56:17.342,AUTO,-35.3632621,149.1652365,23529,0.0027559574227780104,0.0041164373978972435,-0.24131442606449127,-0.00016723806038498878,0.0007901956560090184,-0.018738068640232086,0,0,-1000,0,1,-19,-2,4,-153,607440,607.4400024414062,0.0,1500.0
13:56:17.543,AUTO,-35.3632621,149.1652366,23919,0.002447229577228427,0.003813359886407852,-0.24575476348400116,-0.0007272072834894061,-0.000314665085170418,-0.015561483800411224,0,0,-1000,0,0,-15,-2,4,-153,607830,607.8299560546875,0.0,1500.0
13:56:17.744,AUTO,-35.3632621,149.1652367,24310,0.002088189125061035,0.0035336478613317013,-0.2501794099807739,-0.0025335464160889387,-0.00287860375829041,-0.015656599774956703,0,0,-1000,-1,-1,-15,-2,4,-153,608230,608.22998046875,0.0,1500.0
13:56:17.945,AUTO,-35.3632621,149.1652367,24700,0.0017604570602998137,0.003112026024609804,-0.25459060072898865,-0.0005849534063600004,-0.0020308014936745167,-0.019381104037165642,0,0,-1000,0,0,-19,-2,4,-153,608620,608.6199951171875,0.0,1500.0
13:56:18.146,AUTO,-35.3632621,149.1652367,24700,0.0017604570602998137,0.003112026024609804,-0.25459060072898865,-0.0005849534063600004,-0.0020308014936745167,-0.019381104037165642,0,0,-1000,0,0,-19,-2,4,-153,608620,608.6199951171875,0.0,1500.0
13:56:18.348,AUTO,-35.3632621,149.1652367,24700,0.0017604570602998137,0.003112026024609804,-0.25459060072898865,-0.0005849534063600004,-0.0020308014936745167,-0.019381104037165642,0,0,-1000,0,0,-19,-2,4,-153,608620,608.6199951171875,0.0,1500.0
13:56:18.551,AUTO,-35.3632621,149.1652367,24700,0.0017604570602998137,0.003112026024609804,-0.25459060072898865,-0.0005849534063600004,-0.0020308014936745167,-0.019381104037165642,0,0,-1000,0,0,-19,-2,4,-153,608620,608.6199951171875,0.0,1500.0
13:56:18.753,AUTO,-35.3632621,149.1652368,25863,-0.003973694052547216,0.008286586031317711,-0.23988915979862213,0.027490001171827316,-0.012034798040986061,0.04064532369375229,0,0,-1004,28,-11,40,-5,0,-152,609780,609.7799682617188,0.0,1500.0
13:56:18.955,AUTO,-35.3632622,149.1652368,26260,0.002899372950196266,0.005283207166939974,-0.22976082563400269,0.023934006690979004,-0.010394427925348282,0.03896193578839302,0,1,-1001,25,-9,38,-6,0,-153,610180,610.1799926757812,0.0,1500.0
13:56:19.156,AUTO,-35.3632623,149.1652368,26650,0.00723543344065547,0.0031154179014265537,-0.22038021683692932,0.011454476043581963,-0.005808198358863592,0.03270278871059418,0,0,-1000,12,-5,32,-6,1,-153,610570,610.5700073242188,0.0,1500.0
13:56:19.356,AUTO,-35.3632623,149.1652368,27041,0.009224393405020237,0.0016148710856214166,-0.21255528926849365,0.005172920413315296,-0.003831806592643261,0.028951283544301987,0,0,-999,6,-2,28,-5,2,-153,610960,610.9599609375,0.0,1500.0
13:56:19.557,AUTO,-35.3632623,149.1652368,27041,0.009224393405020237,0.0016148710856214166,-0.21255528926849365,0.005172920413315296,-0.003831806592643261,0.028951283544301987,0,0,-999,6,-2,28,-5,2,-153,610960,610.9599609375,0.0,1500.0
13:56:19.758,AUTO,-35.3632624,149.1652368,27430,0.009570704773068428,0.0005845629493705928,-0.2056700885295868,-0.000713795074261725,-0.005347839556634426,0.025724809616804123,0,0,-1000,0,-4,25,-4,4,-153,611350,611.3499755859375,0.0,1500.0
13:56:19.959,AUTO,-35.3632625,149.1652369,27819,0.008490508422255516,2.7657060854835436e-05,-0.19964246451854706,-0.006828857585787773,-0.0011861820239573717,0.021782848984003067,1,0,-999,-5,0,21,-3,5,-153,611730,611.72998046875,0.0,1500.0
13:56:20.160,AUTO,-35.3632625,149.1652369,27819,0.008490508422255516,2.7657060854835436e-05,-0.19964246451854706,-0.006828857585787773,-0.0011861820239573717,0.021782848984003067,1,0,-999,-5,0,21,-3,5,-153,611730,611.72998046875,0.0,1500.0
13:56:20.361,AUTO,-35.3632625,149.1652369,27819,0.008490508422255516,2.7657060854835436e-05,-0.19964246451854706,-0.006828857585787773,-0.0011861820239573717,0.021782848984003067,1,0,-999,-5,0,21,-3,5,-153,611730,611.72998046875,0.0,1500.0
13:56:20.562,AUTO,-35.3632625,149.1652369,27819,0.008490508422255516,2.7657060854835436e-05,-0.19964246451854706,-0.006828857585787773,-0.0011861820239573717,0.021782848984003067,1,0,-999,-5,0,21,-3,5,-153,611730,611.72998046875,0.0,1500.0
13:56:20.763,AUTO,-35.3632625,149.1652373,28978,0.0034048440866172314,0.00016829132800921798,-0.18455596268177032,-0.00868913158774376,-0.0010446417145431042,0.018829531967639923,0,-1,-1000,-7,0,18,-1,7,-153,612890,612.8900146484375,0.0,1500.0
13:56:20.964,AUTO,-35.3632625,149.1652375,29367,0.0021239377092570066,0.00019513147708494216,-0.17992356419563293,-0.0031799557618796825,0.0004602164844982326,0.019636426120996475,0,0,-1000,-2,1,19,0,7,-153,613280,613.2799682617188,0.0,1500.0
13:56:21.166,AUTO,-35.3632625,149.1652376,29756,0.0009119644528254867,0.0004170625761616975,-0.1753261238336563,-0.000985119491815567,0.0020288764499127865,0.019337212666869164,0,-1,-1000,0,2,18,0,6,-153,613670,613.6699829101562,0.0,1500.0
13:56:21.367,AUTO,-35.3632625,149.1652377,30145,5.5290689488174394e-05,0.0007115695043466985,-0.171089768409729,-0.003002384677529335,0.0015551953110843897,0.01690545864403248,0,-1,-1000,-2,2,16,0,5,-153,614060,614.0599975585938,0.0,1500.0
13:56:21.568,AUTO,-35.3632625,149.1652377,30145,5.5290689488174394e-05,0.0007115695043466985,-0.171089768409729,-0.003002384677529335,0.0015551953110843897,0.01690545864403248,0,-1,-1000,-2,2,16,0,5,-153,614060,614.0599975585938,0.0,1500.0
13:56:21.769,AUTO,-35.3632625,149.1652378,30541,-0.00035130776814185083,0.0008795254398137331,-0.16687920689582825,-0.0028109438717365265,-0.000363797415047884,0.017153030261397362,0,0,-1000,-1,0,17,0,5,-153,614460,614.4599609375,0.0,1500.0
13:56:21.970,AUTO,-35.3632625,149.1652379,30931,-0.00027771483291871846,0.0010122931562364101,-0.1627551019191742,0.002933512907475233,0.000912655086722225,0.016994129866361618,0,0,-1001,4,1,16,0,4,-153,614850,614.8499755859375,0.0,1500.0
13:56:22.172,AUTO,-35.3632625,149.1652379,30931,-0.00027771483291871846,0.0010122931562364101,-0.1627551019191742,0.002933512907475233,0.000912655086722225,0.016994129866361618,0,0,-1001,4,1,16,0,4,-153,614850,614.8499755859375,0.0,1500.0
13:56:22.373,AUTO,-35.3632625,149.1652379,30931,-0.00027771483291871846,0.0010122931562364101,-0.1627551019191742,0.002933512907475233,0.000912655086722225,0.016994129866361618,0,0,-1001,4,1,16,0,4,-153,614850,614.8499755859375,0.0,1500.0
13:56:22.574,AUTO,-35.3632625,149.1652379,30931,-0.00027771483291871846,0.0010122931562364101,-0.1627551019191742,0.002933512907475233,0.000912655086722225,0.016994129866361618,0,0,-1001,4,1,16,0,4,-153,614850,614.8499755859375,0.0,1500.0
13:56:22.775,AUTO,-35.3632624,149.165238,32098,-4.0816627006279305e-05,0.0017392635345458984,-0.15148617327213287,0.0030495382379740477,0.0009050985681824386,0.01395336538553238,0,0,-1000,4,1,13,0,1,-153,616010,616.010009765625,0.0,1500.0
13:56:22.976,AUTO,-35.3632624,149.165238,32487,0.00043677291250787675,0.0018795031355693936,-0.14784209430217743,0.001769608585163951,0.0002541139838285744,0.01231039222329855,0,0,-1000,2,1,11,0,1,-153,616400,616.3999633789062,0.0,1500.0
13:56:23.177,AUTO,-35.3632623,149.165238,32876,0.000880711420904845,0.0021267267875373363,-0.14461036026477814,0.00036298076156526804,0.0004199775867164135,0.010634380392730236,0,0,-1000,1,1,10,0,0,-153,616790,616.7899780273438,0.0,1500.0
13:56:23.378,AUTO,-35.3632623,149.165238,33266,0.0011451516766101122,0.002209879457950592,-0.1415783017873764,0.003988961223512888,0.001850356813520193,0.01365830097347498,0,0,-1000,4,3,13,0,0,-153,617180,617.1799926757812,0.0,1500.0
13:56:23.579,AUTO,-35.3632623,149.165238,33266,0.0011451516766101122,0.002209879457950592,-0.1415783017873764,0.003988961223512888,0.001850356813520193,0.01365830097347498,0,0,-1000,4,3,13,0,0,-153,617180,617.1799926757812,0.0,1500.0
13:56:23.780,AUTO,-35.3632623,149.165238,33655,0.0012850745115429163,0.0019061450148001313,-0.1383143961429596,0.0007148057920858264,-0.0024539995938539505,0.014071626588702202,0,0,-1000,1,-1,14,0,0,-153,617570,617.5700073242188,0.0,1500.0
13:56:23.981,AUTO,-35.3632623,149.165238,34043,0.0013758339919149876,0.0014636960113421082,-0.135064959526062,0.0037066845688968897,0.0006174781592562795,0.01332439761608839,0,0,-1000,4,1,13,0,0,-153,617960,617.9599609375,0.0,1500.0
13:56:24.182,AUTO,-35.3632623,149.165238,34043,0.0013758339919149876,0.0014636960113421082,-0.135064959526062,0.0037066845688968897,0.0006174781592562795,0.01332439761608839,0,0,-1000,4,1,13,0,0,-153,617960,617.9599609375,0.0,1500.0
13:56:24.385,AUTO,-35.3632623,149.165238,34043,0.0013758339919149876,0.0014636960113421082,-0.135064959526062,0.0037066845688968897,0.0006174781592562795,0.01332439761608839,0,0,-1000,4,1,13,0,0,-153,617960,617.9599609375,0.0,1500.0
13:56:24.586,AUTO,-35.3632623,149.165238,34043,0.0013758339919149876,0.0014636960113421082,-0.135064959526062,0.0037066845688968897,0.0006174781592562795,0.01332439761608839,0,0,-1000,4,1,13,0,0,-153,617960,617.9599609375,0.0,1500.0
13:56:24.789,AUTO,-35.3632622,149.1652379,35212,0.0016548525309190154,0.0011465734569355845,-0.12638133764266968,0.001201531384140253,0.00019388925284147263,0.009321827441453934,0,0,-1001,2,1,9,0,0,-153,619130,619.1300048828125,0.0,1500.0
13:56:24.990,AUTO,-35.3632622,149.1652379,35600,0.0014608522178605199,0.001215680269524455,-0.12367856502532959,-0.0019496548920869827,0.0013223792193457484,0.011373886838555336,0,0,-999,-1,2,11,0,0,-153,619520,619.5199584960938,0.0,1500.0
13:56:25.191,AUTO,-35.3632622,149.1652379,35990,0.001567626721225679,0.001398621709086001,-0.12115475535392761,0.005608663894236088,0.0013369838707149029,0.012690868228673935,0,0,-1000,6,2,12,0,0,-153,619910,619.9099731445312,0.0,1500.0
13:56:25.392,AUTO,-35.3632622,149.1652378,36379,0.0016358982538804412,0.001459691091440618,-0.11873608827590942,-0.0010515885660424829,0.00022627622820436954,0.007904822006821632,0,0,-1000,0,1,7,0,0,-153,620290,620.2899780273438,0.0,1500.0
13:56:25.594,AUTO,-35.3632622,149.1652378,36379,0.0016358982538804412,0.001459691091440618,-0.11873608827590942,-0.0010515885660424829,0.00022627622820436954,0.007904822006821632,0,0,-1000,0,1,7,0,0,-153,620290,620.2899780273438,0.0,1500.0
13:56:25.795,AUTO,-35.3632622,149.1652378,36768,0.0016980246873572469,0.001369726494885981,-0.11643186956644058,-0.0006794465589337051,-0.0018703504465520382,0.009016158990561962,0,0,-1000,0,0,9,0,0,-153,620680,620.6799926757812,0.0,1500.0
13:56:25.996,AUTO,-35.3632622,149.1652378,37157,0.0019902337808161974,0.0012284809490665793,-0.11410654336214066,0.0064931344240903854,0.0007184022106230259,0.011267383582890034,0,0,-1001,7,2,11,0,0,-153,621070,621.0700073242188,0.0,1500.0
13:56:26.197,AUTO,-35.3632622,149.1652378,37157,0.0019902337808161974,0.0012284809490665793,-0.11410654336214066,0.0064931344240903854,0.0007184022106230259,0.011267383582890034,0,0,-1001,7,2,11,0,0,-153,621070,621.0700073242188,0.0,1500.0
13:56:26.400,AUTO,-35.3632622,149.1652378,37157,0.0019902337808161974,0.0012284809490665793,-0.11410654336214066,0.0064931344240903854,0.0007184022106230259,0.011267383582890034,0,0,-1001,7,2,11,0,0,-153,621070,621.0700073242188,0.0,1500.0
13:56:26.603,AUTO,-35.3632622,149.1652378,37157,0.0019902337808161974,0.0012284809490665793,-0.11410654336214066,0.0064931344240903854,0.0007184022106230259,0.011267383582890034,0,0,-1001,7,2,11,0,0,-153,621070,621.0700073242188,0.0,1500.0
13:56:26.805,AUTO,-35.3632621,149.1652376,38324,0.0026125581935048103,0.0015621138736605644,-0.10770073533058167,0.0028238040395081043,0.00019760907161980867,0.008440352976322174,0,0,-1000,3,1,8,0,0,-153,622240,622.239990234375,0.0,1500.0
13:56:27.006,AUTO,-35.3632621,149.1652376,38713,0.0025745811872184277,0.001501294318586588,-0.10561200231313705,-0.0018483024323359132,0.0005113782826811075,0.009097795933485031,0,0,-999,0,1,9,0,0,-153,622630,622.6300048828125,0.0,1500.0
13:56:27.207,AUTO,-35.3632621,149.1652376,39101,0.0025766536127775908,0.0014598898123949766,-0.10366841405630112,-0.00014862557873129845,0.00021101138554513454,0.00814517866820097,0,0,-1000,0,1,8,0,0,-153,623020,623.0199584960938,0.0,1500.0
13:56:27.408,AUTO,-35.3632621,149.1652375,39491,0.002648301422595978,0.001318285008892417,-0.10154937207698822,0.002905499655753374,0.00014182785525918007,0.009928935207426548,0,0,-1000,3,1,9,0,0,-153,623410,623.4099731445312,0.0,1500.0
13:56:27.609,AUTO,-35.3632621,149.1652375,39885,0.002556574298068881,0.0012000573333352804,-0.09983249008655548,-0.0024826303124427795,-0.00013694883091375232,0.005804302170872688,0,0,-1000,3,1,9,0,0,-153,623800,623.7999877929688,0.0,1500.0
13:56:27.810,AUTO,-35.3632621,149.1652375,39885,0.002556574298068881,0.0012000573333352804,-0.09983249008655548,-0.0024826303124427795,-0.00013694883091375232,0.005804302170872688,0,0,-1000,-1,0,5,0,0,-153,623800,623.7999877929688,0.0,1500.0
13:56:28.011,AUTO,-35.3632621,149.1652375,40274,0.0022731965873390436,0.0010414711432531476,-0.09808212518692017,-0.0014789407141506672,0.00041172211058437824,0.004717071540653706,0,0,-1000,0,1,4,0,0,-153,624190,624.1900024414062,0.0,1500.0
13:56:28.212,AUTO,-35.3632621,149.1652375,40274,0.0022731965873390436,0.0010414711432531476,-0.09808212518692017,-0.0014789407141506672,0.00041172211058437824,0.004717071540653706,0,0,-1000,0,1,4,0,0,-153,624190,624.1900024414062,0.0,1500.0
13:56:28.415,AUTO,-35.3632621,149.1652375,40274,0.0022731965873390436,0.0010414711432531476,-0.09808212518692017,-0.0014789407141506672,0.00041172211058437824,0.004717071540653706,0,0,-1000,0,1,4,0,0,-153,624190,624.1900024414062,0.0,1500.0
13:56:28.618,AUTO,-35.3632621,149.1652375,40274,0.0022731965873390436,0.0010414711432531476,-0.09808212518692017,-0.0014789407141506672,0.00041172211058437824,0.004717071540653706,0,0,-1000,0,1,4,0,0,-153,624190,624.1900024414062,0.0,1500.0
13:56:28.819,AUTO,-35.3632621,149.1652374,41437,0.0021738228388130665,0.0014073897618800402,-0.09335123747587204,0.002055487595498562,-0.0004208835307508707,0.006584757007658482,0,0,-1001,2,0,6,0,1,-153,625350,625.3499755859375,0.0,1500.0
13:56:29.020,AUTO,-35.3632621,149.1652374,41825,0.0022677266970276833,0.0015710806474089622,-0.09171826392412186,0.0013718741247430444,0.0006216098554432392,0.007653999608010054,0,0,-1000,2,1,7,0,1,-153,625740,625.739990234375,0.0,1500.0
13:56:29.221,AUTO,-35.3632621,149.1652374,42214,0.0022220199462026358,0.0016657172236591578,-0.09003641456365585,0.003359847702085972,0.0033379127271473408,0.007263576611876488,0,0,-1000,4,4,7,-1,1,-153,626130,626.1300048828125,0.0,1500.0
13:56:29.422,AUTO,-35.3632621,149.1652374,42603,0.0020520321559160948,0.001667952979914844,-0.08874640613794327,2.712476998567581e-07,-6.827939068898559e-05,0.008144202642142773,0,0,-1000,1,1,8,-1,1,-153,626520,626.5199584960938,0.0,1500.0
13:56:29.623,AUTO,-35.363262,149.1652374,42993,0.001907407189719379,0.0016626741271466017,-0.08704663068056107,-0.0012020504800602794,-0.0005656745634041727,0.007150428835302591,0,0,-1000,0,0,7,-1,1,-153,626910,626.9099731445312,0.0,1500.0
13:56:29.824,AUTO,-35.363262,149.1652374,42993,0.001907407189719379,0.0016626741271466017,-0.08704663068056107,-0.0012020504800602794,-0.0005656745634041727,0.007150428835302591,0,0,-1000,0,0,7,-1,1,-153,626910,626.9099731445312,0.0,1500.0
13:56:30.025,AUTO,-35.363262,149.1652374,43381,0.002105414168909192,0.001462844549678266,-0.08548969775438309,0.0008712289854884148,-0.0010802719043567777,0.007031294517219067,0,0,-1000,1,0,7,-1,1,-153,627300,627.2999877929688,0.0,1500.0
13:56:30.227,AUTO,-35.363262,149.1652374,43381,0.002105414168909192,0.001462844549678266,-0.08548969775438309,0.0008712289854884148,-0.0010802719043567777,0.007031294517219067,0,0,-1000,1,0,7,-1,1,-153,627300,627.2999877929688,0.0,1500.0
13:56:30.428,AUTO,-35.363262,149.1652374,43381,0.002105414168909192,0.001462844549678266,-0.08548969775438309,0.0008712289854884148,-0.0010802719043567777,0.007031294517219067,0,0,-1000,1,0,7,-1,1,-153,627300,627.2999877929688,0.0,1500.0
13:56:30.630,AUTO,-35.363262,149.1652374,43381,0.002105414168909192,0.001462844549678266,-0.08548969775438309,0.0008712289854884148,-0.0010802719043567777,0.007031294517219067,0,0,-1000,1,0,7,-1,1,-153,627300,627.2999877929688,0.0,1500.0
13:56:30.831,AUTO,-35.363262,149.1652374,44548,0.002191641367971897,0.001272997003979981,-0.08089430630207062,-0.001509212190285325,0.0009965827921405435,0.007521587889641523,0,0,-999,0,2,7,-1,1,-153,628460,628.4599609375,0.0,1500.0
13:56:31.032,AUTO,-35.363262,149.1652374,44937,0.0019791366066783667,0.0012617105385288596,-0.07963363826274872,-0.0015403315192088485,-0.0006672031595371664,0.0064524877816438675,0,0,-1000,0,0,6,-1,1,-153,628850,628.8499755859375,0.0,1500.0
13:56:31.233,AUTO,-35.363262,149.1652374,45326,0.0018824225990101695,0.0011531069176271558,-0.07820761203765869,0.00075388397090137,-0.00047405686927959323,0.007684081327170134,0,0,-1000,1,0,7,-1,1,-153,629240,629.239990234375,0.0,1500.0
13:56:31.434,AUTO,-35.363262,149.1652374,45714,0.001962871989235282,0.001278842450119555,-0.07664841413497925,-0.00068276422098279,0.0026876197662204504,0.0072294482961297035,0,0,-1000,0,3,7,-1,1,-153,629630,629.6300048828125,0.0,1500.0
13:56:31.635,AUTO,-35.363262,149.1652374,46104,0.0020224805921316147,0.0015739533118903637,-0.07535944879055023,0.00022401183377951384,0.0002737678587436676,0.008399834856390953,0,0,-1000,1,1,8,-1,1,-153,630020,630.0199584960938,0.0,1500.0
13:56:31.836,AUTO,-35.363262,149.1652374,46104,0.0020224805921316147,0.0015739533118903637,-0.07535944879055023,0.00022401183377951384,0.0002737678587436676,0.008399834856390953,0,0,-1000,1,1,8,-1,1,-153,630020,630.0199584960938,0.0,1500.0
13:56:32.036,AUTO,-35.363262,149.1652374,46493,0.0018370678881183267,0.0013966893311589956,-0.07430218160152435,-0.0018528165528550744,-0.0022798350546509027,0.006535222288221121,0,0,-1000,0,-1,6,-1,1,-153,630410,630.4099731445312,0.0,1500.0
13:56:32.238,AUTO,-35.363262,149.1652374,46493,0.0018370678881183267,0.0013966893311589956,-0.07430218160152435,-0.0018528165528550744,-0.0022798350546509027,0.006535222288221121,0,0,-1000,0,-1,6,-1,1,-153,630410,630.4099731445312,0.0,1500.0
13:56:32.441,AUTO,-35.363262,149.1652374,46493,0.0018370678881183267,0.0013966893311589956,-0.07430218160152435,-0.0018528165528550744,-0.0022798350546509027,0.006535222288221121,0,0,-1000,0,-1,6,-1,1,-153,630410,630.4099731445312,0.0,1500.0
13:56:32.642,AUTO,-35.363262,149.1652374,46493,0.0018370678881183267,0.0013966893311589956,-0.07430218160152435,-0.0018528165528550744,-0.0022798350546509027,0.006535222288221121,0,0,-1000,0,-1,6,-1,1,-153,630410,630.4099731445312,0.0,1500.0
13:56:32.844,AUTO,-35.363262,149.1652373,47640,-0.0324951596558094,0.03767257183790207,0.014983504079282284,-0.14398370683193207,0.13594208657741547,0.4221075773239136,0,0,-970,-143,136,422,-6,-3,-142,631560,631.5599975585938,0.0,1500.0
13:56:33.045,AUTO,-35.3632622,149.165237,47991,-0.06147707998752594,0.07195433974266052,0.14851613342761993,-0.09587164223194122,0.025574542582035065,0.5227474570274353,1,3,-951,-94,26,522,-18,-16,-133,631910,631.9099731445312,0.0,1500.0
13:56:33.246,AUTO,-35.3632627,149.1652363,48312,-0.050629872828722,0.04619770497083664,0.2460450381040573,0.08449434489011765,-0.2062183916568756,0.28414592146873474,2,7,-939,85,-205,284,-29,-31,-117,632230,632.22998046875,0.0,1500.0
13:56:33.447,AUTO,-35.3632634,149.1652353,48593,-0.022248992696404457,-0.00328061287291348,0.2979283928871155,0.11887077242136002,-0.18406960368156433,0.14048700034618378,5,10,-944,119,-182,140,-30,-38,-103,632510,632.510009765625,0.0,1500.0
13:56:33.648,AUTO,-35.363264,149.1652342,48842,0.004101376049220562,-0.0370216965675354,0.3209380805492401,0.08872288465499878,-0.09625992923974991,0.059957899153232574,3,10,-952,89,-95,60,-24,-36,-90,632760,632.760009765625,0.0,1500.0
13:56:33.849,AUTO,-35.363264,149.1652342,48842,0.004101376049220562,-0.0370216965675354,0.3209380805492401,0.08872288465499878,-0.09625992923974991,0.059957899153232574,3,10,-952,89,-95,60,-24,-36,-90,632760,632.760009765625,0.0,1500.0
13:56:34.050,AUTO,-35.3632644,149.1652333,49058,0.023149054497480392,-0.05250758305191994,0.32699713110923767,0.07360623776912689,-0.03579232841730118,0.008747984655201435,2,9,-959,74,-34,8,-15,-27,-79,632970,632.969970703125,0.0,1500.0
13:56:34.253,AUTO,-35.3632644,149.1652333,49058,0.023149054497480392,-0.05250758305191994,0.32699713110923767,0.07360623776912689,-0.03579232841730118,0.008747984655201435,2,9,-959,74,-34,8,-15,-27,-79,632970,632.969970703125,0.0,1500.0
13:56:34.456,AUTO,-35.3632644,149.1652333,49058,0.023149054497480392,-0.05250758305191994,0.32699713110923767,0.07360623776912689,-0.03579232841730118,0.008747984655201435,2,9,-959,74,-34,8,-15,-27,-79,632970,632.969970703125,0.0,1500.0
13:56:34.658,AUTO,-35.3632644,149.1652333,49058,0.023149054497480392,-0.05250758305191994,0.32699713110923767,0.07360623776912689,-0.03579232841730118,0.008747984655201435,2,9,-959,74,-34,8,-15,-27,-79,632970,632.969970703125,0.0,1500.0
13:56:34.860,AUTO,-35.3632643,149.1652325,49688,0.036675143986940384,-0.029371386393904686,0.299302875995636,-0.022851353511214256,0.044642046093940735,-0.03757333382964134,-3,-8,-977,-22,45,-36,15,17,-48,633600,633.5999755859375,0.0,1500.0
13:56:35.061,AUTO,-35.3632643,149.1652325,49688,0.036675143986940384,-0.029371386393904686,0.299302875995636,-0.022851353511214256,0.044642046093940735,-0.03757333382964134,-3,-8,-977,-22,45,-36,15,17,-48,633600,633.5999755859375,0.0,1500.0
13:56:35.262,AUTO,-35.3632639,149.165233,49802,0.026385659351944923,-0.01850326918065548,0.2897520363330841,-0.2735113799571991,0.03834307938814163,-0.03467634320259094,-2,-9,-978,-271,39,-34,18,25,-42,633720,633.719970703125,0.0,1500.0
13:56:35.463,AUTO,-35.3632634,149.1652337,49900,0.02619086019694805,-0.008842583745718002,0.28007498383522034,0.4286174178123474,0.03254562243819237,-0.032120589166879654,-2,21,-972,431,33,-31,20,30,-35,633820,633.8200073242188,0.0,1500.0
13:56:35.664,AUTO,-35.363263,149.1652345,49980,0.02501686103641987,9.989172394853085e-05,0.2709147334098816,0.390703946352005,0.031073324382305145,-0.03446565195918083,-2,-2,-986,391,32,-33,20,31,-30,633900,633.8999633789062,0.0,1500.0
13:56:35.865,AUTO,-35.3632625,149.1652353,50048,0.011577673256397247,0.007230361923575401,0.26272645592689514,-0.3873905837535858,0.026278821751475334,-0.03153384476900101,-3,-38,-975,-388,27,-31,18,31,-25,633960,633.9599609375,0.0,1500.0
13:56:36.066,AUTO,-35.3632625,149.1652353,50048,0.011577673256397247,0.007230361923575401,0.26272645592689514,-0.3873905837535858,0.026278821751475334,-0.03153384476900101,-3,-38,-975,-388,27,-31,18,31,-25,633960,633.9599609375,0.0,1500.0
13:56:36.268,AUTO,-35.3632625,149.1652353,50048,0.011577673256397247,0.007230361923575401,0.26272645592689514,-0.3873905837535858,0.026278821751475334,-0.03153384476900101,-3,-38,-975,-388,27,-31,18,31,-25,633960,633.9599609375,0.0,1500.0
13:56:36.470,AUTO,-35.3632625,149.1652353,50048,0.011577673256397247,0.007230361923575401,0.26272645592689514,-0.3873905837535858,0.026278821751475334,-0.03153384476900101,-3,-38,-975,-388,27,-31,18,31,-25,633960,633.9599609375,0.0,1500.0
13:56:36.671,AUTO,-35.3632625,149.1652353,50048,0.011577673256397247,0.007230361923575401,0.26272645592689514,-0.3873905837535858,0.026278821751475334,-0.03153384476900101,-3,-38,-975,-388,27,-31,18,31,-25,633960,633.9599609375,0.0,1500.0
13:56:36.872,AUTO,-35.3632612,149.1652382,50179,-0.005199268460273743,0.021572940051555634,0.23144838213920593,0.028273167088627815,0.1706254780292511,-0.18451803922653198,-7,-20,-931,27,171,-184,6,19,0,634090,634.0899658203125,0.0,1500.0
13:56:37.073,AUTO,-35.3632612,149.1652382,50179,-0.005199268460273743,0.021572940051555634,0.23144838213920593,0.028273167088627815,0.1706254780292511,-0.18451803922653198,-7,-20,-931,27,171,-184,6,19,0,634090,634.0899658203125,0.0,1500.0
13:56:37.274,AUTO,-35.363261,149.1652385,50151,-0.03300056234002113,0.04276421293616295,0.223678320646286,-0.3980224132537842,-0.020924381911754608,0.0010302732698619366,1,-41,-951,-399,-19,1,0,9,16,634070,634.0700073242188,0.0,1500.0
13:56:37.476,AUTO,-35.3632611,149.1652386,50102,-0.03504318743944168,0.01682458259165287,0.2203788459300995,-0.7009798288345337,-0.13323147594928741,0.0007464670925401151,0,-43,-1010,-702,-132,1,-4,0,17,634020,634.0199584960938,0.0,1500.0
13:56:37.677,AUTO,-35.3632611,149.1652384,50057,-0.03547251969575882,-0.014627702534198761,0.21669858694076538,-0.8169201612472534,-0.10555478185415268,-0.017100738361477852,-1,-29,-1021,-816,-104,-16,-3,-7,14,633970,633.969970703125,0.0,1500.0
13:56:37.878,AUTO,-35.3632611,149.1652381,50020,-0.030451299622654915,-0.037181682884693146,0.21261455118656158,-0.45825114846229553,-0.0706624910235405,-0.02556895650923252,-3,-4,-1026,-455,-69,-25,4,-11,10,633940,633.9400024414062,0.0,1500.0
13:56:38.079,AUTO,-35.3632611,149.1652381,50020,-0.030451299622654915,-0.037181682884693146,0.21261455118656158,-0.45825114846229553,-0.0706624910235405,-0.02556895650923252,-3,-4,-1026,-455,-69,-25,4,-11,10,633940,633.9400024414062,0.0,1500.0
13:56:38.282,AUTO,-35.3632611,149.1652381,50020,-0.030451299622654915,-0.037181682884693146,0.21261455118656158,-0.45825114846229553,-0.0706624910235405,-0.02556895650923252,-3,-4,-1026,-455,-69,-25,4,-11,10,633940,633.9400024414062,0.0,1500.0
13:56:38.483,AUTO,-35.3632611,149.1652381,50020,-0.030451299622654915,-0.037181682884693146,0.21261455118656158,-0.45825114846229553,-0.0706624910235405,-0.02556895650923252,-3,-4,-1026,-455,-69,-25,4,-11,10,633940,633.9400024414062,0.0,1500.0
13:56:38.684,AUTO,-35.3632611,149.1652381,50020,-0.030451299622654915,-0.037181682884693146,0.21261455118656158,-0.45825114846229553,-0.0706624910235405,-0.02556895650923252,-3,-4,-1026,-455,-69,-25,4,-11,10,633940,633.9400024414062,0.0,1500.0
13:56:38.886,AUTO,-35.3632584,149.1652355,49957,-0.007081095594912767,-0.09587065875530243,0.1211211234331131,-0.1816059798002243,-0.0358193963766098,-0.5070626139640808,-19,-30,-993,-182,-34,-506,63,-22,0,633870,633.8699951171875,0.0,1500.0
13:56:39.087,AUTO,-35.3632584,149.1652355,49957,-0.007081095594912767,-0.09587065875530243,0.1211211234331131,-0.1816059798002243,-0.0358193963766098,-0.5070626139640808,-19,-30,-993,-182,-34,-506,63,-22,0,633870,633.8699951171875,0.0,1500.0
13:56:39.289,AUTO,-35.3632567,149.1652347,49953,-0.0042620315216481686,-0.10742775350809097,-0.00791061483323574,-0.6961033940315247,-0.04742114618420601,-0.3944942057132721,-21,-41,-1009,-695,-46,-393,83,-24,-1,633870,633.8699951171875,0.0,1500.0
13:56:39.490,AUTO,-35.3632547,149.1652337,49951,0.004235463682562113,-0.11790380626916885,-0.07810372114181519,-0.26390546560287476,-0.04578816518187523,-0.17812670767307281,-25,-6,-1010,-260,-44,-177,105,-26,-1,633870,633.8699951171875,0.0,1500.0
13:56:39.690,AUTO,-35.3632521,149.1652327,49950,0.016300231218338013,-0.12732869386672974,-0.10199008882045746,0.4705153703689575,-0.03496015444397926,-0.04697367176413536,-31,18,-1007,473,-33,-46,128,-29,-2,633870,633.8699951171875,0.0,1500.0
13:56:39.891,AUTO,-35.363249,149.1652316,49948,0.02105357125401497,-0.1386156529188156,-0.10205663740634918,0.5327536463737488,-0.04570310562849045,0.026738395914435387,-35,-1,-1013,533,-44,27,152,-34,-1,633860,633.8599853515625,0.0,1500.0
13:56:40.093,AUTO,-35.363249,149.1652316,49948,0.02105357125401497,-0.1386156529188156,-0.10205663740634918,0.5327536463737488,-0.04570310562849045,0.026738395914435387,-35,-1,-1013,533,-44,27,152,-34,-1,633860,633.8599853515625,0.0,1500.0
13:56:40.293,AUTO,-35.363249,149.1652316,49948,0.02105357125401497,-0.1386156529188156,-0.10205663740634918,0.5327536463737488,-0.04570310562849045,0.026738395914435387,-35,-1,-1013,533,-44,27,152,-34,-1,633860,633.8599853515625,0.0,1500.0
13:56:40.496,AUTO,-35.363249,149.1652316,49948,0.02105357125401497,-0.1386156529188156,-0.10205663740634918,0.5327536463737488,-0.04570310562849045,0.026738395914435387,-35,-1,-1013,533,-44,27,152,-34,-1,633860,633.8599853515625,0.0,1500.0
13:56:40.697,AUTO,-35.363249,149.1652316,49948,0.02105357125401497,-0.1386156529188156,-0.10205663740634918,0.5327536463737488,-0.04570310562849045,0.026738395914435387,-35,-1,-1013,533,-44,27,152,-34,-1,633860,633.8599853515625,0.0,1500.0
13:56:40.899,AUTO,-35.3632305,149.165226,49935,0.014159517362713814,-0.18339648842811584,-0.08854895830154419,0.43320614099502563,-0.02233574539422989,-0.014218555763363838,-59,-5,-1009,435,-21,-13,264,-57,0,633850,633.8499755859375,0.0,1500.0
13:56:41.100,AUTO,-35.3632305,149.165226,49935,0.014159517362713814,-0.18339648842811584,-0.08854895830154419,0.43320614099502563,-0.02233574539422989,-0.014218555763363838,-59,-5,-1009,435,-21,-13,264,-57,0,633850,633.8499755859375,0.0,1500.0
13:56:41.301,AUTO,-35.3632242,149.1652242,49930,0.017583897337317467,-0.18650424480438232,-0.09101552516222,0.09167829155921936,-0.00740777887403965,0.012729449197649956,-65,-35,-1009,91,-6,13,294,-65,0,633850,633.8499755859375,0.0,1500.0
13:56:41.502,AUTO,-35.3632174,149.1652222,49926,0.014828785322606564,-0.18698622286319733,-0.09478390216827393,-0.35472211241722107,-0.015946010127663612,0.00453644385561347,-69,-44,-1005,-353,-14,5,322,-72,0,633840,633.8399658203125,0.0,1500.0
13:56:41.703,AUTO,-35.3632099,149.16522,49924,0.021621834486722946,-0.19054214656352997,-0.09955817461013794,0.14671200513839722,-0.018950510770082474,-0.04104112461209297,-78,-19,-1006,149,-17,-40,350,-79,0,633840,633.8399658203125,0.0,1500.0
13:56:41.904,AUTO,-35.3632018,149.1652177,49921,0.028300700709223747,-0.19475118815898895,-0.10305478423833847,0.22877854108810425,-0.012922480702400208,-0.00017800129717215896,-82,-31,-1001,229,-11,0,377,-86,0,633840,633.8399658203125,0.0,1500.0
13:56:42.105,AUTO,-35.3632018,149.1652177,49921,0.028300700709223747,-0.19475118815898895,-0.10305478423833847,0.22877854108810425,-0.012922480702400208,-0.00017800129717215896,-82,-31,-1001,229,-11,0,377,-86,0,633840,633.8399658203125,0.0,1500.0
13:56:42.307,AUTO,-35.3632018,149.1652177,49921,0.028300700709223747,-0.19475118815898895,-0.10305478423833847,0.22877854108810425,-0.012922480702400208,-0.00017800129717215896,-82,-31,-1001,229,-11,0,377,-86,0,633840,633.8399658203125,0.0,1500.0
13:56:42.509,AUTO,-35.3632018,149.1652177,49921,0.028300700709223747,-0.19475118815898895,-0.10305478423833847,0.22877854108810425,-0.012922480702400208,-0.00017800129717215896,-82,-31,-1001,229,-11,0,377,-86,0,633840,633.8399658203125,0.0,1500.0
13:56:42.710,AUTO,-35.3632018,149.1652177,49921,0.028300700709223747,-0.19475118815898895,-0.10305478423833847,0.22877854108810425,-0.012922480702400208,-0.00017800129717215896,-82,-31,-1001,229,-11,0,377,-86,0,633840,633.8399658203125,0.0,1500.0
13:56:42.911,AUTO,-35.3631635,149.1652066,49905,0.033304862678050995,-0.22122210264205933,-0.11599985510110855,0.03798668831586838,-0.028902094811201096,0.016896924003958702,-89,-58,-992,38,-27,17,484,-113,1,633820,633.8200073242188,0.0,1500.0
13:56:43.113,AUTO,-35.3631524,149.1652034,49898,0.033840443938970566,-0.22369588911533356,-0.11910701543092728,-0.08484096825122833,0.0002890282776206732,-0.005519866943359375,-107,-46,-1001,-83,1,-4,511,-120,1,633810,633.8099975585938,0.0,1500.0
13:56:43.314,AUTO,-35.3631524,149.1652034,49898,0.033840443938970566,-0.22369588911533356,-0.11910701543092728,-0.08484096825122833,0.0002890282776206732,-0.005519866943359375,-107,-46,-1001,-83,1,-4,511,-120,1,633810,633.8099975585938,0.0,1500.0
13:56:43.516,AUTO,-35.3631406,149.1651999,49892,0.04187728464603424,-0.2172263264656067,-0.1211603656411171,0.09958814084529877,0.04949665814638138,-0.01354246772825718,-106,-54,-1006,101,50,-12,538,-127,0,633810,633.8099975585938,0.0,1500.0
13:56:43.716,AUTO,-35.3631284,149.1651964,49893,0.04317396879196167,-0.20593181252479553,-0.1227661520242691,-0.01814468391239643,0.04061686247587204,-0.000683607067912817,-115,-46,-1007,-17,41,0,561,-131,-2,633810,633.8099975585938,0.0,1500.0
13:56:43.917,AUTO,-35.3631157,149.1651927,49899,0.042417414486408234,-0.20026683807373047,-0.12394370138645172,-0.05917138233780861,0.01379542239010334,-0.007818206213414669,-113,-45,-993,-57,14,-7,580,-136,-4,633810,633.8099975585938,0.0,1500.0
13:56:44.119,AUTO,-35.3631157,149.1651927,49899,0.042417414486408234,-0.20026683807373047,-0.12394370138645172,-0.05917138233780861,0.01379542239010334,-0.007818206213414669,-113,-45,-993,-57,14,-7,580,-136,-4,633810,633.8099975585938,0.0,1500.0
13:56:44.320,AUTO,-35.3631157,149.1651927,49899,0.042417414486408234,-0.20026683807373047,-0.12394370138645172,-0.05917138233780861,0.01379542239010334,-0.007818206213414669,-113,-45,-993,-57,14,-7,580,-136,-4,633810,633.8099975585938,0.0,1500.0
13:56:44.522,AUTO,-35.3631157,149.1651927,49899,0.042417414486408234,-0.20026683807373047,-0.12394370138645172,-0.05917138233780861,0.01379542239010334,-0.007818206213414669,-113,-45,-993,-57,14,-7,580,-136,-4,633810,633.8099975585938,0.0,1500.0
13:56:44.726,AUTO,-35.3631157,149.1651927,49899,0.042417414486408234,-0.20026683807373047,-0.12394370138645172,-0.05917138233780861,0.01379542239010334,-0.007818206213414669,-113,-45,-993,-57,14,-7,580,-136,-4,633810,633.8099975585938,0.0,1500.0
13:56:44.928,AUTO,-35.3630607,149.1651767,49944,0.05452346429228783,-0.18146148324012756,-0.13228945434093475,0.042534008622169495,0.02288907580077648,-0.012554199434816837,-142,-47,-991,44,23,-11,635,-150,-5,633860,633.8599853515625,0.0,1500.0
13:56:45.129,AUTO,-35.3630463,149.1651725,49955,0.06134219095110893,-0.17189344763755798,-0.13495318591594696,0.054162271320819855,0.020406734198331833,-0.005173183511942625,-137,-78,-998,55,21,-4,645,-153,-7,633870,633.8699951171875,0.0,1500.0
13:56:45.330,AUTO,-35.3630463,149.1651725,49955,0.06134219095110893,-0.17189344763755798,-0.13495318591594696,0.054162271320819855,0.020406734198331833,-0.005173183511942625,-137,-78,-998,55,21,-4,645,-153,-7,633870,633.8699951171875,0.0,1500.0
13:56:45.531,AUTO,-35.3630317,149.1651683,49967,0.061077360063791275,-0.16560997068881989,-0.13746240735054016,-0.025986799970269203,0.03502069413661957,-0.003389536403119564,-135,-66,-986,-24,36,-2,654,-154,-6,633880,633.8800048828125,0.0,1500.0
13:56:45.732,AUTO,-35.3630166,149.1651639,49979,0.057893816381692886,-0.15629729628562927,-0.13796256482601166,-0.018881503492593765,0.01122242771089077,-0.006689050234854221,-131,-53,-986,-17,12,-6,661,-154,-6,633890,633.8900146484375,0.0,1500.0
13:56:45.933,AUTO,-35.3630018,149.1651597,49992,0.05983512103557587,-0.15269556641578674,-0.13875435292720795,0.043149568140506744,-0.00040846061892807484,-0.006211370695382357,-139,-59,-988,44,0,-5,664,-156,-5,633910,633.9099731445312,0.0,1500.0
13:56:46.134,AUTO,-35.3630018,149.1651597,49992,0.05983512103557587,-0.15269556641578674,-0.13875435292720795,0.043149568140506744,-0.00040846061892807484,-0.006211370695382357,-139,-59,-988,44,0,-5,664,-156,-5,633910,633.9099731445312,0.0,1500.0
13:56:46.335,AUTO,-35.3630018,149.1651597,49992,0.05983512103557587,-0.15269556641578674,-0.13875435292720795,0.043149568140506744,-0.00040846061892807484,-0.006211370695382357,-139,-59,-988,44,0,-5,664,-156,-5,633910,633.9099731445312,0.0,1500.0
13:56:46.537,AUTO,-35.3630018,149.1651597,49992,0.05983512103557587,-0.15269556641578674,-0.13875435292720795,0.043149568140506744,-0.00040846061892807484,-0.006211370695382357,-139,-59,-988,44,0,-5,664,-156,-5,633910,633.9099731445312,0.0,1500.0
13:56:46.738,AUTO,-35.3630018,149.1651597,49992,0.05983512103557587,-0.15269556641578674,-0.13875435292720795,0.043149568140506744,-0.00040846061892807484,-0.006211370695382357,-139,-59,-988,44,0,-5,664,-156,-5,633910,633.9099731445312,0.0,1500.0
13:56:46.939,AUTO,-35.3629423,149.1651422,50036,0.07329777628183365,-0.1301882266998291,-0.14647038280963898,-0.09262733906507492,-0.025100573897361755,-0.002646407810971141,-142,-63,-978,-91,-24,-1,666,-158,-4,633950,633.9500122070312,0.0,1500.0
13:56:47.140,AUTO,-35.3629274,149.1651379,50045,0.0706343725323677,-0.13872407376766205,-0.14828597009181976,-0.064043328166008,-0.03178347274661064,-0.003037516726180911,-140,-74,-975,-61,-30,-2,665,-157,0,633960,633.9599609375,0.0,1500.0
13:56:47.341,AUTO,-35.3629274,149.1651379,50045,0.0706343725323677,-0.13872407376766205,-0.14828597009181976,-0.064043328166008,-0.03178347274661064,-0.003037516726180911,-140,-74,-975,-61,-30,-2,665,-157,0,633960,633.9599609375,0.0,1500.0
13:56:47.542,AUTO,-35.3629124,149.1651335,50045,0.07428248226642609,-0.1427624374628067,-0.15003007650375366,0.14083781838417053,-0.012096278369426727,-0.01582517847418785,-150,-64,-982,142,-11,-14,664,-157,1,633960,633.9599609375,0.0,1500.0
13:56:47.743,AUTO,-35.3628974,149.1651292,50041,0.07088823616504669,-0.14611424505710602,-0.15143057703971863,-0.08747642487287521,-0.018564825877547264,0.003319640876725316,-140,-71,-981,-86,-17,4,665,-156,3,633960,633.9599609375,0.0,1500.0
13:56:47.944,AUTO,-35.3628825,149.1651249,50033,0.06489280611276627,-0.14540888369083405,-0.1522003412246704,-0.08658833056688309,-0.004500424489378929,-0.0015303869731724262,-123,-59,-985,-84,-3,0,668,-155,4,633950,633.9500122070312,0.0,1500.0
13:56:48.145,AUTO,-35.3628825,149.1651249,50033,0.06489280611276627,-0.14540888369083405,-0.1522003412246704,-0.08658833056688309,-0.004500424489378929,-0.0015303869731724262,-123,-59,-985,-84,-3,0,668,-155,4,633950,633.9500122070312,0.0,1500.0
13:56:48.347,AUTO,-35.3628825,149.1651249,50033,0.06489280611276627,-0.14540888369083405,-0.1522003412246704,-0.08658833056688309,-0.004500424489378929,-0.0015303869731724262,-123,-59,-985,-84,-3,0,668,-155,4,633950,633.9500122070312,0.0,1500.0
13:56:48.548,AUTO,-35.3628825,149.1651249,50033,0.06489280611276627,-0.14540888369083405,-0.1522003412246704,-0.08658833056688309,-0.004500424489378929,-0.0015303869731724262,-123,-59,-985,-84,-3,0,668,-155,4,633950,633.9500122070312,0.0,1500.0
13:56:48.750,AUTO,-35.3628374,149.165112,50018,0.06776309013366699,-0.1270902007818222,-0.15628057718276978,-0.05592770129442215,0.07970868051052094,-0.021992964670062065,-149,-51,-1006,-54,80,-21,668,-157,0,633930,633.9299926757812,0.0,1500.0
13:56:48.951,AUTO,-35.3628224,149.1651077,50027,0.07267266511917114,-0.11043006926774979,-0.1575642228126526,0.12313380837440491,0.05886690318584442,-0.01721671223640442,-144,-61,-999,124,60,-16,662,-156,-4,633940,633.9400024414062,0.0,1500.0
13:56:49.152,AUTO,-35.3628077,149.1651033,50044,0.07383100688457489,-0.0980934277176857,-0.15894123911857605,-0.05368252098560333,0.04609169811010361,0.0003376650856807828,-151,-71,-993,-52,47,1,653,-154,-6,633960,633.9599609375,0.0,1500.0
13:56:49.353,AUTO,-35.3628077,149.1651033,50044,0.07383100688457489,-0.0980934277176857,-0.15894123911857605,-0.05368252098560333,0.04609169811010361,0.0003376650856807828,-151,-71,-993,-52,47,1,653,-154,-6,633960,633.9599609375,0.0,1500.0
13:56:49.554,AUTO,-35.3627931,149.1650991,50061,0.0690649151802063,-0.08470485359430313,-0.15983957052230835,-0.19205382466316223,0.06273677200078964,-0.0067052049562335014,-140,-75,-991,-189,63,-6,642,-152,-6,633980,633.97998046875,0.0,1500.0
13:56:49.756,AUTO,-35.3627787,149.1650949,50077,0.07750868797302246,-0.06549312174320221,-0.1601073443889618,0.48747140169143677,0.05970539525151253,-0.05251653492450714,-136,-37,-997,490,61,-51,629,-148,-5,633990,633.989990234375,0.0,1500.0
13:56:49.958,AUTO,-35.3627646,149.1650908,50091,0.08276738971471786,-0.05042874813079834,-0.16103987395763397,0.2143067717552185,0.04311906918883324,0.0265181977301836,-129,-61,-970,214,44,27,612,-145,-4,634010,634.010009765625,0.0,1500.0
13:56:50.159,AUTO,-35.3627646,149.1650908,50091,0.08276738971471786,-0.05042874813079834,-0.16103987395763397,0.2143067717552185,0.04311906918883324,0.0265181977301836,-129,-61,-970,214,44,27,612,-145,-4,634010,634.010009765625,0.0,1500.0
13:56:50.361,AUTO,-35.3627646,149.1650908,50091,0.08276738971471786,-0.05042874813079834,-0.16103987395763397,0.2143067717552185,0.04311906918883324,0.0265181977301836,-129,-61,-970,214,44,27,612,-145,-4,634010,634.010009765625,0.0,1500.0
13:56:50.563,AUTO,-35.3627646,149.1650908,50091,0.08276738971471786,-0.05042874813079834,-0.16103987395763397,0.2143067717552185,0.04311906918883324,0.0265181977301836,-129,-61,-970,214,44,27,612,-145,-4,634010,634.010009765625,0.0,1500.0
13:56:50.763,AUTO,-35.3627252,149.1650792,50105,0.07201627641916275,-0.017340295016765594,-0.1629134863615036,-0.011471987701952457,0.039043769240379333,-0.05884901434183121,-117,-43,-987,-7,40,-58,551,-127,1,634020,634.0199584960938,0.0,1500.0
13:56:50.964,AUTO,-35.362713,149.1650757,50103,0.07841802388429642,-0.010005967691540718,-0.1647070199251175,0.6802673935890198,0.028640763834118843,-0.04664380103349686,-113,-26,-987,683,29,-45,526,-121,2,634020,634.0199584960938,0.0,1500.0
13:56:51.165,AUTO,-35.3627015,149.1650723,50098,0.08550021797418594,-0.00016375571431126446,-0.1662534475326538,0.7417256236076355,0.05050629377365112,-0.036016106605529785,-102,-38,-988,742,51,-34,501,-116,3,634010,634.010009765625,0.0,1500.0
13:56:51.366,AUTO,-35.3626903,149.165069,50092,0.07803957164287567,0.014495901763439178,-0.1651241034269333,-0.30892637372016907,0.04223310574889183,0.04908870905637741,-102,-38,-988,742,51,-34,474,-109,3,634010,634.010009765625,0.0,1500.0
13:56:51.569,AUTO,-35.3626903,149.165069,50092,0.07803957164287567,0.014495901763439178,-0.1651241034269333,-0.30892637372016907,0.04223310574889183,0.04908870905637741,-102,-91,-996,-309,43,50,474,-109,3,634010,634.010009765625,0.0,1500.0
13:56:51.770,AUTO,-35.3626799,149.165066,50085,0.06111648678779602,0.02665567956864834,-0.16424965858459473,-0.9291226863861084,0.04313255846500397,0.03763175010681152,-91,-98,-989,-928,44,38,446,-100,4,634000,634.0,0.0,1500.0
13:56:51.970,AUTO,-35.3626701,149.1650632,50075,0.056396499276161194,0.041008371859788895,-0.1652565449476242,-0.5691725611686707,0.033740486949682236,-0.009259527549147606,-90,-57,-1009,-565,34,-8,417,-92,4,633990,633.989990234375,0.0,1500.0
13:56:52.171,AUTO,-35.3626701,149.1650632,50075,0.056396499276161194,0.041008371859788895,-0.1652565449476242,-0.5691725611686707,0.033740486949682236,-0.009259527549147606,-90,-57,-1009,-565,34,-8,417,-92,4,633990,633.989990234375,0.0,1500.0
13:56:52.373,AUTO,-35.3626701,149.1650632,50075,0.056396499276161194,0.041008371859788895,-0.1652565449476242,-0.5691725611686707,0.033740486949682236,-0.009259527549147606,-90,-57,-1009,-565,34,-8,417,-92,4,633990,633.989990234375,0.0,1500.0
