time_stamp,MODE,lat,lon,relative_alt,roll,pitch,yaw,rollspeed,pitchspeed,yawspeed,xacc,yacc,zacc,xgyro,ygyro,zgyro,vx,vy,vz,RTL_ALT
05:52:02.320,STABILIZE,-35.3632621,149.1652375,5,-0.000760501017794013,0.0009449404897168279,0.024722756817936897,0.0001412543933838606,0.00023140342091210186,0.00181174511089921,0,1,-1000,0,0,1,-1,1,0,1500.0
05:52:02.523,STABILIZE,-35.3632621,149.1652375,5,-0.000760501017794013,0.0009449404897168279,0.024722756817936897,0.0001412543933838606,0.00023140342091210186,0.00181174511089921,0,1,-1000,0,0,1,-1,1,0,1500.0
05:52:02.724,STABILIZE,-35.3632621,149.1652375,5,-0.000760501017794013,0.0009449404897168279,0.024722756817936897,0.0001412543933838606,0.00023140342091210186,0.00181174511089921,0,1,-1000,0,0,1,-1,1,0,1500.0
05:52:02.926,STABILIZE,-35.3632621,149.1652375,4,-0.0009067223872989416,0.0009220642386935651,0.024262813851237297,0.0002607142669148743,0.00025004957569763064,0.0019594139885157347,0,2,-1000,0,0,0,-1,1,0,1500.0
05:52:03.128,STABILIZE,-35.3632621,149.1652375,3,-0.0009067223872989416,0.0009220642386935651,0.024262813851237297,0.0002607142669148743,0.00025004957569763064,0.0019594139885157347,0,1,-1000,0,0,0,-1,1,0,1500.0
05:52:03.329,STABILIZE,-35.3632621,149.1652375,3,-0.0009067223872989416,0.0009220642386935651,0.024262813851237297,0.0002607142669148743,0.00025004957569763064,0.0019594139885157347,0,1,-1000,0,0,1,-1,1,0,1500.0
05:52:03.531,STABILIZE,-35.3632621,149.1652375,3,-0.0009067223872989416,0.0009220642386935651,0.024262813851237297,0.0002607142669148743,0.00025004957569763064,0.0019594139885157347,0,1,-1000,0,0,1,-1,1,0,1500.0
05:52:03.733,STABILIZE,-35.3632621,149.1652375,3,-0.0009067223872989416,0.0009220642386935651,0.024262813851237297,0.0002607142669148743,0.00025004957569763064,0.0019594139885157347,0,1,-1000,0,0,1,-1,1,0,1500.0
05:52:03.935,STABILIZE,-35.3632621,149.1652375,2,-0.0009713858598843217,0.0009239225764758885,0.023900112137198448,0.00022770033683627844,0.0003037079586647451,0.001872736494988203,0,1,-1000,0,0,0,-1,1,0,1500.0
05:52:04.137,STABILIZE,-35.3632621,149.1652375,2,-0.0009713858598843217,0.0009239225764758885,0.023900112137198448,0.00022770033683627844,0.0003037079586647451,0.001872736494988203,0,1,-1000,0,0,0,-1,1,0,1500.0
05:52:04.338,STABILIZE,-35.3632621,149.1652375,2,-0.0009713858598843217,0.0009239225764758885,0.023900112137198448,0.00022770033683627844,0.0003037079586647451,0.001872736494988203,0,1,-1000,0,0,0,-1,1,0,1500.0
05:52:04.540,STABILIZE,-35.3632621,149.1652375,2,-0.0009713858598843217,0.0009239225764758885,0.023900112137198448,0.00022770033683627844,0.0003037079586647451,0.001872736494988203,0,1,-1000,0,0,0,-1,1,0,1500.0
05:52:04.742,STABILIZE,-35.3632621,149.1652375,2,-0.0009713858598843217,0.0009239225764758885,0.023900112137198448,0.00022770033683627844,0.0003037079586647451,0.001872736494988203,0,1,-1000,0,0,0,-1,1,0,1500.0
05:52:04.945,STABILIZE,-35.3632621,149.1652376,0,-0.0008664832566864789,0.0009085507481358945,0.0235322006046772,0.00021171540720388293,0.00022674159845337272,0.001658812863752246,0,1,-1000,0,0,1,-1,2,2,1500.0
05:52:05.146,STABILIZE,-35.3632621,149.1652376,0,-0.0009252603631466627,0.0009100948227569461,0.023427361622452736,0.0002549859927967191,0.00025440502213314176,0.0017698605079203844,0,2,-1000,0,1,1,-1,2,2,1500.0
05:52:05.349,STABILIZE,-35.3632621,149.1652376,0,-0.0009252603631466627,0.0009100948227569461,0.023427361622452736,0.0002549859927967191,0.00025440502213314176,0.0017698605079203844,0,2,-1000,0,1,1,-1,2,2,1500.0
05:52:05.551,STABILIZE,-35.3632622,149.1652375,0,-0.001046283869072795,0.0009244801476597786,0.02328568324446678,0.00030466262251138687,0.0003126150113530457,0.001666737487539649,0,1,-1000,0,0,1,-1,2,2,1500.0
05:52:05.752,STABILIZE,-35.3632622,149.1652375,0,-0.001046283869072795,0.0009244801476597786,0.02328568324446678,0.00030466262251138687,0.0003126150113530457,0.001666737487539649,0,1,-1000,0,0,1,-1,2,2,1500.0
05:52:05.953,STABILIZE,-35.3632621,149.1652375,0,-0.001112935016863048,0.0009294186602346599,0.023198941722512245,0.00023461441742256284,0.0002031397307291627,0.001601659576408565,0,1,-1000,0,0,1,-1,1,1,1500.0
05:52:06.155,STABILIZE,-35.3632621,149.1652375,0,-0.001158432918600738,0.0009298634249716997,0.02312161773443222,0.00010214094072580338,0.00032461259979754686,0.001607647631317377,0,1,-1000,0,0,1,-1,1,1,1500.0
05:52:06.356,STABILIZE,-35.3632621,149.1652375,0,-0.001158432918600738,0.0009298634249716997,0.02312161773443222,0.00010214094072580338,0.00032461259979754686,0.001607647631317377,0,1,-1000,0,0,1,-1,1,1,1500.0
05:52:06.557,STABILIZE,-35.3632621,149.1652375,0,-0.001158432918600738,0.0009298634249716997,0.02312161773443222,0.00010214094072580338,0.00032461259979754686,0.001607647631317377,0,1,-1000,0,0,1,-1,1,1,1500.0
05:52:06.759,STABILIZE,-35.3632621,149.1652375,0,-0.001158432918600738,0.0009298634249716997,0.02312161773443222,0.00010214094072580338,0.00032461259979754686,0.001607647631317377,0,1,-1000,0,0,1,-1,1,1,1500.0
05:52:06.960,STABILIZE,-35.3632622,149.1652375,0,-0.0012552537955343723,0.0009417056571692228,0.02291644737124443,0.00020210735965520144,0.000361323996912688,0.0016185224521905184,0,1,-1000,0,0,0,-1,1,1,1500.0
05:52:07.162,STABILIZE,-35.3632621,149.1652375,0,-0.0012552537955343723,0.0009417056571692228,0.02291644737124443,0.00020210735965520144,0.000361323996912688,0.0016185224521905184,0,1,-1000,0,1,0,-1,1,1,1500.0
05:52:07.363,STABILIZE,-35.3632621,149.1652375,0,-0.0012552537955343723,0.0009417056571692228,0.02291644737124443,0.00020210735965520144,0.000361323996912688,0.0016185224521905184,0,1,-1000,0,1,0,-1,1,1,1500.0
05:52:07.564,STABILIZE,-35.3632621,149.1652375,0,-0.0012552537955343723,0.0009417056571692228,0.02291644737124443,0.00020210735965520144,0.000361323996912688,0.0016185224521905184,0,1,-1000,0,1,0,-1,1,1,1500.0
05:52:07.766,STABILIZE,-35.3632621,149.1652375,0,-0.0012552537955343723,0.0009417056571692228,0.02291644737124443,0.00020210735965520144,0.000361323996912688,0.0016185224521905184,0,1,-1000,0,1,0,-1,1,1,1500.0
05:52:07.967,STABILIZE,-35.3632622,149.1652375,0,-0.0012019544374197721,0.0009523226181045175,0.022689538076519966,0.0002102518337778747,0.00030224077636376023,0.0016403368208557367,0,1,-1000,0,1,0,-1,1,2,1500.0
05:52:08.169,STABILIZE,-35.3632622,149.1652375,0,-0.0012019544374197721,0.0009523226181045175,0.022689538076519966,0.0002102518337778747,0.00030224077636376023,0.0016403368208557367,0,1,-1000,0,1,0,-1,1,2,1500.0
05:52:08.371,STABILIZE,-35.3632622,149.1652375,0,-0.0012019544374197721,0.0009523226181045175,0.022689538076519966,0.0002102518337778747,0.00030224077636376023,0.0016403368208557367,0,1,-1000,0,1,0,-1,1,2,1500.0
05:52:08.572,STABILIZE,-35.3632622,149.1652375,0,-0.0012019544374197721,0.0009523226181045175,0.022689538076519966,0.0002102518337778747,0.00030224077636376023,0.0016403368208557367,0,1,-1000,0,1,0,-1,1,2,1500.0
05:52:08.774,STABILIZE,-35.3632622,149.1652375,0,-0.0012019544374197721,0.0009523226181045175,0.022689538076519966,0.0002102518337778747,0.00030224077636376023,0.0016403368208557367,0,1,-1000,0,1,0,-1,1,2,1500.0
05:52:08.975,STABILIZE,-35.3632622,149.1652375,0,-0.0012019544374197721,0.0009523226181045175,0.022689538076519966,0.0002102518337778747,0.00030224077636376023,0.0016403368208557367,0,1,-1000,0,1,0,-1,1,2,1500.0
05:52:09.177,STABILIZE,-35.3632622,149.1652375,0,-0.0012019544374197721,0.0009523226181045175,0.022689538076519966,0.0002102518337778747,0.00030224077636376023,0.0016403368208557367,0,1,-1000,0,1,0,-1,1,2,1500.0
05:52:09.379,AUTO,-35.3632622,149.1652375,0,-0.001339717535302043,0.0009638533229008317,0.022354740649461746,0.00036249938420951366,8.670450188219547e-05,0.0015446547186002135,0,1,-1000,0,0,0,-1,1,0,1500.0
05:52:09.580,AUTO,-35.3632622,149.1652375,7,-0.0013485245872288942,0.0009700992377474904,0.02231685258448124,0.00015207892283797264,0.00028909463435411453,0.0015801505651324987,0,1,-1000,0,1,1,-1,0,0,1500.0
05:52:09.781,AUTO,-35.3632622,149.1652375,7,-0.001356502645649016,0.0009706859127618372,0.022259915247559547,0.00022331078071147203,0.0003497250727377832,0.0015206417301669717,0,1,-1000,0,0,1,-1,0,0,1500.0
05:52:09.983,AUTO,-35.3632622,149.1652375,7,-0.001356502645649016,0.0009706859127618372,0.022259915247559547,0.00022331078071147203,0.0003497250727377832,0.0015206417301669717,0,1,-1000,0,0,1,-1,0,0,1500.0
05:52:10.184,AUTO,-35.3632621,149.1652375,7,-0.0013452866114675999,0.0009829096961766481,0.02220926433801651,0.0003105826326645911,0.0003008393105119467,0.0015008000191301107,0,2,-1000,1,1,1,-1,0,0,1500.0
05:52:10.396,AUTO,-35.3632621,149.1652375,7,-0.0013452866114675999,0.0009829096961766481,0.02220926433801651,0.0003105826326645911,0.0003008393105119467,0.0015008000191301107,0,2,-1000,1,1,1,-1,0,0,1500.0
05:52:10.598,AUTO,-35.3632621,149.1652375,7,-0.0013452866114675999,0.0009829096961766481,0.02220926433801651,0.0003105826326645911,0.0003008393105119467,0.0015008000191301107,0,2,-1000,1,1,1,-1,0,0,1500.0
05:52:10.799,AUTO,-35.3632621,149.1652375,7,-0.0011054313508793712,0.001107945223338902,0.022053129971027374,0.0006908903014846146,0.000363522965926677,0.0015158432070165873,0,23,-968,1,1,1,0,1,1,1500.0
05:52:11.001,AUTO,-35.3632621,149.1652375,7,-0.0011054313508793712,0.001107945223338902,0.022053129971027374,0.0006908903014846146,0.000363522965926677,0.0015158432070165873,0,23,-968,1,1,1,0,1,1,1500.0
05:52:11.202,AUTO,-35.3632621,149.1652375,5,-0.0010612792102620006,0.0011671795509755611,0.02200019732117653,0.00039874378126114607,0.00023935321951285005,0.0015986320795491338,0,1,-1000,1,0,0,0,0,1,1500.0
05:52:11.407,AUTO,-35.3632621,149.1652375,4,-0.0010203346610069275,0.001225682208314538,0.021930137649178505,0.0003089380916208029,0.0002039523678831756,0.0014284939970821142,0,2,-1000,0,1,1,0,0,1,1500.0
05:52:11.609,AUTO,-35.3632621,149.1652375,4,-0.0009690892184153199,0.0012911355588585138,0.021860240027308464,0.000410980312153697,0.00025656685465946794,0.0014877934008836746,0,1,-1000,0,1,1,0,0,1,296502.0
05:52:11.811,AUTO,-35.3632621,149.1652375,4,-0.0009171992423944175,0.001354751642793417,0.02180788852274418,0.00024219293845817447,0.0002669994137249887,0.0013042362406849861,0,1,-1000,0,1,0,0,0,1,296502.0
05:52:12.013,AUTO,-35.3632621,149.1652375,4,-0.0009171992423944175,0.001354751642793417,0.02180788852274418,0.00024219293845817447,0.0002669994137249887,0.0013042362406849861,0,1,-1000,0,1,0,0,0,1,296502.0
05:52:12.215,AUTO,-35.3632621,149.1652375,5,-0.000871006865054369,0.0014206116320565343,0.021756643429398537,0.00023810763377696276,0.00036307971458882093,0.0014761009952053428,0,1,-1000,1,0,0,0,0,0,296502.0
05:52:12.416,AUTO,-35.3632621,149.1652375,5,-0.000871006865054369,0.0014206116320565343,0.021756643429398537,0.00023810763377696276,0.00036307971458882093,0.0014761009952053428,0,1,-1000,1,0,0,0,0,0,296502.0
05:52:12.618,AUTO,-35.3632621,149.1652375,5,-0.000871006865054369,0.0014206116320565343,0.021756643429398537,0.00023810763377696276,0.00036307971458882093,0.0014761009952053428,0,1,-1000,1,0,0,0,0,0,296502.0
05:52:12.820,AUTO,-35.3632621,149.1652374,7,-0.0006887197960168123,0.001643772586248815,0.02155447006225586,0.000273717800155282,0.0003137517487630248,0.0014623368624597788,0,1,-1000,0,0,1,0,0,0,296502.0
05:52:13.022,AUTO,-35.3632621,149.1652374,7,-0.0006887197960168123,0.001643772586248815,0.02155447006225586,0.000273717800155282,0.0003137517487630248,0.0014623368624597788,0,1,-1000,0,0,1,0,0,0,296502.0
05:52:13.224,AUTO,-35.3632621,149.1652374,7,-0.000624648411758244,0.0017194269457831979,0.02147694304585457,0.0003514971467666328,0.0003489492810331285,0.0014080421533435583,0,2,-1000,0,0,0,0,0,0,296502.0
05:52:13.425,AUTO,-35.3632621,149.1652374,10,0.0007024505757726729,0.0012028909986838698,0.021473746746778488,0.007966917008161545,-0.012611454352736473,0.0026758944150060415,0,0,-1077,8,-12,2,0,0,-4,296502.0
05:52:13.627,AUTO,-35.3632621,149.1652374,64,0.004026981070637703,-0.0005233536357991397,0.02147419936954975,0.007173859979957342,-0.0019002114422619343,0.0003463543835096061,0,0,-1140,7,-1,0,0,0,-37,296502.0
05:52:13.829,AUTO,-35.3632621,149.1652375,201,0.0034313423093408346,0.0002019495441345498,0.021396774798631668,0.008351660333573818,0.005474476609379053,0.0009802953572943807,0,0,-1129,9,5,0,0,0,-71,296502.0
05:52:14.030,AUTO,-35.3632621,149.1652375,201,0.0034313423093408346,0.0002019495441345498,0.021396774798631668,0.008351660333573818,0.005474476609379053,0.0009802953572943807,0,0,-1129,9,5,0,0,0,-71,296502.0
05:52:14.234,AUTO,-35.3632621,149.1652375,417,0.0018568320665508509,0.001145837944932282,0.021414561197161674,-0.011704493314027786,0.00267865601927042,0.0002489131293259561,0,-1,-1108,-10,3,0,0,1,-100,296502.0
05:52:14.436,AUTO,-35.3632621,149.1652375,417,0.0018568320665508509,0.001145837944932282,0.021414561197161674,-0.011704493314027786,0.00267865601927042,0.0002489131293259561,0,-1,-1108,-10,3,0,0,1,-100,296502.0
05:52:14.638,AUTO,-35.3632621,149.1652375,417,0.0018568320665508509,0.001145837944932282,0.021414561197161674,-0.011704493314027786,0.00267865601927042,0.0002489131293259561,0,-1,-1108,-10,3,0,0,1,-100,296502.0
05:52:14.840,AUTO,-35.3632621,149.1652375,417,0.0018568320665508509,0.001145837944932282,0.021414561197161674,-0.011704493314027786,0.00267865601927042,0.0002489131293259561,0,-1,-1108,-10,3,0,0,1,-100,296502.0
05:52:15.041,AUTO,-35.363262,149.1652376,1557,0.025947609916329384,-0.0016282462747767568,0.020862463861703873,0.046138688921928406,-0.0076504917815327644,0.002386468229815364,0,-1,-1012,46,-7,1,1,7,-146,296502.0
05:52:15.243,AUTO,-35.363262,149.1652378,1939,0.03718376159667969,-0.003669805359095335,0.02104726992547512,0.04400729760527611,-0.00848535168915987,0.0031630268786102533,0,-1,-1005,44,-7,2,2,14,-148,296502.0
05:52:15.444,AUTO,-35.3632619,149.1652383,2325,0.047762904316186905,-0.0060447705909609795,0.021260781213641167,0.041528962552547455,-0.00987490825355053,0.003547116881236434,0,-4,-1001,42,-9,3,4,23,-149,300000.0
05:52:15.646,AUTO,-35.3632617,149.1652391,2711,0.05768195167183876,-0.00886082835495472,0.021595044061541557,0.038176584988832474,-0.011825421825051308,0.004413888324052095,1,-4,-999,38,-11,3,6,34,-149,300000.0
05:52:15.849,AUTO,-35.3632617,149.1652391,2711,0.05768195167183876,-0.00886082835495472,0.021595044061541557,0.038176584988832474,-0.011825421825051308,0.004413888324052095,1,-4,-999,38,-11,3,6,34,-149,300000.0
05:52:16.052,AUTO,-35.3632615,149.1652402,3096,0.057423461228609085,-0.004166533704847097,-0.013316077180206776,-0.06355257332324982,0.07087882608175278,-0.09061882644891739,0,-9,-990,-62,71,-90,9,47,-147,300000.0
05:52:16.255,AUTO,-35.3632613,149.1652416,3475,0.026799708604812622,0.02023335173726082,-0.03817305341362953,-0.17470604181289673,0.06653881072998047,-0.09188168495893478,3,-11,-993,-174,67,-92,9,54,-145,300000.0
05:52:16.457,AUTO,-35.3632613,149.1652416,3475,0.026799708604812622,0.02023335173726082,-0.03817305341362953,-0.17470604181289673,0.06653881072998047,-0.09188168495893478,3,-11,-993,-174,67,-92,9,54,-145,300000.0
05:52:16.659,AUTO,-35.3632613,149.1652416,3475,0.026799708604812622,0.02023335173726082,-0.03817305341362953,-0.17470604181289673,0.06653881072998047,-0.09188168495893478,3,-11,-993,-174,67,-92,9,54,-145,300000.0
05:52:16.862,AUTO,-35.3632613,149.1652416,3475,0.026799708604812622,0.02023335173726082,-0.03817305341362953,-0.17470604181289673,0.06653881072998047,-0.09188168495893478,3,-11,-993,-174,67,-92,9,54,-145,300000.0
05:52:17.064,AUTO,-35.3632609,149.1652454,4617,-0.03843133524060249,0.02658725157380104,-0.09464280307292938,-0.024137528613209724,-0.018865352496504784,-0.04848956689238548,5,-7,-1003,-23,-18,-48,-5,32,-150,300000.0
05:52:17.265,AUTO,-35.363261,149.1652461,5004,-0.04898316040635109,0.015057713724672794,-0.09939422458410263,-0.05351012945175171,-0.06346847862005234,0.0028841528110206127,5,-4,-1000,-53,-62,2,-9,20,-150,300000.0
05:52:17.467,AUTO,-35.3632612,149.1652464,5390,-0.06427391618490219,-0.005897131282836199,-0.08967993408441544,-0.06273946166038513,-0.09718801826238632,0.0547029972076416,4,-2,-1000,-61,-96,54,-10,5,-150,300000.0
05:52:17.669,AUTO,-35.3632614,149.1652463,5775,-0.07300189137458801,-0.021080734208226204,-0.08050406724214554,0.003925216384232044,-0.01618599332869053,0.0107266241684556,1,2,-1003,4,-15,10,-6,-12,-150,300000.0
05:52:17.871,AUTO,-35.3632614,149.1652463,5775,-0.07300189137458801,-0.021080734208226204,-0.08050406724214554,0.003925216384232044,-0.01618599332869053,0.0107266241684556,1,2,-1003,4,-15,10,-6,-12,-150,300000.0
05:52:18.073,AUTO,-35.3632615,149.1652458,6159,-0.06559284776449203,-0.020459774881601334,-0.07983925193548203,0.044423386454582214,0.004651522263884544,0.006555147003382444,0,3,-1002,44,5,6,-2,-29,-150,300000.0
05:52:18.276,AUTO,-35.3632616,149.1652448,6544,-0.05244555324316025,-0.019443463534116745,-0.07985929399728775,0.05796923488378525,0.003160650609061122,0.006573176011443138,-3,6,-1001,58,3,6,0,-43,-150,300000.0
05:52:18.478,AUTO,-35.3632616,149.1652448,6544,-0.05244555324316025,-0.019443463534116745,-0.07985929399728775,0.05796923488378525,0.003160650609061122,0.006573176011443138,-3,6,-1001,58,3,6,0,-43,-150,300000.0
05:52:18.702,AUTO,-35.3632616,149.1652448,6544,-0.05244555324316025,-0.019443463534116745,-0.07985929399728775,0.05796923488378525,0.003160650609061122,0.006573176011443138,-3,6,-1001,58,3,6,0,-43,-150,300000.0
05:52:18.904,AUTO,-35.3632615,149.1652403,7700,-0.005912998225539923,-0.010686345398426056,-0.07872428745031357,0.06465062499046326,0.017405929043889046,0.005480136722326279,-9,12,-1003,65,17,5,6,-60,-151,300000.0
05:52:19.106,AUTO,-35.3632615,149.1652403,7700,-0.005912998225539923,-0.010686345398426056,-0.07872428745031357,0.06465062499046326,0.017405929043889046,0.005480136722326279,-9,12,-1003,65,17,5,6,-60,-151,300000.0
05:52:19.308,AUTO,-35.3632614,149.1652386,8089,0.010026063770055771,-0.0060913399793207645,-0.07802984863519669,0.06565988808870316,0.018672775477170944,0.005162253510206938,-9,9,-1004,66,19,4,6,-57,-152,300000.0
05:52:19.509,AUTO,-35.3632612,149.1652371,8483,0.0261781495064497,-0.001404113252647221,-0.07725898921489716,0.06336599588394165,0.018136098980903625,0.0049410173669457436,-8,12,-1004,64,18,4,5,-50,-153,288550.0
05:52:19.711,AUTO,-35.3632611,149.1652358,8876,0.041076354682445526,0.0032542042899876833,-0.07709526270627975,0.050238821655511856,0.02511763758957386,-0.007252057548612356,-7,9,-1001,50,26,-7,4,-41,-154,288550.0
05:52:19.913,AUTO,-35.363261,149.1652347,9270,0.04952704906463623,0.013091165572404861,-0.08220590651035309,0.029471877962350845,0.043424688279628754,-0.029277756810188293,-5,4,-1000,30,44,-29,2,-28,-154,288550.0
05:52:20.116,AUTO,-35.363261,149.1652347,9270,0.04952704906463623,0.013091165572404861,-0.08220590651035309,0.029471877962350845,0.043424688279628754,-0.029277756810188293,-5,4,-1000,30,44,-29,2,-28,-154,288550.0
05:52:20.318,AUTO,-35.363261,149.1652341,9662,0.05529562383890152,0.02484608255326748,-0.09164916723966599,0.01904306560754776,0.046129222959280014,-0.04536912962794304,-4,5,-999,19,46,-45,-1,-14,-153,288550.0
05:52:20.520,AUTO,-35.363261,149.1652341,9662,0.05529562383890152,0.02484608255326748,-0.09164916723966599,0.01904306560754776,0.046129222959280014,-0.04536912962794304,-4,5,-999,19,46,-45,-1,-14,-153,288550.0
05:52:20.722,AUTO,-35.363261,149.1652341,9662,0.05529562383890152,0.02484608255326748,-0.09164916723966599,0.01904306560754776,0.046129222959280014,-0.04536912962794304,-4,5,-999,19,46,-45,-1,-14,-153,288550.0
05:52:20.924,AUTO,-35.3632616,149.1652342,10821,0.028488684445619583,0.016614852473139763,-0.10178273916244507,-0.08020259439945221,-0.05559387430548668,0.024556197226047516,4,0,-998,-79,-54,24,-16,22,-150,288550.0
05:52:21.125,AUTO,-35.3632616,149.1652342,10821,0.028488684445619583,0.016614852473139763,-0.10178273916244507,-0.08020259439945221,-0.05559387430548668,0.024556197226047516,4,0,-998,-79,-54,24,-16,22,-150,288550.0
05:52:21.327,AUTO,-35.3632619,149.1652348,11203,0.010481842793524265,0.004616899415850639,-0.09727039188146591,-0.06335734575986862,-0.03890658915042877,0.017063602805137634,6,0,-1002,-62,-38,16,-16,25,-150,288550.0
05:52:21.529,AUTO,-35.3632623,149.1652354,11587,-0.0024306592531502247,-0.0032978514209389687,-0.09428992867469788,-0.0365665927529335,-0.026977548375725746,0.00970265083014965,6,-2,-1004,-36,-26,9,-15,24,-151,288550.0
05:52:21.731,AUTO,-35.3632626,149.165236,11973,-0.010801729746162891,-0.00836915336549282,-0.0936298817396164,-0.02287246100604534,-0.015496084466576576,-0.0009030462242662907,5,-3,-1003,-21,-14,-1,-11,21,-151,288550.0
05:52:21.932,AUTO,-35.3632628,149.1652365,12360,-0.015330910682678223,-0.011147878132760525,-0.09548617154359818,-0.012272484600543976,-0.006329368334263563,-0.010618398897349834,4,-2,-1002,-11,-5,-10,-8,16,-152,288550.0
05:52:22.134,AUTO,-35.3632628,149.1652365,12360,-0.015330910682678223,-0.011147878132760525,-0.09548617154359818,-0.012272484600543976,-0.006329368334263563,-0.010618398897349834,4,-2,-1002,-11,-5,-10,-8,16,-152,288550.0
05:52:22.336,AUTO,-35.3632629,149.1652368,12753,-0.01703043282032013,-0.012137841433286667,-0.0994279533624649,0.000437278242316097,-0.0011731015983968973,-0.018042990937829018,2,-1,-1002,1,0,-18,-4,10,-152,288550.0
05:52:22.538,AUTO,-35.3632629,149.1652368,12753,-0.01703043282032013,-0.012137841433286667,-0.0994279533624649,0.000437278242316097,-0.0011731015983968973,-0.018042990937829018,2,-1,-1002,1,0,-18,-4,10,-152,288550.0
05:52:22.740,AUTO,-35.3632629,149.1652368,12753,-0.01703043282032013,-0.012137841433286667,-0.0994279533624649,0.000437278242316097,-0.0011731015983968973,-0.018042990937829018,2,-1,-1002,1,0,-18,-4,10,-152,288550.0
05:52:22.942,AUTO,-35.3632629,149.165237,13918,-0.008922231383621693,-0.007845854386687279,-0.11924994736909866,0.017914723604917526,0.010693921707570553,-0.02903270535171032,0,0,-1000,18,11,-29,4,-3,-153,288550.0
05:52:23.144,AUTO,-35.3632628,149.1652369,14308,-0.004770845174789429,-0.005239743739366531,-0.12667906284332275,0.01612217351794243,0.011285006999969482,-0.028224607929587364,-2,0,-1000,16,11,-28,5,-5,-153,288550.0
05:52:23.345,AUTO,-35.3632628,149.1652369,14308,-0.004770845174789429,-0.005239743739366531,-0.12667906284332275,0.01612217351794243,0.011285006999969482,-0.028224607929587364,-2,0,-1000,16,11,-28,5,-5,-153,288550.0
05:52:23.547,AUTO,-35.3632626,149.1652367,14698,-0.0006264359690248966,-0.0028765753377228975,-0.13341227173805237,0.016797751188278198,0.009285829961299896,-0.02456960454583168,-2,0,-1000,17,9,-25,6,-6,-153,14368.0
05:52:23.749,AUTO,-35.3632625,149.1652364,15088,0.0031928285025060177,-0.0002723339421208948,-0.14003890752792358,0.013880782760679722,0.012763339094817638,-0.02539154887199402,-3,0,-1000,14,13,-25,6,-7,-153,14368.0
05:52:23.951,AUTO,-35.3632623,149.1652362,15478,0.005982799455523491,0.0022023606579750776,-0.14613284170627594,0.011574512347579002,0.010297841392457485,-0.023099876940250397,-2,0,-1000,12,10,-23,6,-6,-153,14368.0
05:52:24.155,AUTO,-35.3632621,149.165236,15868,0.008003735914826393,0.004450700711458921,-0.1517745703458786,0.009572617709636688,0.007709575351327658,-0.019325390458106995,-2,0,-1000,10,8,-19,5,-5,-153,14368.0
05:52:24.358,AUTO,-35.3632621,149.165236,15868,0.008003735914826393,0.004450700711458921,-0.1517745703458786,0.009572617709636688,0.007709575351327658,-0.019325390458106995,-2,0,-1000,10,8,-19,5,-5,-153,14368.0
05:52:24.561,AUTO,-35.3632621,149.165236,15868,0.008003735914826393,0.004450700711458921,-0.1517745703458786,0.009572617709636688,0.007709575351327658,-0.019325390458106995,-2,0,-1000,10,8,-19,5,-5,-153,14368.0
05:52:24.763,AUTO,-35.3632621,149.165236,15868,0.008003735914826393,0.004450700711458921,-0.1517745703458786,0.009572617709636688,0.007709575351327658,-0.019325390458106995,-2,0,-1000,10,8,-19,5,-5,-153,14368.0
05:52:24.966,AUTO,-35.3632617,149.1652356,17038,0.009603791870176792,0.007808438967913389,-0.16532011330127716,-0.0005556943360716105,0.002038084203377366,-0.015620104968547821,-1,0,-999,0,2,-15,2,0,-153,14368.0
05:52:25.167,AUTO,-35.3632617,149.1652355,17431,0.009059988893568516,0.00800318457186222,-0.16878412663936615,-0.0025469334796071053,7.771066157147288e-05,-0.011439946480095387,0,0,-1000,-1,0,-11,1,1,-153,14368.0
05:52:25.369,AUTO,-35.3632617,149.1652355,17431,0.009059988893568516,0.00800318457186222,-0.16878412663936615,-0.0025469334796071053,7.771066157147288e-05,-0.011439946480095387,0,0,-1000,-1,0,-11,1,1,-153,14368.0
05:52:25.570,AUTO,-35.3632616,149.1652355,17820,0.0083100451156497,0.00798310711979866,-0.1721377670764923,-0.002826990559697151,-0.0014534014044329524,-0.01289419550448656,0,0,-1000,-1,0,-13,0,3,-153,14368.0
05:52:25.772,AUTO,-35.3632616,149.1652356,18210,0.007444632705301046,0.0075188991613686085,-0.17525477707386017,-0.001939656212925911,-0.00030404742574319243,-0.01389257237315178,0,0,-1000,-1,0,-14,0,4,-153,14368.0
05:52:25.973,AUTO,-35.3632615,149.1652355,18599,0.006604843307286501,0.007310337387025356,-0.17856048047542572,-0.0030278328340500593,-0.0019715598318725824,-0.012984278611838818,0,0,-1000,-2,-1,-13,-1,5,-153,14368.0
05:52:26.175,AUTO,-35.3632615,149.1652356,18988,0.005569061730057001,0.006572741083800793,-0.18166039884090424,-0.002898918930441141,-0.003992093726992607,-0.010504786856472492,0,0,-1000,-2,-3,-10,-2,6,-153,14368.0
05:52:26.377,AUTO,-35.3632615,149.1652356,18988,0.005569061730057001,0.006572741083800793,-0.18166039884090424,-0.002898918930441141,-0.003992093726992607,-0.010504786856472492,0,0,-1000,-2,-3,-10,-2,6,-153,14368.0
05:52:26.579,AUTO,-35.3632615,149.1652356,18988,0.005569061730057001,0.006572741083800793,-0.18166039884090424,-0.002898918930441141,-0.003992093726992607,-0.010504786856472492,0,0,-1000,-2,-3,-10,-2,6,-153,14368.0
05:52:26.781,AUTO,-35.3632615,149.1652356,18988,0.005569061730057001,0.006572741083800793,-0.18166039884090424,-0.002898918930441141,-0.003992093726992607,-0.010504786856472492,0,0,-1000,-2,-3,-10,-2,6,-153,14368.0
05:52:26.983,AUTO,-35.3632615,149.1652359,20152,0.0030569888185709715,0.0047101108357310295,-0.1922786980867386,-0.00305899977684021,-0.0009870165959000587,-0.016389643773436546,0,0,-1000,-2,0,-16,-3,6,-153,14368.0
05:52:27.184,AUTO,-35.3632615,149.1652361,20541,0.002197738504037261,0.004140844102948904,-0.19622379541397095,-0.0014053916092962027,-0.0022018051240593195,-0.015198423527181149,0,0,-1000,0,-1,-15,-3,6,-153,129035.0
05:52:27.386,AUTO,-35.3632616,149.1652362,20931,0.0016862027114257216,0.003645114367827773,-0.20053063333034515,-0.0020809525158256292,-0.0006023705354891717,-0.020884277299046516,0,0,-1000,-1,0,-21,-3,6,-153,129035.0
05:52:27.588,AUTO,-35.3632616,149.1652362,20931,0.0016862027114257216,0.003645114367827773,-0.20053063333034515,-0.0020809525158256292,-0.0006023705354891717,-0.020884277299046516,0,0,-1000,-1,0,-21,-3,6,-153,129035.0
05:52:27.789,AUTO,-35.3632616,149.1652363,21321,0.0011280267499387264,0.0034203031100332737,-0.2050885260105133,-0.0005312301218509674,-2.2170133888721466e-06,-0.01933836005628109,0,0,-1000,0,1,-19,-3,5,-153,129035.0
05:52:27.991,AUTO,-35.3632616,149.1652364,21710,0.0009172997088171542,0.003560359589755535,-0.21008165180683136,0.0009626804967410862,0.0008916998049244285,-0.019924506545066833,0,0,-1000,1,1,-20,-3,5,-153,129035.0
05:52:28.193,AUTO,-35.3632616,149.1652364,22103,0.0008210555533878505,0.003226296044886112,-0.21481536328792572,-0.0007180584943853319,-0.002514971885830164,-0.01850517839193344,0,0,-1000,0,-1,-18,-3,4,-153,129035.0
05:52:28.397,AUTO,-35.3632616,149.1652364,22103,0.0008210555533878505,0.003226296044886112,-0.21481536328792572,-0.0007180584943853319,-0.002514971885830164,-0.01850517839193344,0,0,-1000,0,-1,-18,-3,4,-153,129035.0
05:52:28.601,AUTO,-35.3632616,149.1652364,22103,0.0008210555533878505,0.003226296044886112,-0.21481536328792572,-0.0007180584943853319,-0.002514971885830164,-0.01850517839193344,0,0,-1000,0,-1,-18,-3,4,-153,129035.0
05:52:28.803,AUTO,-35.3632616,149.1652364,22103,0.0008210555533878505,0.003226296044886112,-0.21481536328792572,-0.0007180584943853319,-0.002514971885830164,-0.01850517839193344,0,0,-1000,0,-1,-18,-3,4,-153,129035.0
05:52:29.005,AUTO,-35.3632617,149.1652366,23272,0.0008345672977156937,0.002755439607426524,-0.2294776290655136,0.0016208902234211564,0.00044776074355468154,-0.020320219919085503,0,0,-1000,2,1,-20,-3,3,-154,129035.0
05:52:29.206,AUTO,-35.3632617,149.1652367,23661,0.0012862543808296323,0.002594630466774106,-0.23431526124477386,0.0020092595368623734,-0.0006110047688707709,-0.01873389631509781,0,0,-1000,2,0,-18,-3,3,-154,129035.0
05:52:29.408,AUTO,-35.3632618,149.1652367,24050,0.0015089546795934439,0.002346718916669488,-0.2390952706336975,0.0002806059783324599,-0.00048745868843980134,-0.022421784698963165,0,0,-1000,0,0,-22,-2,2,-154,129035.0
05:52:29.609,AUTO,-35.3632618,149.1652367,24050,0.0015089546795934439,0.002346718916669488,-0.2390952706336975,0.0002806059783324599,-0.00048745868843980134,-0.022421784698963165,0,0,-1000,0,0,-22,-2,2,-154,129035.0
05:52:29.811,AUTO,-35.3632618,149.1652367,24448,0.0015250423457473516,0.0026040386874228716,-0.24436794221401215,0.0014826583210378885,0.0026560453698039055,-0.023357272148132324,0,0,-1000,2,3,-23,-2,2,-154,129035.0
05:52:30.012,AUTO,-35.3632618,149.1652367,24838,0.0016127960989251733,0.0028960376512259245,-0.2495046854019165,0.0018738475628197193,0.001004515215754509,-0.01988046057522297,0,0,-1000,3,1,-20,-2,2,-154,129035.0
05:52:30.214,AUTO,-35.3632618,149.1652368,25227,-0.003699364373460412,0.003270224668085575,-0.253651887178421,-0.09697158634662628,0.008208195678889751,-0.007775323465466499,0,0,-988,-96,9,-8,-2,2,-153,129035.0
05:52:30.416,AUTO,-35.3632618,149.1652368,25227,-0.003699364373460412,0.003270224668085575,-0.253651887178421,-0.09697158634662628,0.008208195678889751,-0.007775323465466499,0,0,-988,-96,9,-8,-2,2,-153,129035.0
05:52:30.617,AUTO,-35.3632618,149.1652368,25227,-0.003699364373460412,0.003270224668085575,-0.253651887178421,-0.09697158634662628,0.008208195678889751,-0.007775323465466499,0,0,-988,-96,9,-8,-2,2,-153,129035.0
05:52:30.819,AUTO,-35.3632618,149.1652368,25227,-0.003699364373460412,0.003270224668085575,-0.253651887178421,-0.09697158634662628,0.008208195678889751,-0.007775323465466499,0,0,-988,-96,9,-8,-2,2,-153,129035.0
05:52:31.021,AUTO,-35.363262,149.1652366,26383,0.003920585848391056,0.004862010478973389,-0.24523739516735077,0.028791965916752815,-0.004159589298069477,0.02423657849431038,0,1,-1000,29,-3,23,-5,-2,-154,129035.0
05:52:31.223,AUTO,-35.3632621,149.1652366,26772,0.009033594280481339,0.003759826300665736,-0.23916788399219513,0.010823038406670094,-0.006171045824885368,0.02459321729838848,0,0,-999,11,-5,24,-5,0,-154,183132.0
05:52:31.424,AUTO,-35.3632622,149.1652365,27161,0.011093448847532272,0.002154855290427804,-0.23260623216629028,0.004649543669074774,-0.004988177679479122,0.02840280719101429,0,0,-999,5,-4,28,-5,1,-153,183132.0
05:52:31.626,AUTO,-35.3632622,149.1652365,27161,0.011093448847532272,0.002154855290427804,-0.23260623216629028,0.004649543669074774,-0.004988177679479122,0.02840280719101429,0,0,-999,5,-4,28,-5,1,-153,183132.0
05:52:31.827,AUTO,-35.3632623,149.1652366,27550,0.01113409548997879,0.0011156104737892747,-0.22623902559280396,-0.0033031292259693146,-0.0023105726577341557,0.02370661497116089,0,0,-999,-2,-1,23,-4,4,-153,183132.0
05:52:32.029,AUTO,-35.3632623,149.1652366,27938,0.009852115996181965,0.0006299094529822469,-0.2203109711408615,-0.006932680495083332,0.0006267039570957422,0.024119609966874123,0,0,-999,-5,1,23,-3,6,-153,183132.0
05:52:32.231,AUTO,-35.3632624,149.1652367,28325,0.007938403636217117,0.0008642890024930239,-0.21447065472602844,-0.007288134191185236,0.0008274127030745149,0.02501395344734192,1,0,-1000,-6,2,24,-2,7,-153,183132.0
05:52:32.432,AUTO,-35.3632624,149.1652367,28325,0.007938403636217117,0.0008642890024930239,-0.21447065472602844,-0.007288134191185236,0.0008274127030745149,0.02501395344734192,1,0,-1000,-6,2,24,-2,7,-153,183132.0
05:52:32.634,AUTO,-35.3632624,149.1652367,28325,0.007938403636217117,0.0008642890024930239,-0.21447065472602844,-0.007288134191185236,0.0008274127030745149,0.02501395344734192,1,0,-1000,-6,2,24,-2,7,-153,183132.0
05:52:32.836,AUTO,-35.3632624,149.1652367,28325,0.007938403636217117,0.0008642890024930239,-0.21447065472602844,-0.007288134191185236,0.0008274127030745149,0.02501395344734192,1,0,-1000,-6,2,24,-2,7,-153,183132.0
05:52:33.038,AUTO,-35.3632624,149.1652372,29489,0.0027997710276395082,0.0015849953051656485,-0.1986927092075348,-0.0035517222713679075,0.002270560245960951,0.021516751497983932,0,-1,-1000,-3,3,21,0,8,-153,183132.0
05:52:33.239,AUTO,-35.3632624,149.1652374,29876,0.0011872113682329655,0.0017412446904927492,-0.19369857013225555,-0.0066568017937242985,0.0011775337625294924,0.020217403769493103,0,-1,-1000,-5,2,19,0,8,-153,183132.0
05:52:33.441,AUTO,-35.3632624,149.1652375,30263,0.00038101780228316784,0.0019787277560681105,-0.1889750212430954,-0.0025485996156930923,0.0017532831989228725,0.01902378909289837,0,-1,-1000,-1,2,18,0,7,-153,183132.0
05:52:33.643,AUTO,-35.3632624,149.1652377,30651,-0.0003614878805819899,0.0018818068783730268,-0.18439362943172455,-0.001123647321946919,0.0010297037661075592,0.019732102751731873,0,-1,-1000,0,1,19,0,6,-153,183132.0
05:52:33.845,AUTO,-35.3632624,149.1652377,30651,-0.0003614878805819899,0.0018818068783730268,-0.18439362943172455,-0.001123647321946919,0.0010297037661075592,0.019732102751731873,0,-1,-1000,0,1,19,0,6,-153,183132.0
05:52:34.047,AUTO,-35.3632624,149.1652378,31039,-0.0009901641169562936,0.0016962665831670165,-0.18007737398147583,-0.0019684997387230396,-0.0012780072866007686,0.01779821515083313,0,-1,-1001,-1,0,17,0,5,-153,183132.0
05:52:34.250,AUTO,-35.3632624,149.1652379,31427,-0.0012339177774265409,0.001479109050706029,-0.17576879262924194,0.0011409895960241556,-0.0005784985842183232,0.016252530738711357,0,0,-1001,1,0,15,0,4,-153,183132.0
05:52:34.451,AUTO,-35.3632624,149.1652379,31427,-0.0012339177774265409,0.001479109050706029,-0.17576879262924194,0.0011409895960241556,-0.0005784985842183232,0.016252530738711357,0,0,-1001,1,0,15,0,4,-153,183132.0
05:52:34.653,AUTO,-35.3632624,149.1652379,31427,-0.0012339177774265409,0.001479109050706029,-0.17576879262924194,0.0011409895960241556,-0.0005784985842183232,0.016252530738711357,0,0,-1001,1,0,15,0,4,-153,183132.0
05:52:34.855,AUTO,-35.3632624,149.1652379,31427,-0.0012339177774265409,0.001479109050706029,-0.17576879262924194,0.0011409895960241556,-0.0005784985842183232,0.016252530738711357,0,0,-1001,1,0,15,0,4,-153,183132.0
05:52:35.058,AUTO,-35.3632623,149.165238,32592,-0.0004896728205494583,0.0012772059999406338,-0.16374549269676208,0.005771818105131388,0.0007718779961578548,0.01662495918571949,0,0,-1001,6,1,16,0,2,-153,183132.0
05:52:35.259,AUTO,-35.3632623,149.165238,32980,-8.653604163555428e-05,0.0015305915148928761,-0.16019320487976074,0.0013493590522557497,0.0018384321592748165,0.015523916110396385,0,0,-999,2,2,15,0,1,-153,139976.0
05:52:35.461,AUTO,-35.3632623,149.165238,33368,0.0004605557769536972,0.0016846833750605583,-0.1565372198820114,0.005376685410737991,0.0007437030435539782,0.014638528227806091,0,0,-1001,6,1,14,0,1,-153,139976.0
05:52:35.663,AUTO,-35.3632623,149.165238,33764,0.0006416037795133889,0.0016024850774556398,-0.15294234454631805,-0.0010077410843223333,0.0007408203673548996,0.014565949328243732,0,0,-999,0,1,14,0,0,-153,139976.0
05:52:35.866,AUTO,-35.3632623,149.165238,33764,0.0006416037795133889,0.0016024850774556398,-0.15294234454631805,-0.0010077410843223333,0.0007408203673548996,0.014565949328243732,0,0,-999,0,1,14,0,0,-153,139976.0
05:52:36.068,AUTO,-35.3632623,149.165238,34153,0.0007472438155673444,0.001322522759437561,-0.14976812899112701,0.003755369456484914,-1.1311436537653208e-05,0.014300908893346786,0,0,-1001,4,0,14,0,0,-153,139976.0
05:52:36.270,AUTO,-35.3632622,149.165238,34541,0.0010535935871303082,0.0013476237654685974,-0.14650772511959076,0.00138570717535913,-0.0011747046373784542,0.012491381727159023,0,0,-1000,2,0,12,0,0,-153,139976.0
05:52:36.472,AUTO,-35.3632622,149.165238,34541,0.0010535935871303082,0.0013476237654685974,-0.14650772511959076,0.00138570717535913,-0.0011747046373784542,0.012491381727159023,0,0,-1000,2,0,12,0,0,-153,139976.0
05:52:36.674,AUTO,-35.3632622,149.165238,34541,0.0010535935871303082,0.0013476237654685974,-0.14650772511959076,0.00138570717535913,-0.0011747046373784542,0.012491381727159023,0,0,-1000,2,0,12,0,0,-153,139976.0
05:52:36.875,AUTO,-35.3632622,149.165238,34541,0.0010535935871303082,0.0013476237654685974,-0.14650772511959076,0.00138570717535913,-0.0011747046373784542,0.012491381727159023,0,0,-1000,2,0,12,0,0,-153,139976.0
05:52:37.077,AUTO,-35.3632622,149.1652379,35705,0.0013455285225063562,0.0009245960391126573,-0.13761091232299805,0.0003650663420557976,-0.0004947611014358699,0.011882542632520199,0,0,-1000,1,0,11,0,0,-153,139976.0
05:52:37.278,AUTO,-35.3632622,149.1652379,36094,0.0011820222716778517,0.0009935537818819284,-0.13469018042087555,-0.0007898235926404595,0.0028465124778449535,0.010786074213683605,0,0,-999,0,4,10,0,0,-153,139976.0
05:52:37.481,AUTO,-35.3632622,149.1652379,36481,0.0012151161208748817,0.0013826413778588176,-0.1321818083524704,0.0030509019270539284,0.0027873641811311245,0.010059342719614506,0,0,-1000,4,3,10,0,0,-153,139976.0
05:52:37.683,AUTO,-35.3632622,149.1652378,36870,0.0012789202155545354,0.0016469083493575454,-0.129993736743927,0.0014561197021976113,0.0010397301521152258,0.012583794072270393,0,0,-999,2,2,12,0,0,-153,139976.0
05:52:37.885,AUTO,-35.3632622,149.1652378,36870,0.0012789202155545354,0.0016469083493575454,-0.129993736743927,0.0014561197021976113,0.0010397301521152258,0.012583794072270393,0,0,-999,2,2,12,0,0,-153,139976.0
05:52:38.087,AUTO,-35.3632622,149.1652378,37258,0.001533589093014598,0.0016317976405844092,-0.12776809930801392,0.004068905487656593,0.00082478451076895,0.009572421200573444,0,0,-1001,5,1,9,0,0,-153,139976.0
05:52:38.290,AUTO,-35.3632622,149.1652377,37647,0.001796712982468307,0.0013687669998034835,-0.12542247772216797,0.001638436340726912,-0.0020777408499270678,0.009256582707166672,0,0,-1000,2,0,9,0,0,-153,139976.0
05:52:38.491,AUTO,-35.3632622,149.1652377,37647,0.001796712982468307,0.0013687669998034835,-0.12542247772216797,0.001638436340726912,-0.0020777408499270678,0.009256582707166672,0,0,-1000,2,0,9,0,0,-153,139976.0
05:52:38.694,AUTO,-35.3632622,149.1652377,37647,0.001796712982468307,0.0013687669998034835,-0.12542247772216797,0.001638436340726912,-0.0020777408499270678,0.009256582707166672,0,0,-1000,2,0,9,0,0,-153,139976.0
05:52:38.898,AUTO,-35.3632622,149.1652377,37647,0.001796712982468307,0.0013687669998034835,-0.12542247772216797,0.001638436340726912,-0.0020777408499270678,0.009256582707166672,0,0,-1000,2,0,9,0,0,-153,139976.0
05:52:39.100,AUTO,-35.3632621,149.1652376,38810,0.002454905305057764,0.0016359870787709951,-0.11812817305326462,0.0011537286918610334,0.0011923897545784712,0.011642768047749996,0,0,-1000,2,1,11,0,0,-153,139976.0
05:52:39.301,AUTO,-35.3632621,149.1652376,39198,0.0022029131650924683,0.0016003166092559695,-0.11624020338058472,0.0009116064757108688,-0.0007068617851473391,0.0067679136991500854,0,0,-1000,2,0,6,0,0,-153,87618.0
05:52:39.502,AUTO,-35.3632621,149.1652376,39586,0.0019446003716439009,0.0014624287141487002,-0.11437354981899261,-0.004140336997807026,-0.0007724420283921063,0.007646770216524601,0,0,-999,-3,0,7,0,0,-153,87618.0
05:52:39.704,AUTO,-35.3632621,149.1652375,39974,0.0019269633339717984,0.0014512676279991865,-0.11248970031738281,0.003040300216525793,0.001476793666370213,0.008976639248430729,0,0,-1000,3,2,8,0,0,-153,87618.0
05:52:39.906,AUTO,-35.3632621,149.1652375,40362,0.0019287894247099757,0.0014667148934677243,-0.11057020723819733,-0.0011789140990003943,0.0006042937748134136,0.008814073167741299,0,0,-999,0,1,8,-1,0,-153,87618.0
05:52:40.108,AUTO,-35.3632621,149.1652375,40362,0.0019287894247099757,0.0014667148934677243,-0.11057020723819733,-0.0011789140990003943,0.0006042937748134136,0.008814073167741299,0,0,-999,0,1,8,-1,0,-153,87618.0
05:52:40.309,AUTO,-35.3632621,149.1652375,40750,0.001839143456891179,0.0013210023753345013,-0.10873224586248398,-0.00026866240659728646,-0.0013129013823345304,0.007813598029315472,0,0,-1000,0,0,7,-1,0,-153,87618.0
05:52:40.511,AUTO,-35.3632621,149.1652375,40750,0.001839143456891179,0.0013210023753345013,-0.10873224586248398,-0.00026866240659728646,-0.0013129013823345304,0.007813598029315472,0,0,-1000,0,0,7,-1,0,-153,87618.0
05:52:40.713,AUTO,-35.3632621,149.1652375,40750,0.001839143456891179,0.0013210023753345013,-0.10873224586248398,-0.00026866240659728646,-0.0013129013823345304,0.007813598029315472,0,0,-1000,0,0,7,-1,0,-153,87618.0
05:52:40.915,AUTO,-35.3632621,149.1652374,41914,0.0020233867689967155,0.001768769696354866,-0.10378481447696686,0.003105205949395895,0.0002913683420047164,0.009429562836885452,0,0,-1000,4,1,9,-1,1,-153,87618.0
05:52:41.116,AUTO,-35.3632621,149.1652374,41914,0.0020233867689967155,0.001768769696354866,-0.10378481447696686,0.003105205949395895,0.0002913683420047164,0.009429562836885452,0,0,-1000,4,1,9,-1,1,-153,87618.0
05:52:41.318,AUTO,-35.3632621,149.1652374,42302,0.001832250622101128,0.0016917511820793152,-0.10222353041172028,-0.002647546585649252,-0.002284654416143894,0.007829815149307251,0,0,-1000,-1,-1,7,-1,1,-153,87618.0
05:52:41.520,AUTO,-35.3632621,149.1652374,42690,0.0017059949459508061,0.0014048725133761764,-0.10056934505701065,-0.0005701727350242436,-0.001914703520014882,0.009798094630241394,0,0,-1000,0,0,9,-1,1,-153,87618.0
05:52:41.721,AUTO,-35.3632621,149.1652374,43081,0.0016341367736458778,0.0012874531093984842,-0.0988306924700737,-0.0009939644951373339,0.0003947606310248375,0.005103066563606262,0,0,-1000,0,1,5,-1,1,-153,87618.0
05:52:41.923,AUTO,-35.363262,149.1652374,43470,0.0015616178279742599,0.0014330364065244794,-0.09733839333057404,0.0019740755669772625,0.00061467953491956,0.006975967902690172,0,0,-1000,3,1,7,-1,1,-153,87618.0
05:52:42.125,AUTO,-35.363262,149.1652374,43470,0.0015616178279742599,0.0014330364065244794,-0.09733839333057404,0.0019740755669772625,0.00061467953491956,0.006975967902690172,0,0,-1000,3,1,7,-1,1,-153,87618.0
05:52:42.328,AUTO,-35.363262,149.1652374,43858,0.0015323873376473784,0.0013178922235965729,-0.09553271532058716,0.001285519334487617,7.158273365348577e-05,0.009056512266397476,0,0,-999,2,1,9,-1,1,-153,87618.0
05:52:42.529,AUTO,-35.363262,149.1652374,43858,0.0015323873376473784,0.0013178922235965729,-0.09553271532058716,0.001285519334487617,7.158273365348577e-05,0.009056512266397476,0,0,-999,2,1,9,-1,1,-153,87618.0
05:52:42.731,AUTO,-35.363262,149.1652374,43858,0.0015323873376473784,0.0013178922235965729,-0.09553271532058716,0.001285519334487617,7.158273365348577e-05,0.009056512266397476,0,0,-999,2,1,9,-1,1,-153,87618.0
05:52:42.933,AUTO,-35.363262,149.1652374,45017,0.00198014872148633,0.0013312496012076735,-0.09112733602523804,0.0010939639760181308,0.001163854030892253,0.004484956618398428,0,0,-1001,2,2,4,-1,1,-153,87618.0
05:52:43.134,AUTO,-35.363262,149.1652374,45017,0.00198014872148633,0.0013312496012076735,-0.09112733602523804,0.0010939639760181308,0.001163854030892253,0.004484956618398428,0,0,-1001,2,2,4,-1,1,-153,87618.0
05:52:43.336,AUTO,-35.363262,149.1652374,45406,0.0018524336628615856,0.0012426439207047224,-0.08970222622156143,-0.0005754950689151883,-0.0005642450414597988,0.005347996950149536,0,0,-1000,0,0,5,-1,1,-153,106364.0
05:52:43.538,AUTO,-35.363262,149.1652374,45794,0.0016452810959890485,0.0012061633169651031,-0.0884581208229065,-0.0022979583591222763,0.00022704829461872578,0.008188946172595024,0,0,-999,-1,1,8,-1,1,-153,106364.0
05:52:43.740,AUTO,-35.363262,149.1652374,46182,0.0015265269903466105,0.0011575849493965507,-0.08708219975233078,-0.0007931593572720885,-0.00020829937420785427,0.006886451970785856,0,0,-1000,0,0,7,-1,1,-153,106364.0
05:52:43.941,AUTO,-35.363262,149.1652374,46569,-0.002273803809657693,0.004637829028069973,-0.07790736109018326,-0.054400067776441574,0.053305286914110184,0.11215507239103317,0,-1,-976,-53,54,112,-1,1,-151,106364.0
05:52:44.144,AUTO,-35.363262,149.1652373,46943,-0.02542850747704506,0.029685454443097115,-0.01965581811964512,-0.12519192695617676,0.1188075914978981,0.3454555869102478,0,0,-973,-124,120,345,-5,-2,-144,106364.0
05:52:44.346,AUTO,-35.363262,149.1652373,46943,-0.02542850747704506,0.029685454443097115,-0.01965581811964512,-0.12519192695617676,0.1188075914978981,0.3454555869102478,0,0,-973,-124,120,345,-5,-2,-144,106364.0
05:52:44.547,AUTO,-35.363262,149.1652373,46943,-0.02542850747704506,0.029685454443097115,-0.01965581811964512,-0.12519192695617676,0.1188075914978981,0.3454555869102478,0,0,-973,-124,120,345,-5,-2,-144,106364.0
05:52:44.749,AUTO,-35.363262,149.1652373,46943,-0.02542850747704506,0.029685454443097115,-0.01965581811964512,-0.12519192695617676,0.1188075914978981,0.3454555869102478,0,0,-973,-124,120,345,-5,-2,-144,106364.0
05:52:44.951,AUTO,-35.3632633,149.1652356,47929,-0.02930222824215889,0.008381403051316738,0.27279233932495117,0.1140347570180893,-0.20093294978141785,0.16994766891002655,4,8,-945,115,-199,170,-31,-37,-109,106364.0
05:52:45.153,AUTO,-35.3632639,149.1652345,48191,-0.0020875970367342234,-0.030816633254289627,0.3008122444152832,0.0976238027215004,-0.12052994966506958,0.0734105110168457,3,10,-952,98,-119,73,-27,-37,-97,106364.0
05:52:45.355,AUTO,-35.3632639,149.1652345,48191,-0.0020875970367342234,-0.030816633254289627,0.3008122444152832,0.0976238027215004,-0.12052994966506958,0.0734105110168457,3,10,-952,98,-119,73,-27,-37,-97,106364.0
05:52:45.557,AUTO,-35.3632644,149.1652335,48424,0.018812518566846848,-0.05039341002702713,0.30950239300727844,0.07736539095640182,-0.04907640814781189,0.016025172546505928,2,9,-958,78,-47,16,-18,-30,-86,106364.0
05:52:45.759,AUTO,-35.3632647,149.1652328,48631,0.03232698142528534,-0.055714335292577744,0.30816686153411865,0.039543721824884415,-0.0021658092737197876,-0.014028898440301418,0,6,-964,40,-1,-13,-8,-18,-76,106364.0
05:52:45.962,AUTO,-35.3632648,149.1652324,48814,0.0386502705514431,-0.05227556824684143,0.3019575774669647,-0.002946082968264818,0.025200767442584038,-0.02894371561706066,0,2,-968,-1,26,-28,1,-6,-67,106364.0
05:52:46.164,AUTO,-35.3632647,149.1652324,48974,0.04005773365497589,-0.04330562800168991,0.2935486435890198,0.02490563876926899,0.0409119687974453,-0.03449973836541176,-2,1,-973,26,42,-33,9,5,-60,106364.0
05:52:46.366,AUTO,-35.3632647,149.1652324,48974,0.04005773365497589,-0.04330562800168991,0.2935486435890198,0.02490563876926899,0.0409119687974453,-0.03449973836541176,-2,1,-973,26,42,-33,9,5,-60,106364.0
05:52:46.568,AUTO,-35.3632647,149.1652324,48974,0.04005773365497589,-0.04330562800168991,0.2935486435890198,0.02490563876926899,0.0409119687974453,-0.03449973836541176,-2,1,-973,26,42,-33,9,5,-60,106364.0
05:52:46.772,AUTO,-35.3632647,149.1652324,48974,0.04005773365497589,-0.04330562800168991,0.2935486435890198,0.02490563876926899,0.0409119687974453,-0.03449973836541176,-2,1,-973,26,42,-33,9,5,-60,106364.0
05:52:46.975,AUTO,-35.3632636,149.1652336,49355,0.028210250660777092,-0.010581917129456997,0.26638063788414,0.21933463215827942,0.037473637610673904,-0.03299155831336975,-3,0,-979,220,38,-32,20,28,-42,106364.0
05:52:47.176,AUTO,-35.3632631,149.1652343,49452,0.016485098749399185,-0.002118741860613227,0.2577345073223114,-0.45487773418426514,0.03576086089015007,-0.034195274114608765,-3,-36,-965,-454,37,-34,20,30,-36,30611.0
05:52:47.378,AUTO,-35.3632631,149.1652343,49452,0.016485098749399185,-0.002118741860613227,0.2577345073223114,-0.45487773418426514,0.03576086089015007,-0.034195274114608765,-3,-36,-965,-454,37,-34,20,30,-36,30611.0
05:52:47.582,AUTO,-35.3632626,149.1652351,49533,0.005755400285124779,0.004898038227111101,0.24941028654575348,-0.25935396552085876,0.024256128817796707,-0.02672993764281273,-2,-7,-980,-257,25,-26,19,31,-30,30611.0
05:52:47.784,AUTO,-35.3632622,149.1652359,49600,0.011012076400220394,0.010645892471075058,0.24172843992710114,0.5705978870391846,0.016245098784565926,-0.02507917396724224,-1,16,-987,572,17,-24,17,30,-24,30611.0
05:52:47.986,AUTO,-35.3632618,149.1652367,49651,0.009365404956042767,0.014289427548646927,0.23442722856998444,0.2205033302307129,0.008783474564552307,-0.027332287281751633,-2,-15,-969,220,9,-27,14,27,-18,30611.0
05:52:48.188,AUTO,-35.3632615,149.1652374,49686,-0.005886742379516363,0.01612350344657898,0.2277819663286209,-0.5336244702339172,0.00767211988568306,-0.02341635525226593,0,-43,-963,-533,8,-22,11,24,-12,30611.0
05:52:48.390,AUTO,-35.3632615,149.1652374,49686,-0.005886742379516363,0.01612350344657898,0.2277819663286209,-0.5336244702339172,0.00767211988568306,-0.02341635525226593,0,-43,-963,-533,8,-22,11,24,-12,30611.0
05:52:48.592,AUTO,-35.3632615,149.1652374,49686,-0.005886742379516363,0.01612350344657898,0.2277819663286209,-0.5336244702339172,0.00767211988568306,-0.02341635525226593,0,-43,-963,-533,8,-22,11,24,-12,30611.0
05:52:48.798,AUTO,-35.3632615,149.1652374,49686,-0.005886742379516363,0.01612350344657898,0.2277819663286209,-0.5336244702339172,0.00767211988568306,-0.02341635525226593,0,-43,-963,-533,8,-22,11,24,-12,30611.0
05:52:49.007,AUTO,-35.363261,149.1652389,49662,-0.033918242901563644,0.04404908046126366,0.21142637729644775,0.45517823100090027,-0.029054705053567886,-0.030890000984072685,2,40,-1005,457,-27,-30,-3,6,16,30611.0
05:52:49.209,AUTO,-35.3632611,149.1652389,49620,-0.006273618899285793,0.03464679419994354,0.20595736801624298,0.8288293480873108,-0.03174450993537903,-0.016959382221102715,-1,34,-1013,830,-30,-16,-11,-2,14,30611.0
05:52:49.410,AUTO,-35.3632614,149.1652389,49580,0.01037504430860281,0.02869543246924877,0.2008020281791687,0.31922781467437744,-0.016083743423223495,-0.022252565249800682,3,-3,-1003,319,-14,-21,-17,-5,13,30611.0
05:52:49.612,AUTO,-35.3632614,149.1652389,49580,0.01037504430860281,0.02869543246924877,0.2008020281791687,0.31922781467437744,-0.016083743423223495,-0.022252565249800682,3,-3,-1003,319,-14,-21,-17,-5,13,30611.0
05:52:49.813,AUTO,-35.3632618,149.1652387,49544,0.011245634406805038,0.025057317689061165,0.19608958065509796,-0.3683365285396576,-0.011673874221742153,-0.02592337504029274,6,-38,-999,-368,-10,-25,-23,-5,10,30611.0
05:52:50.015,AUTO,-35.3632624,149.1652385,49514,0.008751871064305305,0.024501895532011986,0.19136622548103333,-0.7447554469108582,0.00583353266119957,-0.020327139645814896,6,-23,-1003,-743,7,-20,-28,-1,8,30611.0
05:52:50.216,AUTO,-35.3632631,149.1652385,49486,0.01602407731115818,0.027402464300394058,0.1868862807750702,-0.15353678166866302,0.012126855552196503,-0.006759992800652981,7,17,-1006,-151,13,-6,-34,3,7,30611.0
05:52:50.418,AUTO,-35.3632631,149.1652385,49486,0.01602407731115818,0.027402464300394058,0.1868862807750702,-0.15353678166866302,0.012126855552196503,-0.006759992800652981,7,17,-1006,-151,13,-6,-34,3,7,30611.0
05:52:50.620,AUTO,-35.3632631,149.1652385,49486,0.01602407731115818,0.027402464300394058,0.1868862807750702,-0.15353678166866302,0.012126855552196503,-0.006759992800652981,7,17,-1006,-151,13,-6,-34,3,7,30611.0
05:52:50.822,AUTO,-35.3632631,149.1652385,49486,0.01602407731115818,0.027402464300394058,0.1868862807750702,-0.15353678166866302,0.012126855552196503,-0.006759992800652981,7,17,-1006,-151,13,-6,-34,3,7,30611.0
05:52:51.023,AUTO,-35.3632662,149.1652394,49396,0.04736079275608063,0.059119813144207,0.21895813941955566,-0.12938924133777618,0.04100273922085762,0.3724198341369629,18,-28,-978,-129,42,372,-60,23,12,30611.0
05:52:51.225,AUTO,-35.3632677,149.1652402,49357,0.04936728626489639,0.05874553695321083,0.3857653737068176,-0.7951011657714844,-0.010159775614738464,0.7967789173126221,21,-42,-971,-794,-8,797,-73,31,15,98897.0
05:52:51.427,AUTO,-35.3632696,149.1652411,49304,0.059121716767549515,0.04774855077266693,0.5970110297203064,-0.7481085658073425,-0.015174727886915207,0.8361595869064331,25,-31,-1007,-746,-14,836,-87,40,19,98897.0
05:52:51.629,AUTO,-35.3632696,149.1652411,49304,0.059121716767549515,0.04774855077266693,0.5970110297203064,-0.7481085658073425,-0.015174727886915207,0.8361595869064331,25,-31,-1007,-746,-14,836,-87,40,19,98897.0
05:52:51.831,AUTO,-35.3632717,149.1652423,49247,0.06672549247741699,0.03454632684588432,0.8020912408828735,-0.11238875240087509,0.003195621073246002,0.8247866630554199,22,1,-986,-110,4,824,-100,49,21,98897.0
05:52:52.033,AUTO,-35.3632742,149.1652438,49182,0.07304675132036209,0.021914556622505188,1.001396656036377,0.6821192502975464,0.018165912479162216,0.7718380689620972,19,12,-1017,683,19,772,-111,55,23,98897.0
05:52:52.235,AUTO,-35.3632768,149.1652453,49116,0.06401103734970093,0.013258298859000206,1.1879727840423584,0.5869726538658142,0.02474592812359333,0.7398731708526611,13,-18,-983,587,25,740,-118,58,26,98897.0
05:52:52.437,AUTO,-35.3632768,149.1652453,49116,0.06401103734970093,0.013258298859000206,1.1879727840423584,0.5869726538658142,0.02474592812359333,0.7398731708526611,13,-18,-983,587,25,740,-118,58,26,98897.0
05:52:52.639,AUTO,-35.3632768,149.1652453,49116,0.06401103734970093,0.013258298859000206,1.1879727840423584,0.5869726538658142,0.02474592812359333,0.7398731708526611,13,-18,-983,587,25,740,-118,58,26,98897.0
05:52:52.840,AUTO,-35.3632768,149.1652453,49116,0.06401103734970093,0.013258298859000206,1.1879727840423584,0.5869726538658142,0.02474592812359333,0.7398731708526611,13,-18,-983,587,25,740,-118,58,26,98897.0
05:52:53.042,AUTO,-35.3632851,149.1652503,48877,0.031482718884944916,0.0018155404832214117,1.716655969619751,-0.8758885264396667,-0.008101009763777256,0.6956667304039001,3,-80,-1006,-875,-6,696,-124,61,30,98897.0
05:52:53.244,AUTO,-35.3632879,149.1652519,48785,0.02081150934100151,-0.0014337508473545313,1.8906924724578857,-0.8768306970596313,-0.00396901136264205,0.6959028244018555,-3,-69,-1032,-875,-2,696,-124,60,31,98897.0
05:52:53.446,AUTO,-35.3632908,149.1652534,48697,0.015322082675993443,-0.0014286238001659513,2.065110921859741,-0.3573778569698334,0.02946910262107849,0.6992566585540771,-8,-24,-996,-354,30,699,-124,58,31,98897.0
05:52:53.651,AUTO,-35.3632936,149.1652549,48611,0.018902922049164772,0.0021075888071209192,2.2397329807281494,0.4867640435695648,0.030261460691690445,0.6936744451522827,-14,13,-992,489,31,694,-121,56,29,98897.0
05:52:53.853,AUTO,-35.3632936,149.1652549,48611,0.018902922049164772,0.0021075888071209192,2.2397329807281494,0.4867640435695648,0.030261460691690445,0.6936744451522827,-14,13,-992,489,31,694,-121,56,29,98897.0
05:52:54.056,AUTO,-35.3632963,149.1652564,48528,0.023715486750006676,0.005889382679015398,2.4140427112579346,0.8502950072288513,0.04396335035562515,0.6936999559402466,-18,13,-1029,852,45,694,-116,53,27,98897.0
05:52:54.258,AUTO,-35.3632989,149.1652577,48451,0.024447346106171608,0.010827504098415375,2.5898666381835938,0.46890726685523987,0.04646558687090874,0.7125297784805298,-22,-18,-1009,469,47,712,-109,51,26,98897.0
05:52:54.461,AUTO,-35.3632989,149.1652577,48451,0.024447346106171608,0.010827504098415375,2.5898666381835938,0.46890726685523987,0.04646558687090874,0.7125297784805298,-22,-18,-1009,469,47,712,-109,51,26,98897.0
05:52:54.662,AUTO,-35.3632989,149.1652577,48451,0.024447346106171608,0.010827504098415375,2.5898666381835938,0.46890726685523987,0.04646558687090874,0.7125297784805298,-22,-18,-1009,469,47,712,-109,51,26,98897.0
05:52:54.865,AUTO,-35.3632989,149.1652577,48451,0.024447346106171608,0.010827504098415375,2.5898666381835938,0.46890726685523987,0.04646558687090874,0.7125297784805298,-22,-18,-1009,469,47,712,-109,51,26,98897.0
05:52:55.067,AUTO,-35.3633057,149.1652611,48252,0.005606554914265871,0.0282051432877779,2.9342269897460938,-0.5491976737976074,0.034608762711286545,0.03324279189109802,-18,-22,-1010,-547,35,33,-82,37,20,98897.0
05:52:55.269,AUTO,-35.3633075,149.165262,48201,0.010627326555550098,0.033918287605047226,2.9233858585357666,0.10909779369831085,0.021500034257769585,-0.09894849359989166,-19,-3,-1020,111,22,-98,-71,32,16,200.0
05:52:55.471,AUTO,-35.3633092,149.1652628,48158,0.0212290920317173,0.039294350892305374,2.8972225189208984,0.7269243001937866,0.019110845401883125,-0.11735858023166656,-16,33,-1017,728,20,-116,-60,27,14,200.0
05:52:55.672,AUTO,-35.3633106,149.1652635,48123,0.021087951958179474,0.04444161430001259,2.872072458267212,0.3923981487751007,0.01879596896469593,-0.0891869068145752,-13,-3,-1009,392,19,-88,-49,22,10,200.0
05:52:55.874,AUTO,-35.3633106,149.1652635,48123,0.021087951958179474,0.04444161430001259,2.872072458267212,0.3923981487751007,0.01879596896469593,-0.0891869068145752,-13,-3,-1009,392,19,-88,-49,22,10,200.0
05:52:56.076,AUTO,-35.3633117,149.1652641,48097,0.00932096317410469,0.04898907616734505,2.853893280029297,-0.5002705454826355,0.017710668966174126,-0.05511760711669922,-10,-44,-1011,-499,18,-54,-36,18,7,200.0
05:52:56.278,AUTO,-35.3633125,149.1652646,48075,0.00319811818189919,0.05402187258005142,2.8439886569976807,-0.775792121887207,0.017536040395498276,-0.029384015128016472,-8,-29,-1022,-774,18,-28,-24,12,6,200.0
05:52:56.481,AUTO,-35.3633125,149.1652646,48075,0.00319811818189919,0.05402187258005142,2.8439886569976807,-0.775792121887207,0.017536040395498276,-0.029384015128016472,-8,-29,-1022,-774,18,-28,-24,12,6,200.0
05:52:56.683,AUTO,-35.3633125,149.1652646,48075,0.00319811818189919,0.05402187258005142,2.8439886569976807,-0.775792121887207,0.017536040395498276,-0.029384015128016472,-8,-29,-1022,-774,18,-28,-24,12,6,200.0
05:52:56.885,AUTO,-35.3633125,149.1652646,48075,0.00319811818189919,0.05402187258005142,2.8439886569976807,-0.775792121887207,0.017536040395498276,-0.029384015128016472,-8,-29,-1022,-774,18,-28,-24,12,6,200.0
05:52:57.089,AUTO,-35.3633135,149.1652654,48055,0.01479785144329071,0.006864582654088736,2.8348388671875,0.6818558573722839,-0.11134107410907745,-0.0028054583817720413,-2,28,-1016,683,-110,-2,1,-1,-1,200.0
05:52:57.291,AUTO,-35.3633136,149.1652656,48057,0.0101679228246212,-0.02436930313706398,2.832953929901123,0.07462178170681,-0.12598083913326263,0.012257658876478672,-2,-10,-996,74,-124,12,-1,0,-1,200.0
05:52:57.493,AUTO,-35.3633138,149.1652658,48058,-0.004831567872315645,-0.0553671196103096,2.8307957649230957,-0.6506881713867188,-0.11628901213407516,-0.0034794877283275127,-4,-36,-989,-649,-115,-2,-12,4,0,200.0
05:52:57.695,AUTO,-35.3633144,149.1652662,48053,-0.010590063408017159,-0.08305875957012177,2.8288471698760986,-0.2431410700082779,-0.10388287901878357,-0.02245509624481201,-9,4,-982,-240,-102,-22,-27,10,2,200.0
05:52:57.897,AUTO,-35.3633144,149.1652662,48053,-0.010590063408017159,-0.08305875957012177,2.8288471698760986,-0.2431410700082779,-0.10388287901878357,-0.02245509624481201,-9,4,-982,-240,-102,-22,-27,10,2,200.0
05:52:58.099,AUTO,-35.3633154,149.1652668,48036,0.002326471032574773,-0.10879690200090408,2.8275771141052246,0.6758150458335876,-0.0983654111623764,-0.015987537801265717,-13,24,-986,677,-97,-15,-48,20,7,200.0
05:52:58.301,AUTO,-35.3633169,149.1652677,48007,0.005448771174997091,-0.11527449637651443,2.825546979904175,0.22703450918197632,0.04543987289071083,-0.011676298454403877,-19,-16,-984,227,46,-10,-71,32,13,200.0
05:52:58.511,AUTO,-35.3633169,149.1652677,48007,0.005448771174997091,-0.11527449637651443,2.825546979904175,0.22703450918197632,0.04543987289071083,-0.011676298454403877,-19,-16,-984,227,46,-10,-71,32,13,200.0
05:52:58.716,AUTO,-35.3633169,149.1652677,48007,0.005448771174997091,-0.11527449637651443,2.825546979904175,0.22703450918197632,0.04543987289071083,-0.011676298454403877,-19,-16,-984,227,46,-10,-71,32,13,200.0
05:52:58.918,AUTO,-35.3633238,149.165272,47851,0.017430497333407402,-0.051908526569604874,2.8184149265289307,0.41166818141937256,0.2043842226266861,0.00013339705765247345,-28,16,-986,414,205,0,-118,54,23,200.0
05:52:59.120,AUTO,-35.3633238,149.165272,47851,0.017430497333407402,-0.051908526569604874,2.8184149265289307,0.41166818141937256,0.2043842226266861,0.00013339705765247345,-28,16,-986,414,205,0,-118,54,23,200.0
05:52:59.322,AUTO,-35.3633266,149.1652737,47785,0.032409608364105225,-0.0036536171101033688,2.8159937858581543,0.7933887839317322,0.17638865113258362,-0.01957896165549755,-30,17,-1009,794,177,-19,-119,54,23,200.0
