time_stamp,MODE,lat,lon,relative_alt,roll,pitch,yaw,rollspeed,pitchspeed,yawspeed,xacc,yacc,zacc,xgyro,ygyro,zgyro,vx,vy,vz,RTL_ALT
06:25:14.378,STABILIZE,-35.3632622,149.1652376,0,-0.00014713755808770657,0.001384196919389069,0.02643178589642048,0.00023602708824910223,0.00039996361010707915,0.002158139832317829,0,1,-1000,0,0,0,-2,3,3,1500.0
06:25:14.580,STABILIZE,-35.3632622,149.1652376,0,-0.00014713755808770657,0.001384196919389069,0.02643178589642048,0.00023602708824910223,0.00039996361010707915,0.002158139832317829,0,1,-1000,0,0,0,-2,3,3,1500.0
06:25:14.781,STABILIZE,-35.3632622,149.1652375,0,-0.0005862439866177738,0.0012263242388144135,0.02604156918823719,0.00025437562726438046,0.00022942738723941147,0.002033510012552142,0,1,-1000,0,1,1,-1,2,2,1500.0
06:25:14.982,STABILIZE,-35.3632622,149.1652375,0,-0.0005862439866177738,0.0012263242388144135,0.02604156918823719,0.00025437562726438046,0.00022942738723941147,0.002033510012552142,0,1,-1000,0,1,1,-1,2,2,1500.0
06:25:15.184,STABILIZE,-35.3632622,149.1652375,0,-0.0008075800724327564,0.001143324887380004,0.025817394256591797,0.0001817548181861639,0.0002362285740673542,0.0021081888116896152,0,1,-1000,0,0,0,-1,1,1,1500.0
06:25:15.386,STABILIZE,-35.3632622,149.1652375,0,-0.0008075800724327564,0.001143324887380004,0.025817394256591797,0.0001817548181861639,0.0002362285740673542,0.0021081888116896152,0,1,-1000,0,0,0,-1,1,1,1500.0
06:25:15.587,STABILIZE,-35.3632622,149.1652375,0,-0.0008862276445142925,0.001104577793739736,0.02573391981422901,0.00013805471826344728,0.00018011857173405588,0.00212716031819582,0,1,-1000,0,0,0,-1,1,1,1500.0
06:25:15.788,STABILIZE,-35.3632622,149.1652375,0,-0.0008862276445142925,0.001104577793739736,0.02573391981422901,0.00013805471826344728,0.00018011857173405588,0.00212716031819582,0,1,-1000,0,1,0,-1,1,1,1500.0
06:25:15.990,STABILIZE,-35.3632622,149.1652375,0,-0.0008862276445142925,0.001104577793739736,0.02573391981422901,0.00013805471826344728,0.00018011857173405588,0.00212716031819582,0,1,-1000,0,1,0,-1,1,1,1500.0
06:25:16.194,STABILIZE,-35.3632622,149.1652375,0,-0.0008862276445142925,0.001104577793739736,0.02573391981422901,0.00013805471826344728,0.00018011857173405588,0.00212716031819582,0,1,-1000,0,1,0,-1,1,1,1500.0
06:25:16.396,STABILIZE,-35.3632622,149.1652375,0,-0.0008862276445142925,0.001104577793739736,0.02573391981422901,0.00013805471826344728,0.00018011857173405588,0.00212716031819582,0,1,-1000,0,1,0,-1,1,1,1500.0
06:25:16.599,STABILIZE,-35.3632622,149.1652375,0,-0.0008862276445142925,0.001104577793739736,0.02573391981422901,0.00013805471826344728,0.00018011857173405588,0.00212716031819582,0,1,-1000,0,1,0,-1,1,1,1500.0
06:25:16.801,STABILIZE,-35.3632621,149.1652375,0,-0.000998515635728836,0.0009968153899535537,0.025274669751524925,0.00013677554670721292,0.00022218780941329896,0.002060604514554143,0,1,-1000,0,0,1,-1,1,2,1500.0
06:25:17.002,STABILIZE,-35.3632621,149.1652375,0,-0.000998515635728836,0.0009968153899535537,0.025274669751524925,0.00013677554670721292,0.00022218780941329896,0.002060604514554143,0,1,-1000,0,0,1,-1,1,2,1500.0
06:25:17.203,STABILIZE,-35.3632621,149.1652375,0,-0.000998515635728836,0.0009968153899535537,0.025274669751524925,0.00013677554670721292,0.00022218780941329896,0.002060604514554143,0,1,-1000,0,0,1,-1,1,2,1500.0
06:25:17.404,STABILIZE,-35.3632621,149.1652375,0,-0.000998515635728836,0.0009968153899535537,0.025274669751524925,0.00013677554670721292,0.00022218780941329896,0.002060604514554143,0,1,-1000,0,0,1,-1,1,2,1500.0
06:25:17.605,STABILIZE,-35.3632621,149.1652375,0,-0.000998515635728836,0.0009968153899535537,0.025274669751524925,0.00013677554670721292,0.00022218780941329896,0.002060604514554143,0,1,-1000,0,0,1,-1,1,2,1500.0
06:25:17.806,STABILIZE,-35.3632621,149.1652375,0,-0.0011908255983144045,0.0009592357091605663,0.024981359019875526,0.0003619631752371788,0.00015047664055600762,0.0019624587148427963,0,1,-1000,0,0,1,-1,1,1,1500.0
06:25:18.007,STABILIZE,-35.3632621,149.1652375,0,-0.0012270960723981261,0.0009502547327429056,0.024934079498052597,0.00031450222013518214,0.0002764937235042453,0.0019462667405605316,0,1,-1000,0,0,1,-1,0,1,1500.0
06:25:18.209,STABILIZE,-35.3632621,149.1652375,0,-0.0012270960723981261,0.0009502547327429056,0.024934079498052597,0.00031450222013518214,0.0002764937235042453,0.0019462667405605316,0,1,-1000,0,0,1,-1,0,1,1500.0
06:25:18.410,STABILIZE,-35.3632621,149.1652375,0,-0.0012270960723981261,0.0009502547327429056,0.024934079498052597,0.00031450222013518214,0.0002764937235042453,0.0019462667405605316,0,1,-1000,0,0,1,-1,0,1,1500.0
06:25:18.611,STABILIZE,-35.3632621,149.1652375,0,-0.0012270960723981261,0.0009502547327429056,0.024934079498052597,0.00031450222013518214,0.0002764937235042453,0.0019462667405605316,0,1,-1000,0,0,1,-1,0,1,1500.0
06:25:18.812,STABILIZE,-35.3632621,149.1652375,0,-0.001295223948545754,0.0009467260679230094,0.024737171828746796,0.00020920333918184042,0.00019587264978326857,0.0018876738613471389,0,1,-1000,0,0,0,-1,0,0,1500.0
06:25:19.014,STABILIZE,-35.3632621,149.1652375,0,-0.0013061430072411895,0.0009356770315207541,0.02465846762061119,0.0002624806948006153,0.00024241703795269132,0.0018177265301346779,0,1,-1000,0,0,0,-1,0,0,1500.0
06:25:19.215,STABILIZE,-35.3632621,149.1652375,0,-0.0013061430072411895,0.0009356770315207541,0.02465846762061119,0.0002624806948006153,0.00024241703795269132,0.0018177265301346779,0,1,-1000,0,0,0,-1,0,0,1500.0
06:25:19.416,STABILIZE,-35.3632621,149.1652375,0,-0.0013061430072411895,0.0009356770315207541,0.02465846762061119,0.0002624806948006153,0.00024241703795269132,0.0018177265301346779,0,1,-1000,0,0,0,-1,0,0,1500.0
06:25:19.618,STABILIZE,-35.3632621,149.1652375,0,-0.0013061430072411895,0.0009356770315207541,0.02465846762061119,0.0002624806948006153,0.00024241703795269132,0.0018177265301346779,0,1,-1000,0,0,0,-1,0,0,1500.0
06:25:19.819,STABILIZE,-35.3632621,149.1652375,0,-0.0013061430072411895,0.0009356770315207541,0.02465846762061119,0.0002624806948006153,0.00024241703795269132,0.0018177265301346779,0,1,-1000,0,0,0,-1,0,0,1500.0
06:25:20.021,STABILIZE,-35.3632621,149.1652375,0,-0.0009838746627792716,0.0009409234626218677,0.02440299466252327,0.017830239608883858,0.00034910417161881924,0.0017548829782754183,0,1,-1000,0,0,0,-1,1,1,1500.0
06:25:20.222,STABILIZE,-35.3632621,149.1652375,0,-0.0009838746627792716,0.0009409234626218677,0.02440299466252327,0.017830239608883858,0.00034910417161881924,0.0017548829782754183,0,1,-1000,0,0,0,-1,1,1,1500.0
06:25:20.424,STABILIZE,-35.3632621,149.1652375,0,-0.0009838746627792716,0.0009409234626218677,0.02440299466252327,0.017830239608883858,0.00034910417161881924,0.0017548829782754183,0,1,-1000,0,0,0,-1,1,1,1500.0
06:25:20.625,STABILIZE,-35.3632621,149.1652375,0,-0.0009838746627792716,0.0009409234626218677,0.02440299466252327,0.017830239608883858,0.00034910417161881924,0.0017548829782754183,0,1,-1000,0,0,0,-1,1,1,1500.0
06:25:20.826,STABILIZE,-35.3632621,149.1652375,0,-0.0009838746627792716,0.0009409234626218677,0.02440299466252327,0.017830239608883858,0.00034910417161881924,0.0017548829782754183,0,1,-1000,0,0,0,-1,1,1,1500.0
06:25:21.027,STABILIZE,-35.3632621,149.1652375,0,-0.0010528345592319965,0.0009415988461114466,0.024094926193356514,0.0002480832627043128,0.0002849185257218778,0.0018514618277549744,0,2,-1000,0,1,0,-1,1,0,1500.0
06:25:21.229,STABILIZE,-35.3632621,149.1652375,0,-0.0010528345592319965,0.0009415988461114466,0.024094926193356514,0.0002480832627043128,0.0002849185257218778,0.0018514618277549744,0,1,-1000,0,0,1,-1,1,0,1500.0
06:25:21.430,STABILIZE,-35.3632621,149.1652375,0,-0.0010528345592319965,0.0009415988461114466,0.024094926193356514,0.0002480832627043128,0.0002849185257218778,0.0018514618277549744,0,1,-1000,0,0,1,-1,1,0,1500.0
06:25:21.631,STABILIZE,-35.3632621,149.1652375,0,-0.0010879060719162226,0.0009512195829302073,0.02396475151181221,0.00024777831276878715,0.000293961726129055,0.0016840726602822542,0,2,-1000,0,0,0,-1,1,0,1500.0
06:25:21.832,STABILIZE,-35.3632622,149.1652375,0,-0.0011062922421842813,0.0009594723815098405,0.023888755589723587,0.00015982153126969934,0.0003069326630793512,0.0017043265979737043,0,1,-1000,0,1,0,-1,1,0,1500.0
06:25:22.034,STABILIZE,-35.3632622,149.1652375,0,-0.0011062922421842813,0.0009594723815098405,0.023888755589723587,0.00015982153126969934,0.0003069326630793512,0.0017043265979737043,0,1,-1000,0,0,0,-1,1,0,1500.0
06:25:22.236,STABILIZE,-35.3632622,149.1652375,0,-0.0011062922421842813,0.0009594723815098405,0.023888755589723587,0.00015982153126969934,0.0003069326630793512,0.0017043265979737043,0,1,-1000,0,0,0,-1,1,0,1500.0
06:25:22.437,STABILIZE,-35.3632622,149.1652375,0,-0.0011062922421842813,0.0009594723815098405,0.023888755589723587,0.00015982153126969934,0.0003069326630793512,0.0017043265979737043,0,1,-1000,0,0,0,-1,1,0,1500.0
06:25:22.638,STABILIZE,-35.3632622,149.1652375,0,-0.0011062922421842813,0.0009594723815098405,0.023888755589723587,0.00015982153126969934,0.0003069326630793512,0.0017043265979737043,0,1,-1000,0,0,0,-1,1,0,1500.0
06:25:22.841,STABILIZE,-35.3632622,149.1652375,0,-0.0011062922421842813,0.0009594723815098405,0.023888755589723587,0.00015982153126969934,0.0003069326630793512,0.0017043265979737043,0,1,-1000,0,0,0,-1,1,0,1500.0
06:25:23.042,STABILIZE,-35.3632622,149.1652375,0,-0.0011965580051764846,0.0009714969783090055,0.023578237742185593,0.00036620342871174216,0.00018198875477537513,0.0017090730834752321,0,1,-1000,1,0,0,-1,1,0,1500.0
06:25:23.243,STABILIZE,-35.3632622,149.1652375,0,-0.0011965580051764846,0.0009714969783090055,0.023578237742185593,0.00036620342871174216,0.00018198875477537513,0.0017090730834752321,0,1,-1000,1,0,0,-1,1,0,1500.0
06:25:23.445,STABILIZE,-35.3632622,149.1652375,0,-0.0011965580051764846,0.0009714969783090055,0.023578237742185593,0.00036620342871174216,0.00018198875477537513,0.0017090730834752321,0,1,-1000,1,0,0,-1,1,0,1500.0
06:25:23.646,STABILIZE,-35.3632622,149.1652375,0,-0.0011965580051764846,0.0009714969783090055,0.023578237742185593,0.00036620342871174216,0.00018198875477537513,0.0017090730834752321,0,1,-1000,1,0,0,-1,1,0,1500.0
06:25:23.848,STABILIZE,-35.3632622,149.1652375,0,-0.0011965580051764846,0.0009714969783090055,0.023578237742185593,0.00036620342871174216,0.00018198875477537513,0.0017090730834752321,0,1,-1000,1,0,0,-1,1,0,1500.0
06:25:24.050,STABILIZE,-35.3632622,149.1652375,0,-0.0011198280844837427,0.0009721710812300444,0.023319566622376442,0.0002849040902219713,0.00029122550040483475,0.0016145019326359034,0,2,-1000,0,0,0,-1,0,-3,1500.0
06:25:24.251,STABILIZE,-35.3632622,149.1652375,0,-0.0011198280844837427,0.0009721710812300444,0.023319566622376442,0.0002849040902219713,0.00029122550040483475,0.0016145019326359034,0,2,-1000,0,0,0,-1,0,-3,1500.0
06:25:24.452,STABILIZE,-35.3632622,149.1652375,0,-0.0011198280844837427,0.0009721710812300444,0.023319566622376442,0.0002849040902219713,0.00029122550040483475,0.0016145019326359034,0,2,-1000,0,0,0,-1,0,-3,1500.0
06:25:24.653,STABILIZE,-35.3632622,149.1652375,0,-0.0011198280844837427,0.0009721710812300444,0.023319566622376442,0.0002849040902219713,0.00029122550040483475,0.0016145019326359034,0,2,-1000,0,0,0,-1,0,-3,1500.0
06:25:24.854,STABILIZE,-35.3632622,149.1652375,0,-0.0009415009990334511,0.0009685091790743172,0.023160744458436966,0.00020580278942361474,0.00030983268516138196,0.0016337730921804905,0,1,-1000,1,1,0,-1,0,-3,1500.0
06:25:25.056,STABILIZE,-35.3632622,149.1652375,0,-0.0009415009990334511,0.0009685091790743172,0.023160744458436966,0.00020580278942361474,0.00030983268516138196,0.0016337730921804905,0,1,-1000,0,1,0,-1,0,-3,1500.0
06:25:25.257,STABILIZE,-35.3632622,149.1652375,0,-0.0009415009990334511,0.0009685091790743172,0.023160744458436966,0.00020580278942361474,0.00030983268516138196,0.0016337730921804905,0,1,-1000,0,1,0,-1,0,-3,1500.0
06:25:25.458,STABILIZE,-35.3632622,149.1652375,0,-0.0009415009990334511,0.0009685091790743172,0.023160744458436966,0.00020580278942361474,0.00030983268516138196,0.0016337730921804905,0,1,-1000,0,1,0,-1,0,-3,1500.0
06:25:25.659,STABILIZE,-35.3632622,149.1652375,0,-0.0009415009990334511,0.0009685091790743172,0.023160744458436966,0.00020580278942361474,0.00030983268516138196,0.0016337730921804905,0,1,-1000,0,1,0,-1,0,-3,1500.0
06:25:25.860,STABILIZE,-35.3632622,149.1652375,0,-0.0007892632856965065,0.0009606076637282968,0.022895874455571175,0.000269236508756876,0.00020415562903508544,0.0016505350358784199,0,2,-1000,0,0,0,-1,0,-2,1500.0
06:25:26.062,STABILIZE,-35.3632622,149.1652375,0,-0.0007694647065363824,0.0009610314737074077,0.022823380306363106,0.00035095028579235077,0.00031230278545990586,0.001498386962339282,0,2,-1000,1,1,0,-1,1,-2,1500.0
06:25:26.263,STABILIZE,-35.3632622,149.1652375,0,-0.0007694647065363824,0.0009610314737074077,0.022823380306363106,0.00035095028579235077,0.00031230278545990586,0.001498386962339282,0,2,-1000,1,1,0,-1,1,-2,1500.0
06:25:26.464,STABILIZE,-35.3632622,149.1652375,0,-0.0007694647065363824,0.0009610314737074077,0.022823380306363106,0.00035095028579235077,0.00031230278545990586,0.001498386962339282,0,2,-1000,1,1,0,-1,1,-2,1500.0
06:25:26.666,STABILIZE,-35.3632622,149.1652375,0,-0.0007694647065363824,0.0009610314737074077,0.022823380306363106,0.00035095028579235077,0.00031230278545990586,0.001498386962339282,0,2,-1000,1,1,0,-1,1,-2,1500.0
06:25:26.867,STABILIZE,-35.3632622,149.1652375,0,-0.0007694647065363824,0.0009610314737074077,0.022823380306363106,0.00035095028579235077,0.00031230278545990586,0.001498386962339282,0,2,-1000,0,0,0,-1,1,-2,1500.0
06:25:27.068,STABILIZE,-35.3632622,149.1652375,0,-0.0007694647065363824,0.0009610314737074077,0.022823380306363106,0.00035095028579235077,0.00031230278545990586,0.001498386962339282,0,2,-1000,0,0,0,-1,1,-2,1500.0
06:25:27.270,AUTO,-35.3632622,149.1652375,0,-0.0007326892227865756,0.0009788183961063623,0.022476820275187492,0.0002975529641844332,0.0002228429657407105,0.0016129662981256843,0,1,-1000,1,0,0,-1,1,-2,1500.0
06:25:27.471,AUTO,-35.3632622,149.1652375,8,-0.0007380236638709903,0.0009774507489055395,0.02240515872836113,0.00041334342677146196,0.00023257610155269504,0.0014703890774399042,0,1,-1000,0,0,0,-1,1,-2,1500.0
06:25:27.673,AUTO,-35.3632622,149.1652375,8,-0.0007380236638709903,0.0009774507489055395,0.02240515872836113,0.00041334342677146196,0.00023257610155269504,0.0014703890774399042,0,1,-1000,0,0,0,-1,1,-2,1500.0
06:25:27.875,AUTO,-35.3632622,149.1652375,9,-0.0007385985227301717,0.0009776297956705093,0.02235478349030018,0.00031285197474062443,0.00023824162781238556,0.001498478464782238,0,2,-1000,0,0,0,-1,1,-1,1500.0
06:25:28.076,AUTO,-35.3632621,149.1652375,10,-0.0007443238864652812,0.000982796074822545,0.02229299582540989,0.0002499097026884556,0.0002898957463912666,0.0014100340195000172,0,2,-1000,0,1,0,-1,1,-1,1500.0
06:25:28.278,AUTO,-35.3632621,149.1652375,10,-0.0007443238864652812,0.000982796074822545,0.02229299582540989,0.0002499097026884556,0.0002898957463912666,0.0014100340195000172,0,2,-1000,0,1,0,-1,1,-1,1500.0
06:25:28.480,AUTO,-35.3632621,149.1652375,10,-0.0007443238864652812,0.000982796074822545,0.02229299582540989,0.0002499097026884556,0.0002898957463912666,0.0014100340195000172,0,2,-1000,0,1,0,-1,1,-1,1500.0
06:25:28.681,AUTO,-35.3632621,149.1652375,10,-0.0007443238864652812,0.000982796074822545,0.02229299582540989,0.0002499097026884556,0.0002898957463912666,0.0014100340195000172,0,2,-1000,0,1,0,-1,1,-1,1500.0
06:25:28.883,AUTO,-35.3632621,149.1652375,13,-0.0006555819418281317,0.0010981818195432425,0.022120967507362366,0.00040076824370771646,0.00015868747141212225,0.0015880917198956013,0,2,-1000,1,0,0,0,0,-1,1500.0
06:25:29.085,AUTO,-35.3632621,149.1652375,13,-0.0006100129103288054,0.0011575978714972734,0.02203531377017498,0.00029341288609430194,0.0003672785242088139,0.0015033436939120293,0,1,-1000,0,0,0,0,0,-1,1500.0
06:25:29.287,AUTO,-35.3632621,149.1652375,14,-0.0005601074662990868,0.001222545513883233,0.021960580721497536,0.0002528497134335339,0.00026175734819844365,0.0015225643292069435,0,1,-1000,0,1,0,0,0,-1,1500.0
06:25:29.488,AUTO,-35.3632621,149.1652375,14,-0.000498059845995158,0.0012835521483793855,0.02189400978386402,0.0003260965459048748,0.00023248879006132483,0.0014694456476718187,0,1,-1000,0,1,1,0,0,-1,110335.0
06:25:29.690,AUTO,-35.3632621,149.1652375,14,-0.00043716197251342237,0.0013593225739896297,0.021810660138726234,0.00020998576655983925,0.0003590419073589146,0.0014508541207760572,0,1,-1000,1,1,1,0,0,-1,110335.0
06:25:29.892,AUTO,-35.3632621,149.1652375,14,-0.00043716197251342237,0.0013593225739896297,0.021810660138726234,0.00020998576655983925,0.0003590419073589146,0.0014508541207760572,0,1,-1000,1,1,1,0,0,-1,110335.0
06:25:30.094,AUTO,-35.3632621,149.1652375,14,-0.0003746142901945859,0.0014270308893173933,0.021728895604610443,0.0001957908389158547,0.00028676673537120223,0.0014423043467104435,0,2,-1000,0,1,1,0,0,-1,110335.0
06:25:30.297,AUTO,-35.3632621,149.1652375,14,-0.0003746142901945859,0.0014270308893173933,0.021728895604610443,0.0001957908389158547,0.00028676673537120223,0.0014423043467104435,0,2,-1000,0,1,1,0,0,-1,110335.0
06:25:30.499,AUTO,-35.3632621,149.1652375,14,-0.0003746142901945859,0.0014270308893173933,0.021728895604610443,0.0001957908389158547,0.00028676673537120223,0.0014423043467104435,0,2,-1000,0,1,1,0,0,-1,110335.0
06:25:30.701,AUTO,-35.3632621,149.1652375,13,-0.0001713369565550238,0.0016277016839012504,0.021500861272215843,0.0003885747864842415,0.00017339317128062248,0.0015298918588086963,0,1,-1000,0,1,0,0,0,-1,110335.0
06:25:30.902,AUTO,-35.3632621,149.1652375,13,-0.0001713369565550238,0.0016277016839012504,0.021500861272215843,0.0003885747864842415,0.00017339317128062248,0.0015298918588086963,0,1,-1000,0,1,0,0,0,-1,110335.0
06:25:31.104,AUTO,-35.3632621,149.1652375,12,-9.435117681277916e-05,0.001702365931123495,0.021422583609819412,0.00037407694617286325,0.00029487983556464314,0.0014299219474196434,0,1,-1000,0,1,1,0,0,0,110335.0
06:25:31.305,AUTO,-35.3632621,149.1652375,14,0.0011663222685456276,0.0009290408925153315,0.021403387188911438,0.012771425768733025,-0.0095677450299263,0.0018573409179225564,0,0,-1099,13,-8,1,0,0,-7,110335.0
06:25:31.507,AUTO,-35.3632621,149.1652375,74,0.003812040900811553,-0.0004564102564472705,0.02146853692829609,0.009976460598409176,-0.0001596024085301906,0.0010785248596221209,0,0,-1142,10,0,0,0,0,-41,110335.0
06:25:31.708,AUTO,-35.3632621,149.1652375,217,0.0029920395463705063,0.00030297867488116026,0.0213696900755167,-0.01013141218572855,0.0037209538277238607,0.0018475280376151204,0,0,-1129,-9,4,1,0,0,-74,110335.0
06:25:31.910,AUTO,-35.3632621,149.1652375,217,0.0029920395463705063,0.00030297867488116026,0.0213696900755167,-0.01013141218572855,0.0037209538277238607,0.0018475280376151204,0,0,-1129,-9,4,1,0,0,-74,110335.0
06:25:32.112,AUTO,-35.3632621,149.1652375,436,0.001978954067453742,0.0012103619519621134,0.02122514694929123,-0.002762691117823124,0.0030570668168365955,0.000905760913155973,0,0,-1108,-2,3,0,0,1,-103,110335.0
06:25:32.314,AUTO,-35.3632621,149.1652375,436,0.001978954067453742,0.0012103619519621134,0.02122514694929123,-0.002762691117823124,0.0030570668168365955,0.000905760913155973,0,0,-1108,-2,3,0,0,1,-103,110335.0
06:25:32.516,AUTO,-35.3632621,149.1652375,436,0.001978954067453742,0.0012103619519621134,0.02122514694929123,-0.002762691117823124,0.0030570668168365955,0.000905760913155973,0,0,-1108,-2,3,0,0,1,-103,110335.0
06:25:32.718,AUTO,-35.3632621,149.1652375,1427,0.024003170430660248,-0.0011644660262390971,0.020514532923698425,0.04657186567783356,-0.006903264205902815,0.001963027287274599,0,0,-1016,47,-6,1,1,6,-146,110335.0
06:25:32.919,AUTO,-35.3632621,149.1652375,1427,0.024003170430660248,-0.0011644660262390971,0.020514532923698425,0.04657186567783356,-0.006903264205902815,0.001963027287274599,0,0,-1016,47,-6,1,1,6,-146,110335.0
06:25:33.121,AUTO,-35.363262,149.1652377,1802,0.03539591655135155,-0.003151786047965288,0.02058415859937668,0.044826749712228775,-0.007923913188278675,0.0027948340866714716,0,-1,-1006,45,-6,2,1,12,-148,110335.0
06:25:33.323,AUTO,-35.3632619,149.1652382,2184,0.046199824661016464,-0.005424092058092356,0.020743582397699356,0.0421629473567009,-0.009153848513960838,0.003207429079338908,0,-3,-1002,42,-8,2,3,21,-149,75871.0
06:25:33.524,AUTO,-35.3632618,149.1652389,2567,0.05620921775698662,-0.008151055313646793,0.020921193063259125,0.038759440183639526,-0.011487772688269615,0.0035171739291399717,1,-5,-1000,39,-10,3,5,32,-149,75871.0
06:25:33.726,AUTO,-35.3632616,149.1652399,2949,0.061519503593444824,-0.008131496608257294,-0.01071395818144083,-0.02888125739991665,0.0371287576854229,-0.05850958079099655,0,-7,-991,-28,37,-59,9,44,-148,75871.0
06:25:33.927,AUTO,-35.3632616,149.1652399,2949,0.061519503593444824,-0.008131496608257294,-0.01071395818144083,-0.02888125739991665,0.0371287576854229,-0.05850958079099655,0,-7,-991,-28,37,-59,9,44,-148,75871.0
06:25:34.129,AUTO,-35.3632614,149.1652412,3326,0.03754344582557678,0.015169184654951096,-0.034091297537088394,-0.15374991297721863,0.0872700959444046,-0.09753835201263428,4,-13,-991,-153,88,-97,9,53,-145,75871.0
06:25:34.332,AUTO,-35.3632614,149.1652412,3326,0.03754344582557678,0.015169184654951096,-0.034091297537088394,-0.15374991297721863,0.0872700959444046,-0.09753835201263428,4,-13,-991,-153,88,-97,9,53,-145,75871.0
06:25:34.534,AUTO,-35.3632614,149.1652412,3326,0.03754344582557678,0.015169184654951096,-0.034091297537088394,-0.15374991297721863,0.0872700959444046,-0.09753835201263428,4,-13,-991,-153,88,-97,9,53,-145,75871.0
06:25:34.736,AUTO,-35.363261,149.1652451,4458,-0.036278072744607925,0.01801707036793232,-0.08324790000915527,-0.04629994183778763,-0.03104972466826439,-0.03770957514643669,6,-8,-1003,-45,-30,-38,-2,35,-149,75871.0
06:25:34.938,AUTO,-35.363261,149.1652451,4458,-0.036278072744607925,0.01801707036793232,-0.08324790000915527,-0.04629994183778763,-0.03104972466826439,-0.03770957514643669,6,-8,-1003,-45,-30,-38,-2,35,-149,75871.0
06:25:35.139,AUTO,-35.363261,149.1652459,4840,-0.05272167921066284,0.010655121877789497,-0.09075179696083069,-0.07920031994581223,-0.02389553189277649,-0.03016834519803524,4,-7,-1000,-78,-23,-30,-5,23,-149,75871.0
06:25:35.341,AUTO,-35.363261,149.1652463,5222,-0.07511325180530548,0.004677708726376295,-0.09558507055044174,-0.07125934213399887,-0.037566591054201126,0.0038806877564638853,3,-1,-1003,-70,-36,3,-6,5,-148,75871.0
06:25:35.543,AUTO,-35.3632612,149.1652462,5612,-0.07533276081085205,-0.007055080030113459,-0.09278813749551773,0.037561140954494476,-0.03175901994109154,0.002298313658684492,1,1,-1005,37,-30,1,-7,-14,-149,75871.0
06:25:35.745,AUTO,-35.3632613,149.1652456,5996,-0.06300361454486847,-0.011003407649695873,-0.0924765095114708,0.054289527237415314,-0.008106248453259468,0.0023661809973418713,0,4,-1001,55,-7,1,-6,-31,-149,75871.0
06:25:35.949,AUTO,-35.3632615,149.1652447,6380,-0.048884280025959015,-0.011659972369670868,-0.09263177216053009,0.05872311815619469,0.00035641732392832637,0.0034853799734264612,-3,7,-1001,59,0,2,-4,-43,-149,75871.0
06:25:36.151,AUTO,-35.3632615,149.1652447,6380,-0.048884280025959015,-0.011659972369670868,-0.09263177216053009,0.05872311815619469,0.00035641732392832637,0.0034853799734264612,-3,7,-1001,59,0,2,-4,-43,-149,75871.0
06:25:36.354,AUTO,-35.3632615,149.1652447,6380,-0.048884280025959015,-0.011659972369670868,-0.09263177216053009,0.05872311815619469,0.00035641732392832637,0.0034853799734264612,-3,7,-1001,59,0,2,-4,-43,-149,75871.0
06:25:36.556,AUTO,-35.3632615,149.1652447,6380,-0.048884280025959015,-0.011659972369670868,-0.09263177216053009,0.05872311815619469,0.00035641732392832637,0.0034853799734264612,-3,7,-1001,59,0,2,-4,-43,-149,75871.0
06:25:36.758,AUTO,-35.3632617,149.1652403,7526,-0.002063242718577385,-0.0055512008257210255,-0.09161029756069183,0.06434283405542374,0.012502566911280155,0.005262184422463179,-7,13,-1003,65,13,4,-2,-56,-150,75871.0
06:25:36.960,AUTO,-35.3632618,149.1652387,7914,0.014143962413072586,-0.0023474006447941065,-0.090491384267807,0.06637463718652725,0.013208458200097084,0.005075973458588123,-7,11,-1004,67,13,4,-2,-53,-151,75871.0
06:25:37.161,AUTO,-35.3632618,149.1652387,7914,0.014143962413072586,-0.0023474006447941065,-0.090491384267807,0.06637463718652725,0.013208458200097084,0.005075973458588123,-7,11,-1004,67,13,4,-2,-53,-151,75871.0
06:25:37.363,AUTO,-35.3632619,149.1652373,8304,0.030136365443468094,0.0007191025069914758,-0.08921760320663452,0.06428857147693634,0.011838880367577076,0.0054559544660151005,-6,10,-1003,64,12,4,-3,-45,-152,266775.0
06:25:37.564,AUTO,-35.3632619,149.1652361,8695,0.04585650563240051,0.0032391068525612354,-0.08791165798902512,0.061506547033786774,0.008903170935809612,0.0055625783279538155,-6,12,-1003,62,9,5,-3,-34,-153,266775.0
06:25:37.766,AUTO,-35.363262,149.1652353,9088,0.05899230018258095,0.0035325847566127777,-0.08498021215200424,0.03145960718393326,-0.01492865290492773,0.029102647677063942,-3,4,-999,32,-14,28,-4,-20,-153,266775.0
06:25:37.968,AUTO,-35.3632621,149.1652349,9478,0.05469466373324394,-0.002925023203715682,-0.07871793210506439,-0.05500723421573639,-0.017455458641052246,0.02018331177532673,-1,3,-993,-54,-17,19,-2,-6,-151,266775.0
06:25:38.170,AUTO,-35.3632621,149.1652349,9478,0.05469466373324394,-0.002925023203715682,-0.07871793210506439,-0.05500723421573639,-0.017455458641052246,0.02018331177532673,-1,3,-993,-54,-17,19,-2,-6,-151,266775.0
06:25:38.372,AUTO,-35.3632621,149.1652349,9478,0.05469466373324394,-0.002925023203715682,-0.07871793210506439,-0.05500723421573639,-0.017455458641052246,0.02018331177532673,-1,3,-993,-54,-17,19,-2,-6,-151,266775.0
06:25:38.574,AUTO,-35.3632621,149.1652349,9478,0.05469466373324394,-0.002925023203715682,-0.07871793210506439,-0.05500723421573639,-0.017455458641052246,0.02018331177532673,-1,3,-993,-54,-17,19,-2,-6,-151,266775.0
06:25:38.775,AUTO,-35.3632621,149.165235,10639,0.007355793379247189,-0.000868922274094075,-0.08252131193876266,-0.04480671137571335,0.00602881470695138,-0.01707272417843342,1,-2,-1001,-44,6,-17,2,11,-149,266775.0
06:25:38.977,AUTO,-35.3632621,149.1652353,11024,-0.0010322327725589275,0.00022896891459822655,-0.08776600658893585,-0.02760401740670204,0.002739021321758628,-0.01890188828110695,0,-2,-1001,-26,3,-19,3,11,-150,266775.0
06:25:39.179,AUTO,-35.3632621,149.1652353,11024,-0.0010322327725589275,0.00022896891459822655,-0.08776600658893585,-0.02760401740670204,0.002739021321758628,-0.01890188828110695,0,-2,-1001,-26,3,-19,3,11,-150,266775.0
06:25:39.380,AUTO,-35.3632621,149.1652355,11410,-0.005591739434748888,0.0009308448643423617,-0.09365042299032211,-0.012761255726218224,0.0018851545173674822,-0.02313319407403469,0,-2,-1001,-11,2,-23,3,8,-150,266775.0
06:25:39.582,AUTO,-35.363262,149.1652357,11797,-0.007125789765268564,0.0015156957088038325,-0.099765345454216,-0.000932374969124794,0.00254341890104115,-0.02153984270989895,0,-1,-1002,0,3,-21,3,5,-151,266775.0
06:25:39.783,AUTO,-35.3632619,149.1652358,12185,-0.0065331244841217995,0.0020413612946867943,-0.10573375970125198,0.005741471890360117,0.00239994702860713,-0.020958835259079933,0,-1,-1001,6,2,-21,3,3,-151,266775.0
06:25:39.985,AUTO,-35.3632618,149.1652358,12573,-0.004659463185817003,0.0026554742362350225,-0.11154744029045105,0.008835870772600174,0.0032413071021437645,-0.02057523839175701,0,0,-1000,9,3,-20,2,0,-151,266775.0
06:25:40.186,AUTO,-35.3632618,149.1652358,12573,-0.004659463185817003,0.0026554742362350225,-0.11154744029045105,0.008835870772600174,0.0032413071021437645,-0.02057523839175701,0,0,-1000,9,3,-20,2,0,-151,266775.0
06:25:40.388,AUTO,-35.3632618,149.1652358,12573,-0.004659463185817003,0.0026554742362350225,-0.11154744029045105,0.008835870772600174,0.0032413071021437645,-0.02057523839175701,0,0,-1000,9,3,-20,2,0,-151,266775.0
06:25:40.591,AUTO,-35.3632618,149.1652358,12573,-0.004659463185817003,0.0026554742362350225,-0.11154744029045105,0.008835870772600174,0.0032413071021437645,-0.02057523839175701,0,0,-1000,9,3,-20,2,0,-151,266775.0
06:25:40.793,AUTO,-35.3632617,149.1652357,13741,0.0028455688152462244,0.0047938767820596695,-0.1274603009223938,0.012327504344284534,0.0025552178267389536,-0.017522824928164482,-1,0,-1000,12,3,-17,0,-2,-152,266775.0
06:25:40.994,AUTO,-35.3632616,149.1652356,14131,0.005014993716031313,0.005196752026677132,-0.1319195181131363,0.007070999592542648,0.00043540389742702246,-0.01621527597308159,-1,0,-1000,7,1,-16,0,-1,-152,266775.0
06:25:41.198,AUTO,-35.3632616,149.1652355,14520,0.006425559055060148,0.0051420689560472965,-0.13585799932479858,0.0044439975172281265,0.0007290745852515101,-0.015724385157227516,0,0,-999,5,1,-16,0,0,-152,266775.0
06:25:41.399,AUTO,-35.3632616,149.1652355,14520,0.006425559055060148,0.0051420689560472965,-0.13585799932479858,0.0044439975172281265,0.0007290745852515101,-0.015724385157227516,0,0,-999,5,1,-16,0,0,-152,213372.0
06:25:41.601,AUTO,-35.3632616,149.1652355,14913,0.0069906278513371944,0.005416755564510822,-0.139899343252182,0.0003836160758510232,-0.001057626330293715,-0.013345770537853241,0,0,-1000,1,0,-13,-1,0,-152,213372.0
06:25:41.802,AUTO,-35.3632616,149.1652355,15302,0.007255997974425554,0.005387803539633751,-0.14380353689193726,0.00010560580994933844,-0.00018972661928273737,-0.013649568893015385,0,0,-1000,0,0,-14,-2,1,-152,213372.0
06:25:42.004,AUTO,-35.3632616,149.1652355,15691,0.0072105578146874905,0.004991418682038784,-0.1473577916622162,0.0001483539817854762,-0.0017471942119300365,-0.013927607797086239,0,0,-1000,0,0,-14,-2,2,-152,213372.0
06:25:42.206,AUTO,-35.3632616,149.1652355,15691,0.0072105578146874905,0.004991418682038784,-0.1473577916622162,0.0001483539817854762,-0.0017471942119300365,-0.013927607797086239,0,0,-1000,0,0,-14,-2,2,-152,213372.0
06:25:42.407,AUTO,-35.3632616,149.1652355,15691,0.0072105578146874905,0.004991418682038784,-0.1473577916622162,0.0001483539817854762,-0.0017471942119300365,-0.013927607797086239,0,0,-1000,0,0,-14,-2,2,-152,213372.0
06:25:42.610,AUTO,-35.3632616,149.1652355,15691,0.0072105578146874905,0.004991418682038784,-0.1473577916622162,0.0001483539817854762,-0.0017471942119300365,-0.013927607797086239,0,0,-1000,0,0,-14,-2,2,-152,213372.0
06:25:42.811,AUTO,-35.3632616,149.1652355,16853,0.005760121624916792,0.004166295751929283,-0.1588115096092224,-0.0016547300620004535,0.0012212750734761357,-0.016972791403532028,0,0,-999,-1,1,-17,-3,4,-152,213372.0
06:25:43.013,AUTO,-35.3632616,149.1652356,17242,0.005287677515298128,0.004196609370410442,-0.16313591599464417,-0.0008678138838149607,-0.0003617683541961014,-0.014576653018593788,0,0,-1000,0,0,-14,-3,5,-152,213372.0
06:25:43.215,AUTO,-35.3632616,149.1652356,17632,0.004855486564338207,0.0040915049612522125,-0.16772039234638214,-0.0035021952353417873,0.0006878725253045559,-0.018207862973213196,0,0,-1000,-2,1,-18,-3,5,-152,213372.0
06:25:43.416,AUTO,-35.3632616,149.1652356,17632,0.004855486564338207,0.0040915049612522125,-0.16772039234638214,-0.0035021952353417873,0.0006878725253045559,-0.018207862973213196,0,0,-1000,-2,1,-18,-3,5,-152,213372.0
06:25:43.618,AUTO,-35.3632616,149.1652357,18021,0.004369254689663649,0.0039885034784674644,-0.17237406969070435,-0.0020183983724564314,-5.568261258304119e-06,-0.018557902425527573,0,0,-1000,-1,0,-18,-3,5,-152,213372.0
06:25:43.819,AUTO,-35.3632617,149.1652358,18410,0.0038465552497655153,0.003718198277056217,-0.1770315021276474,-0.0003819902194663882,0.00046051625395193696,-0.01880495250225067,0,0,-1000,0,1,-19,-3,5,-152,213372.0
06:25:44.021,AUTO,-35.3632617,149.1652359,18799,0.003616258269175887,0.003904821816831827,-0.18204106390476227,-0.0012890133075416088,-0.0005101844435557723,-0.017744962126016617,0,0,-1000,0,0,-18,-3,5,-152,213372.0
06:25:44.223,AUTO,-35.3632617,149.1652359,18799,0.003616258269175887,0.003904821816831827,-0.18204106390476227,-0.0012890133075416088,-0.0005101844435557723,-0.017744962126016617,0,0,-1000,0,0,-18,-3,5,-152,213372.0
06:25:44.425,AUTO,-35.3632617,149.1652359,18799,0.003616258269175887,0.003904821816831827,-0.18204106390476227,-0.0012890133075416088,-0.0005101844435557723,-0.017744962126016617,0,0,-1000,0,0,-18,-3,5,-152,213372.0
06:25:44.626,AUTO,-35.3632617,149.1652359,18799,0.003616258269175887,0.003904821816831827,-0.18204106390476227,-0.0012890133075416088,-0.0005101844435557723,-0.017744962126016617,0,0,-1000,0,0,-18,-3,5,-152,213372.0
06:25:44.828,AUTO,-35.3632617,149.1652361,19967,0.0030181584879755974,0.0034643171820789576,-0.19706371426582336,0.0017919777892529964,-0.0010032737627625465,-0.02084619738161564,0,0,-1000,2,0,-21,-3,5,-152,213372.0
06:25:45.029,AUTO,-35.3632617,149.1652362,20356,0.0027786472346633673,0.0033860269468277693,-0.20203380286693573,0.0008086234447546303,0.0006318431696854532,-0.02005290798842907,0,0,-1000,1,1,-20,-3,5,-152,213372.0
06:25:45.232,AUTO,-35.3632618,149.1652363,20745,0.002543497597798705,0.003236694261431694,-0.2068880796432495,-0.0004429365508258343,-0.000978658557869494,-0.01981295831501484,0,0,-1000,0,0,-19,-3,4,-152,213372.0
06:25:45.434,AUTO,-35.3632618,149.1652363,20745,0.002543497597798705,0.003236694261431694,-0.2068880796432495,-0.0004429365508258343,-0.000978658557869494,-0.01981295831501484,0,0,-1000,0,0,-19,-3,4,-152,6094.0
06:25:45.636,AUTO,-35.3632618,149.1652363,21135,0.002555934712290764,0.0031594326719641685,-0.2118891030550003,0.00223180977627635,-0.0003070464008487761,-0.020503243431448936,0,0,-1000,3,0,-21,-2,4,-152,6094.0
06:25:45.838,AUTO,-35.3632618,149.1652364,21525,0.002362471306696534,0.003141846740618348,-0.21697229146957397,-0.0007998145301826298,0.0012465917970985174,-0.021305745467543602,0,0,-1000,0,1,-21,-2,4,-152,6094.0
06:25:46.039,AUTO,-35.3632618,149.1652365,21915,0.0022490101400762796,0.0033232306595891714,-0.22224250435829163,-0.0003242329112254083,0.0021976500283926725,-0.022481048479676247,0,0,-1000,0,2,-22,-2,4,-152,6094.0
06:25:46.241,AUTO,-35.3632618,149.1652365,21915,0.0022490101400762796,0.0033232306595891714,-0.22224250435829163,-0.0003242329112254083,0.0021976500283926725,-0.022481048479676247,0,0,-1000,0,2,-22,-2,4,-152,6094.0
06:25:46.443,AUTO,-35.3632618,149.1652365,21915,0.0022490101400762796,0.0033232306595891714,-0.22224250435829163,-0.0003242329112254083,0.0021976500283926725,-0.022481048479676247,0,0,-1000,0,2,-22,-2,4,-152,6094.0
06:25:46.644,AUTO,-35.3632618,149.1652365,21915,0.0022490101400762796,0.0033232306595891714,-0.22224250435829163,-0.0003242329112254083,0.0021976500283926725,-0.022481048479676247,0,0,-1000,0,2,-22,-2,4,-152,6094.0
06:25:46.848,AUTO,-35.3632618,149.1652366,23083,0.0024783825501799583,0.0028555921744555235,-0.2371060699224472,-0.000726477534044534,0.0011557540856301785,-0.021851394325494766,0,0,-1000,0,1,-22,-2,3,-153,6094.0
06:25:47.049,AUTO,-35.3632619,149.1652367,23473,0.0023099922109395266,0.002767307683825493,-0.24187950789928436,0.0015783135313540697,0.0003431787481531501,-0.018165212124586105,0,0,-1000,2,1,-18,-2,3,-153,6094.0
06:25:47.250,AUTO,-35.3632619,149.1652367,23866,0.0025168918073177338,0.0026077129878103733,-0.2467116266489029,0.0025153770111501217,-4.0917948354035616e-05,-0.019496746361255646,0,0,-1000,3,0,-19,-2,3,-153,6094.0
06:25:47.452,AUTO,-35.3632619,149.1652367,24255,0.0028252543415874243,0.0023319649044424295,-0.25135183334350586,0.002220153110101819,-0.000914273492526263,-0.018839625641703606,0,0,-1000,2,0,-19,-2,3,-153,6094.0
06:25:47.654,AUTO,-35.3632619,149.1652367,24255,0.0028252543415874243,0.0023319649044424295,-0.25135183334350586,0.002220153110101819,-0.000914273492526263,-0.018839625641703606,0,0,-1000,2,0,-19,-2,3,-153,6094.0
06:25:47.856,AUTO,-35.3632619,149.1652368,24644,0.0028012986294925213,0.0018886757316067815,-0.2557956874370575,0.0009525896748527884,0.00013543886598199606,-0.017566027119755745,0,0,-1000,1,0,-17,-2,3,-153,6094.0
06:25:48.057,AUTO,-35.363262,149.1652368,25033,-0.00011897260992554948,0.0020359973423182964,-0.25929132103919983,-0.09245441854000092,0.014093142002820969,0.008023696951568127,0,-2,-979,-91,14,7,-2,3,-152,6094.0
06:25:48.259,AUTO,-35.363262,149.1652368,25033,-0.00011897260992554948,0.0020359973423182964,-0.25929132103919983,-0.09245441854000092,0.014093142002820969,0.008023696951568127,0,-2,-979,-91,14,7,-2,3,-152,6094.0
06:25:48.461,AUTO,-35.363262,149.1652368,25033,-0.00011897260992554948,0.0020359973423182964,-0.25929132103919983,-0.09245441854000092,0.014093142002820969,0.008023696951568127,0,-2,-979,-91,14,7,-2,3,-152,6094.0
06:25:48.663,AUTO,-35.363262,149.1652368,25033,-0.00011897260992554948,0.0020359973423182964,-0.25929132103919983,-0.09245441854000092,0.014093142002820969,0.008023696951568127,0,-2,-979,-91,14,7,-2,3,-152,6094.0
06:25:48.864,AUTO,-35.3632621,149.1652367,26192,0.0035819753538817167,0.004299306310713291,-0.24201568961143494,0.02572883479297161,-0.004632287658751011,0.03166847303509712,0,0,-1001,26,-3,31,-5,0,-153,6094.0
06:25:49.066,AUTO,-35.3632622,149.1652367,26582,0.008116684854030609,0.0029998617246747017,-0.23436911404132843,0.013091561384499073,-0.003819120582193136,0.02818663977086544,0,0,-1000,14,-2,28,-5,0,-153,6094.0
06:25:49.267,AUTO,-35.3632623,149.1652367,26971,0.010216206312179565,0.0020177350379526615,-0.2271527647972107,0.00441129831597209,-0.0036959515418857336,0.02816907688975334,0,0,-999,5,-2,27,-4,2,-153,6094.0
06:25:49.469,AUTO,-35.3632624,149.1652367,27360,0.010671274736523628,0.0012824521400034428,-0.22053591907024384,0.0008286055526696146,-0.0008499090909026563,0.023690730333328247,0,0,-999,1,0,23,-3,4,-152,267114.0
06:25:49.671,AUTO,-35.3632624,149.1652367,27360,0.010671274736523628,0.0012824521400034428,-0.22053591907024384,0.0008286055526696146,-0.0008499090909026563,0.023690730333328247,0,0,-999,1,0,23,-3,4,-152,267114.0
06:25:49.872,AUTO,-35.3632624,149.1652367,27748,0.00986312236636877,0.0010460648918524384,-0.2145315259695053,-0.003952923696488142,0.0003805137239396572,0.025086402893066406,0,0,-999,-3,1,24,-3,5,-152,267114.0
06:25:50.074,AUTO,-35.3632624,149.1652368,28136,0.008399673737585545,0.0008652253309264779,-0.20885419845581055,-0.004118313547223806,0.000777978973928839,0.022029748186469078,0,0,-1000,-3,1,21,-2,7,-152,267114.0
06:25:50.275,AUTO,-35.3632624,149.1652368,28136,0.008399673737585545,0.0008652253309264779,-0.20885419845581055,-0.004118313547223806,0.000777978973928839,0.022029748186469078,0,0,-1000,-3,1,21,-2,7,-152,267114.0
06:25:50.477,AUTO,-35.3632624,149.1652368,28136,0.008399673737585545,0.0008652253309264779,-0.20885419845581055,-0.004118313547223806,0.000777978973928839,0.022029748186469078,0,0,-1000,-3,1,21,-2,7,-152,267114.0
06:25:50.679,AUTO,-35.3632624,149.1652368,28136,0.008399673737585545,0.0008652253309264779,-0.20885419845581055,-0.004118313547223806,0.000777978973928839,0.022029748186469078,0,0,-1000,-3,1,21,-2,7,-152,267114.0
06:25:50.880,AUTO,-35.3632624,149.1652373,29298,0.0026080405805259943,0.0016748129855841398,-0.19385218620300293,-0.00548521289601922,0.0016906883101910353,0.020988719537854195,0,-1,-1000,-4,2,20,0,8,-152,267114.0
06:25:51.082,AUTO,-35.3632624,149.1652375,29687,0.0012226912658661604,0.0017169772181659937,-0.18903769552707672,-0.003905289340764284,0.0005852763424627483,0.01969723589718342,0,-1,-1000,-2,1,19,0,7,-152,267114.0
06:25:51.283,AUTO,-35.3632624,149.1652376,30074,-0.0002534425293561071,0.002343039494007826,-0.18320241570472717,-0.02009684219956398,0.013597956858575344,0.052971553057432175,0,-1,-990,-19,14,52,0,6,-152,267114.0
06:25:51.485,AUTO,-35.3632624,149.1652377,30453,-0.018238376826047897,0.020277803763747215,-0.1389404535293579,-0.10612623393535614,0.10492867231369019,0.2877141535282135,0,-1,-972,-105,106,287,-2,4,-146,267114.0
06:25:51.686,AUTO,-35.3632624,149.1652377,30453,-0.018238376826047897,0.020277803763747215,-0.1389404535293579,-0.10612623393535614,0.10492867231369019,0.2877141535282135,0,-1,-972,-105,106,287,-2,4,-146,267114.0
06:25:51.888,AUTO,-35.3632624,149.1652377,30816,-0.04650438576936722,0.052123524248600006,-0.032397184520959854,-0.14420436322689056,0.11341040581464767,0.5494019985198975,1,-1,-976,-143,114,549,-11,-3,-139,267114.0
06:25:52.090,AUTO,-35.3632628,149.1652374,31160,-0.0630139485001564,0.06738977879285812,0.10157859325408936,-0.0061188265681266785,-0.09846169501543045,0.4141111969947815,4,4,-944,-4,-97,413,-24,-17,-128,267114.0
06:25:52.291,AUTO,-35.3632628,149.1652374,31160,-0.0630139485001564,0.06738977879285812,0.10157859325408936,-0.0061188265681266785,-0.09846169501543045,0.4141111969947815,4,4,-944,-4,-97,413,-24,-17,-128,267114.0
06:25:52.505,AUTO,-35.3632628,149.1652374,31160,-0.0630139485001564,0.06738977879285812,0.10157859325408936,-0.0061188265681266785,-0.09846169501543045,0.4141111969947815,4,4,-944,-4,-97,413,-24,-17,-128,267114.0
06:25:52.709,AUTO,-35.3632647,149.1652349,31990,0.0135493790730834,-0.042256347835063934,0.19043800234794617,0.09655769169330597,-0.06523969769477844,-0.02166781574487686,2,9,-958,97,-64,-21,-23,-30,-91,267114.0
06:25:52.911,AUTO,-35.3632647,149.1652349,31990,0.0135493790730834,-0.042256347835063934,0.19043800234794617,0.09655769169330597,-0.06523969769477844,-0.02166781574487686,2,9,-958,97,-64,-21,-23,-30,-91,267114.0
06:25:53.113,AUTO,-35.3632651,149.1652342,32210,0.030741531401872635,-0.051129840314388275,0.1811130791902542,0.0583888404071331,-0.015271229669451714,-0.03953056409955025,1,8,-964,59,-14,-39,-12,-21,-81,267114.0
06:25:53.314,AUTO,-35.3632653,149.1652337,32407,0.038977835327386856,-0.050357162952423096,0.17067088186740875,-0.004623766522854567,0.0139373280107975,-0.03772439807653427,0,3,-968,-3,14,-37,-2,-10,-72,267114.0
06:25:53.516,AUTO,-35.3632653,149.1652335,32581,0.041718244552612305,-0.04387877881526947,0.16216734051704407,0.03390812873840332,0.03317506983876228,-0.029046662151813507,-1,3,-972,34,34,-29,7,0,-64,106118.0
06:25:53.718,AUTO,-35.3632651,149.1652336,32736,0.039725832641124725,-0.03420400619506836,0.1555013656616211,0.002869908232241869,0.039527274668216705,-0.021523693576455116,-2,-4,-976,3,40,-21,14,10,-57,106118.0
06:25:53.920,AUTO,-35.3632651,149.1652336,32736,0.039725832641124725,-0.03420400619506836,0.1555013656616211,0.002869908232241869,0.039527274668216705,-0.021523693576455116,-2,-4,-976,3,40,-21,14,10,-57,106118.0
06:25:54.122,AUTO,-35.3632648,149.1652339,32875,0.031376902014017105,-0.024062346667051315,0.15049193799495697,-0.1815388947725296,0.04058719426393509,-0.015570780262351036,-3,-10,-978,-180,41,-15,19,18,-52,106118.0
06:25:54.324,AUTO,-35.3632648,149.1652339,32875,0.031376902014017105,-0.024062346667051315,0.15049193799495697,-0.1815388947725296,0.04058719426393509,-0.015570780262351036,-3,-10,-978,-180,41,-15,19,18,-52,106118.0
06:25:54.525,AUTO,-35.3632648,149.1652339,32875,0.031376902014017105,-0.024062346667051315,0.15049193799495697,-0.1815388947725296,0.04058719426393509,-0.015570780262351036,-3,-10,-978,-180,41,-15,19,18,-52,106118.0
06:25:54.727,AUTO,-35.3632632,149.1652356,33199,0.00961791630834341,0.0030248521361500025,0.14006765186786652,-0.5446791648864746,0.03634796664118767,-0.009535017423331738,-4,-35,-981,-544,37,-9,23,27,-34,106118.0
06:25:54.929,AUTO,-35.3632632,149.1652356,33199,0.00961791630834341,0.0030248521361500025,0.14006765186786652,-0.5446791648864746,0.03634796664118767,-0.009535017423331738,-4,-35,-981,-544,37,-9,23,27,-34,106118.0
06:25:55.131,AUTO,-35.3632627,149.1652363,33278,0.0026791193522512913,0.008849025703966618,0.13677622377872467,-0.211270272731781,0.020528215914964676,-0.009173808619379997,-2,-1,-977,-209,21,-9,21,28,-29,106118.0
06:25:55.332,AUTO,-35.3632622,149.165237,33344,0.0069506121799349785,0.012704665772616863,0.13369816541671753,0.5556034445762634,0.013027152046561241,-0.006062360480427742,0,23,-993,557,14,-6,19,26,-25,106118.0
06:25:55.534,AUTO,-35.3632617,149.1652376,33395,0.0058562858030200005,0.015723681077361107,0.13115279376506805,0.39868471026420593,0.007960733026266098,-0.008013919927179813,-1,-1,-981,398,8,-7,16,23,-18,106118.0
06:25:55.736,AUTO,-35.3632614,149.1652381,33430,-0.0045119477435946465,0.01640796847641468,0.1285158395767212,-0.3565966784954071,-0.0009437697008252144,-0.009085670113563538,0,-40,-962,-356,0,-9,12,19,-11,106118.0
06:25:55.937,AUTO,-35.3632614,149.1652381,33430,-0.0045119477435946465,0.01640796847641468,0.1285158395767212,-0.3565966784954071,-0.0009437697008252144,-0.009085670113563538,0,-40,-962,-356,0,-9,12,19,-11,106118.0
06:25:56.139,AUTO,-35.3632611,149.1652386,33446,-0.013036851771175861,0.016055213287472725,0.12646397948265076,-0.6965421438217163,-0.002027112990617752,-0.008889582008123398,0,-34,-969,-695,-1,-8,9,15,-4,106118.0
06:25:56.341,AUTO,-35.3632611,149.1652386,33446,-0.013036851771175861,0.016055213287472725,0.12646397948265076,-0.6965421438217163,-0.002027112990617752,-0.008889582008123398,0,-34,-969,-695,-1,-8,9,15,-4,106118.0
06:25:56.542,AUTO,-35.3632611,149.1652386,33446,-0.013036851771175861,0.016055213287472725,0.12646397948265076,-0.6965421438217163,-0.002027112990617752,-0.008889582008123398,0,-34,-969,-695,-1,-8,9,15,-4,106118.0
06:25:56.744,AUTO,-35.363261,149.1652389,33355,-0.0011855814373120666,-0.004905030131340027,0.11979639530181885,0.8635819554328918,-0.12447866797447205,-0.01318071037530899,0,30,-1010,864,-123,-12,-5,-2,16,106118.0
06:25:56.945,AUTO,-35.363261,149.1652389,33355,-0.0011855814373120666,-0.004905030131340027,0.11979639530181885,0.8635819554328918,-0.12447866797447205,-0.01318071037530899,0,30,-1010,864,-123,-12,-5,-2,16,106118.0
06:25:57.148,AUTO,-35.3632611,149.1652388,33316,0.012772687710821629,-0.03010137751698494,0.11693666875362396,0.27622196078300476,-0.0903734564781189,0.0005339189665392041,0,-8,-1022,276,-89,0,0,-3,11,106118.0
06:25:57.350,AUTO,-35.363261,149.1652389,33286,0.021876662969589233,-0.04876752570271492,0.11436273902654648,-0.20911724865436554,-0.0706356093287468,-0.0044771600514650345,-1,-37,-1007,-209,-69,-4,8,-1,8,106118.0
06:25:57.551,AUTO,-35.3632607,149.1652389,33265,0.02018558420240879,-0.06267794966697693,0.11153347045183182,-0.6605558395385742,-0.047172270715236664,-0.006197604350745678,-3,-36,-1012,-659,-45,-6,21,5,4,284337.0
06:25:57.753,AUTO,-35.3632601,149.1652392,33252,0.021778851747512817,-0.074259452521801,0.10866404324769974,-0.19005033373832703,-0.04350811615586281,-0.00847584567964077,-6,0,-1011,-187,-42,-8,36,14,1,284337.0
06:25:57.955,AUTO,-35.3632591,149.1652398,33245,0.03340598940849304,-0.0858791172504425,0.1390846222639084,0.5544124841690063,-0.013766996562480927,0.319327712059021,-9,20,-1015,556,-12,319,53,22,0,284337.0
06:25:58.157,AUTO,-35.3632591,149.1652398,33245,0.03340598940849304,-0.0858791172504425,0.1390846222639084,0.5544124841690063,-0.013766996562480927,0.319327712059021,-9,20,-1015,556,-12,319,53,22,0,284337.0
06:25:58.359,AUTO,-35.3632591,149.1652398,33245,0.03340598940849304,-0.0858791172504425,0.1390846222639084,0.5544124841690063,-0.013766996562480927,0.319327712059021,-9,20,-1015,556,-12,319,53,22,0,284337.0
06:25:58.561,AUTO,-35.3632591,149.1652398,33245,0.03340598940849304,-0.0858791172504425,0.1390846222639084,0.5544124841690063,-0.013766996562480927,0.319327712059021,-9,20,-1015,556,-12,319,53,22,0,284337.0
06:25:58.763,AUTO,-35.3632539,149.1652431,33247,-0.011346173472702503,-0.12346873432397842,0.6240816712379456,-0.6094284653663635,-0.022718116641044617,0.278865784406662,-27,-42,-1007,-608,-21,278,114,49,-3,284337.0
06:25:58.964,AUTO,-35.3632512,149.1652448,33250,-0.015394673682749271,-0.1329275667667389,0.6529136896133423,-0.28236982226371765,-0.025715123862028122,-0.016010157763957977,-30,-15,-1006,-280,-24,-15,135,61,-2,284337.0
06:25:59.166,AUTO,-35.3632512,149.1652448,33250,-0.015394673682749271,-0.1329275667667389,0.6529136896133423,-0.28236982226371765,-0.025715123862028122,-0.016010157763957977,-30,-15,-1006,-280,-24,-15,135,61,-2,284337.0
06:25:59.368,AUTO,-35.363248,149.1652469,33253,-0.0070622386410832405,-0.14325906336307526,0.6400412917137146,0.3897387683391571,-0.041653890162706375,-0.12354658544063568,-37,13,-1010,391,-40,-123,158,74,-4,284337.0
06:25:59.570,AUTO,-35.3632443,149.1652493,33258,0.0008742937352508307,-0.1549420803785324,0.6149051189422607,0.33779942989349365,-0.05687425658106804,-0.10124214738607407,-42,-15,-1008,338,-55,-101,184,85,-4,284337.0
06:25:59.772,AUTO,-35.36324,149.165252,33264,-0.002216634340584278,-0.1679781973361969,0.5928699970245361,-0.33567532896995544,-0.04219234734773636,-0.060422901064157486,-45,-49,-1004,-335,-41,-60,210,97,-4,284337.0
06:25:59.973,AUTO,-35.363235,149.1652551,33270,6.715152994729578e-05,-0.17961949110031128,0.5786103010177612,-0.30924269556999207,-0.04635249078273773,-0.05633688345551491,-57,-37,-1011,-308,-45,-56,238,110,-4,284337.0
06:26:00.175,AUTO,-35.363235,149.1652551,33270,6.715152994729578e-05,-0.17961949110031128,0.5786103010177612,-0.30924269556999207,-0.04635249078273773,-0.05633688345551491,-57,-37,-1011,-308,-45,-56,238,110,-4,284337.0
06:26:00.377,AUTO,-35.363235,149.1652551,33270,6.715152994729578e-05,-0.17961949110031128,0.5786103010177612,-0.30924269556999207,-0.04635249078273773,-0.05633688345551491,-57,-37,-1011,-308,-45,-56,238,110,-4,284337.0
06:26:00.579,AUTO,-35.363235,149.1652551,33270,6.715152994729578e-05,-0.17961949110031128,0.5786103010177612,-0.30924269556999207,-0.04635249078273773,-0.05633688345551491,-57,-37,-1011,-308,-45,-56,238,110,-4,284337.0
06:26:00.781,AUTO,-35.3632163,149.1652666,33300,0.020582642406225204,-0.18646380305290222,0.5701431035995483,-0.2985663414001465,-0.002586526097729802,0.00027418474201112986,-76,-50,-1008,-298,-1,0,320,150,-7,284337.0
06:26:00.983,AUTO,-35.3632089,149.1652711,33315,0.025870678946375847,-0.18816182017326355,0.5683434009552002,0.07556073367595673,-0.012755199335515499,-0.03642820194363594,-83,-35,-1007,76,-11,-36,344,163,-8,284337.0
06:26:01.185,AUTO,-35.3632089,149.1652711,33315,0.025870678946375847,-0.18816182017326355,0.5683434009552002,0.07556073367595673,-0.012755199335515499,-0.03642820194363594,-83,-35,-1007,76,-11,-36,344,163,-8,284337.0
06:26:01.386,AUTO,-35.363201,149.165276,33332,0.035184115171432495,-0.19203916192054749,0.5672556757926941,0.23705731332302094,-0.01770961284637451,-0.014718521386384964,-81,-46,-1002,237,-16,-14,368,176,-8,284337.0
06:26:01.588,AUTO,-35.3631925,149.1652812,33350,0.037340980023145676,-0.19613851606845856,0.5649104714393616,-0.1262550950050354,-0.03373172879219055,-0.005656516179442406,-90,-60,-1003,-125,-32,-5,392,188,-9,200.0
06:26:01.790,AUTO,-35.3631835,149.1652867,33370,0.040595803409814835,-0.20500922203063965,0.5610917806625366,-0.031182317063212395,-0.04126016050577164,-0.029856769368052483,-105,-29,-998,-30,-40,-29,415,202,-9,200.0
06:26:01.992,AUTO,-35.3631739,149.1652925,33387,0.04462956637144089,-0.21434810757637024,0.5580475330352783,0.13042744994163513,-0.027154117822647095,-0.003043347503989935,-98,-47,-1001,131,-26,-3,439,216,-8,200.0
06:26:02.194,AUTO,-35.3631739,149.1652925,33387,0.04462956637144089,-0.21434810757637024,0.5580475330352783,0.13042744994163513,-0.027154117822647095,-0.003043347503989935,-98,-47,-1001,131,-26,-3,439,216,-8,200.0
06:26:02.396,AUTO,-35.3631739,149.1652925,33387,0.04462956637144089,-0.21434810757637024,0.5580475330352783,0.13042744994163513,-0.027154117822647095,-0.003043347503989935,-98,-47,-1001,131,-26,-3,439,216,-8,200.0
06:26:02.597,AUTO,-35.3631739,149.1652925,33387,0.04462956637144089,-0.21434810757637024,0.5580475330352783,0.13042744994163513,-0.027154117822647095,-0.003043347503989935,-98,-47,-1001,131,-26,-3,439,216,-8,200.0
06:26:02.799,AUTO,-35.3631418,149.1653122,33453,0.06385403126478195,-0.19906085729599,0.5504447221755981,0.07227514684200287,0.047469183802604675,-0.00849502719938755,-108,-55,-1005,73,48,-8,509,256,-14,200.0
06:26:03.001,AUTO,-35.3631301,149.1653194,33489,0.0678822249174118,-0.19325457513332367,0.5492411851882935,-0.027236387133598328,0.016801618039608,0.003504831111058593,-106,-60,-996,-26,17,3,525,267,-17,200.0
06:26:03.203,AUTO,-35.3631181,149.1653269,33530,0.07126209139823914,-0.18682672083377838,0.5487744212150574,0.02257840521633625,0.051401324570178986,0.0011300324695184827,-114,-59,-995,23,52,0,540,277,-18,200.0
06:26:03.405,AUTO,-35.3631181,149.1653269,33530,0.07126209139823914,-0.18682672083377838,0.5487744212150574,0.02257840521633625,0.051401324570178986,0.0011300324695184827,-114,-59,-995,23,52,0,540,277,-18,200.0
06:26:03.607,AUTO,-35.3631057,149.1653346,33575,0.07355199009180069,-0.17925328016281128,0.5477871894836426,0.03233848512172699,0.006342768203467131,-0.0046075028367340565,-125,-74,-993,33,7,-4,552,285,-20,200.0
06:26:03.809,AUTO,-35.3630929,149.1653426,33623,0.07711563259363174,-0.1765996813774109,0.5462758541107178,-0.019670270383358,0.010291077196598053,0.006602276116609573,-128,-83,-994,-18,11,6,563,293,-20,200.0
06:26:04.011,AUTO,-35.3630802,149.1653507,33669,0.07882241904735565,-0.17359238862991333,0.5453359484672546,0.009532156400382519,0.019992351531982422,-0.007815958932042122,-115,-63,-981,10,20,-7,573,301,-19,200.0
06:26:04.214,AUTO,-35.3630802,149.1653507,33669,0.07882241904735565,-0.17359238862991333,0.5453359484672546,0.009532156400382519,0.019992351531982422,-0.007815958932042122,-115,-63,-981,10,20,-7,573,301,-19,200.0
06:26:04.415,AUTO,-35.3630802,149.1653507,33669,0.07882241904735565,-0.17359238862991333,0.5453359484672546,0.009532156400382519,0.019992351531982422,-0.007815958932042122,-115,-63,-981,10,20,-7,573,301,-19,200.0
06:26:04.617,AUTO,-35.3630802,149.1653507,33669,0.07882241904735565,-0.17359238862991333,0.5453359484672546,0.009532156400382519,0.019992351531982422,-0.007815958932042122,-115,-63,-981,10,20,-7,573,301,-19,200.0
06:26:04.820,AUTO,-35.3630406,149.1653762,33810,0.07579964399337769,-0.15638111531734467,0.5435935854911804,0.022226331755518913,-0.0048300535418093204,-0.013657301664352417,-153,-72,-993,23,-4,-13,594,315,-20,200.0
06:26:05.021,AUTO,-35.3630272,149.1653848,33857,0.07924764603376389,-0.1518077552318573,0.5420690774917603,0.01049024797976017,0.0017154072411358356,-0.00727630453184247,-136,-85,-987,11,2,-7,599,318,-19,200.0
06:26:05.223,AUTO,-35.3630136,149.1653936,33903,0.0800863727927208,-0.14744286239147186,0.5410685539245605,0.05098889395594597,0.0416085347533226,-0.005273780319839716,-132,-114,-992,51,42,-5,603,319,-19,200.0
06:26:05.425,AUTO,-35.3630136,149.1653936,33903,0.0800863727927208,-0.14744286239147186,0.5410685539245605,0.05098889395594597,0.0416085347533226,-0.005273780319839716,-132,-114,-992,51,42,-5,603,319,-19,200.0
06:26:05.627,AUTO,-35.3629999,149.1654024,33949,0.07822126895189285,-0.1358497440814972,0.5403043627738953,-0.04119030758738518,0.04517378285527229,-0.008087308146059513,-128,-81,-993,-40,46,-8,605,321,-19,206292.0
06:26:05.828,AUTO,-35.3629863,149.1654113,33998,0.08304757624864578,-0.12779909372329712,0.5392007231712341,0.06000262498855591,0.024727392941713333,-0.008331172168254852,-139,-68,-987,60,25,-8,604,321,-20,206292.0
06:26:06.030,AUTO,-35.3629727,149.1654201,34047,0.07997378706932068,-0.1242695078253746,0.5381458401679993,-0.04520518332719803,0.0050375922583043575,-0.004382122308015823,-138,-83,-982,-44,6,-4,602,320,-19,206292.0
06:26:06.232,AUTO,-35.3629727,149.1654201,34047,0.07997378706932068,-0.1242695078253746,0.5381458401679993,-0.04520518332719803,0.0050375922583043575,-0.004382122308015823,-138,-83,-982,-44,6,-4,602,320,-19,206292.0
06:26:06.435,AUTO,-35.3629727,149.1654201,34047,0.07997378706932068,-0.1242695078253746,0.5381458401679993,-0.04520518332719803,0.0050375922583043575,-0.004382122308015823,-138,-83,-982,-44,6,-4,602,320,-19,206292.0
06:26:06.637,AUTO,-35.3629727,149.1654201,34047,0.07997378706932068,-0.1242695078253746,0.5381458401679993,-0.04520518332719803,0.0050375922583043575,-0.004382122308015823,-138,-83,-982,-44,6,-4,602,320,-19,206292.0
06:26:06.839,AUTO,-35.3629318,149.1654467,34158,0.07761379331350327,-0.1336066871881485,0.5351331233978271,-0.05367480590939522,-0.010758383199572563,0.0033894688822329044,-137,-86,-984,-53,-9,3,601,317,-12,206292.0
06:26:07.041,AUTO,-35.3629183,149.1654555,34186,0.07713133841753006,-0.1390192061662674,0.5335487127304077,0.01739773340523243,-0.029332008212804794,0.006006340496242046,-144,-75,-990,18,-28,6,602,318,-11,206292.0
06:26:07.242,AUTO,-35.3629047,149.1654644,34210,0.0755668357014656,-0.1407572329044342,0.5321764945983887,0.03077971749007702,-0.00019885547226294875,-0.004738215357065201,-139,-90,-991,31,0,-4,604,318,-10,206292.0
06:26:07.444,AUTO,-35.3629047,149.1654644,34210,0.0755668357014656,-0.1407572329044342,0.5321764945983887,0.03077971749007702,-0.00019885547226294875,-0.004738215357065201,-139,-90,-991,31,0,-4,604,318,-10,206292.0
06:26:07.646,AUTO,-35.3628911,149.1654732,34236,0.07359682023525238,-0.13906130194664001,0.5310556292533875,-0.05157755687832832,-1.3377575669437647e-05,0.0027201203629374504,-151,-82,-992,-50,1,2,604,318,-11,206292.0
06:26:07.849,AUTO,-35.3628774,149.1654821,34263,0.07333529740571976,-0.13981236517429352,0.5302729606628418,-0.01664627529680729,0.03801709786057472,0.00069766107480973,-117,-84,-989,-15,39,0,608,318,-10,206292.0
06:26:08.050,AUTO,-35.3628638,149.1654909,34291,0.07282925397157669,-0.13731342554092407,0.5291775465011597,0.03607664629817009,-0.00134617043659091,-0.006544189527630806,-141,-73,-989,36,0,-6,608,319,-12,206292.0
06:26:08.252,AUTO,-35.3628638,149.1654909,34291,0.07282925397157669,-0.13731342554092407,0.5291775465011597,0.03607664629817009,-0.00134617043659091,-0.006544189527630806,-141,-73,-989,36,0,-6,608,319,-12,206292.0
06:26:08.454,AUTO,-35.3628638,149.1654909,34291,0.07282925397157669,-0.13731342554092407,0.5291775465011597,0.03607664629817009,-0.00134617043659091,-0.006544189527630806,-141,-73,-989,36,0,-6,608,319,-12,206292.0
06:26:08.656,AUTO,-35.3628638,149.1654909,34291,0.07282925397157669,-0.13731342554092407,0.5291775465011597,0.03607664629817009,-0.00134617043659091,-0.006544189527630806,-141,-73,-989,36,0,-6,608,319,-12,206292.0
06:26:08.858,AUTO,-35.3628223,149.1655175,34390,0.08164966851472855,-0.13166742026805878,0.5257039666175842,0.039206612855196,0.0006665851688012481,-0.004244774580001831,-166,-69,-998,40,1,-4,609,316,-15,206292.0
06:26:09.060,AUTO,-35.3628086,149.1655263,34426,0.07722295075654984,-0.13290224969387054,0.5252417325973511,-0.09132787585258484,-0.008829216472804546,0.0033152245450764894,-138,-78,-986,-90,-7,3,609,316,-15,206292.0
06:26:09.262,AUTO,-35.362795,149.165535,34459,0.07641541957855225,-0.13731341063976288,0.5248652696609497,0.042523421347141266,-0.015775397419929504,0.006355191580951214,-127,-71,-981,43,-14,6,609,317,-13,206292.0
06:26:09.463,AUTO,-35.3627813,149.1655439,34490,0.07634680718183517,-0.13197341561317444,0.5249515175819397,0.028394263237714767,0.0379716120660305,-0.0025059126783162355,-146,-109,-1006,29,39,-2,611,315,-14,206292.0
06:26:09.665,AUTO,-35.3627813,149.1655439,34490,0.07634680718183517,-0.13197341561317444,0.5249515175819397,0.028394263237714767,0.0379716120660305,-0.0025059126783162355,-146,-109,-1006,29,39,-2,611,315,-14,300000.0
06:26:09.867,AUTO,-35.3627674,149.1655527,34527,0.08331600576639175,-0.1296280324459076,0.5231595635414124,-0.060496311634778976,-0.013045432977378368,0.0068777576088905334,-146,-85,-992,-59,-12,6,611,313,-15,300000.0
06:26:10.069,AUTO,-35.3627537,149.1655615,34563,0.08205551654100418,-0.13084673881530762,0.5216037631034851,-0.009049351327121258,-0.019084768369793892,0.0018194596050307155,-136,-71,-989,-8,-18,1,610,314,-15,300000.0
06:26:10.271,AUTO,-35.3627537,149.1655615,34563,0.08205551654100418,-0.13084673881530762,0.5216037631034851,-0.009049351327121258,-0.019084768369793892,0.0018194596050307155,-136,-71,-989,-8,-18,1,610,314,-15,300000.0
06:26:10.473,AUTO,-35.3627537,149.1655615,34563,0.08205551654100418,-0.13084673881530762,0.5216037631034851,-0.009049351327121258,-0.019084768369793892,0.0018194596050307155,-136,-71,-989,-8,-18,1,610,314,-15,300000.0
06:26:10.675,AUTO,-35.3627537,149.1655615,34563,0.08205551654100418,-0.13084673881530762,0.5216037631034851,-0.009049351327121258,-0.019084768369793892,0.0018194596050307155,-136,-71,-989,-8,-18,1,610,314,-15,300000.0
06:26:10.877,AUTO,-35.3627127,149.1655878,34672,0.07838066667318344,-0.10890500992536545,0.5209085941314697,0.09266331791877747,0.060786470770835876,-0.0018618504982441664,-133,-73,-1000,93,61,-2,605,312,-18,300000.0
