time_stamp,RTL_ALT,MODE,xacc,yacc,zacc,xgyro,ygyro,zgyro,roll,pitch,yaw,rollspeed,pitchspeed,yawspeed,lat,lon,relative_alt,vx,vy,vz
14:05:52,1500.0,AUTO,0.0,1.0,-1000.0,0.0,0.0,1.0,-0.0014239949523471296,0.0010013707214966416,0.021894515492022038,0.00031127280090004206,0.00031449130619876087,0.0013817885192111135,-35.3632622,149.1652375,3.0,-1.0,0.0,-0.5
14:05:53,92649.0,AUTO,0.0,1.0,-1000.0,0.5,0.5,0.75,-0.0013166290591470897,0.001052985928254202,0.021773930173367262,0.0002731337008299306,0.0002511647035134956,0.0013821028114762157,-35.363262125,149.1652375,8.5,-0.25,0.0,-1.0
14:05:54,92649.0,AUTO,0.0,8.5,-989.0,0.0,0.5,1.0,-0.0008338340849149972,0.0012738276273012161,0.0216127447783947,1.8899707356467843e-05,0.0002889838651753962,0.0014618546701967716,-35.3632621,149.1652375,4.5,0.0,1.5,1.0
14:05:56,92649.0,AUTO,0.0,0.5,-1065.0,6.0,2.5,0.0,0.0020261237514205277,0.0009529501548968256,0.02121985238045454,0.00540807587094605,0.002357910852879286,0.0010299123241566122,-35.3632621,149.1652375,93.5,0.0,0.5,-34.5
14:05:57,85502.0,AUTO,0.0,-0.25,-1065.0,20.5,-1.25,1.0,0.008538141351891682,0.0009058719297172502,0.020968259777873755,0.01959823549259454,-0.0019885518704541028,0.0018114020640496165,-35.363262075,149.165237525,867.5,0.0,2.25,-125.75
14:05:58,85502.0,AUTO,0.5,-4.5,-1001.0,25.0,0.5,-15.5,0.04687751457095146,-0.006255065323784947,0.007379628252238035,0.02462633582763374,-0.0005112562794238329,-0.015117240138351917,-35.363261800000004,149.1652388,2332.0,4.5,26.0,-148.5
14:06:00,85502.0,AUTO,1.0,-2.0,-1002.0,1.5,-7.0,-24.5,-0.056956976652145386,0.001905657656607218,-0.086494579911232,0.0010988730937242508,-0.008163237711414695,-0.024600249715149403,-35.3632608,149.16524605,5391.0,0.0,1.0,-150.5
14:06:01,300000.0,AUTO,-4.25,8.0,-1001.75,61.75,7.25,-6.75,-0.0381323229521513,0.0012688756432908121,-0.10576220415532589,0.0614743372425437,0.006888116477057338,-0.007113439321983606,-35.363260975,149.1652434,6930.5,-6.0,-52.0,-150.25
14:06:02,300000.0,AUTO,-5.0,11.5,-1003.0,66.0,7.0,1.5,0.02745653036981821,0.010303262621164322,-0.10711444914340973,0.06588989123702049,0.00650866876821965,0.002083303523249924,-35.363261949999995,149.16523719999998,8483.0,-14.5,-46.0,-153.0
14:06:04,300000.0,AUTO,-0.5,-5.0,-1002.5,-56.5,52.0,-51.0,-0.011580528225749731,-0.023919861763715744,-0.07399782165884972,-0.05744645092636347,0.051728079095482826,-0.05156988650560379,-35.36326315,149.16523645,11585.5,19.0,20.0,-150.5
14:06:05,121883.0,AUTO,-4.5,-2.25,-1001.5,30.5,18.75,-48.0,-0.017173706670291722,0.013139552087523043,-0.13974343799054623,0.030172212980687618,0.018541888566687703,-0.048420775681734085,-35.363261175,149.16523715,13136.5,17.25,-8.25,-153.5
14:06:06,121883.0,AUTO,-3.0,1.5,-999.5,15.5,-2.5,-9.5,0.00943197647575289,0.0186350978910923,-0.1661306694149971,0.01567373494617641,-0.0034172809682786465,-0.00940312270540744,-35.3632604,149.16523575000002,14705.0,-1.5,-8.5,-153.5
14:06:08,121883.0,AUTO,1.5,4.5,-974.0,6.0,-54.0,136.0,-0.03670947253704071,0.021968822926282883,-0.08408574032364413,0.005416952073574066,-0.0555551799479872,0.136123803909868,-35.36326185,149.16523465,17777.5,-20.5,-17.0,-142.0
14:06:09,169477.0,AUTO,1.25,8.75,-958.0,88.0,-63.0,4.25,0.03883900076471036,-0.02530511951772496,0.04778458550572395,0.08773378026671708,-0.06438893009908497,0.004317563376389444,-35.363263925,149.165231525,19068.0,-24.0,-22.5,-104.5
14:06:10,169477.0,AUTO,0.5,-4.5,-972.0,-32.5,30.5,-8.0,0.04739728756248951,-0.022802367340773344,0.030617255717515945,-0.03391461446881294,0.030240203253924847,-0.008212746353819966,-35.36326455,149.1652316,19923.0,6.5,25.5,-69.5
14:06:12,169477.0,AUTO,0.0,-5.5,-973.0,2.5,2.0,-1.5,-0.011002440936863422,0.014355706050992012,0.02546793408691883,0.0017432225868105888,0.0011791314464062452,-0.0017643440514802933,-35.3632619,149.16523865,20815.0,9.0,24.0,-21.0
14:06:13,169614.0,AUTO,-0.5,-0.75,-981.25,-154.25,-44.75,-10.75,-0.03003761637955904,0.0055617972975596786,0.022691947408020496,-0.15586709044873714,-0.04613472893834114,-0.011282019084319472,-35.36326135,149.16524005,20849.0,-1.0,-1.5,12.0
14:06:14,169614.0,AUTO,-6.5,10.5,-1029.5,150.5,-51.0,2.0,0.023672135546803474,-0.0575454905629158,0.018310093320906162,0.14906013011932373,-0.05248046852648258,0.0021004313603043556,-35.36326045,149.16523915,20691.0,25.0,-3.5,7.0
14:06:16,169614.0,AUTO,-40.0,-6.0,-1008.0,164.5,-46.5,-54.0,0.025070209056138992,-0.15753032267093658,0.3988848775625229,0.1627979725599289,-0.04762078449130058,-0.05450664646923542,-35.363243049999994,149.16524425,20685.5,186.0,67.5,-7.0
14:06:17,105940.0,AUTO,-63.5,-38.75,-1010.5,64.5,-6.5,-4.25,0.031055779196321964,-0.18427007645368576,0.37725141644477844,0.0635906532406807,-0.0076825921423733234,-0.0044759605880244635,-35.363221975,149.16525365,20742.0,299.25,108.25,-9.25
14:06:18,105940.0,AUTO,-87.0,-56.0,-1003.5,-14.0,-18.5,-9.0,0.037587765604257584,-0.19610156118869781,0.37708204984664917,-0.01518694986589253,-0.019189231272321194,-0.009791631018742919,-35.363190450000005,149.165268,20843.0,405.0,141.0,-13.0
14:06:20,105940.0,AUTO,-115.0,-64.5,-992.5,7.5,5.5,-16.0,0.06248916871845722,-0.1728401631116867,0.36831559240818024,0.007201747503131628,0.0041695695836097,-0.01622784766368568,-35.363101549999996,149.16530745,21191.5,574.0,196.0,-24.5
14:06:21,15069.0,AUTO,-128.75,-75.25,-993.25,4.0,21.75,1.5,0.06735677644610405,-0.1579325683414936,0.3652667999267578,0.003452984383329749,0.021346437046304345,0.0016136520134750754,-35.363048475,149.165330875,21448.0,613.75,211.5,-25.0
14:06:22,15069.0,AUTO,-126.5,-75.5,-980.5,3.5,11.0,0.0,0.06895383074879646,-0.13024456426501274,0.3634481579065323,0.0025974158197641373,0.010229481384158134,-0.00023824372328817844,-35.36298985,149.16535685000002,21723.5,626.0,217.5,-25.0
14:06:24,15069.0,AUTO,-131.0,-69.0,-988.0,48.5,37.0,-2.0,0.07957563549280167,-0.0612376444041729,0.3629444092512131,0.048262111842632294,0.03686075285077095,-0.002186071127653122,-35.3628762,149.16540655,22209.5,583.0,206.0,-22.0
14:06:25,241833.0,AUTO,-108.5,-71.5,-988.5,10.5,60.25,1.0,0.07620886527001858,-0.011287409579381347,0.3630436435341835,0.00981476646848023,0.06000054907053709,0.0012490996887208894,-35.3628262,149.1654286,22427.25,512.5,184.5,-16.75
14:06:26,241833.0,AUTO,-89.0,-83.5,-983.0,-253.5,53.5,30.0,0.06266091018915176,0.04274854343384504,0.3635527193546295,-0.25411257147789,0.05267340876162052,0.03014468541368842,-35.3627843,149.1654475,22573.0,411.5,150.5,-8.0
14:06:28,241833.0,AUTO,-39.5,-27.5,-1008.0,98.5,17.0,8.5,0.0237172432243824,0.07528574019670486,0.35950957238674164,0.09806817770004272,0.016645656432956457,0.008735179901123047,-35.36273025,149.16547305,22654.5,191.0,70.0,-1.0
14:06:29,141591.0,AUTO,-20.25,-18.25,-1003.75,-91.0,-30.25,6.75,0.002305251720827073,0.06853201612830162,0.3586087301373482,-0.09161341935396194,-0.031942724250257015,0.006814286956796423,-35.362717275,149.16547985,22676.5,97.75,30.5,-0.25
14:06:30,141591.0,AUTO,-8.5,6.5,-1005.5,127.0,-20.0,1.5,-0.0053458730690181255,0.044008731842041016,0.35803908109664917,0.1263723075389862,-0.021485415287315845,0.0007517870981246233,-35.3627118,149.16548260000002,22682.5,39.0,4.0,0.0
14:06:32,141591.0,AUTO,-0.5,3.5,-994.5,-100.5,-9.5,2.0,0.010485975071787834,-0.00429310230538249,0.35628391802310944,-0.1012536883354187,-0.010566254146397114,0.0017310366674792022,-35.36270985,149.16548085,22689.5,-1.0,-4.5,0.0
14:06:33,115203.0,RTL,-2.25,0.0,-1004.75,9.25,15.5,8.25,0.016487107728607953,-0.0110652728471905,0.35503917187452316,0.008419394493103027,0.014178194425767288,0.007355181587627158,-35.362709575000004,149.165479725,22688.5,5.75,5.5,-0.25
14:06:34,115203.0,RTL,-1.0,-3.0,-1028.5,-270.5,5.0,6.5,0.010840469505637884,0.0055745611898601055,0.3539212793111801,-0.2726634740829468,0.003848847118206322,0.006284866016358137,-35.3627088,149.16547935,22770.5,3.0,11.0,-18.5
14:06:36,115203.0,RTL,0.0,1.0,-1047.0,40.5,0.5,5.0,0.009612380526959896,0.00326384708750993,0.35410383343696594,0.03941534971818328,-0.00021466315956786275,0.004222510615363717,-35.362708549999994,149.1654791,24079.0,-4.5,13.0,-112.5
14:06:37,51109.0,RTL,0.25,-0.5,-1015.5,41.75,-6.0,2.75,0.027292208280414343,0.00033355831692460924,0.35343150794506073,0.04082031175494194,-0.00740952737396583,0.0021451276843436062,-35.362708675,149.16547925,25418.5,-5.75,17.75,-146.25
14:06:38,51109.0,RTL,2.5,-7.5,-997.0,-63.5,21.5,-41.5,0.03947069216519594,0.00838761986233294,0.33538591861724854,-0.06486913561820984,0.01991970418021083,-0.042619109619408846,-35.362709100000004,149.16548185,26940.5,-10.5,49.0,-148.0
14:06:40,51109.0,RTL,-1.5,2.5,-1001.0,43.5,5.5,-16.5,-0.04518430680036545,0.004443672019988298,0.2554047405719757,0.042497143149375916,0.005337232607416809,-0.018335556145757437,-35.362709699999996,149.16548625000001,30004.0,5.0,-24.0,-151.0
14:06:41,40968.0,RTL,-5.0,8.5,-1001.25,50.5,1.25,5.5,0.008503264107275754,0.008875753497704864,0.24728000909090042,0.049304361920803785,0.0007591670146211982,0.004328003851696849,-35.362708825,149.165482175,31556.25,4.25,-40.0,-152.5
14:06:42,40968.0,RTL,-0.5,3.5,-999.0,-9.0,-3.5,8.0,0.021282342728227377,0.0033974506659433246,0.2570907175540924,-0.01110500399954617,-0.004349400929640979,0.007086527883075178,-35.36270845,149.165479,33117.5,-3.5,-16.0,-152.0
14:06:44,40968.0,RTL,0.0,0.0,-1000.5,1.0,3.0,-18.0,0.00035706342896446586,0.004300683969631791,0.23437615483999252,-0.0007996203494258225,0.0023660348961129785,-0.019526389427483082,-35.3627084,149.16547815,36229.0,-1.5,0.0,-152.5
14:06:45,104242.0,RTL,0.0,0.0,-1000.0,2.75,3.75,-19.5,0.0009230082796420902,0.006459432537667453,0.21299618110060692,0.0014664595946669579,0.0030846819281578064,-0.021444099955260754,-35.362708350000005,149.1654783,37786.25,-1.25,0.0,-153.0
14:06:46,104242.0,RTL,0.0,0.0,-1000.0,1.0,2.0,-18.0,0.0013416355359368026,0.00804829504340887,0.19146322458982468,-0.00021780829411000013,0.0012730432790704072,-0.019765345379710197,-35.3627083,149.1654786,39347.5,-3.0,1.0,-153.0
14:06:48,104242.0,RTL,0.0,0.0,-1000.0,1.0,1.0,-18.5,-0.00046110640823826543,0.00731623568572104,0.14970950037240982,-0.0002580345026217401,0.00038277951534837484,-0.02001478709280491,-35.3627084,149.16547925,42464.5,-5.0,1.0,-153.0
14:06:49,300000.0,RTL,0.0,0.0,-999.75,1.5,1.0,-19.25,-0.0010405320208519697,0.006277245585806668,0.12852827832102776,0.00020867717103101313,0.0002833952457876876,-0.021113932598382235,-35.36270857499999,149.16547952500002,44026.75,-5.0,0.5,-153.0
14:06:50,300000.0,RTL,0.0,0.0,-1000.0,2.0,1.5,-19.0,-0.0006180656200740486,0.005734407342970371,0.1070578321814537,0.0010003658244386315,0.00038801413029432297,-0.020694873295724392,-35.362708749999996,149.1654797,45586.5,-4.5,0.0,-153.0
14:06:52,300000.0,RTL,0.0,0.0,-999.5,3.0,4.5,13.0,0.0016121106746140867,0.007276286371052265,0.08222141489386559,0.002030740084592253,0.003150506759993732,0.011666569858789444,-35.362708999999995,149.16547995000002,48699.5,-4.0,1.0,-153.0
14:06:53,213707.0,RTL,0.25,0.0,-999.75,-1.0,-0.5,29.25,0.0009982093251892366,0.006836597807705402,0.10387451946735382,-0.002512326987925917,-0.0018273538444191217,0.028152748942375183,-35.3627092,149.165480225,50256.75,-5.75,2.75,-153.0
14:06:54,213707.0,RTL,0.0,0.0,-1000.0,0.5,0.5,27.0,-0.0013138318026904017,0.004607665352523327,0.13041357696056366,-0.0011114226654171944,-0.000992121349554509,0.02591657731682062,-35.36270945,149.1654805,51804.5,-4.5,1.5,-153.0
14:06:56,213707.0,RTL,0.0,0.0,-1000.5,4.0,2.5,18.0,-0.000579310639295727,0.003929481841623783,0.17079037427902222,0.002618575352244079,0.0012742295511998236,0.01735163852572441,-35.3627096,149.1654806,54912.5,-1.5,0.0,-153.0
14:06:57,200.0,RTL,0.0,0.0,-999.75,3.0,2.5,15.75,0.0003533852723194286,0.004437913186848164,0.1866276115179062,0.0015756156062707305,0.0013318018172867596,0.015253987163305283,-35.362709575000004,149.165480575,56463.25,-1.0,0.0,-153.0
14:06:58,200.0,RTL,0.0,0.0,-1000.5,2.5,2.0,13.5,0.0014382326626218855,0.004928468028083444,0.20032568275928497,0.0015384953585453331,0.0013808743678964674,0.012612392194569111,-35.36270945,149.16548045000002,58016.0,-1.0,0.0,-153.0
14:07:00,200.0,RTL,0.0,0.0,-1000.0,2.0,2.5,10.0,0.0009551909461151809,0.005161195993423462,0.22251950949430466,0.0005508031463250518,0.0014206842170096934,0.009202133398503065,-35.362709249999995,149.1654803,61121.0,-2.0,0.0,-153.0
14:07:01,283487.0,RTL,0.0,0.0,-1000.0,0.5,1.5,9.5,0.0007102365780156106,0.00512017379514873,0.23171554878354073,-0.0007746978080831468,0.0003740379470400512,0.00854352442547679,-35.3627092,149.1654803,62674.25,-2.0,0.0,-153.0
14:07:02,283487.0,RTL,0.0,0.0,-1000.0,2.0,1.5,10.5,0.0008216358546633273,0.004648941103368998,0.23950839787721634,0.00041384948417544365,0.00029998901300132275,0.009248622227460146,-35.36270915,149.1654803,64226.5,-2.0,0.0,-153.0
14:07:04,283487.0,RTL,0.0,0.0,-1000.0,3.0,1.5,9.5,0.0008513181237503886,0.004323747009038925,0.25258663296699524,0.002134897164069116,0.0004744176985695958,0.008568148128688335,-35.3627091,149.1654802,67329.5,-2.0,0.0,-153.0
14:07:05,300000.0,RTL,0.0,0.0,-999.75,1.25,2.25,7.5,0.0007727179763605818,0.004188491613604128,0.25846700370311737,-0.0003209826536476612,0.0007386885117739439,0.006429872184526175,-35.3627091,149.1654802,68881.75,-2.0,0.0,-153.0
14:07:06,300000.0,RTL,0.0,0.0,-1000.5,2.0,3.5,4.5,0.0008856564236339182,0.00426127016544342,0.26399827003479004,0.0011351716821081936,0.0023423086968250573,0.0035821665078401566,-35.3627091,149.1654802,70434.5,-1.5,0.0,-153.0
14:07:08,300000.0,RTL,0.0,0.0,-1000.0,1.0,2.5,5.5,0.0008904993010219187,0.004388065310195088,0.27383793890476227,-0.0010124536347575486,0.0008402465609833598,0.004355474375188351,-35.3627091,149.1654802,73541.0,-2.0,0.0,-153.0
14:07:09,300000.0,RTL,0.0,0.0,-999.75,0.5,1.75,6.75,0.0009451255027670413,0.004285211325623095,0.27859000861644745,-0.0008579280111007392,0.0005999192944727838,0.005707510397769511,-35.3627091,149.1654802,75092.25,-2.0,0.0,-153.0
14:07:10,300000.0,RTL,0.0,0.0,-1000.0,3.0,3.0,5.5,0.0009840619750320911,0.004418474389240146,0.28350013494491577,0.0017540005501359701,0.0018151915865018964,0.004582227091304958,-35.3627091,149.1654802,76647.5,-2.0,0.0,-153.0
14:07:12,300000.0,RTL,0.0,0.0,-1000.5,1.5,1.0,4.5,0.0009718683431856334,0.00443236343562603,0.29101310670375824,-0.00018978305160999298,-8.511735359206796e-05,0.003502855310216546,-35.3627091,149.1654802,79753.5,-2.0,0.0,-153.0
14:07:13,200.0,RTL,0.0,0.0,-999.5,0.75,1.5,5.5,0.0008648494549561292,0.004347048932686448,0.2945462465286255,-0.00043968443060293794,0.0003893299144692719,0.004410031775478274,-35.3627091,149.1654802,81305.0,-2.0,0.0,-153.0
14:07:14,200.0,RTL,0.0,0.0,-1000.0,4.0,3.0,5.0,0.000543854184797965,0.004524321062490344,0.29776403307914734,0.00231506593991071,0.001480584149248898,0.0040232238825410604,-35.3627091,149.1654802,82858.5,-2.0,0.0,-153.0
14:07:16,200.0,RTL,0.0,0.0,-999.5,3.5,2.5,5.5,0.0007326616905629635,0.0037325978046283126,0.3033573776483536,0.0022778190905228257,0.0010923452791757882,0.0047072614543139935,-35.3627091,149.1654802,85963.5,-2.0,0.0,-153.0
14:07:17,300000.0,RTL,0.0,0.0,-1000.0,1.5,1.25,4.25,0.0009438008564757183,0.003914653789252043,0.30590492486953735,0.00012734305346384645,-0.0001619444228708744,0.0029337505402509123,-35.3627091,149.1654802,87519.0,-1.0,0.0,-153.0
14:07:18,300000.0,RTL,0.0,0.0,-1000.0,1.5,1.0,5.5,0.0010439358302392066,0.003948417492210865,0.3081803619861603,0.0003225330729037523,-0.0007881926721893251,0.004580293549224734,-35.3627091,149.1654802,89074.5,-1.0,0.0,-153.0
14:07:20,300000.0,RTL,0.0,0.0,-1000.0,2.0,1.5,5.0,0.0009484953188803047,0.004035318270325661,0.3126283437013626,0.0005416942294687033,0.0004039641935378313,0.0036839665845036507,-35.3627091,149.1654802,92176.5,-1.0,0.0,-153.0
14:07:21,300000.0,RTL,0.0,0.0,-999.75,1.5,2.0,3.0,0.0009235751640517265,0.0040687426226213574,0.3145088329911232,0.00016533402958884835,0.0006859783607069403,0.0019585668051149696,-35.3627091,149.1654802,93729.0,-1.0,0.0,-153.0
14:07:22,300000.0,RTL,0.0,0.0,-1000.0,2.0,2.5,4.5,0.0008976430690381676,0.004015870625153184,0.3162236511707306,0.000716908136382699,0.0007552347960881889,0.00285797577816993,-35.3627091,149.1654802,95281.5,-1.0,0.0,-153.0
14:07:24,300000.0,RTL,0.0,0.0,-1000.0,2.0,2.0,4.0,0.0008637407154310495,0.0040495304856449366,0.3197215646505356,0.00048278120812028646,0.00045317475451156497,0.002858253661543131,-35.3627091,149.1654802,98395.5,-1.5,0.0,-153.0
14:07:25,127660.0,RTL,0.0,0.0,-999.75,1.5,2.5,4.5,0.0009385607845615596,0.003996720188297331,0.32123760133981705,-0.00024352362379431725,0.0006844074814580381,0.0034159208880737424,-35.3627091,149.1654802,99948.75,-1.25,0.0,-153.0
14:07:26,127660.0,RTL,0.0,0.0,-1000.0,2.5,1.0,4.5,0.0008944702276494354,0.004146892111748457,0.32358191907405853,0.0006303546251729131,-8.713029092177749e-05,0.0033930042991414666,-35.3627091,149.1654802,101504.0,-1.5,0.0,-153.0
14:07:28,127660.0,RTL,0.0,0.0,-1000.5,3.0,2.5,2.5,0.0008832335297483951,0.003855730639770627,0.32577694952487946,0.001849620952270925,0.0004272629739716649,0.0010018502362072468,-35.3627091,149.1654802,104607.5,-1.0,0.0,-153.0
14:07:29,228077.0,RTL,0.0,0.0,-1000.0,1.5,1.0,3.25,0.0008332201250595972,0.003929207858163863,0.32697851210832596,3.326445585116744e-05,-0.0007839578902348876,0.002026567526627332,-35.3627091,149.1654802,106160.25,-1.0,0.0,-153.0
14:07:30,228077.0,RTL,0.0,0.0,-1000.0,3.5,2.5,4.0,0.0008918036764953285,0.003900206764228642,0.3278927356004715,0.0019029395771212876,0.0007090712897479534,0.002839674474671483,-35.3627091,149.1654802,107713.0,-1.0,0.0,-153.0
14:07:32,228077.0,RTL,0.0,0.0,-999.5,1.5,2.0,3.5,0.0008949324546847492,0.003939196467399597,0.32986001670360565,-0.0006215861067175865,0.00020755897276103497,0.00212317134719342,-35.3627091,149.1654802,110820.5,-1.0,0.0,-153.0
14:07:33,46441.0,RTL,0.0,0.0,-1000.0,2.0,1.75,3.25,0.000938527678954415,0.003879561962094158,0.3306829631328583,0.0003763851127587259,-3.0926865292713046e-05,0.002001595130423084,-35.3627091,149.1654802,112371.75,-1.0,0.0,-153.0
14:07:34,46441.0,RTL,0.0,0.0,-1000.0,3.0,2.5,2.0,0.0009709143196232617,0.004023068817332387,0.33138972520828247,0.0015064708422869444,0.0008504573488608003,0.0006325753638520837,-35.3627091,149.1654802,113926.5,-1.0,0.0,-153.0
14:07:36,46441.0,RTL,0.0,0.0,-1000.0,5.5,2.5,2.5,0.0009230764408130199,0.003986039664596319,0.332764595746994,0.0033877919195219874,0.0009835554519668221,0.001310571562498808,-35.3627091,149.1654802,117032.0,-1.0,0.0,-153.0
14:07:37,179924.0,RTL,0.0,0.0,-1000.0,1.75,2.0,2.75,0.000935847929213196,0.003897528338711709,0.33343008905649185,0.0003209226415492594,8.020477253012359e-05,0.001038360729580745,-35.3627091,149.1654802,118587.25,-1.0,0.0,-153.0
14:07:38,179924.0,RTL,0.0,0.0,-999.5,3.5,2.0,5.0,0.0009214155143126845,0.003946714103221893,0.334066241979599,0.0017583667067810893,0.00038793450221419334,0.0033007903839461505,-35.3627091,149.1654802,120140.5,-1.0,0.0,-153.0
14:07:40,179924.0,RTL,0.0,0.0,-999.5,1.5,3.0,2.0,0.0008416943892370909,0.0040480406023561954,0.3352111726999283,-0.00047890946734696627,0.0010436110896989703,0.0006860939902253449,-35.3627091,149.1654802,123248.0,-1.0,0.0,-153.0
14:07:41,117869.0,RTL,0.0,0.0,-999.75,2.25,2.25,2.0,0.0008166955522028729,0.003819208068307489,0.3356180638074875,0.00045471981866285205,0.0006496376299764961,0.0005106537137180567,-35.3627091,149.1654802,124801.75,-1.0,0.0,-153.0
14:07:42,117869.0,RTL,0.0,0.0,-999.5,3.5,3.0,4.5,0.0008013572369236499,0.00404247990809381,0.33671465516090393,0.0017684290651232004,0.0011039968812838197,0.003297791350632906,-35.3627091,149.1654802,126354.5,-1.0,0.0,-153.0
14:07:44,117869.0,RTL,0.0,0.0,-999.5,0.5,3.0,2.0,0.0009410912171006203,0.0038879943313077092,0.33753161132335663,-0.0013122757663950324,0.0012589356629177928,0.00043855851981788874,-35.3627091,149.1654802,129468.5,-1.0,0.0,-153.0
14:07:45,115198.0,RTL,0.0,0.0,-999.75,2.25,2.0,2.5,0.0008506653102813289,0.003937932138796896,0.337776280939579,0.00041723839240148664,0.0002267169184051454,0.0005645206838380545,-35.3627091,149.1654802,131022.0,-1.0,0.0,-153.0
14:07:46,115198.0,RTL,0.0,0.0,-1000.0,1.5,2.0,0.0,0.0009102210460696369,0.0040222518146038055,0.33804039657115936,-0.00016894610598683357,2.7905451133847237e-05,-0.0010724457679316401,-35.3627091,149.1654802,132575.0,-1.0,0.0,-153.0
14:07:48,115198.0,RTL,0.0,0.0,-1000.0,3.0,2.0,3.0,0.000691909488523379,0.0038123343838378787,0.3386489003896713,0.00103449122980237,0.00037757359677925706,0.001535874092951417,-35.3627091,149.1654802,135681.5,-1.0,0.0,-153.0
14:07:49,32428.0,RTL,0.0,0.0,-1000.0,1.75,2.0,2.25,0.0008831725717755035,0.00392581702908501,0.33890655636787415,-0.00011844062828458846,0.00015908078057691455,0.0007813036208972335,-35.3627091,149.1654802,137237.5,-1.0,0.0,-152.0
14:07:50,32428.0,RTL,0.0,0.0,-1000.0,3.0,2.5,3.0,0.0009645448299124837,0.003902386757545173,0.33899712562561035,0.0010962305823341012,0.0008044698042795062,0.001150809577666223,-35.3627091,149.1654802,138788.5,-1.0,0.0,-152.0
14:07:52,32428.0,RTL,0.0,0.0,-1000.0,2.0,2.5,1.5,0.0008780233329162002,0.003821698948740959,0.3397104889154434,0.00010465621016919613,0.00042982411105185747,0.00029277795692905784,-35.3627091,149.1654802,141895.0,-1.0,0.0,-152.0
14:07:53,235501.0,RTL,0.0,0.0,-999.75,2.0,3.0,2.0,0.0008739965414861217,0.003898425668012351,0.3398631513118744,9.008814231492579e-05,0.0010598277149256319,0.00023364933440461755,-35.3627091,149.1654802,143446.75,-1.0,0.0,-152.0
14:07:54,235501.0,RTL,0.0,0.0,-999.5,4.5,2.5,3.0,0.0008547393081244081,0.0038707456551492214,0.34012533724308014,0.002608615788631141,0.0009227641858160496,0.0011271669063717127,-35.3627091,149.1654802,144999.0,-1.0,0.0,-152.0
14:07:56,235501.0,RTL,0.0,0.0,-999.5,0.5,2.5,2.0,0.0009292367903981358,0.003825269639492035,0.3402746617794037,-0.0015503313625231385,0.000819909037090838,0.00047816045116633177,-35.3627091,149.1654802,148105.0,-1.0,0.0,-152.0
14:07:57,76646.0,RTL,0.0,0.0,-999.75,2.0,2.75,2.75,0.0009310129971709102,0.0039050958584994078,0.3405180051922798,-9.21686296351254e-05,0.0007264943269547075,0.0011689569510053843,-35.3627091,149.1654802,149660.5,-1.0,0.0,-152.0
14:07:58,76646.0,RTL,0.0,0.0,-1000.0,2.0,1.5,2.0,0.0007494578894693404,0.003876536153256893,0.3411196768283844,0.0002765370300039649,-0.00046156084863469005,0.0003619527560658753,-35.3627091,149.1654802,151214.0,-1.0,0.0,-152.0
14:08:00,76646.0,RTL,0.0,0.0,-999.5,1.0,2.0,2.5,0.0012290182057768106,0.0038140317192301154,0.3414498269557953,-0.0008743357611820102,0.00029532756889238954,0.0011827867710962892,-35.3627091,149.1654801,154321.0,-1.0,0.5,-152.0
14:08:01,36129.0,RTL,0.0,0.0,-1000.0,2.25,3.0,3.25,0.0009767665906110778,0.003897951391991228,0.34142595529556274,0.000515762425493449,0.0005075472290627658,0.0017026997520588338,-35.3627091,149.1654801,155880.75,-1.0,0.25,-152.0
14:08:02,36129.0,RTL,0.0,0.0,-1000.0,1.5,1.5,2.5,0.0008771090069785714,0.0038077275967225432,0.341840460896492,-0.0007934594177640975,-0.0009314494673162699,0.0008203171892091632,-35.3627091,149.1654801,157431.0,-1.0,0.0,-152.0
14:08:04,36129.0,RTL,0.0,0.0,-1000.0,3.5,0.5,2.5,0.0007307669147849083,0.003812128328718245,0.3417622148990631,0.001484845532104373,-0.001481141138356179,0.0011346974642947316,-35.3627091,149.1654801,160541.0,-1.0,0.0,-152.0
14:08:05,204678.0,RTL,0.0,0.0,-999.75,1.75,2.75,2.5,0.0008873815386323258,0.0037703030393458903,0.34163153171539307,4.9293332267552614e-05,0.0005726201925426722,0.000839684740640223,-35.3627091,149.1654801,162095.0,-1.0,0.0,-152.0
14:08:06,204678.0,RTL,0.0,0.0,-1000.0,0.5,2.0,1.5,0.0009054727270267904,0.003948404686525464,0.34178243577480316,-0.0013964643003419042,0.00011349562555551529,3.1997915357351303e-06,-35.3627091,149.1654801,163648.0,-1.0,0.0,-152.0
14:08:08,204678.0,RTL,0.0,0.0,-1000.0,2.5,2.5,2.5,0.0005558927659876645,0.003972900100052357,0.3419635742902756,4.3706269934773445e-05,0.00024928722996264696,0.001074247877113521,-35.3627091,149.1654801,166754.0,-1.0,0.0,-152.0
14:08:09,2184.0,RTL,0.0,0.0,-1000.0,2.25,2.75,1.0,0.0008207140926970169,0.0038428654661402106,0.3418506905436516,0.00020397943444550037,0.0005282305646687746,-0.0005290695116855204,-35.3627091,149.1654801,168309.25,-1.0,0.0,-152.0
14:08:10,2184.0,RTL,0.0,0.0,-1000.0,5.0,3.0,2.5,0.0011997930705547333,0.0035787667147815228,0.3418094366788864,0.002721030614338815,0.0008220101008191705,0.0005585125181823969,-35.3627091,149.1654801,169863.0,-1.0,0.0,-152.0
14:08:12,2184.0,RTL,0.0,0.0,-1000.0,2.5,2.0,4.0,0.0008238391310442239,0.0038034169701859355,0.34217360615730286,6.807968020439148e-07,-0.0003202972002327442,0.002198813366703689,-35.3627091,149.1654801,172969.0,-1.0,0.0,-152.0
14:08:13,200.0,RTL,0.0,0.0,-1000.0,3.5,2.5,2.25,0.0008623378816992044,0.0038377956370823085,0.34197258204221725,0.0010844148928299546,0.0004993317415937781,0.0002739664923865348,-35.3627091,149.1654801,174520.25,-1.0,0.0,-152.0
14:08:14,200.0,RTL,0.0,0.0,-1000.0,1.5,0.5,3.5,0.001114792685257271,0.003610375337302685,0.34242305159568787,-0.0007930604042485356,-0.001941055932547897,0.0015186542877927423,-35.3627091,149.1654801,176073.0,-1.0,0.0,-152.0
14:08:16,200.0,RTL,0.0,0.0,-1000.0,1.5,2.5,3.5,0.0008984128653537482,0.0031588602578267455,0.342807337641716,-0.0008164731552824378,-0.00022531161084771156,0.0013894782168790698,-35.3627092,149.1654801,179180.0,-1.0,0.0,-152.0
14:08:17,221755.0,RTL,0.0,0.0,-1000.0,4.0,4.75,3.25,0.0012524144403869286,0.0041097409557551146,0.34278783202171326,0.0015961386961862445,0.002100391953717917,0.0012553393607959151,-35.3627092,149.1654801,180734.5,-1.0,0.0,-152.0
14:08:18,221755.0,RTL,0.0,0.0,-1000.0,4.0,3.5,2.0,0.0011317387688905,0.00470122485421598,0.34265756607055664,0.0016568663995712996,0.0008274562424048781,0.000476764515042305,-35.36270915,149.1654801,182289.5,-1.5,0.0,-152.0
14:08:20,221755.0,RTL,0.0,0.0,-1000.0,1.0,1.0,3.0,0.0008372510492336005,0.003933211439289153,0.3427530378103256,-0.0015720663941465318,-0.0014320641057565808,0.0009444233728572726,-35.3627091,149.1654801,185400.0,-2.0,0.0,-152.0
14:08:21,235510.0,RTL,0.0,0.0,-1000.0,3.0,2.75,2.5,0.0008436139032710344,0.003947226796299219,0.34262534230947495,0.000953171867877245,0.00026262784376740456,0.00037192984018474817,-35.3627091,149.1654801,186953.5,-2.0,0.0,-152.0
14:08:22,235510.0,RTL,0.0,0.0,-1000.0,1.5,1.5,1.5,0.0007728601631242782,0.003814930678345263,0.3428656905889511,-0.0008644625777378678,-0.0007560038357041776,-0.00032122409902513027,-35.3627091,149.1654801,188505.0,-2.0,0.0,-152.0
14:08:24,235510.0,RTL,0.0,0.0,-1000.5,3.5,1.5,2.0,0.0009871627553366125,0.003782351268455386,0.34267111122608185,0.0008426958229392767,-0.0006707978900521994,-0.00018478208221495152,-35.3627091,149.1654801,191612.0,-1.0,0.0,-152.0
14:08:25,232097.0,RTL,0.0,0.0,-999.75,2.25,2.75,3.25,0.0007699994021095335,0.0037520265905186534,0.342641681432724,-0.000320131191983819,0.0005698010791093111,0.0009113438427448273,-35.3627091,149.1654801,193169.0,-1.0,0.0,-152.0
14:08:26,232097.0,RTL,0.0,0.0,-1000.5,2.0,2.0,2.0,0.0007319954456761479,0.0035307322395965457,0.3425687253475189,-0.0005836454220116138,-0.0003033255925402045,-0.0004056580364704132,-35.3627091,149.1654801,194721.5,-1.0,0.0,-152.0
14:08:28,232097.0,RTL,0.0,0.0,-1000.0,3.0,3.5,4.0,0.0010180777171626687,0.003721316228620708,0.34266336262226105,0.0009162724018096924,0.0009028972126543522,0.0017529841279610991,-35.36270915,149.1654801,197830.0,-1.0,0.0,-152.0
14:08:29,69648.0,RTL,0.0,0.0,-1000.25,3.25,2.75,1.75,0.0011509200849104673,0.004579448257572949,0.3424282968044281,0.0006319457315839827,0.0001938394270837307,-0.00018123758491128683,-35.3627091,149.1654801,199382.5,-1.0,0.0,-152.0
14:08:30,69648.0,RTL,0.0,0.0,-1000.0,0.0,2.0,3.0,0.0011908330488950014,0.004353367956355214,0.34291480481624603,-0.0022279381519183517,-0.0001913857413455844,0.0002544817398302257,-35.3627091,149.1654801,200937.5,-1.5,0.0,-152.0
14:08:32,69648.0,RTL,0.0,0.0,-1000.0,2.0,3.0,3.0,0.001087849901523441,0.003915040171705186,0.3432758152484894,-0.0003588658291846514,0.00022233440540730953,0.0006064167246222496,-35.3627091,149.1654801,204041.5,-2.0,0.0,-152.0
14:08:33,83542.0,RTL,0.0,0.0,-1000.0,3.0,2.75,2.0,0.0008439396187895909,0.003749373718164861,0.34309912472963333,0.0007368629740085453,0.0002567291958257556,-8.005386916920543e-05,-35.3627091,149.1654801,205594.5,-2.0,0.0,-152.0
14:08:34,83542.0,RTL,0.0,0.0,-1000.0,2.5,2.5,2.5,0.0006899751606397331,0.00363840174395591,0.34323646128177643,3.284658305346966e-06,9.212212171405554e-05,0.00024071137886494398,-35.3627091,149.1654801,207147.0,-1.0,0.0,-152.0
14:08:36,83542.0,RTL,0.0,0.0,-1000.0,4.0,2.0,4.0,0.0006614426383748651,0.003458187449723482,0.34307730197906494,0.0015996013535186648,-0.0007124175317585468,0.0015246362891048193,-35.3627091,149.1654801,210256.5,-1.0,0.0,-152.0
14:08:37,78245.0,RTL,0.0,0.0,-999.75,2.5,3.25,2.75,0.0005756930768257007,0.0029115118086338043,0.3429960161447525,-0.0003955616266466677,0.000643053324893117,0.00039470806950703263,-35.362709175,149.1654801,211807.75,-1.0,0.0,-152.0
14:08:38,78245.0,RTL,0.0,0.0,-1000.5,4.5,3.5,2.5,0.0008098735706880689,0.0035187118919566274,0.3428916782140732,0.001434818608686328,0.0002884581917896867,-0.0001603171695023775,-35.3627092,149.1654801,213364.5,-1.0,0.0,-152.0
14:08:40,78245.0,RTL,0.0,0.0,-1000.0,5.0,3.5,3.0,0.0010554488108027726,0.004346143454313278,0.34269754588603973,0.002268859767355025,0.0012483984464779496,0.0005845875712111592,-35.3627091,149.1654801,216474.5,-1.5,0.0,-152.0
14:08:41,281401.0,RTL,0.0,0.0,-999.75,3.0,2.75,3.0,0.0010575308551779017,0.004270390258170664,0.34291666746139526,0.00014755368465557694,-2.941046841442585e-05,0.0006904387846589088,-35.3627091,149.1654801,218023.5,-2.0,0.0,-152.0
14:08:42,281401.0,RTL,0.0,0.0,-1000.0,2.0,4.5,3.0,0.000811771780718118,0.0037979038897901773,0.3429417759180069,-0.00036703632213175297,0.0013434897409752011,0.0006631652940995991,-35.3627091,149.1654801,219580.0,-2.0,0.0,-152.0
14:08:44,281401.0,RTL,0.0,0.0,-1000.0,3.0,3.0,2.5,0.0007435342995449901,0.003568624029867351,0.3427104502916336,0.00016558950301259756,4.03071753680706e-05,0.0003417377592995763,-35.3627091,149.1654801,222686.0,-1.0,0.0,-152.0
14:08:45,83284.0,RTL,0.0,0.0,-999.75,2.5,3.25,3.0,0.0009401331917615607,0.0037562722573056817,0.3428274169564247,-0.00038120581302791834,0.000427655060775578,0.0007054879097267985,-35.3627091,149.1654801,224243.25,-1.0,0.0,-152.0
14:08:46,83284.0,RTL,0.0,0.0,-1000.0,2.0,3.5,5.5,0.0006650302384514362,0.0038338403683155775,0.3431672304868698,-0.0002537438413128257,0.0006686323322355747,0.0028726778691634536,-35.3627091,149.1654801,225796.0,-1.0,0.0,-152.0
14:08:48,83284.0,RTL,0.0,0.0,-1000.5,4.0,1.5,2.0,0.0009904898761305958,0.0027781539829447865,0.34328944981098175,0.0009324774146080017,-0.0013448443496599793,-0.00028589798603206873,-35.36270915,149.1654801,228904.5,-1.0,0.0,-152.0
14:08:49,39210.0,RTL,0.0,0.0,-999.5,2.75,4.25,2.75,0.0011076036607846618,0.003360447590239346,0.3433070257306099,-0.00023776793386787176,0.0014487060252577066,0.00014996685786172748,-35.3627092,149.1654801,230455.25,-1.0,0.0,-152.0
14:08:50,39210.0,RTL,0.0,0.0,-999.5,2.0,3.5,3.5,0.001232937618624419,0.004316410282626748,0.34325334429740906,-0.0008808068232610822,0.0012236596085131168,0.000987192615866661,-35.3627092,149.1654801,232009.0,-1.0,0.0,-152.0
14:08:52,39210.0,RTL,0.0,0.0,-1000.5,2.5,1.5,2.5,0.0007303680467884988,0.004371073096990585,0.3432064354419708,-0.0006491898093372583,-0.001321694056969136,0.00035323051270097494,-35.3627091,149.1654801,235116.5,-2.0,0.0,-152.0
14:08:53,9126.0,RTL,0.0,0.0,-1000.0,4.0,3.25,3.75,0.0006217699556145817,0.00404630065895617,0.3432837948203087,0.0011389030260033906,4.224263830110431e-05,0.001290768152102828,-35.3627091,149.1654801,236670.0,-2.0,0.0,-152.0
14:08:54,9126.0,RTL,0.0,0.0,-999.5,2.5,2.5,2.0,0.0007601243851240724,0.003766335896216333,0.34314246475696564,-0.00043170363642275333,-0.00023649074137210846,-0.0002045574365183711,-35.3627091,149.1654801,238222.0,-2.0,0.0,-152.0
14:08:56,9126.0,RTL,0.0,0.0,-999.5,3.5,2.5,4.0,0.0008622665773145854,0.0037471087416633964,0.34310418367385864,0.001039371476508677,-0.000302362022921443,0.0016939259367063642,-35.3627091,149.1654801,241331.5,-1.0,0.0,-152.0
14:08:57,207464.0,RTL,0.0,0.0,-1000.0,3.25,3.5,3.25,0.0008870035671861842,0.0038398620672523975,0.3430396616458893,0.00038754590786993504,0.00036851054755970836,0.0008131150098051876,-35.3627091,149.1654801,242882.0,-1.0,0.0,-152.0
14:08:58,207464.0,RTL,0.0,0.0,-1000.0,4.0,3.0,2.5,0.0008378148777410388,0.0037288377061486244,0.3429621607065201,0.0012772728223353624,2.823886461555958e-06,2.7775531634688377e-05,-35.3627091,149.1654801,244437.0,-1.0,0.0,-152.0
14:09:00,207464.0,RTL,0.0,0.0,-1000.0,2.5,2.0,3.5,0.0008163538295775652,0.003709484008140862,0.3428322821855545,-0.0009370587067678571,-0.0006018693093210459,0.0005496422527357936,-35.3627091,149.1654801,247548.5,-1.0,0.0,-152.0
14:09:01,200.0,RTL,0.0,0.0,-999.5,3.25,2.5,4.5,0.0009309734159614891,0.0037429084186442196,0.34299805760383606,0.00029879139037802815,-0.00033083269954659045,0.0019162970129400492,-35.3627091,149.1654801,249096.5,-1.0,0.0,-152.0
14:09:02,200.0,RTL,0.0,0.0,-1000.0,5.0,4.0,1.0,0.0012001523282378912,0.0037637497298419476,0.3426187038421631,0.0017300811596214771,0.0006183732766658068,-0.0021440910641103983,-35.3627091,149.1654801,250068.0,-1.0,0.0,-152.0
14:09:04,200.0,RTL,0.0,0.0,-1000.0,2.0,3.5,2.5,0.0010815899586305022,0.0037716763326898217,0.34337516129016876,-0.0008867640281096101,0.00025090284179896116,-0.00035616650711745024,-35.3627091,149.1654801,253757.0,-1.0,0.0,-152.0
14:09:05,116016.0,RTL,0.0,0.0,-999.75,4.0,4.5,3.75,0.000960752266109921,0.003802723018452525,0.3433467745780945,0.0010757777490653098,0.0010916622704826295,0.0009547725785523653,-35.3627091,149.1654801,255318.5,-1.0,0.0,-152.0
14:09:06,116016.0,RTL,0.0,0.0,-999.5,2.5,4.0,4.0,0.0006795386143494397,0.004019377753138542,0.3431960344314575,-0.00030579138547182083,0.0011267269728705287,0.0007343433098867536,-35.3627091,149.1654801,256871.5,-1.0,0.0,-152.0
14:09:08,116016.0,RTL,0.0,0.0,-999.0,2.0,4.0,5.0,0.000882505759363994,0.003705099574290216,0.34314756095409393,0.0007249405607581139,0.0008318512700498104,0.0016548634739592671,-35.3627091,149.1654801,259980.0,-1.5,0.0,-152.0
14:09:09,200.0,RTL,0.0,0.0,-999.6,3.4,3.8,4.0,0.0008747625688556582,0.003827881417237222,0.34324806183576584,9.383546421304345e-05,0.0006931498064659536,0.0010312264785170555,-35.3627091,149.1654801,261530.75,-1.0,0.0,-152.0
14:09:10,200.0,RTL,0.0,0.0,-1000.0,5.0,3.5,2.5,0.0008467464649584144,0.0038350982358679175,0.3432314991950989,0.00210493674967438,0.0005449469899758697,-0.0002992506488226354,-35.3627091,149.1654801,263086.0,-1.0,0.0,-152.0
14:09:12,200.0,RTL,0.0,0.0,-1000.0,5.0,3.0,4.0,0.000905578286619857,0.003771582618355751,0.34303055703639984,0.0019410516833886504,-0.0001371635589748621,0.0011269967071712017,-35.3627091,149.1654801,266190.5,-1.0,0.0,-152.0
14:09:13,28059.0,RTL,0.0,0.0,-999.75,3.25,4.25,3.5,0.0008483006822643802,0.003758085484150797,0.3429928794503212,0.00019840238383039832,0.0007813358679413795,0.0005750847631134093,-35.3627091,149.1654801,267743.0,-1.0,0.0,-152.0
14:09:14,28059.0,RTL,0.0,0.0,-999.5,2.5,4.0,4.0,0.0009232612792402506,0.0037159774219617248,0.3430470675230026,-0.0007483784575015306,0.0005182018503546715,0.001231501461006701,-35.3627091,149.1654801,269295.5,-1.0,0.0,-152.0
14:09:16,28059.0,RTL,0.0,0.0,-999.0,2.0,3.0,4.0,0.0011001081438735127,0.003686502343043685,0.3427756428718567,-0.0008489014580845833,-8.772127330303192e-06,0.0015300981467589736,-35.3627091,149.1654801,272404.5,-1.0,0.0,-152.0
14:09:17,65340.0,RTL,0.0,0.0,-1000.0,4.75,4.0,4.5,0.0011036360810976475,0.003720299107953906,0.34298641234636307,0.0014980009873397648,0.0005806335830129683,0.0014293004060164094,-35.3627091,149.1654801,273956.75,-1.0,0.0,-152.0
14:09:18,65340.0,RTL,0.0,0.0,-999.5,1.5,3.0,5.5,0.0008641132153570652,0.0038575195940211415,0.34284867346286774,-0.001338812056928873,-0.00037245790008455515,0.0024956107372418046,-35.3627091,149.1654801,275513.5,-1.0,0.0,-152.0
14:09:20,65340.0,RTL,0.0,0.0,-1000.0,3.0,3.0,3.0,0.0007970749284140766,0.003734871279448271,0.3434532582759857,0.0002906555309891701,-0.0002443157136440277,0.0003506552893668413,-35.3627091,149.1654801,278045.0,-2.0,0.0,-152.0
14:09:21,245886.0,RTL,0.0,0.0,-999.8,4.2,4.2,4.0,0.0006686474429443478,0.003800929896533489,0.3435438871383667,0.0010988496709614993,0.0009607777465134859,0.0011603123508393764,-35.3627091,149.1654801,279979.8,-1.0,0.0,-152.0
14:09:22,245886.0,RTL,0.0,0.0,-1000.0,2.0,3.0,4.0,0.0007395941065624356,0.0038752658292651176,0.34346848726272583,-0.0011097041424363852,-0.0007988563738763332,0.0014156647957861423,-35.3627091,149.1654801,281152.0,-1.0,0.0,-152.0
14:09:24,245886.0,RTL,0.0,0.0,-999.5,1.5,2.5,2.0,0.0008266371442005038,0.0036320879589766264,0.34309913218021393,-0.001272614928893745,-0.0006730504101142287,-0.0010108001297339797,-35.3627091,149.1654801,284211.5,-1.0,0.0,-152.0
14:09:25,300000.0,RTL,0.0,0.0,-1000.25,3.25,3.25,3.0,0.0009212896256940439,0.0037752335774712265,0.3433309942483902,-1.8921331502497196e-05,0.0001904885284602642,-8.920003892853856e-05,-35.3627091,149.1654801,286159.25,-1.0,0.0,-152.0
14:09:26,300000.0,RTL,0.0,0.0,-1000.5,4.0,2.0,4.0,0.0007080672367010266,0.0036696833558380604,0.34312257170677185,0.0007291203364729881,-0.0010897020110860467,0.0009363380959257483,-35.3627091,149.1654801,287329.0,-1.0,0.0,-152.0
14:09:28,300000.0,RTL,0.0,0.0,-1000.0,3.0,3.0,4.0,0.001530838548205793,0.003955096937716007,0.34328895807266235,-0.00043215672485530376,-1.6775447875261307e-06,0.0009233651217073202,-35.3627091,149.1654801,290476.0,-1.0,0.0,-152.0
14:09:29,250246.0,RTL,0.0,0.0,-999.6,2.8,3.6,4.0,0.0010652566328644753,0.003878144361078739,0.34310348629951476,-0.00045362128876149657,0.00017439150251448156,0.001013113185763359,-35.3627091,149.1654801,292414.0,-1.0,0.0,-152.0
14:09:30,250246.0,RTL,0.0,0.0,-1000.0,5.0,3.0,3.0,0.0009566739317961037,0.0036844685673713684,0.3432406187057495,0.0014076768420636654,8.776457980275154e-05,-0.0004147414583712816,-35.3627091,149.1654801,293582.0,-1.0,0.0,-152.0
14:09:32,250246.0,RTL,0.0,0.0,-999.5,3.0,3.0,4.5,0.0009703632385935634,0.0037675159983336926,0.3428887575864792,-0.0004538490902632475,-0.00033136887941509485,0.001213378505781293,-35.3627091,149.1654801,296649.0,-1.0,0.0,-152.0
14:09:33,10871.0,RTL,0.0,0.0,-999.5,3.5,4.0,4.0,0.0008822659001452848,0.003842976177111268,0.3428737074136734,-0.00010271341307088733,0.0002575781545601785,0.0008995601674541831,-35.3627091,149.1654801,298591.0,-1.0,0.0,-152.0
14:09:34,10871.0,RTL,0.0,0.0,-1000.0,3.0,3.5,3.0,0.0005940661067143083,0.003908824408426881,0.342900887131691,-7.21546821296215e-05,1.6426900401711464e-05,9.653100278228521e-05,-35.3627091,149.1654801,299758.5,-1.0,0.0,-152.0
14:09:36,10871.0,RTL,0.0,0.0,-1000.0,2.5,2.0,2.5,0.0009852679213508964,0.003795077558606863,0.3437289297580719,-0.0008340544300153852,-0.0014942585257813334,-0.0006574214203283191,-35.3627091,149.1654801,302864.0,-2.0,0.0,-152.0
14:09:37,171803.0,RTL,0.0,0.0,-1000.25,3.5,3.25,4.5,0.0008703668863745406,0.0037228555884212255,0.3434236869215965,0.0001825180370360613,-0.00026667327620089054,0.0013068481348454952,-35.3627091,149.1654801,304802.75,-1.0,0.0,-152.0
14:09:38,171803.0,RTL,0.0,0.0,-1000.0,4.5,3.5,5.0,0.000833464611787349,0.003809567540884018,0.34342481195926666,0.0012004328891634941,-0.00012731191236525774,0.001444764668121934,-35.3627091,149.1654801,305968.0,-1.0,0.0,-152.0
14:09:40,171803.0,RTL,0.0,0.0,-1000.0,3.5,3.0,3.5,0.001302127493545413,0.003598060575313866,0.3434140384197235,0.00014820334035903215,-0.0006723423721268773,0.00020516500808298588,-35.3627091,149.1654801,309074.0,-1.0,0.0,-152.0
14:09:41,130103.0,RTL,0.0,0.0,-1000.0,4.5,3.75,4.25,0.0009824662120081484,0.003740087035112083,0.34333164244890213,0.0010351607343181968,5.0802540499717e-05,0.0012877008994109929,-35.3627091,149.1654801,311017.5,-1.0,0.0,-152.0
14:09:42,130103.0,RTL,0.0,0.0,-1000.0,2.0,3.0,2.5,0.0008662770560476929,0.003925026045180857,0.34312766790390015,-0.0014557980466634035,-0.0008859924273565412,-0.0006339449901133776,-35.3627091,149.1654801,312184.0,-1.0,0.0,-152.0
14:09:44,130103.0,RTL,0.0,0.0,-1000.0,4.5,4.0,2.5,0.0008638454310130328,0.00384277431294322,0.34304390847682953,0.0007107630372047424,0.00034433905966579914,-0.0005995782557874918,-35.3627091,149.1654801,315290.0,-1.0,0.0,-152.0
14:09:45,200.0,RTL,0.0,0.0,-999.75,2.5,3.75,2.0,0.0005877448857063428,0.00397120276466012,0.3430589288473129,-0.001318999391514808,0.00014063791604712605,-0.0010885462106671184,-35.3627091,149.1654801,317237.5,-1.0,0.0,-152.0
14:09:46,200.0,RTL,0.0,0.0,-1000.0,5.0,3.0,4.0,0.0006758499948773533,0.003733113524504006,0.34308120608329773,0.001478533260524273,-0.0006736505310982466,0.0010690648341551423,-35.3627091,149.1654801,318405.0,-1.0,0.0,-152.0
14:09:48,200.0,RTL,0.0,0.0,-1000.5,4.0,1.5,3.5,0.0004439703916432336,0.00298549875151366,0.3426704555749893,-0.0001778770238161087,-0.0021662526996806264,-9.332457557320595e-05,-35.3627091,149.1654801,321512.0,-1.0,0.0,-152.0
14:09:49,209783.0,RTL,0.0,0.0,-1000.0,3.75,4.5,4.0,0.0005918953975196928,0.003102845628745854,0.3429407775402069,0.00024430942721664906,0.0008432978647761047,0.000718159950338304,-35.3627092,149.1654801,323444.25,-1.0,0.0,-152.0
14:09:50,209783.0,RTL,0.0,0.0,-1000.0,3.5,3.5,3.0,0.0005955359665676951,0.0034019581507891417,0.34271711111068726,0.0003286474384367466,0.00011532637290656567,-0.00031216221395879984,-35.3627092,149.1654801,324610.0,-1.0,0.0,-152.0
14:09:52,209783.0,RTL,0.0,0.0,-1000.5,5.5,2.5,4.5,0.00060639827279374,0.003981178044341505,0.34348638355731964,0.0015698233619332314,-0.0011653254041448236,0.000981520744971931,-35.3627092,149.1654801,327723.0,-1.0,0.0,-152.0
14:09:53,197955.0,RTL,0.0,0.0,-1000.0,3.5,4.0,3.75,0.00044196334056323394,0.00330984138417989,0.3434123694896698,-7.53880594857037e-05,0.00017133861547335982,0.0004048008122481406,-35.3627092,149.1654801,329667.25,-1.0,0.0,-152.0
14:09:54,197955.0,RTL,0.0,0.0,-1000.0,2.5,1.5,5.0,0.00025174090114887804,0.003048119484446943,0.3433571010828018,-0.0013589257141575217,-0.0021158772287890315,0.0014096633531153202,-35.3627092,149.1654801,330832.5,-1.0,0.0,-152.0
14:09:56,197955.0,RTL,0.0,0.0,-1000.0,3.0,3.5,3.5,-9.116877299675252e-05,0.002566102659329772,0.3432427793741226,-0.0007869964465498924,-0.00042113568633794785,9.367731399834156e-05,-35.362709249999995,149.1654801,333938.0,0.0,0.0,-152.0
14:09:57,68336.0,RTL,0.0,0.0,-999.75,3.0,4.0,3.75,-0.00010543662665440934,0.0027686787070706487,0.3433552756905556,-0.000868569128215313,3.0796509236097336e-05,0.0003581035416573286,-35.3627093,149.1654801,335876.25,0.0,0.0,-152.0
14:09:58,68336.0,RTL,0.0,0.0,-1000.0,4.0,3.5,4.0,-0.00028242777625564486,0.002877441351301968,0.3432699143886566,0.0002783872187137604,0.00020464067347347736,0.00032037822529673576,-35.3627093,149.16548015,337041.0,0.0,0.0,-152.0
14:10:00,68336.0,RTL,0.0,0.0,-1000.5,4.5,3.5,2.0,-0.00025584221293684095,0.0028235227800905704,0.34312526881694794,0.00019460474140942097,-0.00014583952724933624,-0.0011050335597246885,-35.3627093,149.1654802,340148.0,0.0,0.0,-152.0
14:10:01,260151.0,RTL,0.0,0.0,-999.5,3.25,3.25,4.25,-0.0006365789158735424,0.002258298045489937,0.343112014234066,-0.000643341219983995,-0.00028405466582626104,0.0007215713849291205,-35.3627093,149.1654802,342088.25,0.0,0.0,-152.0
14:10:02,260151.0,RTL,0.0,0.0,-1000.0,2.5,3.0,2.0,-0.001302709977608174,0.002425667131319642,0.3430045545101166,-0.001089461613446474,-0.000560095882974565,-0.0012628650292754173,-35.3627093,149.1654802,343253.0,0.0,0.0,-152.0
14:10:04,260151.0,RTL,0.0,0.0,-1000.0,5.0,4.5,6.0,-0.0004789050290128216,0.00253481010440737,0.34305621683597565,0.00119215645827353,0.0007875151932239532,0.0025091259740293026,-35.3627093,149.1654803,346363.5,0.0,0.0,-152.0
14:10:05,300000.0,RTL,0.0,0.0,-999.75,2.75,3.25,4.25,-0.00021800310059916228,0.0017301034240517765,0.34286946803331375,-0.0010185415158048272,-0.0004887170507572591,0.0006032517412677407,-35.362709325,149.16548025,348305.75,0.0,0.0,-152.0
14:10:06,300000.0,RTL,0.0,0.0,-1000.5,4.0,4.0,3.5,-0.00024325859703822061,0.0016770369256846607,0.3430459797382355,0.0003112609265372157,0.0004715321119874716,-0.0002777471672743559,-35.3627094,149.1654802,349470.0,0.5,0.0,-152.0
14:10:08,300000.0,RTL,0.0,0.0,-1000.0,5.0,2.5,2.0,-0.0007426100492011756,0.0020539260003715754,0.34375615417957306,0.0014806143008172512,-0.0008693806594237685,-0.00114929280243814,-35.3627094,149.1654802,352584.0,1.0,0.0,-152.0
14:10:09,201622.0,RTL,0.0,0.0,-999.75,2.5,4.25,3.75,-0.000597995807765983,0.002114239672664553,0.3434762954711914,-0.001368410885334015,0.00035573483910411596,0.00018450478091835976,-35.3627094,149.1654802,354517.25,1.0,0.0,-152.0
14:10:10,201622.0,RTL,0.0,0.0,-1000.5,3.0,3.0,4.0,-0.0014796500327065587,0.002206081640906632,0.3437073975801468,-0.0008339968044310808,-0.0002940436825156212,4.421849735081196e-05,-35.3627094,149.1654802,355690.0,1.0,0.0,-152.0
14:10:12,201622.0,RTL,0.0,0.0,-999.5,3.0,2.5,3.5,-0.0009998923633247614,0.001879821706097573,0.34347330033779144,-0.001033201813697815,-0.001350778853520751,-0.00023743475321680307,-35.3627094,149.1654803,358796.0,1.0,-1.0,-152.0
14:10:13,145511.0,RTL,0.0,0.0,-999.75,2.75,4.25,2.5,-0.0009334208152722567,0.0020663871546275914,0.3433240056037903,-0.0009706130367703736,0.0006959618185646832,-0.0009321602410636842,-35.3627094,149.1654803,360737.0,1.0,0.0,-152.0
14:10:14,145511.0,RTL,0.0,0.0,-1000.0,4.0,3.0,4.5,-0.0008661895408295095,0.002028223709203303,0.34336869418621063,0.0006765818689018488,-0.0005938487593084574,0.0009506631176918745,-35.3627094,149.1654803,361901.5,1.0,0.0,-152.0
14:10:16,145511.0,RTL,0.0,0.0,-1000.0,3.5,4.0,3.5,-0.00024872058565961197,0.0017467483412474394,0.3431527763605118,8.741149213165045e-05,0.00024716462939977646,0.00011048302985727787,-35.3627094,149.1654802,365012.0,1.0,0.0,-152.0
14:10:17,278918.0,RTL,0.0,0.0,-1000.25,2.25,3.5,1.75,-0.0007622759876539931,0.002050785318715498,0.34311363101005554,-0.0011790936114266515,-0.0001574861817061901,-0.0018662472139112651,-35.3627094,149.1654802,366949.5,1.0,0.0,-152.0
14:10:18,278918.0,RTL,0.0,0.0,-1000.0,4.0,3.5,3.0,-0.0008218649600166827,0.0021544683258980513,0.34302911162376404,0.0003844199236482382,-1.7221667803823948e-05,-0.0005698855966329575,-35.3627094,149.1654802,368119.0,1.0,0.0,-152.0
14:10:20,278918.0,RTL,0.0,0.0,-999.0,3.5,4.5,4.5,-0.0014156413380987942,0.0021191503619775176,0.3430251330137253,0.0001875871093943715,0.0006275651976466179,0.0006208084523677826,-35.3627094,149.1654803,371221.0,1.0,-0.5,-152.0
14:10:21,12003.0,RTL,0.0,0.0,-1000.0,2.75,2.75,3.25,-0.0009549441165290773,0.0019022968772333115,0.3431728184223175,-0.0009679759386926889,-0.0008527727331966162,-0.0003628440899774432,-35.3627094,149.1654803,373161.25,1.0,-1.0,-152.0
14:10:22,12003.0,RTL,0.0,0.0,-1000.5,2.5,2.0,3.0,-0.0013490223791450262,0.0013122063246555626,0.34287798404693604,-0.0007846613880246878,-0.0014656875282526016,-0.000693103764206171,-35.3627094,149.1654803,374326.5,1.0,-1.0,-152.0
14:10:24,12003.0,RTL,0.0,0.0,-1000.0,5.5,2.0,3.0,-0.0009287405700888485,0.001641938928514719,0.34374621510505676,0.001681146677583456,-0.0013259237166494131,-0.0005288035608828068,-35.3627094,149.1654803,377437.5,1.0,-1.0,-152.0
14:10:25,300000.0,RTL,0.0,0.0,-999.5,2.0,3.75,1.75,-0.0003929930680897087,0.0015014511591289192,0.34357640892267227,-0.0015714681358076632,0.00026234902907162905,-0.0016347276978194714,-35.3627094,149.1654802,379379.5,1.0,0.0,-152.0
14:10:26,300000.0,RTL,0.0,0.0,-999.5,3.5,4.0,3.5,-0.0007092715823091567,0.0016391955432482064,0.3434610813856125,-0.00025239482056349516,4.253885708749294e-05,-0.00014545535668730736,-35.3627094,149.1654802,380543.5,1.0,0.0,-152.0
14:10:28,300000.0,RTL,0.0,0.0,-999.5,1.0,2.5,4.5,-0.0011778923217207193,0.0016986312693916261,0.3435441553592682,-0.0027434213552623987,-0.0008870922029018402,0.0006948660593479872,-35.3627094,149.1654802,383651.0,1.0,0.0,-152.0
14:10:29,200.0,RTL,0.0,0.0,-1000.25,3.5,3.5,3.0,-0.0013506185496225953,0.002253290789667517,0.3433206081390381,0.0003425101167522371,0.00012422387953847647,-0.0006549770478159189,-35.3627094,149.1654803,385594.0,1.0,-0.5,-152.0
14:10:30,200.0,RTL,0.0,0.0,-999.5,3.0,3.0,4.0,-0.0011131586506962776,0.002265589660964906,0.3432931900024414,-0.0006791064515709877,-0.000848701223731041,0.0006095466669648886,-35.3627094,149.1654803,386765.5,1.0,-1.0,-152.0
14:10:32,200.0,RTL,0.0,0.0,-1000.0,2.0,2.5,3.0,-0.0010895045707002282,0.001862263074144721,0.3432365655899048,-0.0013426528312265873,-0.0009886107873171568,-0.0003160424530506134,-35.3627094,149.1654803,389872.5,1.0,0.0,-152.0
14:10:33,246027.0,RTL,0.0,0.0,-1000.0,4.0,2.0,2.75,-0.0009170986304525286,0.001436027989257127,0.3430280312895775,0.0008557206601835787,-0.0012852878426201642,-0.0007595341303385794,-35.3627094,149.1654803,391812.0,1.0,-0.75,-152.0
14:10:34,246027.0,RTL,0.0,0.0,-1000.0,2.0,2.5,1.5,-0.00034702231641858816,0.0010824388009496033,0.3433375507593155,-0.0012314714258536696,-0.0006253727478906512,-0.0019972026348114014,-35.3627094,149.16548025,392977.0,1.0,0.0,-152.0
14:10:36,246027.0,RTL,0.0,0.0,-1000.5,4.0,2.0,2.5,-0.0008740153862163424,0.0016247655730694532,0.34323422610759735,0.0005782160442322493,-0.0011075633810833097,-0.0010014851577579975,-35.3627095,149.1654802,396083.5,1.0,0.0,-152.0
14:10:37,96440.0,RTL,0.0,0.0,-999.5,2.75,2.75,3.0,-0.0008573477098252624,0.0017322118219453841,0.34300369024276733,-0.0005134361563250422,-0.0005241628969088197,-0.00034526945091784,-35.3627095,149.1654802,398026.75,1.0,0.0,-152.0
14:10:38,96440.0,RTL,0.0,0.0,-1000.0,1.5,2.5,3.0,-0.0014938647509552538,0.001721368113067001,0.34312428534030914,-0.0015459071146324277,-0.0005884531419724226,-3.2109557650983334e-05,-35.3627095,149.1654802,399194.0,1.0,0.0,-152.0
14:10:40,96440.0,RTL,0.0,0.0,-999.5,2.5,4.0,6.5,-0.0012507192441262305,0.0018200596095994115,0.3435199558734894,-0.0005813941825181246,0.0005398045759648085,0.0027640194166451693,-35.3627095,149.1654803,402299.5,1.0,-1.0,-152.0
14:10:41,19711.0,RTL,0.0,0.0,-1000.0,2.5,2.5,3.0,-0.0009708650613902137,0.001562739082146436,0.34365300834178925,-0.0009610099368728697,-0.0007879497716203332,-0.00041558395605534315,-35.3627095,149.1654803,404236.75,1.0,-0.75,-152.0
14:10:42,19711.0,RTL,0.0,0.0,-1000.0,3.0,2.5,3.0,-0.0009702261886559427,0.0015835544909350574,0.343582421541214,-0.00017962628044188023,-0.0011493847123347223,-0.0005111957434564829,-35.3627095,149.1654803,405401.5,1.0,0.0,-152.0
14:10:44,19711.0,RTL,0.0,0.0,-1000.0,4.5,3.5,3.5,-0.0008714848081581295,0.0015302419196814299,0.3433878868818283,0.0014211948728188872,0.0005065988516435027,-0.0003866523038595915,-35.3627095,149.1654802,408519.5,1.0,0.0,-152.0
14:10:45,224579.0,RTL,0.0,0.0,-1000.0,3.0,3.0,3.25,-0.0009707531280582771,0.0016598669753875583,0.34353185445070267,0.00013168930308893323,-0.0002462731208652258,5.690555553883314e-06,-35.3627095,149.1654802,410453.5,1.0,0.0,-152.0
14:10:46,224579.0,RTL,0.0,0.0,-999.5,1.0,2.5,4.0,-0.0011069932370446622,0.0017652178648859262,0.34330010414123535,-0.002254209015518427,-0.0008144604507833719,0.00032998970709741116,-35.3627095,149.1654802,411618.0,1.0,0.0,-152.0
14:10:48,224579.0,RTL,0.0,0.0,-1000.0,3.0,2.5,3.5,-0.001132311939727515,0.0017352566355839372,0.3433210104703903,-0.00023963802959769964,-0.0005796806653961539,0.0003160410560667515,-35.3627095,149.1654803,414725.0,1.0,-1.0,-152.0
14:10:49,200.0,RTL,0.0,0.0,-999.75,2.25,3.0,3.0,-0.0011878489749506116,0.0016550647851545364,0.343201145529747,-0.00056112976744771,-0.000305492605548352,-0.0004419555189087987,-35.3627095,149.1654803,416671.5,1.0,-0.75,-152.0
14:10:50,200.0,RTL,0.0,0.0,-1000.0,3.5,3.0,2.5,-0.0011451372411102057,0.0017759394831955433,0.34324268996715546,0.0002741581993177533,-0.0005014917114749551,-0.0007795272395014763,-35.3627095,149.1654803,417838.0,1.0,-1.0,-152.0
14:10:52,200.0,RTL,0.0,0.0,-1000.5,3.0,3.0,1.5,-0.000784033938543871,0.0015256517217494547,0.34308919310569763,0.00030139891896396875,-0.0002468753373250365,-0.0016667983727529645,-35.3627095,149.1654802,420948.5,1.0,0.0,-152.0
14:10:53,200.0,RTL,0.0,0.0,-999.75,3.25,3.0,4.75,-0.0009340792166767642,0.0016778451390564442,0.3432171270251274,5.698122549802065e-05,-1.6762292943894863e-05,0.0013618016964755952,-35.3627095,149.1654802,422886.75,1.0,0.0,-152.0
14:10:54,200.0,RTL,0.0,0.0,-1000.0,4.5,1.5,4.0,-0.0008762262004893273,0.00149415252963081,0.34321022033691406,0.001022623386234045,-0.0013943115482106805,0.000431257882155478,-35.3627095,149.1654802,424052.5,1.0,0.0,-152.0
14:10:56,200.0,RTL,0.0,0.0,-1000.0,1.0,3.0,4.0,-0.0018098687869496644,0.0020630931248888373,0.3435675948858261,-0.0018174496944993734,-0.00035165087319910526,0.00032490550074726343,-35.3627095,149.1654802,427156.5,1.0,0.0,-152.0
14:10:57,200.0,RTL,0.0,0.0,-1000.0,3.0,2.75,2.75,-0.0012136917794123292,0.0016812099202070385,0.3436270207166672,4.0988612454384565e-05,-0.0006003694725222886,-0.000730421335902065,-35.3627095,149.1654802,429098.0,1.0,-1.0,-152.0
14:10:58,200.0,RTL,0.0,0.0,-1000.5,3.5,2.5,2.5,-0.0009567747183609754,0.0014964755973778665,0.343578577041626,0.0006441602017730474,-0.0008898129453882575,-0.0008328740950673819,-35.3627095,149.1654802,430263.0,1.0,-1.0,-152.0
14:11:00,200.0,RTL,0.0,0.0,-1000.0,2.0,3.0,3.0,-0.0007978364010341465,0.0009446316107641906,0.34361450374126434,-0.0007650275947526097,-4.017434548586607e-05,-0.0007972918683663011,-35.3627095,149.1654802,433373.0,2.0,0.0,-152.0
14:11:01,39983.0,RTL,0.0,0.0,-1000.25,3.75,3.25,3.25,-0.0005426919378805906,0.002212977036833763,0.34347061812877655,0.0007298460404854268,-1.1441879905760288e-05,-0.0004908355767838657,-35.3627095,149.1654802,435310.75,2.0,0.0,-152.0
14:11:02,39983.0,RTL,0.0,0.0,-1000.5,3.0,3.0,2.5,-0.0006600282213184983,0.0021729283034801483,0.3434020131826401,8.3750463090837e-05,-0.0002345904940739274,-0.0007887063547968864,-35.3627095,149.1654802,436478.0,1.0,0.0,-152.0
14:11:04,39983.0,RTL,0.0,0.0,-1000.0,1.5,3.5,3.5,-0.0013001977931708097,0.001895916648209095,0.34344299137592316,-0.001245883759111166,0.0001617718953639269,0.0004158327355980873,-35.3627095,149.1654802,439594.0,1.0,0.0,-152.0
14:11:05,200.0,RTL,0.0,0.0,-999.75,3.0,2.0,3.0,-0.001479970058426261,0.0017134526860900223,0.3431614264845848,9.369553299620748e-05,-0.000825282942969352,-0.0002003009431064129,-35.3627095,149.1654802,441527.75,1.0,-0.75,-152.0
14:11:06,200.0,RTL,0.0,0.0,-1000.0,3.0,2.0,2.5,-0.0011927653686143458,0.00119446573080495,0.34344127774238586,-0.00030341267120093107,-0.0005435892380774021,-0.0005839972291141748,-35.3627095,149.1654802,442700.0,1.0,-1.0,-152.0
14:11:08,200.0,RTL,0.0,0.0,-1000.0,2.0,1.5,3.5,-0.000375232906662859,0.0013294729869812727,0.34339049458503723,-0.0006633279263041914,-0.0011957231909036636,-5.2671763114631176e-05,-35.3627095,149.1654802,445799.0,1.0,0.0,-152.0
14:11:09,202833.0,RTL,0.0,0.0,-999.5,2.75,3.5,2.75,-0.0010977968631777912,0.0008124951418722048,0.3430621847510338,-0.00022740475833415985,0.0004766297643072903,-0.00045409781159833074,-35.3627095,149.1654802,447748.25,2.0,0.0,-152.0
14:11:10,202833.0,RTL,0.0,0.0,-1000.0,1.5,2.5,1.0,-0.0009884654718916863,0.0011369507410563529,0.3430871516466141,-0.000992243061773479,-0.00043809437192976475,-0.001590220956131816,-35.3627095,149.1654802,448913.5,2.0,0.0,-152.0
14:11:12,202833.0,RTL,0.0,0.0,-999.5,4.0,2.5,5.5,-0.0005886084691155702,0.00228938867803663,0.3429862856864929,0.0008338969200849533,-1.941260416060686e-05,0.0021657589823007584,-35.3627095,149.1654802,452025.0,1.0,0.0,-152.0
14:11:13,83491.0,RTL,0.0,0.0,-1000.0,3.25,2.5,2.0,-0.0008086496090982109,0.0018786114524118602,0.3437940627336502,0.0006311798060778528,-0.0006434298120439053,-0.0011528176546562463,-35.3627095,149.1654802,453962.0,1.0,0.0,-152.0
14:11:14,83491.0,RTL,0.0,0.0,-1000.0,0.5,3.0,2.5,-0.0014757297467440367,0.001827672531362623,0.3437846601009369,-0.002746617770753801,6.108393426984549e-05,-0.0007996113272383809,-35.3627095,149.1654802,455129.5,1.0,0.0,-152.0
14:11:16,83491.0,RTL,0.0,0.0,-999.5,1.5,2.0,1.5,-0.0013327478081919253,0.0012607094831764698,0.3437638133764267,-0.0010501242941245437,-0.0004940110957249999,-0.0012691727606579661,-35.3627095,149.1654802,458231.0,1.0,-1.0,-152.0
14:11:17,169035.0,RTL,0.0,0.0,-1000.25,4.0,2.5,2.5,-0.000610781331488397,0.0013351293455343693,0.34344644844532013,0.0011314292787574232,-0.0005337446928024292,-0.0008413172326982021,-35.3627095,149.1654802,460173.0,1.25,-0.25,-152.0
14:11:18,169035.0,RTL,0.0,0.0,-999.5,3.0,2.5,4.0,-0.0003376954991836101,0.0013653383939526975,0.3437046408653259,0.0004460904747247696,-0.00011839065700769424,0.0010037716710940003,-35.3627095,149.1654802,461338.0,1.0,0.0,-152.0
14:11:20,169035.0,RTL,0.0,0.0,-999.5,4.0,4.0,3.0,-0.001206543412990868,0.0009541403560433537,0.343350350856781,0.0014230122324079275,0.0013529309071600437,0.00019872805569320917,-35.3627095,149.1654802,464443.5,2.0,0.0,-152.0
14:11:21,200.0,RTL,0.0,0.0,-1000.0,3.75,3.5,2.75,-0.0006277342617977411,0.0017799882916733623,0.34343693405389786,0.000995538430288434,0.0007535137701779604,-0.00043876038398593664,-35.3627095,149.1654802,466385.75,2.0,0.0,-152.0
14:11:22,200.0,RTL,0.0,0.0,-1000.0,1.5,3.5,2.5,-0.0004876592574873939,0.002277599647641182,0.34328317642211914,-0.001104488386772573,0.000625692424364388,-0.0006492366082966328,-35.3627095,149.1654802,467554.5,2.0,0.0,-152.0
14:11:24,200.0,RTL,0.0,0.0,-1000.0,3.0,2.0,2.0,-0.001633151841815561,0.002181107411161065,0.34317851066589355,0.00012291898019611835,-0.0009389284532517195,-0.00043559959158301353,-35.3627095,149.1654802,470660.0,1.0,0.0,-152.0
14:11:25,241805.0,RTL,0.0,0.0,-1000.25,2.75,1.75,2.75,-0.0012925382470712066,0.0016088105039671063,0.3432239815592766,0.0002883537672460079,-0.0007805922068655491,-0.00017067368025891483,-35.3627095,149.1654802,472605.25,1.0,-1.0,-152.0
14:11:26,241805.0,RTL,0.0,0.0,-1000.0,1.5,3.0,1.5,-0.0013941072975285351,0.0011412417516112328,0.34317998588085175,-0.0008891182951629162,4.842877388000488e-06,-0.00123239541426301,-35.3627095,149.1654802,473773.0,1.0,-1.0,-152.0
14:11:28,241805.0,RTL,0.0,0.0,-1000.5,2.5,1.5,2.5,-0.0008836720371618867,0.0009937938302755356,0.3432279974222183,-0.0002495142398402095,-0.0010798160219565034,-0.0006000486901029944,-35.3627095,149.1654802,476877.5,1.5,0.0,-152.0
14:11:29,300000.0,RTL,0.0,0.0,-1000.0,3.75,2.75,3.0,-0.001049449434503913,0.0009187414252664894,0.3436456397175789,0.0011466894065961242,0.00017778680194169283,-1.9362603779882193e-05,-35.3627095,149.1654802,478822.0,2.0,0.0,-152.0
14:11:30,300000.0,RTL,0.0,0.0,-999.5,3.0,4.0,2.5,-0.0005778077756986022,0.0012069213553331792,0.34381499886512756,0.0004233669606037438,0.0015564427012577653,-0.0003779926337301731,-35.3627095,149.1654802,479988.0,2.0,0.0,-152.0
14:11:32,300000.0,RTL,0.0,0.0,-1000.0,2.0,2.0,2.5,-0.0006355383957270533,0.0024922071024775505,0.34347642958164215,-0.0007697612745687366,-0.0008317005122080445,-0.0004014058504253626,-35.3627095,149.1654802,483094.0,1.0,0.0,-152.0
14:11:33,300000.0,RTL,0.0,0.0,-999.75,2.0,2.25,1.75,-0.0008867539290804416,0.0016809568332973868,0.3435649573802948,-0.00042613863479346037,-0.0005798276397399604,-0.0009281255770474672,-35.3627095,149.1654802,485037.0,1.0,0.0,-152.0
14:11:34,300000.0,RTL,0.0,0.0,-999.5,2.0,2.0,3.0,-0.0008725872612558305,0.0018424545414745808,0.3433971107006073,-0.0004180119140073657,-0.00015845068264752626,0.0006838360568508506,-35.3627095,149.1654802,486203.0,1.0,0.0,-152.0
14:11:36,300000.0,RTL,0.0,0.0,-999.0,3.5,3.0,4.0,-0.0014500593533739448,0.001429320138413459,0.34332916140556335,0.0010880462359637022,0.00046172598376870155,0.0012317459331825376,-35.3627095,149.1654802,489309.5,1.0,-1.0,-152.0
14:11:37,242909.0,RTL,0.0,0.0,-1000.25,3.0,2.0,1.5,-0.0008600405271863565,0.001506987784523517,0.34339848160743713,0.0006542372866533697,-0.00031759581179358065,-0.0015682467492297292,-35.3627095,149.1654802,491247.25,1.0,-0.75,-152.0
