time_stamp,MODE,lat,lon,relative_alt,roll,pitch,yaw,rollspeed,pitchspeed,yawspeed,xacc,yacc,zacc,xgyro,ygyro,zgyro,vx,vy,vz,RTL_ALT
14:05:34.988,STABILIZE,-35.3632622,149.1652376,0,-0.00027514086104929447,0.0011917088413611054,0.026449603959918022,0.00012670597061514854,0.0003036833950318396,0.002123940037563443,0,1,-1000,0,0,0,-1,2,0,1500.0
14:05:35.188,STABILIZE,-35.3632622,149.1652376,0,-0.00027514086104929447,0.0011917088413611054,0.026449603959918022,0.00012670597061514854,0.0003036833950318396,0.002123940037563443,0,1,-1000,0,0,0,-1,2,0,1500.0
14:05:35.389,STABILIZE,-35.3632622,149.1652376,0,-0.00027514086104929447,0.0011917088413611054,0.026449603959918022,0.00012670597061514854,0.0003036833950318396,0.002123940037563443,0,1,-1000,0,0,0,-1,2,0,1500.0
14:05:35.590,STABILIZE,-35.3632622,149.1652375,0,-0.000524309987667948,0.001103238551877439,0.026149706915020943,0.00033460307167842984,0.0003585159429349005,0.002146759070456028,0,1,-1000,0,0,0,-1,1,0,1500.0
14:05:35.790,STABILIZE,-35.3632622,149.1652375,0,-0.000524309987667948,0.001103238551877439,0.026149706915020943,0.00033460307167842984,0.0003585159429349005,0.002146759070456028,0,1,-1000,0,0,0,-1,1,0,1500.0
14:05:35.991,STABILIZE,-35.3632622,149.1652375,0,-0.000524309987667948,0.001103238551877439,0.026149706915020943,0.00033460307167842984,0.0003585159429349005,0.002146759070456028,0,1,-1000,0,0,0,-1,1,0,1500.0
14:05:36.192,STABILIZE,-35.3632622,149.1652375,0,-0.000524309987667948,0.001103238551877439,0.026149706915020943,0.00033460307167842984,0.0003585159429349005,0.002146759070456028,0,1,-1000,0,0,0,-1,1,0,1500.0
14:05:36.393,STABILIZE,-35.3632622,149.1652375,0,-0.000524309987667948,0.001103238551877439,0.026149706915020943,0.00033460307167842984,0.0003585159429349005,0.002146759070456028,0,1,-1000,0,0,0,-1,1,0,1500.0
14:05:36.593,STABILIZE,-35.3632622,149.1652375,0,-0.000524309987667948,0.001103238551877439,0.026149706915020943,0.00033460307167842984,0.0003585159429349005,0.002146759070456028,0,1,-1000,0,0,0,-1,1,0,1500.0
14:05:36.795,STABILIZE,-35.3632622,149.1652375,0,-0.000524309987667948,0.001103238551877439,0.026149706915020943,0.00033460307167842984,0.0003585159429349005,0.002146759070456028,0,1,-1000,0,0,0,-1,1,0,1500.0
14:05:36.996,STABILIZE,-35.3632621,149.1652375,0,-0.0007291848887689412,0.00098665792029351,0.02554643526673317,0.00010185525752604008,0.00019844635971821845,0.0019943248480558395,0,1,-1000,0,0,0,-1,2,1,1500.0
14:05:37.197,STABILIZE,-35.3632621,149.1652375,0,-0.0007291848887689412,0.00098665792029351,0.02554643526673317,0.00010185525752604008,0.00019844635971821845,0.0019943248480558395,0,1,-1000,0,0,0,-1,2,1,1500.0
14:05:37.398,STABILIZE,-35.3632621,149.1652375,0,-0.0007291848887689412,0.00098665792029351,0.02554643526673317,0.00010185525752604008,0.00019844635971821845,0.0019943248480558395,0,1,-1000,0,0,0,-1,2,1,1500.0
14:05:37.599,STABILIZE,-35.3632621,149.1652375,0,-0.0009380628471262753,0.0009688329882919788,0.025272930040955544,0.0003265633713454008,0.00024266642867587507,0.0020091640762984753,0,1,-1000,0,0,0,-1,2,1,1500.0
14:05:37.800,STABILIZE,-35.3632621,149.1652375,0,-0.0009380628471262753,0.0009688329882919788,0.025272930040955544,0.0003265633713454008,0.00024266642867587507,0.0020091640762984753,0,1,-1000,0,0,0,-1,2,1,1500.0
14:05:38.001,STABILIZE,-35.3632621,149.1652375,0,-0.0009380628471262753,0.0009688329882919788,0.025272930040955544,0.0003265633713454008,0.00024266642867587507,0.0020091640762984753,0,1,-1000,0,0,0,-1,2,1,1500.0
14:05:38.202,STABILIZE,-35.3632621,149.1652375,0,-0.0009380628471262753,0.0009688329882919788,0.025272930040955544,0.0003265633713454008,0.00024266642867587507,0.0020091640762984753,0,1,-1000,0,0,0,-1,2,1,1500.0
14:05:38.406,STABILIZE,-35.3632621,149.1652375,0,-0.0009380628471262753,0.0009688329882919788,0.025272930040955544,0.0003265633713454008,0.00024266642867587507,0.0020091640762984753,0,1,-1000,0,0,0,-1,2,1,1500.0
14:05:38.615,STABILIZE,-35.3632621,149.1652375,0,-0.0009380628471262753,0.0009688329882919788,0.025272930040955544,0.0003265633713454008,0.00024266642867587507,0.0020091640762984753,0,1,-1000,0,0,0,-1,2,1,1500.0
14:05:38.816,STABILIZE,-35.3632621,149.1652375,0,-0.0009380628471262753,0.0009688329882919788,0.025272930040955544,0.0003265633713454008,0.00024266642867587507,0.0020091640762984753,0,1,-1000,0,0,0,-1,2,1,1500.0
14:05:39.018,STABILIZE,-35.3632621,149.1652375,0,-0.0009380628471262753,0.0009688329882919788,0.025272930040955544,0.0003265633713454008,0.00024266642867587507,0.0020091640762984753,0,1,-1000,0,0,0,-1,2,1,1500.0
14:05:39.219,STABILIZE,-35.3632621,149.1652375,0,-0.0009380628471262753,0.0009688329882919788,0.025272930040955544,0.0003265633713454008,0.00024266642867587507,0.0020091640762984753,0,1,-1000,0,0,0,-1,2,1,1500.0
14:05:39.420,STABILIZE,-35.3632621,149.1652375,0,-0.0011901227990165353,0.0009395574452355504,0.024735860526561737,0.00020783679792657495,0.00014015851775184274,0.0018958162982016802,0,1,-1000,0,0,0,-1,0,0,1500.0
14:05:39.622,STABILIZE,-35.3632621,149.1652375,0,-0.0012015200918540359,0.0009412249200977385,0.02467758022248745,0.00022519042249768972,0.0003157718456350267,0.0019018197199329734,0,1,-1000,0,0,0,-1,0,0,1500.0
14:05:39.823,STABILIZE,-35.3632621,149.1652375,0,-0.0011984632583335042,0.0009415128733962774,0.02460298500955105,0.0003823077422566712,0.00043148966506123543,0.0019454194698482752,0,1,-1000,0,1,0,-1,0,0,1500.0
14:05:40.025,STABILIZE,-35.3632621,149.1652375,0,-0.0011984632583335042,0.0009415128733962774,0.02460298500955105,0.0003823077422566712,0.00043148966506123543,0.0019454194698482752,0,1,-1000,0,1,0,-1,0,0,1500.0
14:05:40.227,STABILIZE,-35.3632621,149.1652375,0,-0.0011984632583335042,0.0009415128733962774,0.02460298500955105,0.0003823077422566712,0.00043148966506123543,0.0019454194698482752,0,2,-1000,0,1,0,-1,0,0,1500.0
14:05:40.429,STABILIZE,-35.3632621,149.1652375,0,-0.0011984632583335042,0.0009415128733962774,0.02460298500955105,0.0003823077422566712,0.00043148966506123543,0.0019454194698482752,0,2,-1000,0,1,0,-1,0,0,1500.0
14:05:40.631,STABILIZE,-35.3632621,149.1652375,0,-0.0011984632583335042,0.0009415128733962774,0.02460298500955105,0.0003823077422566712,0.00043148966506123543,0.0019454194698482752,0,2,-1000,0,1,0,-1,0,0,1500.0
14:05:40.833,STABILIZE,-35.3632621,149.1652375,0,-0.0011984632583335042,0.0009415128733962774,0.02460298500955105,0.0003823077422566712,0.00043148966506123543,0.0019454194698482752,0,2,-1000,0,1,0,-1,0,0,1500.0
14:05:41.034,STABILIZE,-35.3632621,149.1652375,0,-0.0011984632583335042,0.0009415128733962774,0.02460298500955105,0.0003823077422566712,0.00043148966506123543,0.0019454194698482752,0,2,-1000,0,1,0,-1,0,0,1500.0
14:05:41.236,STABILIZE,-35.3632621,149.1652375,0,-0.0011984632583335042,0.0009415128733962774,0.02460298500955105,0.0003823077422566712,0.00043148966506123543,0.0019454194698482752,0,2,-1000,0,1,0,-1,0,0,1500.0
14:05:41.438,STABILIZE,-35.3632621,149.1652375,0,-0.0010612033074721694,0.00095620151842013,0.02419641613960266,0.00024624576326459646,0.0002666272921487689,0.0017499622190371156,0,2,-1000,0,1,0,-1,0,0,1500.0
14:05:41.639,STABILIZE,-35.3632621,149.1652375,0,-0.0010612033074721694,0.00095620151842013,0.02419641613960266,0.00024624576326459646,0.0002666272921487689,0.0017499622190371156,0,1,-1000,0,0,0,-1,0,0,1500.0
14:05:41.844,STABILIZE,-35.3632621,149.1652375,0,-0.0010612033074721694,0.00095620151842013,0.02419641613960266,0.00024624576326459646,0.0002666272921487689,0.0017499622190371156,0,1,-1000,0,0,0,-1,0,0,1500.0
14:05:42.045,STABILIZE,-35.3632621,149.1652375,0,-0.0010612033074721694,0.00095620151842013,0.02419641613960266,0.00024624576326459646,0.0002666272921487689,0.0017499622190371156,0,1,-1000,0,0,0,-1,0,0,1500.0
14:05:42.248,STABILIZE,-35.3632622,149.1652375,0,-0.001062368624843657,0.0009675923502072692,0.02398551255464554,0.00024837168166413903,0.00028091907734051347,0.001705850358121097,0,1,-1000,0,0,0,-1,0,0,1500.0
14:05:42.449,STABILIZE,-35.3632622,149.1652375,0,-0.001062368624843657,0.0009675923502072692,0.02398551255464554,0.00024837168166413903,0.00028091907734051347,0.001705850358121097,0,1,-1000,0,0,0,-1,0,0,1500.0
14:05:42.650,STABILIZE,-35.3632622,149.1652375,0,-0.001062368624843657,0.0009675923502072692,0.02398551255464554,0.00024837168166413903,0.00028091907734051347,0.001705850358121097,0,1,-1000,0,0,0,-1,0,0,1500.0
14:05:42.851,STABILIZE,-35.3632622,149.1652375,0,-0.001062368624843657,0.0009675923502072692,0.02398551255464554,0.00024837168166413903,0.00028091907734051347,0.001705850358121097,0,1,-1000,0,0,0,-1,0,0,1500.0
14:05:43.055,STABILIZE,-35.3632622,149.1652375,0,-0.001062368624843657,0.0009675923502072692,0.02398551255464554,0.00024837168166413903,0.00028091907734051347,0.001705850358121097,0,1,-1000,0,0,0,-1,0,0,1500.0
14:05:43.256,STABILIZE,-35.3632622,149.1652375,0,-0.001062368624843657,0.0009675923502072692,0.02398551255464554,0.00024837168166413903,0.00028091907734051347,0.001705850358121097,0,1,-1000,0,0,0,-1,0,0,1500.0
14:05:43.457,STABILIZE,-35.3632622,149.1652375,0,-0.0010863279458135366,0.0009672128362581134,0.02363438718020916,0.00025385612389072776,0.000352450180798769,0.0015877443365752697,0,2,-1000,0,1,0,-1,1,0,1500.0
14:05:43.658,STABILIZE,-35.3632622,149.1652375,0,-0.00108749745413661,0.000966633902862668,0.023564564064145088,0.0002814006293192506,0.00016862567281350493,0.0016638081287965178,0,1,-1000,0,0,1,-1,1,0,1500.0
14:05:43.859,STABILIZE,-35.3632622,149.1652375,0,-0.0007760016596876085,0.0009716600179672241,0.023499779403209686,0.00016379909357056022,0.0003665079129859805,0.0016497618053108454,0,1,-1000,0,1,1,-1,3,2,1500.0
14:05:44.061,STABILIZE,-35.3632622,149.1652375,0,-0.0007760016596876085,0.0009716600179672241,0.023499779403209686,0.00016379909357056022,0.0003665079129859805,0.0016497618053108454,0,1,-1000,0,1,1,-1,3,2,1500.0
14:05:44.262,STABILIZE,-35.3632622,149.1652375,0,-0.0007760016596876085,0.0009716600179672241,0.023499779403209686,0.00016379909357056022,0.0003665079129859805,0.0016497618053108454,0,1,-1000,0,1,1,-1,3,2,1500.0
14:05:44.463,STABILIZE,-35.3632622,149.1652375,0,-0.0007760016596876085,0.0009716600179672241,0.023499779403209686,0.00016379909357056022,0.0003665079129859805,0.0016497618053108454,0,1,-1000,0,1,1,-1,3,2,1500.0
14:05:44.665,STABILIZE,-35.3632622,149.1652375,0,-0.0007760016596876085,0.0009716600179672241,0.023499779403209686,0.00016379909357056022,0.0003665079129859805,0.0016497618053108454,0,1,-1000,0,1,1,-1,3,2,1500.0
14:05:44.866,STABILIZE,-35.3632622,149.1652375,0,-0.0007760016596876085,0.0009716600179672241,0.023499779403209686,0.00016379909357056022,0.0003665079129859805,0.0016497618053108454,0,1,-1000,0,1,1,-1,3,2,1500.0
14:05:45.067,STABILIZE,-35.3632622,149.1652375,0,-0.001059844042174518,0.0009671443840488791,0.023127561435103416,0.00026024237740784883,0.00035202677827328444,0.0015724406111985445,0,1,-1000,0,1,0,-1,2,1,1500.0
14:05:45.269,STABILIZE,-35.3632622,149.1652375,0,-0.001059844042174518,0.0009671443840488791,0.023127561435103416,0.00026024237740784883,0.00035202677827328444,0.0015724406111985445,0,1,-1000,0,1,0,-1,2,1,1500.0
14:05:45.470,STABILIZE,-35.3632622,149.1652375,0,-0.0011172423837706447,0.0009667576523497701,0.023071164265275,0.0002245549112558365,0.00036211719270795584,0.0015464029274880886,0,2,-1000,0,0,1,-1,2,1,1500.0
14:05:45.671,STABILIZE,-35.3632622,149.1652375,0,-0.0011590305948629975,0.0009697963250800967,0.023002205416560173,0.0002513917861506343,0.0003037900314666331,0.0016644392162561417,0,1,-1000,1,0,0,-1,1,0,1500.0
14:05:45.872,STABILIZE,-35.3632622,149.1652375,0,-0.0011590305948629975,0.0009697963250800967,0.023002205416560173,0.0002513917861506343,0.0003037900314666331,0.0016644392162561417,0,1,-1000,1,0,0,-1,1,0,1500.0
14:05:46.074,STABILIZE,-35.3632622,149.1652375,0,-0.0012379427207633853,0.0009721253882162273,0.02289240062236786,0.00018629076657816768,0.00029579130932688713,0.0016015341971069574,0,1,-1000,0,1,1,-1,1,0,1500.0
14:05:46.275,STABILIZE,-35.3632622,149.1652375,0,-0.0012379427207633853,0.0009721253882162273,0.02289240062236786,0.00018629076657816768,0.00029579130932688713,0.0016015341971069574,0,1,-1000,0,1,1,-1,1,0,1500.0
14:05:46.476,STABILIZE,-35.3632622,149.1652375,0,-0.0012379427207633853,0.0009721253882162273,0.02289240062236786,0.00018629076657816768,0.00029579130932688713,0.0016015341971069574,0,1,-1000,0,1,1,-1,1,0,1500.0
14:05:46.677,STABILIZE,-35.3632622,149.1652375,0,-0.0012379427207633853,0.0009721253882162273,0.02289240062236786,0.00018629076657816768,0.00029579130932688713,0.0016015341971069574,0,1,-1000,0,1,1,-1,1,0,1500.0
14:05:46.878,STABILIZE,-35.3632622,149.1652375,0,-0.0012379427207633853,0.0009721253882162273,0.02289240062236786,0.00018629076657816768,0.00029579130932688713,0.0016015341971069574,0,1,-1000,0,1,1,-1,1,0,1500.0
14:05:47.080,STABILIZE,-35.3632622,149.1652375,0,-0.001331895124167204,0.0009803537977859378,0.022697608917951584,0.00014840095536783338,0.0003118772874586284,0.0015663065714761615,0,1,-1000,0,1,1,-1,1,0,1500.0
14:05:47.281,STABILIZE,-35.3632622,149.1652375,0,-0.001331895124167204,0.0009803537977859378,0.022697608917951584,0.00014840095536783338,0.0003118772874586284,0.0015663065714761615,0,1,-1000,0,1,1,-1,1,0,1500.0
14:05:47.482,STABILIZE,-35.3632622,149.1652375,0,-0.001331895124167204,0.0009803537977859378,0.022697608917951584,0.00014840095536783338,0.0003118772874586284,0.0015663065714761615,0,2,-1000,1,0,0,-1,3,2,1500.0
14:05:47.683,STABILIZE,-35.3632622,149.1652375,0,-0.0011048761662095785,0.00098306848667562,0.022584732621908188,0.0002742735086940229,0.0003480446757748723,0.0015023874584585428,0,2,-1000,1,0,0,-1,2,2,1500.0
14:05:47.884,STABILIZE,-35.3632622,149.1652375,0,-0.0011695438297465444,0.0009833051590248942,0.02252976968884468,0.00031594501342624426,0.0003094318090006709,0.0014630220830440521,0,1,-1000,0,1,0,-1,2,2,1500.0
14:05:48.086,STABILIZE,-35.3632622,149.1652375,0,-0.0012376317754387856,0.0009861511643975973,0.022474296391010284,0.0002239645691588521,0.00027334154583513737,0.0015357431257143617,0,1,-1000,0,1,0,-1,2,2,1500.0
14:05:48.287,STABILIZE,-35.3632622,149.1652375,0,-0.0012376317754387856,0.0009861511643975973,0.022474296391010284,0.0002239645691588521,0.00027334154583513737,0.0015357431257143617,0,1,-1000,0,1,0,-1,2,2,1500.0
14:05:48.489,STABILIZE,-35.3632622,149.1652375,0,-0.0012376317754387856,0.0009861511643975973,0.022474296391010284,0.0002239645691588521,0.00027334154583513737,0.0015357431257143617,0,1,-1000,0,1,0,-1,2,2,1500.0
14:05:48.690,STABILIZE,-35.3632622,149.1652375,0,-0.0012376317754387856,0.0009861511643975973,0.022474296391010284,0.0002239645691588521,0.00027334154583513737,0.0015357431257143617,0,1,-1000,0,1,0,-1,2,2,1500.0
14:05:48.891,STABILIZE,-35.3632622,149.1652375,0,-0.0013842158950865269,0.0010024213697761297,0.022350475192070007,0.0003739353269338608,0.00023909861920401454,0.001473583746701479,0,1,-1000,1,1,1,-1,1,1,1500.0
14:05:49.092,STABILIZE,-35.3632622,149.1652375,0,-0.0014169806381687522,0.0010083678644150496,0.02229597233235836,0.0001642131246626377,0.00046595389721915126,0.0015211886493489146,0,1,-1000,0,0,0,-1,1,1,1500.0
14:05:49.294,STABILIZE,-35.3632622,149.1652375,0,-0.0014169806381687522,0.0010083678644150496,0.02229597233235836,0.0001642131246626377,0.00046595389721915126,0.0015211886493489146,0,1,-1000,0,0,0,-1,1,1,1500.0
14:05:49.495,STABILIZE,-35.3632622,149.1652375,0,-0.0014169806381687522,0.0010083678644150496,0.02229597233235836,0.0001642131246626377,0.00046595389721915126,0.0015211886493489146,0,1,-1000,0,0,0,-1,1,1,1500.0
14:05:49.696,STABILIZE,-35.3632622,149.1652375,0,-0.0014684393536299467,0.0010035764425992966,0.022222908213734627,0.0002668853267095983,0.00019084010273218155,0.0014468064764514565,0,1,-1000,0,0,1,-1,1,1,1500.0
14:05:49.898,STABILIZE,-35.3632622,149.1652375,0,-0.0014684393536299467,0.0010035764425992966,0.022222908213734627,0.0002668853267095983,0.00019084010273218155,0.0014468064764514565,0,1,-1000,0,0,1,-1,1,1,1500.0
14:05:50.099,STABILIZE,-35.3632622,149.1652375,0,-0.0014684393536299467,0.0010035764425992966,0.022222908213734627,0.0002668853267095983,0.00019084010273218155,0.0014468064764514565,0,1,-1000,0,0,1,-1,1,1,1500.0
14:05:50.301,STABILIZE,-35.3632622,149.1652375,0,-0.0014684393536299467,0.0010035764425992966,0.022222908213734627,0.0002668853267095983,0.00019084010273218155,0.0014468064764514565,0,1,-1000,0,0,1,-1,1,1,1500.0
14:05:50.503,STABILIZE,-35.3632622,149.1652375,0,-0.0014684393536299467,0.0010035764425992966,0.022222908213734627,0.0002668853267095983,0.00019084010273218155,0.0014468064764514565,0,1,-1000,0,0,1,-1,1,1,1500.0
14:05:50.705,STABILIZE,-35.3632622,149.1652375,0,-0.0014684393536299467,0.0010035764425992966,0.022222908213734627,0.0002668853267095983,0.00019084010273218155,0.0014468064764514565,0,1,-1000,0,0,1,-1,1,1,1500.0
14:05:50.906,STABILIZE,-35.3632622,149.1652375,0,-0.0014684393536299467,0.0010035764425992966,0.022222908213734627,0.0002668853267095983,0.00019084010273218155,0.0014468064764514565,0,1,-1000,0,0,1,-1,1,1,1500.0
14:05:51.108,STABILIZE,-35.3632622,149.1652375,0,-0.0015052214730530977,0.0010047651594504714,0.022019654512405396,0.00020151439821347594,0.00026463496033102274,0.0014026316348463297,0,1,-1000,1,1,0,-1,0,0,1500.0
14:05:51.310,STABILIZE,-35.3632622,149.1652375,0,-0.0015052214730530977,0.0010047651594504714,0.022019654512405396,0.00020151439821347594,0.00026463496033102274,0.0014026316348463297,0,1,-1000,0,1,0,-1,0,0,1500.0
14:05:51.511,STABILIZE,-35.3632622,149.1652375,0,-0.0015052214730530977,0.0010047651594504714,0.022019654512405396,0.00020151439821347594,0.00026463496033102274,0.0014026316348463297,0,1,-1000,0,1,0,-1,0,0,1500.0
14:05:51.712,STABILIZE,-35.3632622,149.1652375,0,-0.0015052214730530977,0.0010047651594504714,0.022019654512405396,0.00020151439821347594,0.00026463496033102274,0.0014026316348463297,0,1,-1000,0,1,0,-1,0,0,1500.0
14:05:51.915,STABILIZE,-35.3632622,149.1652375,0,-0.0015052214730530977,0.0010047651594504714,0.022019654512405396,0.00020151439821347594,0.00026463496033102274,0.0014026316348463297,0,1,-1000,0,1,0,-1,0,0,1500.0
14:05:52.117,STABILIZE,-35.3632622,149.1652375,0,-0.0014654601691290736,0.001003639423288405,0.02192559465765953,0.0003379113622941077,0.0003238879726268351,0.001373192062601447,0,1,-1000,0,1,0,-1,0,0,1500.0
14:05:52.333,AUTO,-35.3632622,149.1652375,0,-0.0014654601691290736,0.001003639423288405,0.02192559465765953,0.0003379113622941077,0.0003238879726268351,0.001373192062601447,0,1,-1000,0,1,0,-1,0,0,1500.0
14:05:52.535,AUTO,-35.3632622,149.1652375,0,-0.0014654601691290736,0.001003639423288405,0.02192559465765953,0.0003379113622941077,0.0003238879726268351,0.001373192062601447,0,1,-1000,0,1,0,-1,0,0,1500.0
14:05:52.736,AUTO,-35.3632622,149.1652375,0,-0.0014654601691290736,0.001003639423288405,0.02192559465765953,0.0003379113622941077,0.0003238879726268351,0.001373192062601447,0,1,-1000,0,1,0,-1,0,0,1500.0
14:05:52.937,AUTO,-35.3632622,149.1652375,6,-0.0013825297355651855,0.0009991020197048783,0.021863436326384544,0.00028463423950597644,0.0003050946397706866,0.0013903849758207798,0,1,-1000,0,0,1,-1,0,-1,1500.0
14:05:53.138,AUTO,-35.3632622,149.1652375,7,-0.001350787584669888,0.0010074065066874027,0.021823590621352196,0.00026757793966680765,0.00025369320064783096,0.0013651062035933137,0,1,-1000,1,0,1,-1,0,-1,1500.0
14:05:53.344,AUTO,-35.3632621,149.1652375,8,-0.0013354311231523752,0.0010274893138557673,0.021781396120786667,0.00020658044377341866,0.00020757003221660852,0.001328187296167016,0,1,-1000,0,1,1,0,0,-1,1500.0
14:05:53.548,AUTO,-35.3632621,149.1652375,8,-0.0013354311231523752,0.0010274893138557673,0.021781396120786667,0.00020658044377341866,0.00020757003221660852,0.001328187296167016,0,1,-1000,0,1,1,0,0,-1,92649.0
14:05:53.750,AUTO,-35.3632621,149.1652375,9,-0.00131139624863863,0.0010613916674628854,0.021762395277619362,0.00027407932793721557,0.00015313411131501198,0.0014136878307908773,0,1,-1000,1,0,1,0,0,-1,92649.0
14:05:53.952,AUTO,-35.3632621,149.1652375,10,-0.0012689012801274657,0.0011156562250107527,0.021728338673710823,0.00034429709194228053,0.00039026146987453103,0.0014214299153536558,0,1,-1000,0,1,0,0,0,-1,92649.0
14:05:54.154,AUTO,-35.3632621,149.1652375,9,-0.0009003016748465598,0.0011697220616042614,0.021677520126104355,-0.0003318575327284634,0.0002587272319942713,0.0015731977764517069,0,16,-978,0,0,1,0,2,1,92649.0
14:05:54.355,AUTO,-35.3632621,149.1652375,9,-0.0009003016748465598,0.0011697220616042614,0.021677520126104355,-0.0003318575327284634,0.0002587272319942713,0.0015731977764517069,0,16,-978,0,0,1,0,2,1,92649.0
14:05:54.557,AUTO,-35.3632621,149.1652375,9,-0.0009003016748465598,0.0011697220616042614,0.021677520126104355,-0.0003318575327284634,0.0002587272319942713,0.0015731977764517069,0,16,-978,0,0,1,0,2,1,92649.0
14:05:54.759,AUTO,-35.3632621,149.1652375,9,-0.0009003016748465598,0.0011697220616042614,0.021677520126104355,-0.0003318575327284634,0.0002587272319942713,0.0015731977764517069,0,16,-978,0,0,1,0,2,1,92649.0
14:05:54.960,AUTO,-35.3632621,149.1652375,0,-0.0007673664949834347,0.0013779331929981709,0.021547969430685043,0.0003696569474413991,0.00031924049835652113,0.0013505115639418364,0,1,-1000,0,1,1,0,1,1,92649.0
14:05:55.161,AUTO,-35.3632621,149.1652375,0,-0.0007150773308239877,0.0014459294034168124,0.021497448906302452,0.0002101964200846851,0.00023628806229680777,0.0012916624546051025,0,1,-1000,0,0,1,0,0,1,92649.0
14:05:55.362,AUTO,-35.3632621,149.1652375,0,-0.0006521372124552727,0.0015154798747971654,0.021449167281389236,0.00025515572633594275,0.00032463675597682595,0.001290115644223988,0,1,-1000,0,0,1,0,0,0,92649.0
14:05:55.564,AUTO,-35.3632621,149.1652375,0,-0.0005934342625550926,0.0015917379641905427,0.021391499787569046,0.0002878800733014941,0.0002569163334555924,0.001354689011350274,0,2,-1000,0,1,1,0,0,0,92649.0
14:05:55.765,AUTO,-35.3632621,149.1652375,0,-0.0005934342625550926,0.0015917379641905427,0.021391499787569046,0.0002878800733014941,0.0002569163334555924,0.001354689011350274,0,2,-1000,0,1,1,0,0,0,92649.0
14:05:55.966,AUTO,-35.3632621,149.1652375,0,-0.0005311164422892034,0.001669574761763215,0.02132134884595871,0.00036067847395315766,0.0002824381226673722,0.0013302292209118605,0,2,-1000,0,1,1,0,0,0,92649.0
14:05:56.168,AUTO,-35.3632621,149.1652375,1,-0.0004636145895346999,0.0017461879178881645,0.021275043487548828,0.0003208811394870281,0.000363093800842762,0.0012772887712344527,0,1,-1000,1,0,0,0,0,0,92649.0
14:05:56.370,AUTO,-35.3632621,149.1652375,1,-0.0004636145895346999,0.0017461879178881645,0.021275043487548828,0.0003208811394870281,0.000363093800842762,0.0012772887712344527,0,1,-1000,1,0,0,0,0,0,92649.0
14:05:56.572,AUTO,-35.3632621,149.1652375,1,-0.0004636145895346999,0.0017461879178881645,0.021275043487548828,0.0003208811394870281,0.000363093800842762,0.0012772887712344527,0,1,-1000,1,0,0,0,0,0,92649.0
14:05:56.773,AUTO,-35.3632621,149.1652375,1,-0.0004636145895346999,0.0017461879178881645,0.021275043487548828,0.0003208811394870281,0.000363093800842762,0.0012772887712344527,0,1,-1000,1,0,0,0,0,0,92649.0
14:05:56.975,AUTO,-35.3632621,149.1652375,186,0.004515862092375755,0.00015971239190548658,0.021164661273360252,0.010495270602405071,0.00435272790491581,0.0007825358770787716,0,0,-1130,11,5,0,0,1,-69,92649.0
14:05:57.177,AUTO,-35.3632621,149.1652375,399,0.00269652483984828,0.0012309844605624676,0.021126894280314445,-0.0050489394925534725,0.004659244325011969,0.002618835773319006,0,0,-1109,-4,5,2,0,1,-98,92649.0
14:05:57.378,AUTO,-35.3632621,149.1652375,679,0.0015386234736070037,0.001883930410258472,0.021075522527098656,-0.00929449312388897,0.0012638841290026903,0.0013298678677529097,0,0,-1088,-8,1,0,0,1,-122,85502.0
14:05:57.580,AUTO,-35.3632621,149.1652375,1014,0.009108150377869606,0.0011573453666642308,0.020828649401664734,0.04612932354211807,-0.006312022916972637,0.0011938816169276834,0,0,-1044,47,-5,1,0,2,-138,85502.0
14:05:57.781,AUTO,-35.3632621,149.1652375,1014,0.009108150377869606,0.0011573453666642308,0.020828649401664734,0.04612932354211807,-0.006312022916972637,0.0011938816169276834,0,0,-1044,47,-5,1,0,2,-138,85502.0
14:05:57.983,AUTO,-35.363262,149.1652376,1378,0.020809266716241837,-0.0006487725186161697,0.020841972902417183,0.04660705104470253,-0.007565313018858433,0.002103022998198867,0,-1,-1019,47,-6,1,0,5,-145,85502.0
14:05:58.185,AUTO,-35.363262,149.1652378,1755,0.03216582536697388,-0.0026471694000065327,0.020984141156077385,0.04474468529224396,-0.008343063294887543,0.002766245976090431,0,-1,-1008,45,-7,2,1,11,-148,85502.0
14:05:58.386,AUTO,-35.363262,149.1652378,1755,0.03216582536697388,-0.0026471694000065327,0.020984141156077385,0.04474468529224396,-0.008343063294887543,0.002766245976090431,0,-1,-1008,45,-7,2,1,11,-148,85502.0
14:05:58.588,AUTO,-35.363262,149.1652378,1755,0.03216582536697388,-0.0026471694000065327,0.020984141156077385,0.04474468529224396,-0.008343063294887543,0.002766245976090431,0,-1,-1008,45,-7,2,1,11,-148,85502.0
14:05:58.790,AUTO,-35.363262,149.1652378,1755,0.03216582536697388,-0.0026471694000065327,0.020984141156077385,0.04474468529224396,-0.008343063294887543,0.002766245976090431,0,-1,-1008,45,-7,2,1,11,-148,85502.0
14:05:58.991,AUTO,-35.3632616,149.1652398,2909,0.06158920377492905,-0.009862961247563362,-0.0062248846516013145,0.0045079863630235195,0.007320550736039877,-0.033000726252794266,1,-8,-994,5,8,-33,8,41,-149,85502.0
14:05:59.193,AUTO,-35.3632614,149.1652411,3290,0.04462720826268196,0.010008485056459904,-0.027568770572543144,-0.12182419002056122,0.10882913321256638,-0.10858242958784103,2,-10,-990,-121,109,-108,10,52,-146,85502.0
14:05:59.395,AUTO,-35.3632612,149.1652425,3666,0.0016107687260955572,0.0242740698158741,-0.04916730523109436,-0.1862020194530487,0.0072739566676318645,-0.07697118818759918,7,-16,-997,-185,8,-77,7,54,-145,85502.0
14:05:59.597,AUTO,-35.363261,149.1652439,4043,-0.024938058108091354,0.018581438809633255,-0.06093411520123482,-0.0555560365319252,-0.035669270902872086,-0.041144970804452896,5,-12,-1011,-54,-34,-41,3,47,-148,85502.0
14:05:59.800,AUTO,-35.363261,149.1652439,4043,-0.024938058108091354,0.018581438809633255,-0.06093411520123482,-0.0555560365319252,-0.035669270902872086,-0.041144970804452896,5,-12,-1011,-54,-34,-41,3,47,-148,85502.0
14:06:00.001,AUTO,-35.3632609,149.165245,4427,-0.03345731645822525,0.009683888405561447,-0.06835126876831055,-0.02145746909081936,-0.02846703678369522,-0.030777109786868095,4,-8,-1006,-20,-27,-31,1,37,-150,85502.0
14:06:00.204,AUTO,-35.3632608,149.1652459,4814,-0.03994130343198776,0.004252180922776461,-0.07539746165275574,-0.04293930530548096,-0.013811895623803139,-0.028556562960147858,3,-6,-1000,-42,-13,-28,1,25,-151,85502.0
14:06:00.406,AUTO,-35.3632608,149.1652459,4814,-0.03994130343198776,0.004252180922776461,-0.07539746165275574,-0.04293930530548096,-0.013811895623803139,-0.028556562960147858,3,-6,-1000,-42,-13,-28,1,25,-151,85502.0
14:06:00.610,AUTO,-35.3632608,149.1652459,4814,-0.03994130343198776,0.004252180922776461,-0.07539746165275574,-0.04293930530548096,-0.013811895623803139,-0.028556562960147858,3,-6,-1000,-42,-13,-28,1,25,-151,85502.0
14:06:00.812,AUTO,-35.3632608,149.1652459,4814,-0.03994130343198776,0.004252180922776461,-0.07539746165275574,-0.04293930530548096,-0.013811895623803139,-0.028556562960147858,3,-6,-1000,-42,-13,-28,1,25,-151,85502.0
14:06:01.018,AUTO,-35.3632608,149.1652462,5968,-0.07397264987230301,-0.0004408656095620245,-0.09759169816970825,0.04513705149292946,-0.002514579799026251,-0.020643936470150948,-1,2,-1004,45,-1,-21,-1,-23,-150,85502.0
14:06:01.220,AUTO,-35.3632608,149.1652455,6352,-0.0609615184366703,-0.000980026787146926,-0.10234782844781876,0.055319081991910934,0.0005935407243669033,-0.013487338088452816,-3,5,-1001,55,1,-13,-3,-39,-150,85502.0
14:06:01.422,AUTO,-35.3632609,149.1652443,6736,-0.04644490033388138,-0.00018395901133771986,-0.1054232195019722,0.059623099863529205,0.005775418598204851,-0.008475078269839287,-5,8,-1001,60,6,-8,-5,-50,-150,300000.0
14:06:01.625,AUTO,-35.363261,149.1652427,7124,-0.03071286715567112,0.001787677058018744,-0.10722260922193527,0.0634278953075409,0.009265140630304813,-0.0044815088622272015,-4,8,-1002,64,10,-4,-7,-58,-150,300000.0
14:06:01.827,AUTO,-35.3632612,149.1652411,7510,-0.014410005882382393,0.00445181131362915,-0.10805515944957733,0.06752727180719376,0.011918365955352783,-0.0020098320674151182,-5,11,-1003,68,12,-2,-9,-61,-151,300000.0
14:06:02.029,AUTO,-35.3632612,149.1652411,7510,-0.014410005882382393,0.00445181131362915,-0.10805515944957733,0.06752727180719376,0.011918365955352783,-0.0020098320674151182,-5,11,-1003,68,12,-2,-9,-61,-151,300000.0
14:06:02.231,AUTO,-35.3632614,149.1652393,7897,0.002520119771361351,0.007446485571563244,-0.10825806856155396,0.06787361204624176,0.011554751545190811,0.0002929139882326126,-6,12,-1003,68,12,0,-11,-60,-152,300000.0
14:06:02.433,AUTO,-35.3632614,149.1652393,7897,0.002520119771361351,0.007446485571563244,-0.10825806856155396,0.06787361204624176,0.011554751545190811,0.0002929139882326126,-6,12,-1003,68,12,0,-11,-60,-152,300000.0
14:06:02.635,AUTO,-35.3632614,149.1652393,7897,0.002520119771361351,0.007446485571563244,-0.10825806856155396,0.06787361204624176,0.011554751545190811,0.0002929139882326126,-6,12,-1003,68,12,0,-11,-60,-152,300000.0
14:06:02.837,AUTO,-35.3632625,149.1652351,9069,0.05239294096827507,0.0131600396707654,-0.1059708297252655,0.06390617042779922,0.0014625859912484884,0.0038736930582672358,-4,11,-1003,64,2,3,-18,-32,-154,300000.0
14:06:03.039,AUTO,-35.3632625,149.1652351,9069,0.05239294096827507,0.0131600396707654,-0.1059708297252655,0.06390617042779922,0.0014625859912484884,0.0038736930582672358,-4,11,-1003,64,2,3,-18,-32,-154,300000.0
14:06:03.241,AUTO,-35.3632629,149.1652344,9462,0.0678442046046257,0.012632832862436771,-0.1044137179851532,0.060659293085336685,-0.00439853360876441,0.004740353673696518,0,8,-1002,61,-3,4,-20,-15,-154,300000.0
14:06:03.443,AUTO,-35.3632634,149.1652341,9856,0.07453910261392593,0.004086783155798912,-0.09640185534954071,-0.01731657236814499,-0.07254579663276672,0.0687704011797905,2,4,-994,-16,-71,68,-20,2,-153,300000.0
14:06:03.646,AUTO,-35.3632638,149.1652344,10244,0.06170382350683212,-0.026057302951812744,-0.07225378602743149,-0.06740304082632065,-0.13895972073078156,0.13012292981147766,4,0,-996,-66,-138,130,-14,18,-151,300000.0
14:06:03.848,AUTO,-35.363264,149.1652348,10628,0.03677699714899063,-0.05388526991009712,-0.04799126088619232,-0.12286017835140228,-0.037135131657123566,0.0556751973927021,3,-2,-995,-122,-36,55,-2,29,-150,300000.0
14:06:04.050,AUTO,-35.363264,149.1652348,10628,0.03677699714899063,-0.05388526991009712,-0.04799126088619232,-0.12286017835140228,-0.037135131657123566,0.0556751973927021,3,-2,-995,-122,-36,55,-2,29,-150,300000.0
14:06:04.252,AUTO,-35.3632639,149.1652356,11009,0.006432914175093174,-0.04671397805213928,-0.046734072268009186,-0.10916123539209366,0.06602860242128372,-0.027849264442920685,2,-5,-1001,-108,66,-27,12,31,-149,300000.0
14:06:04.454,AUTO,-35.3632639,149.1652356,11009,0.006432914175093174,-0.04671397805213928,-0.046734072268009186,-0.10916123539209366,0.06602860242128372,-0.027849264442920685,2,-5,-1001,-108,66,-27,12,31,-149,300000.0
14:06:04.656,AUTO,-35.3632639,149.1652356,11009,0.006432914175093174,-0.04671397805213928,-0.046734072268009186,-0.10916123539209366,0.06602860242128372,-0.027849264442920685,2,-5,-1001,-108,66,-27,12,31,-149,300000.0
14:06:04.858,AUTO,-35.3632624,149.1652373,12162,-0.029593970626592636,-0.0011257454752922058,-0.10126157104969025,-0.005731666460633278,0.03742755576968193,-0.0752905085682869,-3,-5,-1004,-5,38,-75,26,9,-152,300000.0
14:06:05.060,AUTO,-35.3632624,149.1652373,12162,-0.029593970626592636,-0.0011257454752922058,-0.10126157104969025,-0.005731666460633278,0.03742755576968193,-0.0752905085682869,-3,-5,-1004,-5,38,-75,26,9,-152,300000.0
14:06:05.261,AUTO,-35.3632619,149.1652374,12551,-0.028202278539538383,0.006069278810173273,-0.119221992790699,0.01654420606791973,0.02667653001844883,-0.06386993080377579,-4,-5,-1003,17,27,-63,24,0,-153,300000.0
14:06:05.463,AUTO,-35.3632613,149.1652374,12941,-0.022197863087058067,0.011506164446473122,-0.13486498594284058,0.030601168051362038,0.020815005525946617,-0.054226215928792953,-4,-3,-1002,31,21,-54,20,-7,-153,121883.0
14:06:05.664,AUTO,-35.3632609,149.1652371,13331,-0.013898585923016071,0.016091860830783844,-0.147743359208107,0.0379558764398098,0.0166636873036623,-0.04253794997930527,-6,-1,-1001,38,17,-42,15,-12,-154,121883.0
14:06:05.866,AUTO,-35.3632606,149.1652367,13723,-0.004396099131554365,0.018890904262661934,-0.15714341402053833,0.035587601363658905,0.010012331418693066,-0.03304900601506233,-4,0,-1000,36,10,-33,10,-14,-154,121883.0
14:06:06.068,AUTO,-35.3632604,149.1652362,14123,0.0035055980551987886,0.020798252895474434,-0.16388799250125885,0.028296079486608505,0.005376260727643967,-0.019819602370262146,-5,1,-1000,28,6,-19,4,-13,-154,121883.0
14:06:06.269,AUTO,-35.3632604,149.1652362,14123,0.0035055980551987886,0.020798252895474434,-0.16388799250125885,0.028296079486608505,0.005376260727643967,-0.019819602370262146,-5,1,-1000,28,6,-19,4,-13,-154,121883.0
14:06:06.471,AUTO,-35.3632604,149.1652362,14123,0.0035055980551987886,0.020798252895474434,-0.16388799250125885,0.028296079486608505,0.005376260727643967,-0.019819602370262146,-5,1,-1000,28,6,-19,4,-13,-154,121883.0
14:06:06.673,AUTO,-35.3632604,149.1652362,14123,0.0035055980551987886,0.020798252895474434,-0.16388799250125885,0.028296079486608505,0.005376260727643967,-0.019819602370262146,-5,1,-1000,28,6,-19,4,-13,-154,121883.0
14:06:06.875,AUTO,-35.3632604,149.1652353,15287,0.015358354896306992,0.016471942886710167,-0.16837334632873535,0.003051390405744314,-0.01221082266420126,0.0010133569594472647,-1,2,-999,3,-11,0,-7,-4,-153,121883.0
14:06:07.076,AUTO,-35.3632605,149.1652352,15677,0.0153160085901618,0.013348085805773735,-0.16722087562084198,-0.0036036197561770678,-0.011776160448789597,0.0031786824110895395,0,1,-999,-2,-11,2,-9,0,-153,121883.0
14:06:07.278,AUTO,-35.3632605,149.1652352,15677,0.0153160085901618,0.013348085805773735,-0.16722087562084198,-0.0036036197561770678,-0.011776160448789597,0.0031786824110895395,0,1,-999,-2,-11,2,-9,0,-153,121883.0
14:06:07.480,AUTO,-35.3632606,149.1652352,16066,0.013983146287500858,0.010594726540148258,-0.16641119122505188,-0.008874124847352505,-0.009781435132026672,0.0016500912606716156,1,1,-999,-8,-8,1,-11,3,-153,121883.0
14:06:07.682,AUTO,-35.3632608,149.1652352,16455,0.01148305181413889,0.007829156704246998,-0.16605064272880554,-0.01602965220808983,-0.011749031953513622,-0.0005939261754974723,2,0,-999,-15,-10,0,-11,6,-153,121883.0
14:06:07.884,AUTO,-35.3632611,149.1652353,16843,-0.004361425060778856,0.0051102708093822,-0.1665595918893814,-0.0939679816365242,-0.010192664340138435,-0.006493811961263418,2,0,-995,-93,-9,-6,-11,6,-152,121883.0
14:06:08.086,AUTO,-35.3632613,149.1652354,17227,-0.03245057165622711,0.0030276887118816376,-0.1687084138393402,-0.12271960079669952,-0.004772820044308901,-0.012573097832500935,2,0,-996,-122,-3,-12,-12,1,-151,121883.0
14:06:08.287,AUTO,-35.3632613,149.1652354,17227,-0.03245057165622711,0.0030276887118816376,-0.1687084138393402,-0.12271960079669952,-0.004772820044308901,-0.012573097832500935,2,0,-996,-122,-3,-12,-12,1,-151,121883.0
14:06:08.489,AUTO,-35.3632613,149.1652354,17227,-0.03245057165622711,0.0030276887118816376,-0.1687084138393402,-0.12271960079669952,-0.004772820044308901,-0.012573097832500935,2,0,-996,-122,-3,-12,-12,1,-151,121883.0
14:06:08.691,AUTO,-35.3632613,149.1652354,17227,-0.03245057165622711,0.0030276887118816376,-0.1687084138393402,-0.12271960079669952,-0.004772820044308901,-0.012573097832500935,2,0,-996,-122,-3,-12,-12,1,-151,121883.0
14:06:08.892,AUTO,-35.3632624,149.1652339,18328,-0.04096837341785431,0.04090995714068413,0.0005369331920519471,0.13355350494384766,-0.1063375398516655,0.28482070565223694,1,9,-952,134,-105,284,-29,-35,-133,121883.0
14:06:09.094,AUTO,-35.3632631,149.1652328,18656,0.00045698703615926206,0.0030669060070067644,0.0472240224480629,0.15969276428222656,-0.15425515174865723,0.09664782136678696,1,13,-953,160,-153,96,-34,-38,-121,121883.0
14:06:09.301,AUTO,-35.3632631,149.1652328,18656,0.00045698703615926206,0.0030669060070067644,0.0472240224480629,0.15969276428222656,-0.15425515174865723,0.09664782136678696,1,13,-953,160,-153,96,-34,-38,-121,121883.0
14:06:09.503,AUTO,-35.3632637,149.1652317,18950,0.03447095677256584,-0.026495302096009254,0.05574294924736023,0.11358430981636047,-0.08270914852619171,-0.006095247808843851,2,11,-956,114,-81,-6,-29,-31,-109,169477.0
14:06:09.706,AUTO,-35.3632643,149.165231,19214,0.05579370632767677,-0.038324709981679916,0.048748474568128586,0.06215951591730118,-0.025704126805067062,-0.039081841707229614,1,8,-959,62,-24,-39,-21,-18,-99,169477.0
14:06:09.908,AUTO,-35.3632646,149.1652306,19452,0.06463435292243958,-0.03946737200021744,0.0394228957593441,0.015498531050980091,0.005112706683576107,-0.034200478345155716,1,3,-964,16,6,-34,-12,-3,-89,169477.0
14:06:10.109,AUTO,-35.3632648,149.1652306,19665,0.06324456632137299,-0.03539790213108063,0.03289024531841278,-0.019354917109012604,0.022940894588828087,-0.018703598529100418,1,0,-968,-18,23,-18,-2,11,-80,169477.0
14:06:10.322,AUTO,-35.3632648,149.1652306,19665,0.06324456632137299,-0.03539790213108063,0.03289024531841278,-0.019354917109012604,0.022940894588828087,-0.018703598529100418,1,0,-968,-18,23,-18,-2,11,-80,169477.0
14:06:10.525,AUTO,-35.3632648,149.1652306,19665,0.06324456632137299,-0.03539790213108063,0.03289024531841278,-0.019354917109012604,0.022940894588828087,-0.018703598529100418,1,0,-968,-18,23,-18,-2,11,-80,169477.0
14:06:10.727,AUTO,-35.3632648,149.1652306,19665,0.06324456632137299,-0.03539790213108063,0.03289024531841278,-0.019354917109012604,0.022940894588828087,-0.018703598529100418,1,0,-968,-18,23,-18,-2,11,-80,169477.0
14:06:10.930,AUTO,-35.3632643,149.1652326,20181,0.03155000880360603,-0.01020683255046606,0.02834426611661911,-0.04847431182861328,0.037539511919021606,0.0022781058214604855,0,-9,-976,-47,38,2,15,40,-59,169477.0
14:06:11.132,AUTO,-35.3632639,149.1652336,20321,0.019907156005501747,-0.0022749316412955523,0.028409473598003387,-0.04168199002742767,0.028440196067094803,0.005517108831554651,0,-10,-978,-40,29,5,17,42,-53,169477.0
14:06:11.335,AUTO,-35.3632635,149.1652347,20447,0.009488156996667385,0.0035221041180193424,0.028175195679068565,-0.038573697209358215,0.022099778056144714,0.0035951342433691025,1,-11,-978,-37,22,3,17,42,-48,169477.0
14:06:11.538,AUTO,-35.3632635,149.1652347,20447,0.009488156996667385,0.0035221041180193424,0.028175195679068565,-0.038573697209358215,0.022099778056144714,0.0035951342433691025,1,-11,-978,-37,22,3,17,42,-48,169477.0
14:06:11.740,AUTO,-35.363263,149.1652358,20559,0.001446781912818551,0.008785061538219452,0.027788013219833374,-0.027844946831464767,0.01901242509484291,0.00279481359757483,0,-10,-978,-26,19,2,17,40,-43,169477.0
14:06:11.942,AUTO,-35.3632626,149.1652368,20656,-0.0044027636758983135,0.012595254927873611,0.027110908180475235,-0.01950834132730961,0.011521280743181705,0.0009158554021269083,0,-9,-978,-18,12,0,15,36,-37,169477.0
14:06:12.144,AUTO,-35.3632623,149.1652377,20741,-0.008931313641369343,0.01475917361676693,0.026477649807929993,-0.012275371700525284,0.005865857005119324,0.0003516385331749916,0,-8,-976,-11,6,0,13,32,-31,169477.0
14:06:12.345,AUTO,-35.3632623,149.1652377,20741,-0.008931313641369343,0.01475917361676693,0.026477649807929993,-0.012275371700525284,0.005865857005119324,0.0003516385331749916,0,-8,-976,-11,6,0,13,32,-31,169477.0
14:06:12.547,AUTO,-35.3632623,149.1652377,20741,-0.008931313641369343,0.01475917361676693,0.026477649807929993,-0.012275371700525284,0.005865857005119324,0.0003516385331749916,0,-8,-976,-11,6,0,13,32,-31,169477.0
14:06:12.749,AUTO,-35.3632623,149.1652377,20741,-0.008931313641369343,0.01475917361676693,0.026477649807929993,-0.012275371700525284,0.005865857005119324,0.0003516385331749916,0,-8,-976,-11,6,0,13,32,-31,169477.0
14:06:12.950,AUTO,-35.3632615,149.1652396,20889,-0.013073568232357502,0.013952238485217094,0.02445821836590767,0.01576181687414646,-0.0035075941123068333,-0.003880326636135578,0,-3,-970,16,-2,-3,5,16,-11,169477.0
14:06:13.152,AUTO,-35.3632614,149.16524,20902,-0.014018099755048752,0.013071964494884014,0.02370842918753624,-0.07287756353616714,0.01740144193172455,-0.0075764162465929985,0,-7,-962,-71,18,-7,2,12,-2,169477.0
14:06:13.354,AUTO,-35.3632613,149.1652402,20881,-0.05066832900047302,0.024048980325460434,0.022538932040333748,-0.2514648139476776,-0.022556006908416748,-0.003944083116948605,0,-16,-961,-250,-21,-3,-1,1,12,169477.0
14:06:13.556,AUTO,-35.3632613,149.1652402,20881,-0.05066832900047302,0.024048980325460434,0.022538932040333748,-0.2514648139476776,-0.022556006908416748,-0.003944083116948605,0,-16,-961,-250,-21,-3,-1,1,12,169614.0
14:06:13.757,AUTO,-35.3632613,149.1652401,20836,-0.042115554213523865,0.0046805706806480885,0.022310689091682434,-0.5236603021621704,-0.09916000813245773,-0.014733579941093922,0,-5,-973,-522,-97,-14,-4,-7,19,169614.0
14:06:13.959,AUTO,-35.3632614,149.1652399,20777,-0.013348482549190521,-0.019554326310753822,0.022209739312529564,0.2245343178510666,-0.08022434264421463,-0.018873997032642365,-2,25,-1029,226,-79,-19,-1,-12,19,169614.0
14:06:14.161,AUTO,-35.3632613,149.1652395,20728,0.01582086831331253,-0.038728632032871246,0.0208441149443388,0.7776575684547424,-0.06677721440792084,-0.010762213729321957,-3,34,-1040,779,-65,-10,5,-11,13,169614.0
14:06:14.363,AUTO,-35.3632613,149.1652395,20728,0.01582086831331253,-0.038728632032871246,0.0208441149443388,0.7776575684547424,-0.06677721440792084,-0.010762213729321957,-3,34,-1040,779,-65,-10,5,-11,13,169614.0
14:06:14.565,AUTO,-35.3632613,149.1652395,20728,0.01582086831331253,-0.038728632032871246,0.0208441149443388,0.7776575684547424,-0.06677721440792084,-0.010762213729321957,-3,34,-1040,779,-65,-10,5,-11,13,169614.0
14:06:14.766,AUTO,-35.3632613,149.1652395,20728,0.01582086831331253,-0.038728632032871246,0.0208441149443388,0.7776575684547424,-0.06677721440792084,-0.010762213729321957,-3,34,-1040,779,-65,-10,5,-11,13,169614.0
14:06:14.968,AUTO,-35.3632596,149.1652388,20654,0.03152340278029442,-0.07636234909296036,0.015776071697473526,-0.47953730821609497,-0.03818372264504433,0.014963076449930668,-10,-13,-1019,-478,-37,14,45,4,1,169614.0
14:06:15.169,AUTO,-35.3632584,149.165239,20647,0.04125194624066353,-0.08836981654167175,0.07259002327919006,0.23420773446559906,-0.022137068212032318,0.46321597695350647,-12,16,-1018,236,-21,463,63,13,-2,169614.0
14:06:15.371,AUTO,-35.3632568,149.1652392,20647,0.038402289152145386,-0.10412903130054474,0.25178366899490356,0.5414980053901672,-0.019272055476903915,0.7637466788291931,-19,5,-1014,542,-18,763,82,21,-4,169614.0
14:06:15.573,AUTO,-35.3632548,149.1652397,20652,0.02092452347278595,-0.11805213987827301,0.3876359164714813,-0.2493686079978943,-0.03458953648805618,0.3759462237358093,-24,-35,-1009,-249,-33,375,102,30,-5,169614.0
14:06:15.775,AUTO,-35.3632548,149.1652397,20652,0.02092452347278595,-0.11805213987827301,0.3876359164714813,-0.2493686079978943,-0.03458953648805618,0.3759462237358093,-24,-35,-1009,-249,-33,375,102,30,-5,169614.0
14:06:15.977,AUTO,-35.3632523,149.1652405,20659,0.013316584751009941,-0.12934736907482147,0.4290817975997925,-0.450313538312912,-0.031120436266064644,0.05514740198850632,-26,-33,-1000,-448,-30,55,124,40,-6,169614.0
14:06:16.179,AUTO,-35.3632492,149.1652417,20668,0.024070311337709427,-0.1392228752374649,0.42055222392082214,0.2730851471424103,-0.04020171985030174,-0.07387512922286987,-32,5,-1008,275,-39,-73,147,52,-7,169614.0
14:06:16.380,AUTO,-35.3632492,149.1652417,20668,0.024070311337709427,-0.1392228752374649,0.42055222392082214,0.2730851471424103,-0.04020171985030174,-0.07387512922286987,-32,5,-1008,275,-39,-73,147,52,-7,169614.0
14:06:16.582,AUTO,-35.3632492,149.1652417,20668,0.024070311337709427,-0.1392228752374649,0.42055222392082214,0.2730851471424103,-0.04020171985030174,-0.07387512922286987,-32,5,-1008,275,-39,-73,147,52,-7,169614.0
14:06:16.784,AUTO,-35.3632492,149.1652417,20668,0.024070311337709427,-0.1392228752374649,0.42055222392082214,0.2730851471424103,-0.04020171985030174,-0.07387512922286987,-32,5,-1008,275,-39,-73,147,52,-7,169614.0
14:06:16.986,AUTO,-35.3632369,149.1652468,20703,0.026070106774568558,-0.17583777010440826,0.37721753120422363,0.05251079797744751,-0.05503984913229942,-0.03513816371560097,-48,-17,-1008,54,-54,-35,225,83,-7,169614.0
14:06:17.188,AUTO,-35.3632316,149.1652492,20716,0.03230668604373932,-0.18647143244743347,0.3757700026035309,0.34114038944244385,-0.02169603295624256,-0.00955089833587408,-56,-25,-1010,342,-20,-9,256,94,-7,105940.0
14:06:17.389,AUTO,-35.3632256,149.165252,20730,0.0296259094029665,-0.18484577536582947,0.37654393911361694,-0.16661381721496582,0.021282868459820747,0.007433543913066387,-57,-61,-1014,-166,22,7,287,103,-8,105940.0
14:06:17.591,AUTO,-35.363219,149.165255,20749,0.028758225962519646,-0.1815628856420517,0.37797990441322327,-0.10763272643089294,0.004581121727824211,-0.0004137357173021883,-66,-38,-1011,-106,5,0,314,114,-10,105940.0
14:06:17.793,AUTO,-35.363219,149.165255,20749,0.028758225962519646,-0.1815628856420517,0.37797990441322327,-0.10763272643089294,0.004581121727824211,-0.0004137357173021883,-66,-38,-1011,-106,5,0,314,114,-10,105940.0
14:06:17.995,AUTO,-35.3632117,149.1652584,20773,0.03353229537606239,-0.1842002123594284,0.3787118196487427,0.1874687671661377,-0.03489832580089569,-0.015372752211987972,-75,-31,-1007,188,-33,-15,340,122,-12,105940.0
14:06:18.197,AUTO,-35.3632039,149.1652619,20798,0.03347156569361687,-0.18978944420814514,0.3787144422531128,-0.03453504294157028,0.001841041841544211,-0.005794182885438204,-73,-61,-1005,-33,2,-5,367,129,-12,105940.0
14:06:18.399,AUTO,-35.3632039,149.1652619,20798,0.03347156569361687,-0.18978944420814514,0.3787144422531128,-0.03453504294157028,0.001841041841544211,-0.005794182885438204,-73,-61,-1005,-33,2,-5,367,129,-12,105940.0
14:06:18.601,AUTO,-35.3632039,149.1652619,20798,0.03347156569361687,-0.18978944420814514,0.3787144422531128,-0.03453504294157028,0.001841041841544211,-0.005794182885438204,-73,-61,-1005,-33,2,-5,367,129,-12,105940.0
14:06:18.803,AUTO,-35.3632039,149.1652619,20798,0.03347156569361687,-0.18978944420814514,0.3787144422531128,-0.03453504294157028,0.001841041841544211,-0.005794182885438204,-73,-61,-1005,-33,2,-5,367,129,-12,105940.0
14:06:19.005,AUTO,-35.363177,149.1652741,20888,0.0417039655148983,-0.2024136781692505,0.37544965744018555,0.004161143209785223,-0.0402195043861866,-0.013789079152047634,-101,-51,-1002,5,-39,-13,443,153,-14,105940.0
14:06:19.206,AUTO,-35.3631668,149.1652787,20919,0.04125043377280235,-0.21176813542842865,0.3745250701904297,-0.0153299355879426,-0.009087122976779938,-0.018382029607892036,-88,-47,-998,-14,-8,-18,470,162,-13,105940.0
14:06:19.408,AUTO,-35.3631561,149.1652835,20952,0.04482104256749153,-0.20532721281051636,0.3736450970172882,0.03388379141688347,0.03103836253285408,-0.014204069040715694,-93,-55,-1007,34,32,-14,496,170,-15,105940.0
14:06:19.610,AUTO,-35.3631447,149.1652885,20992,0.04909741133451462,-0.1928282082080841,0.37262460589408875,0.012966946698725224,0.06177600100636482,-0.013122189790010452,-100,-57,-1008,14,62,-13,519,178,-18,105940.0
14:06:19.812,AUTO,-35.3631447,149.1652885,20992,0.04909741133451462,-0.1928282082080841,0.37262460589408875,0.012966946698725224,0.06177600100636482,-0.013122189790010452,-100,-57,-1008,14,62,-13,519,178,-18,105940.0
14:06:20.014,AUTO,-35.363133,149.1652937,21041,0.052457720041275024,-0.18348625302314758,0.37155914306640625,0.00868639349937439,0.0006514830165542662,-0.010204404592514038,-93,-65,-999,9,1,-10,538,183,-22,105940.0
14:06:20.219,AUTO,-35.3631208,149.165299,21097,0.05818626657128334,-0.18042147159576416,0.3699113428592682,0.007789978291839361,0.011141532100737095,-0.024986449629068375,-120,-66,-1001,8,12,-25,555,189,-23,105940.0
14:06:20.429,AUTO,-35.3631208,149.165299,21097,0.05818626657128334,-0.18042147159576416,0.3699113428592682,0.007789978291839361,0.011141532100737095,-0.024986449629068375,-120,-66,-1001,8,12,-25,555,189,-23,105940.0
14:06:20.631,AUTO,-35.3631208,149.165299,21097,0.05818626657128334,-0.18042147159576416,0.3699113428592682,0.007789978291839361,0.011141532100737095,-0.024986449629068375,-120,-66,-1001,8,12,-25,555,189,-23,105940.0
14:06:20.833,AUTO,-35.3631208,149.165299,21097,0.05818626657128334,-0.18042147159576416,0.3699113428592682,0.007789978291839361,0.011141532100737095,-0.024986449629068375,-120,-66,-1001,8,12,-25,555,189,-23,105940.0
14:06:21.036,AUTO,-35.3630823,149.1653159,21286,0.0667920708656311,-0.16525885462760925,0.3667198419570923,0.006613516714423895,-0.0028023929335176945,-0.007469245698302984,-110,-63,-984,7,-1,-7,593,203,-26,105940.0
14:06:21.237,AUTO,-35.363069,149.1653218,21351,0.0656043067574501,-0.16595639288425446,0.3664500117301941,-0.00949040986597538,0.012725520879030228,-0.0005770710995420814,-125,-72,-992,-8,13,0,603,207,-25,15069.0
14:06:21.439,AUTO,-35.3630554,149.1653278,21415,0.0668027475476265,-0.15952274203300476,0.36597874760627747,0.016097234562039375,0.02763722836971283,-0.0031662341207265854,-136,-78,-998,16,28,-3,611,210,-25,15069.0
14:06:21.641,AUTO,-35.3630417,149.1653339,21481,0.06811638921499252,-0.15686717629432678,0.3647293746471405,0.003920868970453739,0.011583925224840641,0.005479409825056791,-126,-91,-994,4,12,5,618,213,-25,15069.0
14:06:21.843,AUTO,-35.3630278,149.16534,21545,0.06890366226434708,-0.14938396215438843,0.3639090657234192,0.003284243866801262,0.03343907371163368,0.004718503449112177,-128,-60,-989,4,34,4,623,216,-25,15069.0
14:06:22.045,AUTO,-35.3630278,149.16534,21545,0.06890366226434708,-0.14938396215438843,0.3639090657234192,0.003284243866801262,0.03343907371163368,0.004718503449112177,-128,-60,-989,4,34,4,623,216,-25,15069.0
14:06:22.247,AUTO,-35.3630139,149.1653463,21609,0.06280513107776642,-0.14224757254123688,0.364836722612381,-0.02754693105816841,0.03349873423576355,-0.002339907456189394,-124,-76,-988,-26,34,-2,627,219,-25,15069.0
14:06:22.450,AUTO,-35.3630139,149.1653463,21609,0.06280513107776642,-0.14224757254123688,0.364836722612381,-0.02754693105816841,0.03349873423576355,-0.002339907456189394,-124,-76,-988,-26,34,-2,627,219,-25,15069.0
14:06:22.654,AUTO,-35.3630139,149.1653463,21609,0.06280513107776642,-0.14224757254123688,0.364836722612381,-0.02754693105816841,0.03349873423576355,-0.002339907456189394,-124,-76,-988,-26,34,-2,627,219,-25,15069.0
14:06:22.855,AUTO,-35.3630139,149.1653463,21609,0.06280513107776642,-0.14224757254123688,0.364836722612381,-0.02754693105816841,0.03349873423576355,-0.002339907456189394,-124,-76,-988,-26,34,-2,627,219,-25,15069.0
14:06:23.057,AUTO,-35.3629658,149.1653674,21838,0.07510253041982651,-0.1182415559887886,0.3620595932006836,0.032741762697696686,-0.013039771467447281,0.0018634200096130371,-129,-75,-973,33,-12,2,625,216,-25,15069.0
14:06:23.259,AUTO,-35.3629518,149.1653735,21897,0.0775999054312706,-0.12577050924301147,0.36144572496414185,0.009367622435092926,-0.01608351804316044,0.009022331796586514,-132,-95,-977,10,-15,9,624,216,-21,15069.0
14:06:23.460,AUTO,-35.3629377,149.1653797,21948,0.07372857630252838,-0.11965395510196686,0.3625018298625946,-0.04022440314292908,0.0631963461637497,-0.002095756120979786,-127,-74,-990,-39,63,-1,622,218,-19,15069.0
14:06:23.664,AUTO,-35.3629237,149.1653858,22001,0.07260354608297348,-0.10417978465557098,0.3633613586425781,-0.0234763715416193,0.06326540559530258,0.0039107357151806355,-131,-76,-1000,-22,64,4,619,218,-21,15069.0
14:06:23.866,AUTO,-35.3629237,149.1653858,22001,0.07260354608297348,-0.10417978465557098,0.3633613586425781,-0.0234763715416193,0.06326540559530258,0.0039107357151806355,-131,-76,-1000,-22,64,4,619,218,-21,15069.0
14:06:24.068,AUTO,-35.3629097,149.1653919,22060,0.07680974155664444,-0.09335204213857651,0.362860769033432,0.02169913426041603,0.029867326840758324,-0.003392636077478528,-144,-70,-997,22,30,-3,612,215,-22,15069.0
14:06:24.269,AUTO,-35.362896,149.1653979,22120,0.08015567064285278,-0.08122340589761734,0.36241084337234497,0.04786091670393944,0.05688956007361412,-0.009021695703268051,-142,-67,-992,48,57,-8,604,212,-22,15069.0
14:06:24.471,AUTO,-35.362896,149.1653979,22120,0.08015567064285278,-0.08122340589761734,0.36241084337234497,0.04786091670393944,0.05688956007361412,-0.009021695703268051,-142,-67,-992,48,57,-8,604,212,-22,15069.0
14:06:24.673,AUTO,-35.362896,149.1653979,22120,0.08015567064285278,-0.08122340589761734,0.36241084337234497,0.04786091670393944,0.05688956007361412,-0.009021695703268051,-142,-67,-992,48,57,-8,604,212,-22,15069.0
14:06:24.875,AUTO,-35.362896,149.1653979,22120,0.08015567064285278,-0.08122340589761734,0.36241084337234497,0.04786091670393944,0.05688956007361412,-0.009021695703268051,-142,-67,-992,48,57,-8,604,212,-22,15069.0
14:06:25.077,AUTO,-35.3628564,149.1654152,22299,0.07899560034275055,-0.041251882910728455,0.3634779751300812,0.04866330698132515,0.01683194562792778,0.004649553447961807,-120,-71,-984,49,17,4,562,200,-22,241833.0
14:06:25.279,AUTO,-35.3628439,149.1654207,22355,0.08079758286476135,-0.030151773244142532,0.36338523030281067,0.02719399891793728,0.07369101047515869,0.0005555071402341127,-116,-68,-986,27,74,0,544,195,-19,241833.0
14:06:25.480,AUTO,-35.3628318,149.1654261,22406,0.07721291482448578,-0.01822102628648281,0.36288708448410034,-0.07922492176294327,0.038687437772750854,-4.116323543712497e-05,-109,-77,-986,-78,39,0,524,188,-18,241833.0
14:06:25.682,AUTO,-35.3628201,149.1654313,22453,0.07389722764492035,-0.00518003199249506,0.36323073506355286,-0.015353524126112461,0.061732660979032516,0.002318844897672534,-110,-75,-992,-14,62,2,503,181,-16,241833.0
14:06:25.885,AUTO,-35.3628201,149.1654313,22453,0.07389722764492035,-0.00518003199249506,0.36323073506355286,-0.015353524126112461,0.061732660979032516,0.002318844897672534,-110,-75,-992,-14,62,2,503,181,-16,241833.0
14:06:26.087,AUTO,-35.362809,149.1654363,22495,0.07292773574590683,0.008403193205595016,0.36267152428627014,0.10664351284503937,0.0658910870552063,0.002163209952414036,-99,-66,-990,107,66,2,479,174,-14,241833.0
14:06:26.289,AUTO,-35.3627984,149.1654411,22532,0.06732852011919022,0.021472586318850517,0.3632270395755768,-0.16179251670837402,0.055270228534936905,0.014040968380868435,-101,-82,-991,-161,56,14,454,166,-12,241833.0
14:06:26.490,AUTO,-35.3627984,149.1654411,22532,0.06732852011919022,0.021472586318850517,0.3632270395755768,-0.16179251670837402,0.055270228534936905,0.014040968380868435,-101,-82,-991,-161,56,14,454,166,-12,241833.0
14:06:26.692,AUTO,-35.3627984,149.1654411,22532,0.06732852011919022,0.021472586318850517,0.3632270395755768,-0.16179251670837402,0.055270228534936905,0.014040968380868435,-101,-82,-991,-161,56,14,454,166,-12,241833.0
14:06:26.894,AUTO,-35.3627984,149.1654411,22532,0.06732852011919022,0.021472586318850517,0.3632270395755768,-0.16179251670837402,0.055270228534936905,0.014040968380868435,-101,-82,-991,-161,56,14,454,166,-12,241833.0
14:06:27.096,AUTO,-35.3627702,149.1654539,22614,0.05799330025911331,0.06402450054883957,0.36387839913368225,-0.346432626247406,0.05007658898830414,0.04624840244650841,-77,-85,-975,-346,51,46,369,135,-4,241833.0
14:06:27.298,AUTO,-35.3627621,149.1654576,22626,0.047435175627470016,0.06614762544631958,0.3634949028491974,-0.7694558501243591,-0.0043328907340765,0.01395559124648571,-82,-89,-987,-769,-3,14,338,124,-1,241833.0
14:06:27.500,AUTO,-35.3627548,149.165461,22632,0.043599653989076614,0.05999717488884926,0.3625636100769043,-0.033241696655750275,-0.014702723361551762,-0.02938392385840416,-68,-23,-999,-31,-13,-29,308,115,0,241833.0
14:06:27.702,AUTO,-35.3627482,149.1654641,22637,0.04888539761304855,0.058454662561416626,0.3612373471260071,0.7065572738647461,0.003241137135773897,-0.018513552844524384,-59,-5,-1005,707,4,-18,281,106,0,241833.0
14:06:27.904,AUTO,-35.3627482,149.1654641,22637,0.04888539761304855,0.058454662561416626,0.3612373471260071,0.7065572738647461,0.003241137135773897,-0.018513552844524384,-59,-5,-1005,707,4,-18,281,106,0,241833.0
14:06:28.106,AUTO,-35.3627421,149.1654671,22639,0.04676051065325737,0.0618225559592247,0.36002805829048157,0.3987221121788025,0.013144184835255146,0.005082659423351288,-51,-41,-1006,398,13,5,255,95,0,241833.0
14:06:28.308,AUTO,-35.3627367,149.1654698,22644,0.02964315563440323,0.06596454232931137,0.3601591885089874,-0.5118616223335266,0.014167358167469501,0.021849345415830612,-49,-63,-1013,-512,15,21,229,85,-1,241833.0
14:06:28.512,AUTO,-35.3627367,149.1654698,22644,0.02964315563440323,0.06596454232931137,0.3601591885089874,-0.5118616223335266,0.014167358167469501,0.021849345415830612,-49,-63,-1013,-512,15,21,229,85,-1,241833.0
14:06:28.714,AUTO,-35.3627367,149.1654698,22644,0.02964315563440323,0.06596454232931137,0.3601591885089874,-0.5118616223335266,0.014167358167469501,0.021849345415830612,-49,-63,-1013,-512,15,21,229,85,-1,241833.0
14:06:28.916,AUTO,-35.3627367,149.1654698,22644,0.02964315563440323,0.06596454232931137,0.3601591885089874,-0.5118616223335266,0.014167358167469501,0.021849345415830612,-49,-63,-1013,-512,15,21,229,85,-1,241833.0
14:06:29.118,AUTO,-35.3627238,149.1654763,22665,0.017791330814361572,0.08460693806409836,0.35885995626449585,0.7079979777336121,0.019123954698443413,-0.004378985613584518,-30,8,-1003,709,19,-4,153,55,-1,141591.0
14:06:29.320,AUTO,-35.3627207,149.165478,22671,0.01764184609055519,0.08203890174627304,0.3585897982120514,0.2777416408061981,-0.04170132428407669,0.011692816391587257,-26,-23,-1005,277,-40,11,128,43,-1,141591.0
14:06:29.522,AUTO,-35.3627181,149.1654794,22675,0.0029990458860993385,0.07166357338428497,0.35872191190719604,-0.6196447014808655,-0.03674163296818733,0.01630247011780739,-22,-51,-1005,-619,-35,16,106,34,0,141591.0
14:06:29.724,AUTO,-35.362716,149.1654805,22679,-0.00811262521892786,0.06344246864318848,0.3586219549179077,-0.4432894289493561,-0.024878235533833504,0.0001713462406769395,-19,-22,-1000,-442,-23,0,87,26,0,141591.0
14:06:29.928,AUTO,-35.3627143,149.1654815,22681,-0.003307259874418378,0.05698312073945999,0.35850125551223755,0.41873881220817566,-0.024449704214930534,-0.0009094849228858948,-14,23,-1005,420,-23,0,70,19,0,141591.0
14:06:30.130,AUTO,-35.3627143,149.1654815,22681,-0.003307259874418378,0.05698312073945999,0.35850125551223755,0.41873881220817566,-0.024449704214930534,-0.0009094849228858948,-14,23,-1005,420,-23,0,70,19,0,141591.0
14:06:30.333,AUTO,-35.362713,149.1654822,22681,0.00146524328738451,0.0522223524749279,0.35815027356147766,0.651330292224884,-0.02251242846250534,0.002574190264567733,-11,16,-1014,651,-21,3,56,12,0,141591.0
14:06:30.535,AUTO,-35.362713,149.1654822,22681,0.00146524328738451,0.0522223524749279,0.35815027356147766,0.651330292224884,-0.02251242846250534,0.002574190264567733,-11,16,-1014,651,-21,3,56,12,0,141591.0
14:06:30.738,AUTO,-35.362713,149.1654822,22681,0.00146524328738451,0.0522223524749279,0.35815027356147766,0.651330292224884,-0.02251242846250534,0.002574190264567733,-11,16,-1014,651,-21,3,56,12,0,141591.0
14:06:30.940,AUTO,-35.3627106,149.165483,22684,-0.012156989425420761,0.03579511120915413,0.3579278886318207,-0.3985856771469116,-0.02045840211212635,-0.0010706160683184862,-6,-3,-997,-397,-19,0,22,-4,0,141591.0
14:06:31.142,AUTO,-35.3627106,149.165483,22684,-0.012156989425420761,0.03579511120915413,0.3579278886318207,-0.3985856771469116,-0.02045840211212635,-0.0010706160683184862,-6,-3,-997,-397,-19,0,22,-4,0,141591.0
14:06:31.344,AUTO,-35.3627102,149.1654829,22685,0.0006221159710548818,0.02939661592245102,0.3581123650074005,0.4517415463924408,-0.026604648679494858,-0.0014794450253248215,-4,40,-1005,452,-25,-1,14,-7,0,141591.0
14:06:31.546,AUTO,-35.3627099,149.1654827,22687,0.009314660914242268,0.022921886295080185,0.35828325152397156,0.3359306752681732,-0.028285564854741096,0.006306694820523262,-3,2,-1000,335,-27,6,8,-10,0,141591.0
