time_stamp,MODE,lat,lon,relative_alt,roll,pitch,yaw,rollspeed,pitchspeed,yawspeed,xacc,yacc,zacc,xgyro,ygyro,zgyro,vx,vy,vz,alt,VFR_HUD_alt,EK2_ALT_SOURCE,RTL_ALT
13:05:01.094,AUTO,-35.3632622,149.1652375,0,-0.001016249181702733,0.0010056355968117714,0.02134234458208084,0.00019440535106696188,0.00023150024935603142,0.0012565491488203406,0,1,-1000,0,1,0,-1,1,1,583930,583.9299926757812,0.0,1500.0
13:05:01.296,AUTO,-35.3632621,149.1652375,0,-0.0009757638326846063,0.00112910324241966,0.02121749334037304,0.00024362801923416555,0.00031564757227897644,0.001434663194231689,0,1,-1000,0,0,0,0,0,1,583930,583.9299926757812,0.0,1500.0
13:05:01.497,AUTO,-35.3632621,149.1652375,0,-0.0009354818612337112,0.001187869580462575,0.021170631051063538,0.0001807490480132401,0.00034042360493913293,0.0014305234653875232,0,2,-1000,0,0,1,0,0,1,583930,583.9299926757812,0.0,1500.0
13:05:01.698,AUTO,-35.3632621,149.1652375,0,-0.0008853654144331813,0.0012536721769720316,0.021128270775079727,0.00018294266192242503,0.00024422031128779054,0.0014217697316780686,0,2,-1000,0,0,1,0,0,0,583930,583.9299926757812,0.0,1500.0
13:05:01.899,AUTO,-35.3632621,149.1652375,0,-0.0008366820984520018,0.0013206807198002934,0.021084746345877647,0.0003006362821906805,0.00024041428696364164,0.0013746150070801377,0,1,-1000,0,1,1,0,0,0,583930,583.9299926757812,0.0,1500.0
13:05:02.100,AUTO,-35.3632621,149.1652375,0,-0.0008366820984520018,0.0013206807198002934,0.021084746345877647,0.0003006362821906805,0.00024041428696364164,0.0013746150070801377,0,1,-1000,0,1,1,0,0,0,583930,583.9299926757812,0.0,1500.0
13:05:02.301,AUTO,-35.3632621,149.1652375,0,-0.0007849965477362275,0.0013925632229074836,0.021039359271526337,0.0002308224211446941,0.0002859547967091203,0.0015326953725889325,0,1,-1000,0,1,0,0,0,0,583940,583.9400024414062,0.0,1500.0
13:05:02.502,AUTO,-35.3632621,149.1652374,0,-0.0007290990906767547,0.0014597921399399638,0.021009722724556923,0.00026372476713731885,0.00030497967964038253,0.001402067020535469,0,1,-1000,0,1,1,0,0,0,583940,583.9400024414062,0.0,1500.0
13:05:02.703,AUTO,-35.3632621,149.1652374,0,-0.0007290990906767547,0.0014597921399399638,0.021009722724556923,0.00026372476713731885,0.00030497967964038253,0.001402067020535469,0,1,-1000,0,1,1,0,0,0,583940,583.9400024414062,0.0,1500.0
13:05:02.904,AUTO,-35.3632621,149.1652374,0,-0.0007290990906767547,0.0014597921399399638,0.021009722724556923,0.00026372476713731885,0.00030497967964038253,0.001402067020535469,0,1,-1000,0,1,1,0,0,0,583940,583.9400024414062,0.0,1500.0
13:05:03.105,AUTO,-35.3632621,149.1652374,0,-0.0007290990906767547,0.0014597921399399638,0.021009722724556923,0.00026372476713731885,0.00030497967964038253,0.001402067020535469,0,1,-1000,0,1,1,0,0,0,583940,583.9400024414062,0.0,1500.0
13:05:03.307,AUTO,-35.3632621,149.1652375,0,-0.00026686451747082174,0.0016748945927247405,0.020849306136369705,0.0003789167385548353,0.000299509905744344,0.0013670905027538538,0,1,-1000,0,1,1,0,0,1,583930,583.9299926757812,0.0,1500.0
13:05:03.507,AUTO,-35.3632621,149.1652375,0,-0.00019871264521498233,0.0017471815226599574,0.020780280232429504,0.00038691566442139447,0.0002703865757212043,0.0014216257259249687,0,1,-1000,0,1,0,0,0,1,583930,583.9299926757812,0.0,1500.0
13:05:03.708,AUTO,-35.3632621,149.1652375,11,0.0014958566753193736,0.00015581754269078374,0.02076558582484722,0.015508181415498257,-0.008512011729180813,0.0017891221214085817,0,0,-1138,15,-7,1,0,0,-16,583950,583.9500122070312,0.0,1500.0
13:05:03.909,AUTO,-35.3632621,149.1652375,98,0.002463845070451498,-0.0003295403439551592,0.02073502540588379,0.0017128817271441221,0.0032356944866478443,0.0015680223004892468,0,0,-1139,1,4,1,0,0,-51,584030,584.0299682617188,0.0,1500.0
13:05:04.110,AUTO,-35.3632621,149.1652375,98,0.002463845070451498,-0.0003295403439551592,0.02073502540588379,0.0017128817271441221,0.0032356944866478443,0.0015680223004892468,0,0,-1139,1,4,1,0,0,-51,584030,584.0299682617188,0.0,1500.0
13:05:04.310,AUTO,-35.3632621,149.1652375,270,0.0018609928665682673,0.0007617875235155225,0.020684082061052322,-0.00904377643018961,0.003491122042760253,0.0009113106643781066,0,0,-1121,-8,4,0,0,0,-82,584210,584.2099609375,0.0,1500.0
13:05:04.511,AUTO,-35.3632621,149.1652375,520,0.0014790849527344108,0.0014326743548735976,0.02059110254049301,0.0027331465389579535,0.0021142354235053062,0.002097188727930188,0,0,-1099,3,2,1,0,0,-109,584460,584.4599609375,0.0,1500.0
13:05:04.712,AUTO,-35.3632621,149.1652375,520,0.0014790849527344108,0.0014326743548735976,0.02059110254049301,0.0027331465389579535,0.0021142354235053062,0.002097188727930188,0,0,-1099,3,2,1,0,0,-109,584460,584.4599609375,0.0,1500.0
13:05:04.913,AUTO,-35.3632621,149.1652375,520,0.0014790849527344108,0.0014326743548735976,0.02059110254049301,0.0027331465389579535,0.0021142354235053062,0.002097188727930188,0,0,-1099,3,2,1,0,0,-109,584460,584.4599609375,0.0,1500.0
13:05:05.113,AUTO,-35.3632621,149.1652375,520,0.0014790849527344108,0.0014326743548735976,0.02059110254049301,0.0027331465389579535,0.0021142354235053062,0.002097188727930188,0,0,-1099,3,2,1,0,0,-109,584460,584.4599609375,0.0,1500.0
13:05:05.315,AUTO,-35.363262,149.1652375,1555,0.02650212123990059,-0.0015204842202365398,0.020347051322460175,0.04644336178898811,-0.007210444193333387,0.002444573910906911,0,0,-1012,46,-6,2,1,6,-146,585490,585.489990234375,0.0,1500.0
13:05:05.516,AUTO,-35.363262,149.1652377,1940,0.03779511898756027,-0.0034382811281830072,0.020533844828605652,0.04461398348212242,-0.008266309276223183,0.002966374158859253,0,-1,-1005,44,-7,2,2,13,-148,585880,585.8800048828125,0.0,1500.0
13:05:05.717,AUTO,-35.3632619,149.1652382,2326,0.048493098467588425,-0.005743877962231636,0.020780451595783234,0.041974954307079315,-0.009881719015538692,0.003197962185367942,0,-3,-1001,42,-8,2,3,23,-148,586260,586.260009765625,0.0,1500.0
13:05:05.918,AUTO,-35.3632618,149.1652389,2713,0.05835140496492386,-0.008547657169401646,0.021039584651589394,0.03792442008852959,-0.01142367534339428,0.0036759001668542624,1,-5,-999,38,-10,3,6,34,-148,586650,586.6499633789062,0.0,1500.0
13:05:06.119,AUTO,-35.3632618,149.1652389,2713,0.05835140496492386,-0.008547657169401646,0.021039584651589394,0.03792442008852959,-0.01142367534339428,0.0036759001668542624,1,-5,-999,38,-10,3,6,34,-148,586650,586.6499633789062,0.0,1500.0
13:05:06.319,AUTO,-35.3632616,149.16524,3100,0.060004789382219315,-0.005593742243945599,-0.012151271104812622,-0.054403334856033325,0.062060266733169556,-0.07806259393692017,0,-8,-990,-54,63,-78,9,46,-147,587040,587.0399780273438,0.0,1500.0
13:05:06.521,AUTO,-35.3632613,149.1652414,3479,0.03009795770049095,0.01831306517124176,-0.03659864887595177,-0.17248935997486115,0.0710936188697815,-0.09429661929607391,5,-13,-992,-171,71,-94,9,54,-145,587410,587.4099731445312,0.0,1500.0
13:05:06.722,AUTO,-35.3632613,149.1652414,3479,0.03009795770049095,0.01831306517124176,-0.03659864887595177,-0.17248935997486115,0.0710936188697815,-0.09429661929607391,5,-13,-992,-171,71,-94,9,54,-145,587410,587.4099731445312,0.0,1500.0
13:05:06.923,AUTO,-35.3632613,149.1652414,3479,0.03009795770049095,0.01831306517124176,-0.03659864887595177,-0.17248935997486115,0.0710936188697815,-0.09429661929607391,5,-13,-992,-171,71,-94,9,54,-145,587410,587.4099731445312,0.0,1500.0
13:05:07.124,AUTO,-35.3632613,149.1652414,3479,0.03009795770049095,0.01831306517124176,-0.03659864887595177,-0.17248935997486115,0.0710936188697815,-0.09429661929607391,5,-13,-992,-171,71,-94,9,54,-145,587410,587.4099731445312,0.0,1500.0
13:05:07.325,AUTO,-35.3632609,149.1652452,4623,-0.035578180104494095,0.015545906499028206,-0.08105138689279556,-0.015638744458556175,-0.01206864695996046,-0.04753983020782471,5,-9,-1005,-15,-11,-47,0,33,-150,588560,588.5599975585938,0.0,1500.0
13:05:07.526,AUTO,-35.3632609,149.165246,5015,-0.04279317706823349,0.010401248931884766,-0.08952461928129196,-0.05177484080195427,-0.028835689648985863,-0.02213246002793312,4,-5,-999,-51,-27,-22,-3,22,-150,588950,588.9500122070312,0.0,1500.0
13:05:07.727,AUTO,-35.3632609,149.1652464,5403,-0.059540487825870514,0.0007669898332096636,-0.09131747484207153,-0.07406290620565414,-0.04207419604063034,0.00028610436129383743,3,-2,-998,-73,-41,0,-4,8,-149,589340,589.3399658203125,0.0,1500.0
13:05:07.927,AUTO,-35.363261,149.1652464,5789,-0.07533492147922516,-0.008909706026315689,-0.08967083692550659,-0.02767443284392357,-0.026132715865969658,-0.001922414405271411,1,0,-1003,-27,-25,-2,-3,-9,-149,589720,589.719970703125,0.0,1500.0
13:05:08.128,AUTO,-35.363261,149.1652464,5789,-0.07533492147922516,-0.008909706026315689,-0.08967083692550659,-0.02767443284392357,-0.026132715865969658,-0.001922414405271411,1,0,-1003,-27,-25,-2,-3,-9,-149,589720,589.719970703125,0.0,1500.0
13:05:08.329,AUTO,-35.3632611,149.165246,6175,-0.06947310268878937,-0.010794319212436676,-0.0916481465101242,0.046042729169130325,-0.001264674123376608,-0.004407720174640417,-1,3,-1003,46,0,-4,-2,-27,-150,590110,590.1099853515625,0.0,1500.0
13:05:08.530,AUTO,-35.3632611,149.165245,6560,-0.05615741014480591,-0.010853895917534828,-0.0927342027425766,0.05685558170080185,0.001665337709710002,-0.001478363759815693,-4,6,-1001,57,2,-1,-1,-42,-150,590500,590.5,0.0,1500.0
13:05:08.731,AUTO,-35.3632611,149.165245,6560,-0.05615741014480591,-0.010853895917534828,-0.0927342027425766,0.05685558170080185,0.001665337709710002,-0.001478363759815693,-4,6,-1001,57,2,-1,-1,-42,-150,590500,590.5,0.0,1500.0
13:05:08.932,AUTO,-35.3632611,149.165245,6560,-0.05615741014480591,-0.010853895917534828,-0.0927342027425766,0.05685558170080185,0.001665337709710002,-0.001478363759815693,-4,6,-1001,57,2,-1,-1,-42,-150,590500,590.5,0.0,1500.0
13:05:09.134,AUTO,-35.3632611,149.165245,6560,-0.05615741014480591,-0.010853895917534828,-0.0927342027425766,0.05685558170080185,0.001665337709710002,-0.001478363759815693,-4,6,-1001,57,2,-1,-1,-42,-150,590500,590.5,0.0,1500.0
13:05:09.335,AUTO,-35.3632612,149.1652405,7717,-0.009675906971096992,-0.0037379541900008917,-0.09414380043745041,0.06579656898975372,0.014489712193608284,0.0028214608319103718,-7,12,-1003,66,15,2,-1,-60,-151,591650,591.6499633789062,0.0,1500.0
13:05:09.537,AUTO,-35.3632613,149.1652389,8107,0.0067954943515360355,7.572593312943354e-05,-0.0937640592455864,0.06686218827962875,0.015428507700562477,0.0029200094286352396,-8,12,-1004,67,16,2,-2,-58,-152,592040,592.0399780273438,0.0,1500.0
13:05:09.738,AUTO,-35.3632614,149.1652373,8500,0.023205211386084557,0.0037374692037701607,-0.09284603595733643,0.06606094539165497,0.014142978005111217,0.0038637532852590084,-7,12,-1004,66,14,3,-3,-52,-153,592440,592.4400024414062,0.0,1500.0
13:05:09.940,AUTO,-35.3632615,149.1652359,8894,0.0393848642706871,0.006876623723655939,-0.0917648896574974,0.06420554220676422,0.011072846129536629,0.004502213094383478,-6,11,-1003,64,11,4,-5,-42,-154,592830,592.8300170898438,0.0,1500.0
13:05:10.141,AUTO,-35.3632616,149.1652348,9290,0.054867830127477646,0.00900169089436531,-0.09055471420288086,0.06129877641797066,0.0067673237062990665,0.004741284530609846,-6,11,-1003,64,11,4,-6,-29,-154,593230,592.8300170898438,0.0,1500.0
13:05:10.342,AUTO,-35.3632616,149.1652348,9290,0.054867830127477646,0.00900169089436531,-0.09055471420288086,0.06129877641797066,0.0067673237062990665,0.004741284530609846,-4,7,-1002,61,7,4,-6,-29,-154,593230,593.22998046875,0.0,1500.0
13:05:10.543,AUTO,-35.3632618,149.1652342,9690,0.0696803629398346,0.00978577509522438,-0.08939404040575027,0.057269517332315445,0.0007647130987606943,0.00489546824246645,-2,6,-1001,57,1,4,-8,-13,-154,593630,593.6300048828125,0.0,1500.0
13:05:10.745,AUTO,-35.3632618,149.1652342,9690,0.0696803629398346,0.00978577509522438,-0.08939404040575027,0.057269517332315445,0.0007647130987606943,0.00489546824246645,-2,6,-1001,57,1,4,-8,-13,-154,593630,593.6300048828125,0.0,1500.0
13:05:10.945,AUTO,-35.3632618,149.1652342,9690,0.0696803629398346,0.00978577509522438,-0.08939404040575027,0.057269517332315445,0.0007647130987606943,0.00489546824246645,-2,6,-1001,57,1,4,-8,-13,-154,593630,593.6300048828125,0.0,1500.0
13:05:11.147,AUTO,-35.3632618,149.1652342,9690,0.0696803629398346,0.00978577509522438,-0.08939404040575027,0.057269517332315445,0.0007647130987606943,0.00489546824246645,-2,6,-1001,57,1,4,-8,-13,-154,593630,593.6300048828125,0.0,1500.0
13:05:11.349,AUTO,-35.3632623,149.1652346,10853,0.02280486188828945,-0.00073099514702335,-0.08507530391216278,-0.0907304584980011,-0.013753825798630714,-0.0019622165709733963,3,-2,-999,-90,-13,-2,-5,24,-150,594790,594.7899780273438,0.0,1500.0
13:05:11.550,AUTO,-35.3632624,149.1652352,11236,0.003435693448409438,-0.0030738026835024357,-0.08754164725542068,-0.06572508066892624,-0.006475664675235748,-0.012523497454822063,3,-4,-1002,-65,-5,-12,-3,25,-150,595170,595.1699829101562,0.0,1500.0
13:05:11.752,AUTO,-35.3632624,149.1652358,11621,-0.009505834430456161,-0.004299291875213385,-0.09202835708856583,-0.04091430455446243,-0.004417666234076023,-0.01834188774228096,3,-4,-1003,-40,-3,-18,-1,22,-151,595560,595.5599975585938,0.0,1500.0
13:05:11.953,AUTO,-35.3632624,149.1652363,12010,-0.016591841354966164,-0.004907510709017515,-0.0978943258523941,-0.016577649861574173,-0.0009347958257421851,-0.023195495828986168,1,-4,-1003,-16,0,-23,0,17,-152,595950,595.9500122070312,0.0,1500.0
13:05:12.154,AUTO,-35.3632624,149.1652367,12400,-0.019043434411287308,-0.004822699353098869,-0.1045776829123497,-0.0036160354502499104,0.0020317372400313616,-0.02645021118223667,1,-2,-1002,-2,2,-26,1,11,-152,596340,596.3399658203125,0.0,1500.0
13:05:12.355,AUTO,-35.3632624,149.1652367,12400,-0.019043434411287308,-0.004822699353098869,-0.1045776829123497,-0.0036160354502499104,0.0020317372400313616,-0.02645021118223667,1,-2,-1002,-2,2,-26,1,11,-152,596340,596.3399658203125,0.0,1500.0
13:05:12.556,AUTO,-35.3632624,149.1652369,12790,-0.017873035743832588,-0.004158984404057264,-0.11173298209905624,0.011180849745869637,0.004100651480257511,-0.02738797292113304,0,-1,-1001,11,4,-27,3,5,-153,596730,596.72998046875,0.0,1500.0
13:05:12.758,AUTO,-35.3632624,149.1652369,12790,-0.017873035743832588,-0.004158984404057264,-0.11173298209905624,0.011180849745869637,0.004100651480257511,-0.02738797292113304,0,-1,-1001,11,4,-27,3,5,-153,596730,596.72998046875,0.0,1500.0
13:05:12.959,AUTO,-35.3632624,149.1652369,12790,-0.017873035743832588,-0.004158984404057264,-0.11173298209905624,0.011180849745869637,0.004100651480257511,-0.02738797292113304,0,-1,-1001,11,4,-27,3,5,-153,596730,596.72998046875,0.0,1500.0
13:05:13.161,AUTO,-35.3632624,149.1652369,12790,-0.017873035743832588,-0.004158984404057264,-0.11173298209905624,0.011180849745869637,0.004100651480257511,-0.02738797292113304,0,-1,-1001,11,4,-27,3,5,-153,596730,596.72998046875,0.0,1500.0
13:05:13.361,AUTO,-35.3632621,149.1652368,13966,-0.005042789503931999,0.0004462831129785627,-0.13254877924919128,0.01855088211596012,0.008241546340286732,-0.023893928155303,-2,0,-1000,18,8,-24,4,-6,-153,597900,597.8999633789062,0.0,1500.0
13:05:13.562,AUTO,-35.363262,149.1652366,14362,-0.0005814960459247231,0.002337520942091942,-0.1387002021074295,0.01792636327445507,0.007703857496380806,-0.022293688729405403,-2,0,-1000,18,8,-22,3,-7,-154,598300,598.2999877929688,0.0,1500.0
13:05:13.763,AUTO,-35.3632619,149.1652363,14755,0.00382641376927495,0.004193565342575312,-0.1443147361278534,0.017764423042535782,0.0075647118501365185,-0.019024863839149475,-2,0,-1000,18,8,-19,3,-7,-154,598690,598.6900024414062,0.0,1500.0
13:05:13.964,AUTO,-35.3632618,149.1652361,15146,0.006750698201358318,0.005478516221046448,-0.14909835159778595,0.009060245007276535,0.005349167622625828,-0.01743542216718197,-2,0,-999,9,6,-17,2,-6,-154,599080,599.0800170898438,0.0,1500.0
13:05:14.165,AUTO,-35.3632617,149.1652359,15538,0.008845202624797821,0.00615520216524601,-0.15307725965976715,0.007305735256522894,0.002505081007257104,-0.01309712789952755,-1,1,-1000,7,3,-13,1,-4,-154,599470,599.469970703125,0.0,1500.0
13:05:14.366,AUTO,-35.3632617,149.1652359,15538,0.008845202624797821,0.00615520216524601,-0.15307725965976715,0.007305735256522894,0.002505081007257104,-0.01309712789952755,-1,1,-1000,7,3,-13,1,-4,-154,599470,599.469970703125,0.0,1500.0
13:05:14.567,AUTO,-35.3632617,149.1652357,15930,0.00980946235358715,0.006798414513468742,-0.156813383102417,0.0034856698475778103,0.0008969858754426241,-0.012040876783430576,-1,0,-1000,4,1,-12,0,-3,-154,599870,599.8699951171875,0.0,1500.0
13:05:14.769,AUTO,-35.3632617,149.1652357,15930,0.00980946235358715,0.006798414513468742,-0.156813383102417,0.0034856698475778103,0.0008969858754426241,-0.012040876783430576,-1,0,-1000,4,1,-12,0,-3,-154,599870,599.8699951171875,0.0,1500.0
13:05:14.970,AUTO,-35.3632617,149.1652357,15930,0.00980946235358715,0.006798414513468742,-0.156813383102417,0.0034856698475778103,0.0008969858754426241,-0.012040876783430576,-1,0,-1000,4,1,-12,0,-3,-154,599870,599.8699951171875,0.0,1500.0
13:05:15.171,AUTO,-35.3632617,149.1652357,15930,0.00980946235358715,0.006798414513468742,-0.156813383102417,0.0034856698475778103,0.0008969858754426241,-0.012040876783430576,-1,0,-1000,4,1,-12,0,-3,-154,599870,599.8699951171875,0.0,1500.0
13:05:15.373,AUTO,-35.3632616,149.1652355,17101,0.009036538191139698,0.00591113930568099,-0.16574759781360626,-0.005207967013120651,-0.0010476657189428806,-0.01211273018270731,0,0,-1000,-4,0,-12,-2,2,-153,601040,601.0399780273438,0.0,1500.0
13:05:15.574,AUTO,-35.3632616,149.1652355,17493,0.007934675551950932,0.005546800792217255,-0.1687668114900589,-0.0032743443734943867,-0.001713781850412488,-0.011733842082321644,0,0,-1000,-2,-1,-11,-2,3,-153,601430,601.4299926757812,0.0,1500.0
13:05:15.775,AUTO,-35.3632616,149.1652355,17884,0.006714894436299801,0.005126350559294224,-0.17208822071552277,-0.005073169246315956,-0.00035989220486953855,-0.014070983976125717,0,0,-1000,-4,0,-14,-2,4,-153,601820,601.8200073242188,0.0,1500.0
13:05:15.976,AUTO,-35.3632616,149.1652356,18275,0.005421106703579426,0.004750386346131563,-0.17566384375095367,-0.005247312132269144,-0.0006997566088102758,-0.015194508247077465,0,0,-1000,-4,0,-15,-3,5,-154,602210,602.2099609375,0.0,1500.0
13:05:16.177,AUTO,-35.3632616,149.1652357,18666,0.004471126478165388,0.004343410488218069,-0.1794431209564209,-0.001975734019652009,-0.0011543387081474066,-0.015433945693075657,0,0,-1000,-1,0,-15,-3,5,-154,602600,602.5999755859375,0.0,1500.0
13:05:16.378,AUTO,-35.3632616,149.1652357,18666,0.004471126478165388,0.004343410488218069,-0.1794431209564209,-0.001975734019652009,-0.0011543387081474066,-0.015433945693075657,0,0,-1000,-1,0,-15,-3,5,-154,602600,602.5999755859375,0.0,1500.0
13:05:16.578,AUTO,-35.3632616,149.1652358,19060,0.0037004193291068077,0.003978150896728039,-0.18354402482509613,-0.002408387139439583,-0.00035233693779446185,-0.017178582027554512,0,0,-1000,-1,0,-17,-3,5,-154,603000,603.0,0.0,1500.0
13:05:16.780,AUTO,-35.3632616,149.1652358,19060,0.0037004193291068077,0.003978150896728039,-0.18354402482509613,-0.002408387139439583,-0.00035233693779446185,-0.017178582027554512,0,0,-1000,-1,0,-17,-3,5,-154,603000,603.0,0.0,1500.0
13:05:16.981,AUTO,-35.3632616,149.1652358,19060,0.0037004193291068077,0.003978150896728039,-0.18354402482509613,-0.002408387139439583,-0.00035233693779446185,-0.017178582027554512,0,0,-1000,-1,0,-17,-3,5,-154,603000,603.0,0.0,1500.0
13:05:17.184,AUTO,-35.3632616,149.1652358,19060,0.0037004193291068077,0.003978150896728039,-0.18354402482509613,-0.002408387139439583,-0.00035233693779446185,-0.017178582027554512,0,0,-1000,-1,0,-17,-3,5,-154,603000,603.0,0.0,1500.0
13:05:17.387,AUTO,-35.3632617,149.1652361,20231,0.002327126683667302,0.0036802198737859726,-0.19737738370895386,-0.0005547920591197908,-0.00018385588191449642,-0.019298171624541283,0,0,-1000,0,0,-19,-3,5,-154,604170,604.1699829101562,0.0,1500.0
13:05:17.589,AUTO,-35.3632617,149.1652361,20622,0.0022047897800803185,0.0034707696177065372,-0.2021554410457611,0.0011449562152847648,-0.0015640155179426074,-0.020864306017756462,0,0,-1000,1,0,-21,-3,5,-154,604560,604.5599975585938,0.0,1500.0
13:05:17.790,AUTO,-35.3632617,149.1652362,21014,0.0019868265371769667,0.0033862097188830376,-0.20713521540164948,-0.0003508177469484508,-0.0001397784799337387,-0.020736994221806526,0,0,-1000,0,0,-20,-3,4,-154,604950,604.9500122070312,0.0,1500.0
13:05:17.991,AUTO,-35.3632617,149.1652363,21406,0.00229645031504333,0.00313288695178926,-0.2119203507900238,0.0020664248149842024,-0.000684392056427896,-0.019955147057771683,0,0,-1000,2,0,-20,-2,4,-154,605340,605.3399658203125,0.0,1500.0
13:05:18.193,AUTO,-35.3632617,149.1652363,21798,0.0020290366373956203,0.0030382846016436815,-0.2168745994567871,-0.0002102143771480769,0.0005770072457380593,-0.022120963782072067,0,0,-1000,0,1,-22,-2,4,-154,605730,605.72998046875,0.0,1500.0
13:05:18.394,AUTO,-35.3632618,149.1652364,22188,0.0022819614969193935,0.002967651467770338,-0.22176703810691833,0.001904041739180684,-2.933730138465762e-05,-0.021466104313731194,0,0,-1000,0,1,-22,-2,4,-154,606120,605.72998046875,0.0,1500.0
13:05:18.596,AUTO,-35.3632618,149.1652364,22188,0.0022819614969193935,0.002967651467770338,-0.22176703810691833,0.001904041739180684,-2.933730138465762e-05,-0.021466104313731194,0,0,-1000,2,0,-21,-2,4,-154,606120,606.1199951171875,0.0,1500.0
13:05:18.798,AUTO,-35.3632618,149.1652364,22188,0.0022819614969193935,0.002967651467770338,-0.22176703810691833,0.001904041739180684,-2.933730138465762e-05,-0.021466104313731194,0,0,-1000,2,0,-21,-2,4,-154,606120,606.1199951171875,0.0,1500.0
13:05:18.999,AUTO,-35.3632618,149.1652364,22188,0.0022819614969193935,0.002967651467770338,-0.22176703810691833,0.001904041739180684,-2.933730138465762e-05,-0.021466104313731194,0,0,-1000,2,0,-21,-2,4,-154,606120,606.1199951171875,0.0,1500.0
13:05:19.200,AUTO,-35.3632618,149.1652365,23362,0.001798013225197792,0.0032442528754472733,-0.23709332942962646,0.000524523202329874,-0.0005844462430104613,-0.017834242433309555,0,0,-1000,1,0,-18,-2,3,-154,607300,607.2999877929688,0.0,1500.0
13:05:19.401,AUTO,-35.3632618,149.1652366,23758,0.0020425624679774046,0.0028924935031682253,-0.24192018806934357,0.0004106202395632863,-0.0019004382193088531,-0.019295312464237213,0,0,-1000,0,0,-19,-2,3,-154,607690,607.6900024414062,0.0,1500.0
13:05:19.603,AUTO,-35.3632618,149.1652366,23758,0.0020425624679774046,0.0028924935031682253,-0.24192018806934357,0.0004106202395632863,-0.0019004382193088531,-0.019295312464237213,0,0,-1000,0,0,-19,-2,3,-154,607690,607.6900024414062,0.0,1500.0
13:05:19.804,AUTO,-35.3632618,149.1652366,24150,0.002024940215051174,0.002510260557755828,-0.2466430813074112,-0.0013051731511950493,7.615122012794018e-05,-0.022852256894111633,0,0,-1000,0,0,-23,-2,3,-154,608090,608.0899658203125,0.0,1500.0
13:05:20.005,AUTO,-35.3632618,149.1652367,24542,0.0018649959238246083,0.002384625608101487,-0.25129979848861694,0.0018491928931325674,-0.0005170348449610174,-0.01898263953626156,0,0,-1000,2,0,-19,-2,3,-154,608480,608.47998046875,0.0,1500.0
13:05:20.206,AUTO,-35.3632619,149.1652367,24932,0.0021575542632490396,0.002627783454954624,-0.2563418745994568,0.0018537826836109161,0.0024189790710806847,-0.020154282450675964,0,0,-1000,2,3,-20,-2,2,-154,608870,608.8699951171875,0.0,1500.0
13:05:20.407,AUTO,-35.3632619,149.1652367,25323,-0.006094553042203188,0.003972739912569523,-0.2589070200920105,-0.06952368468046188,0.012236672453582287,0.005976567044854164,0,0,-994,-68,13,5,-2,2,-153,609260,609.260009765625,0.0,1500.0
13:05:20.608,AUTO,-35.3632619,149.1652367,25323,-0.006094553042203188,0.003972739912569523,-0.2589070200920105,-0.06952368468046188,0.012236672453582287,0.005976567044854164,0,0,-994,-68,13,5,-2,2,-153,609260,609.260009765625,0.0,1500.0
13:05:20.810,AUTO,-35.3632619,149.1652367,25323,-0.006094553042203188,0.003972739912569523,-0.2589070200920105,-0.06952368468046188,0.012236672453582287,0.005976567044854164,0,0,-994,-68,13,5,-2,2,-153,609260,609.260009765625,0.0,1500.0
13:05:21.012,AUTO,-35.3632619,149.1652367,25323,-0.006094553042203188,0.003972739912569523,-0.2589070200920105,-0.06952368468046188,0.012236672453582287,0.005976567044854164,0,0,-994,-68,13,5,-2,2,-153,609260,609.260009765625,0.0,1500.0
13:05:21.212,AUTO,-35.3632621,149.1652366,26493,0.0054392036981880665,0.004091628361493349,-0.24443073570728302,0.025933312252163887,-0.0028447958175092936,0.02818000502884388,0,1,-1000,26,-1,28,-5,-1,-154,610430,610.4299926757812,0.0,1500.0
13:05:21.414,AUTO,-35.3632622,149.1652365,26883,0.009861373342573643,0.002951039932668209,-0.2373460829257965,0.011363858357071877,-0.005538556259125471,0.026998814195394516,0,0,-999,12,-4,26,-5,0,-154,610820,610.8200073242188,0.0,1500.0
13:05:21.615,AUTO,-35.3632622,149.1652365,26883,0.009861373342573643,0.002951039932668209,-0.2373460829257965,0.011363858357071877,-0.005538556259125471,0.026998814195394516,0,0,-999,12,-4,26,-5,0,-154,610820,610.8200073242188,0.0,1500.0
13:05:21.816,AUTO,-35.3632623,149.1652365,27273,0.011595118790864944,0.0017647272907197475,-0.23063142597675323,0.004652794916182756,-0.0032071764580905437,0.026715807616710663,0,0,-999,5,-2,26,-4,2,-154,611210,611.2099609375,0.0,1500.0
13:05:22.017,AUTO,-35.3632623,149.1652366,27664,0.011262433603405952,0.0009357629460282624,-0.2241315394639969,-0.002360542770475149,1.8251652363687754e-05,0.02610495686531067,0,0,-999,-1,1,26,-3,4,-154,611600,611.5999755859375,0.0,1500.0
13:05:22.219,AUTO,-35.3632624,149.1652366,28054,0.009981594979763031,0.0008296414162032306,-0.21805645525455475,-0.00780764315277338,-0.0006163619691506028,0.022188769653439522,0,0,-999,-7,0,21,-2,6,-153,611990,611.989990234375,0.0,1500.0
13:05:22.420,AUTO,-35.3632624,149.1652367,28443,0.00804048776626587,0.0009235285106115043,-0.21250641345977783,-0.00618606386706233,0.0008135983953252435,0.021430937573313713,0,0,-1000,-5,1,21,-2,7,-153,612380,612.3800048828125,0.0,1500.0
13:05:22.621,AUTO,-35.3632624,149.1652367,28443,0.00804048776626587,0.0009235285106115043,-0.21250641345977783,-0.00618606386706233,0.0008135983953252435,0.021430937573313713,0,0,-1000,-5,1,21,-2,7,-153,612380,612.3800048828125,0.0,1500.0
13:05:22.822,AUTO,-35.3632624,149.1652367,28443,0.00804048776626587,0.0009235285106115043,-0.21250641345977783,-0.00618606386706233,0.0008135983953252435,0.021430937573313713,0,0,-1000,-5,1,21,-2,7,-153,612380,612.3800048828125,0.0,1500.0
13:05:23.023,AUTO,-35.3632624,149.1652367,28443,0.00804048776626587,0.0009235285106115043,-0.21250641345977783,-0.00618606386706233,0.0008135983953252435,0.021430937573313713,0,0,-1000,-5,1,21,-2,7,-153,612380,612.3800048828125,0.0,1500.0
13:05:23.224,AUTO,-35.3632624,149.1652367,28443,0.00804048776626587,0.0009235285106115043,-0.21250641345977783,-0.00618606386706233,0.0008135983953252435,0.021430937573313713,0,0,-1000,-5,1,21,-2,7,-153,612380,612.3800048828125,0.0,1500.0
13:05:23.425,AUTO,-35.3632624,149.1652374,30001,0.000861506734509021,0.0018957169959321618,-0.19233591854572296,-0.006085168570280075,0.0010166659485548735,0.020544501021504402,0,-1,-1000,-5,2,20,0,7,-153,613940,613.9400024414062,0.0,1500.0
13:05:23.626,AUTO,-35.3632624,149.1652374,30001,0.000861506734509021,0.0018957169959321618,-0.19233591854572296,-0.006085168570280075,0.0010166659485548735,0.020544501021504402,0,-1,-1000,-5,2,20,0,7,-153,613940,613.9400024414062,0.0,1500.0
13:05:23.827,AUTO,-35.3632624,149.1652376,30394,-9.806131856748834e-05,0.0020206449553370476,-0.18783989548683167,0.0008828766876831651,0.001988136675208807,0.01851489022374153,0,-1,-1000,1,2,18,0,7,-153,614330,614.3299560546875,0.0,1500.0
13:05:24.028,AUTO,-35.3632624,149.1652377,30784,-0.0005255809519439936,0.0018404327565804124,-0.18355301022529602,-8.871819591149688e-05,-0.0012943441979587078,0.017273392528295517,0,-1,-1001,0,0,17,0,6,-154,614720,614.719970703125,0.0,1500.0
13:05:24.229,AUTO,-35.3632624,149.1652378,31173,-0.0008292215061374009,0.0016371903475373983,-0.17930935323238373,-0.004908059258013964,-0.0007627520244568586,0.016418831422924995,0,-1,-1000,-3,0,16,0,5,-154,615110,615.1099853515625,0.0,1500.0
13:05:24.430,AUTO,-35.3632624,149.1652379,31563,-0.0007567493012174964,0.0014811112778261304,-0.1751856505870819,0.004720091354101896,-0.00026227778289467096,0.0181147251278162,0,0,-1001,5,0,18,0,4,-154,615500,615.5,0.0,1500.0
13:05:24.631,AUTO,-35.3632624,149.1652379,31563,-0.0007567493012174964,0.0014811112778261304,-0.1751856505870819,0.004720091354101896,-0.00026227778289467096,0.0181147251278162,0,0,-1001,5,0,18,0,4,-154,615500,615.5,0.0,1500.0
13:05:24.833,AUTO,-35.3632624,149.1652379,31563,-0.0007567493012174964,0.0014811112778261304,-0.1751856505870819,0.004720091354101896,-0.00026227778289467096,0.0181147251278162,0,0,-1001,5,0,18,0,4,-154,615500,615.5,0.0,1500.0
13:05:25.034,AUTO,-35.3632624,149.1652379,31563,-0.0007567493012174964,0.0014811112778261304,-0.1751856505870819,0.004720091354101896,-0.00026227778289467096,0.0181147251278162,0,0,-1001,5,0,18,0,4,-154,615500,615.5,0.0,1500.0
13:05:25.236,AUTO,-35.3632623,149.165238,32730,-8.379097380384337e-06,0.0011271609691902995,-0.163778617978096,0.0054373485036194324,0.0016081335488706827,0.01465603057295084,0,0,-1000,6,2,14,0,1,-154,616670,616.6699829101562,0.0,1500.0
13:05:25.437,AUTO,-35.3632623,149.165238,33120,0.00040237538632936776,0.001147893606685102,-0.16021527349948883,-0.000664867227897048,-0.0015408869367092848,0.014657573774456978,0,0,-1000,0,0,14,0,1,-154,617060,617.0599975585938,0.0,1500.0
13:05:25.637,AUTO,-35.3632623,149.165238,33120,0.00040237538632936776,0.001147893606685102,-0.16021527349948883,-0.000664867227897048,-0.0015408869367092848,0.014657573774456978,0,0,-1000,0,0,14,0,1,-154,617060,617.0599975585938,0.0,1500.0
13:05:25.838,AUTO,-35.3632623,149.165238,33510,0.0007204994326457381,0.0011969218030571938,-0.1566450297832489,-0.0015860978746786714,0.0009231232106685638,0.014593097381293774,0,0,-999,-1,2,14,0,0,-154,617450,617.4500122070312,0.0,1500.0
13:05:26.039,AUTO,-35.3632623,149.165238,33900,0.0010989437578245997,0.001213472569361329,-0.1533481329679489,0.005083470605313778,0.0014210845110937953,0.013961234129965305,0,0,-1000,5,2,13,0,0,-154,617840,617.8399658203125,0.0,1500.0
13:05:26.240,AUTO,-35.3632623,149.165238,34291,0.0012552945408970118,0.0012610601261258125,-0.15018124878406525,0.0025442843325436115,0.0005796629702672362,0.013919247314333916,0,0,-1000,3,1,14,0,0,-154,618230,618.22998046875,0.0,1500.0
13:05:26.441,AUTO,-35.3632623,149.165238,34680,0.0012599134352058172,0.0012951039243489504,-0.1472066193819046,-0.006164467893540859,-0.0005765041569247842,0.012289248406887054,0,0,-999,-5,0,12,0,0,-154,618620,618.6199951171875,0.0,1500.0
13:05:26.641,AUTO,-35.3632623,149.165238,34680,0.0012599134352058172,0.0012951039243489504,-0.1472066193819046,-0.006164467893540859,-0.0005765041569247842,0.012289248406887054,0,0,-999,-5,0,12,0,0,-154,618620,618.6199951171875,0.0,1500.0
13:05:26.842,AUTO,-35.3632623,149.165238,34680,0.0012599134352058172,0.0012951039243489504,-0.1472066193819046,-0.006164467893540859,-0.0005765041569247842,0.012289248406887054,0,0,-999,-5,0,12,0,0,-154,618620,618.6199951171875,0.0,1500.0
13:05:27.043,AUTO,-35.3632623,149.165238,34680,0.0012599134352058172,0.0012951039243489504,-0.1472066193819046,-0.006164467893540859,-0.0005765041569247842,0.012289248406887054,0,0,-999,-5,0,12,0,0,-154,618620,618.6199951171875,0.0,1500.0
13:05:27.244,AUTO,-35.3632622,149.1652379,35855,0.001467387075535953,0.0010655950754880905,-0.13861386477947235,0.0017127166502177715,0.0009900247678160667,0.012325655668973923,0,0,-1000,2,2,12,0,0,-154,619790,619.7899780273438,0.0,1500.0
13:05:27.445,AUTO,-35.3632622,149.1652378,36244,0.0017899216618388891,0.0009946589125320315,-0.13604691624641418,0.0036377289798110723,0.0016556188929826021,0.011527160182595253,0,0,-1000,4,2,11,0,0,-154,620180,620.1799926757812,0.0,1500.0
13:05:27.645,AUTO,-35.3632622,149.1652378,36244,0.0017899216618388891,0.0009946589125320315,-0.13604691624641418,0.0036377289798110723,0.0016556188929826021,0.011527160182595253,0,0,-1000,4,2,11,0,0,-154,620180,620.1799926757812,0.0,1500.0
13:05:27.846,AUTO,-35.3632622,149.1652378,36634,0.0020743277855217457,0.001039175782352686,-0.13336293399333954,0.0012975662248209119,0.0001905567478388548,0.013526530005037785,0,0,-1000,2,1,13,0,0,-154,620570,620.5700073242188,0.0,1500.0
13:05:28.047,AUTO,-35.3632622,149.1652378,37024,0.0022522464860230684,0.0011929512256756425,-0.1308896392583847,0.0022143335081636906,0.0024622969795018435,0.009587593376636505,0,0,-1000,3,3,9,0,0,-154,620960,620.9599609375,0.0,1500.0
13:05:28.248,AUTO,-35.3632622,149.1652377,37422,0.0023592167999595404,0.0014981190906837583,-0.12828105688095093,0.0003551912377588451,0.00042667274829000235,0.01005202904343605,0,0,-1000,1,1,9,0,0,-154,621360,621.3599853515625,0.0,1500.0
13:05:28.450,AUTO,-35.3632622,149.1652377,37811,0.00243221502751112,0.001412264071404934,-0.12597838044166565,0.0024621521588414907,0.0005552344955503941,0.009834828786551952,0,0,-1000,3,1,9,0,0,-154,621750,621.75,0.0,1500.0
13:05:28.651,AUTO,-35.3632622,149.1652377,37811,0.00243221502751112,0.001412264071404934,-0.12597838044166565,0.0024621521588414907,0.0005552344955503941,0.009834828786551952,0,0,-1000,3,1,9,0,0,-154,621750,621.75,0.0,1500.0
13:05:28.852,AUTO,-35.3632622,149.1652377,37811,0.00243221502751112,0.001412264071404934,-0.12597838044166565,0.0024621521588414907,0.0005552344955503941,0.009834828786551952,0,0,-1000,3,1,9,0,0,-154,621750,621.75,0.0,1500.0
13:05:29.053,AUTO,-35.3632622,149.1652377,37811,0.00243221502751112,0.001412264071404934,-0.12597838044166565,0.0024621521588414907,0.0005552344955503941,0.009834828786551952,0,0,-1000,3,1,9,0,0,-154,621750,621.75,0.0,1500.0
13:05:29.255,AUTO,-35.3632621,149.1652376,38974,0.0024191972333937883,0.0016887971432879567,-0.1197136640548706,0.0020022273529320955,0.000737470225431025,0.010520153678953648,0,0,-1000,2,1,10,0,0,-154,622910,622.9099731445312,0.0,1500.0
13:05:29.456,AUTO,-35.3632621,149.1652375,39363,0.0024233683943748474,0.0016383342444896698,-0.11751104146242142,-6.339146057143807e-05,0.001859859679825604,0.006781145464628935,0,0,-1000,0,2,6,0,0,-153,623300,623.2999877929688,0.0,1500.0
13:05:29.657,AUTO,-35.3632621,149.1652375,39753,0.002277994994074106,0.00181131053250283,-0.11594077944755554,0.0031758167315274477,0.0007091013249009848,0.009140620008111,0,0,-1000,4,2,9,0,0,-153,623690,623.6900024414062,0.0,1500.0
13:05:29.859,AUTO,-35.3632621,149.1652375,39753,0.002277994994074106,0.00181131053250283,-0.11594077944755554,0.0031758167315274477,0.0007091013249009848,0.009140620008111,0,0,-1000,4,2,9,0,0,-153,623690,623.6900024414062,0.0,1500.0
13:05:30.060,AUTO,-35.3632621,149.1652375,40143,0.0019119522767141461,0.0015435111708939075,-0.11418626457452774,-0.0036402856931090355,0.0004387844819575548,0.008335519582033157,0,0,-999,-2,1,8,0,0,-153,624080,624.0799560546875,0.0,1500.0
13:05:30.261,AUTO,-35.3632621,149.1652375,40534,0.0019145093392580748,0.001509601017460227,-0.11225397139787674,-0.00041936125489883125,-6.276136264204979e-05,0.008005130104720592,0,0,-1000,0,0,8,-1,0,-153,624470,624.469970703125,0.0,1500.0
13:05:30.462,AUTO,-35.3632621,149.1652375,40924,0.002152859466150403,0.001647312892600894,-0.11031309515237808,0.0031290145125240088,-6.523437332361937e-05,0.006884397007524967,0,0,-1001,3,1,6,-1,0,-153,624860,624.8599853515625,0.0,1500.0
13:05:30.663,AUTO,-35.3632621,149.1652375,40924,0.002152859466150403,0.001647312892600894,-0.11031309515237808,0.0031290145125240088,-6.523437332361937e-05,0.006884397007524967,0,0,-1001,3,1,6,-1,0,-153,624860,624.8599853515625,0.0,1500.0
13:05:30.864,AUTO,-35.3632621,149.1652375,40924,0.002152859466150403,0.001647312892600894,-0.11031309515237808,0.0031290145125240088,-6.523437332361937e-05,0.006884397007524967,0,0,-1001,3,1,6,-1,0,-153,624860,624.8599853515625,0.0,1500.0
13:05:31.066,AUTO,-35.3632621,149.1652375,40924,0.002152859466150403,0.001647312892600894,-0.11031309515237808,0.0031290145125240088,-6.523437332361937e-05,0.006884397007524967,0,0,-1001,3,1,6,-1,0,-153,624860,624.8599853515625,0.0,1500.0
13:05:31.267,AUTO,-35.363262,149.1652374,42094,0.002056624973192811,0.001729199313558638,-0.1054031103849411,-0.00021275237668305635,0.0012952534016221762,0.008600002154707909,0,0,-999,0,2,8,-1,0,-153,626030,626.0299682617188,0.0,1500.0
13:05:31.468,AUTO,-35.363262,149.1652374,42483,0.001658136025071144,0.0014285979559645057,-0.10398136079311371,-0.0035186707973480225,-0.0021032521035522223,0.005563940387219191,0,0,-1000,-2,-1,6,-1,1,-153,626420,626.4199829101562,0.0,1500.0
13:05:31.669,AUTO,-35.363262,149.1652374,42871,0.0017718215240165591,0.0013512620935216546,-0.10220251232385635,0.0063086822628974915,0.00042342720553278923,0.008678842335939407,0,0,-1000,7,1,8,-1,0,-153,626810,626.8099975585938,0.0,1500.0
13:05:31.870,AUTO,-35.363262,149.1652374,42871,0.0017718215240165591,0.0013512620935216546,-0.10220251232385635,0.0063086822628974915,0.00042342720553278923,0.008678842335939407,0,0,-1000,7,1,8,-1,0,-153,626810,626.8099975585938,0.0,1500.0
13:05:32.071,AUTO,-35.363262,149.1652374,43261,0.0019664186984300613,0.0014437175123021007,-0.10040751844644547,0.0017801611684262753,0.0024621044285595417,0.007575111463665962,0,0,-999,2,3,7,-1,0,-153,627200,627.2000122070312,0.0,1500.0
13:05:32.272,AUTO,-35.363262,149.1652374,43652,0.002064688829705119,0.0014676207210868597,-0.09902626276016235,-0.001811229158192873,0.00025647436268627644,0.00817817822098732,0,0,-999,0,1,8,-1,0,-153,627590,627.5899658203125,0.0,1500.0
13:05:32.473,AUTO,-35.363262,149.1652373,44042,0.002107504289597273,0.0013312451774254441,-0.09745155274868011,0.002695685951039195,-0.0018406647723168135,0.006273952778428793,0,0,-1001,3,0,6,-1,1,-153,627980,627.97998046875,0.0,1500.0
13:05:32.674,AUTO,-35.363262,149.1652373,44042,0.002107504289597273,0.0013312451774254441,-0.09745155274868011,0.002695685951039195,-0.0018406647723168135,0.006273952778428793,0,0,-1001,3,0,6,-1,1,-153,627980,627.97998046875,0.0,1500.0
13:05:32.875,AUTO,-35.363262,149.1652373,44042,0.002107504289597273,0.0013312451774254441,-0.09745155274868011,0.002695685951039195,-0.0018406647723168135,0.006273952778428793,0,0,-1001,3,0,6,-1,1,-153,627980,627.97998046875,0.0,1500.0
13:05:33.077,AUTO,-35.363262,149.1652373,44042,0.002107504289597273,0.0013312451774254441,-0.09745155274868011,0.002695685951039195,-0.0018406647723168135,0.006273952778428793,0,0,-1001,3,0,6,-1,1,-153,627980,627.97998046875,0.0,1500.0
13:05:33.278,AUTO,-35.363262,149.1652373,45213,0.002039443701505661,0.0012487017083913088,-0.09310588240623474,-0.0014259811723604798,0.0006851265206933022,0.005200054496526718,0,0,-1000,0,1,5,-1,1,-153,629150,629.1499633789062,0.0,1500.0
13:05:33.479,AUTO,-35.363262,149.1652373,45602,0.0018160796025767922,0.0012238810304552317,-0.09174416959285736,-0.0005267417291179299,0.00023380876518785954,0.005202179774641991,0,0,-1000,0,1,5,-1,1,-153,629540,629.5399780273438,0.0,1500.0
13:05:33.680,AUTO,-35.363262,149.1652373,45992,0.0018254636088386178,0.001169396797195077,-0.0903928130865097,0.002337444107979536,0.0014098341343924403,0.006520077586174011,0,0,-1000,3,2,6,-1,1,-153,629930,629.9299926757812,0.0,1500.0
13:05:33.881,AUTO,-35.363262,149.1652373,45992,0.0018254636088386178,0.001169396797195077,-0.0903928130865097,0.002337444107979536,0.0014098341343924403,0.006520077586174011,0,0,-1000,3,2,6,-1,1,-153,629930,629.9299926757812,0.0,1500.0
13:05:34.082,AUTO,-35.363262,149.1652373,46381,0.001673491788096726,0.0012136173900216818,-0.08887220919132233,0.0009464520262554288,-0.0007941806688904762,0.008783319965004921,0,0,-1000,1,0,9,-1,1,-153,630320,630.3200073242188,0.0,1500.0
13:05:34.283,AUTO,-35.363262,149.1652373,46779,0.0016403677873313427,0.0011639477452263236,-0.08747109025716782,0.0007246381137520075,0.0005728491814807057,0.005042820703238249,0,0,-1001,1,1,5,-1,1,-153,630710,630.7099609375,0.0,1500.0
13:05:34.485,AUTO,-35.363262,149.1652373,47168,-0.002022609580308199,0.00424892408773303,-0.07904205471277237,-0.05577543377876282,0.05155296251177788,0.11332008987665176,0,0,-975,-54,52,113,-1,0,-151,631100,631.0999755859375,0.0,1500.0
13:05:34.686,AUTO,-35.363262,149.1652373,47168,-0.002022609580308199,0.00424892408773303,-0.07904205471277237,-0.05577543377876282,0.05155296251177788,0.11332008987665176,0,0,-975,-54,52,113,-1,0,-151,631100,631.0999755859375,0.0,1500.0
13:05:34.888,AUTO,-35.363262,149.1652373,47168,-0.002022609580308199,0.00424892408773303,-0.07904205471277237,-0.05577543377876282,0.05155296251177788,0.11332008987665176,0,0,-975,-54,52,113,-1,0,-151,631100,631.0999755859375,0.0,1500.0
13:05:35.090,AUTO,-35.363262,149.1652373,47168,-0.002022609580308199,0.00424892408773303,-0.07904205471277237,-0.05577543377876282,0.05155296251177788,0.11332008987665176,0,0,-975,-54,52,113,-1,0,-151,631100,631.0999755859375,0.0,1500.0
13:05:35.292,AUTO,-35.3632627,149.1652364,48228,-0.054181698709726334,0.05428815633058548,0.21728967130184174,0.06742875277996063,-0.18834206461906433,0.31533119082450867,4,7,-939,68,-187,315,-28,-29,-121,632160,632.1599731445312,0.0,1500.0
13:05:35.493,AUTO,-35.3632633,149.1652355,48517,-0.02659507654607296,0.0043720668181777,0.2750992178916931,0.1119941994547844,-0.19631467759609222,0.15923656523227692,4,9,-944,112,-195,159,-31,-37,-106,632450,632.4500122070312,0.0,1500.0
13:05:35.694,AUTO,-35.3632639,149.1652344,48772,8.906280709197745e-05,-0.03274012356996536,0.30106034874916077,0.10296067595481873,-0.11045704036951065,0.06675361096858978,4,11,-951,103,-109,66,-26,-37,-93,632710,632.7099609375,0.0,1500.0
13:05:35.895,AUTO,-35.3632639,149.1652344,48772,8.906280709197745e-05,-0.03274012356996536,0.30106034874916077,0.10296067595481873,-0.11045704036951065,0.06675361096858978,4,11,-951,103,-109,66,-26,-37,-93,632710,632.7099609375,0.0,1500.0
13:05:36.096,AUTO,-35.3632644,149.1652335,48996,0.02023179829120636,-0.05055362731218338,0.30840474367141724,0.06840750575065613,-0.043496023863554,0.014766254462301731,2,7,-957,69,-42,14,-17,-29,-82,632930,632.9299926757812,0.0,1500.0
13:05:36.297,AUTO,-35.3632647,149.1652328,49192,0.03335537761449814,-0.05513635650277138,0.3063538670539856,0.03181292489171028,-0.0014007375575602055,-0.015395911410450935,0,5,-963,32,0,-14,-7,-18,-72,633130,633.1300048828125,0.0,1500.0
13:05:36.498,AUTO,-35.3632647,149.1652324,49364,0.039637189358472824,-0.051234908401966095,0.29994073510169983,0.03468768298625946,0.02680637128651142,-0.029306024312973022,0,3,-969,35,27,-28,1,-5,-63,633300,633.2999877929688,0.0,1500.0
13:05:36.699,AUTO,-35.3632647,149.1652324,49364,0.039637189358472824,-0.051234908401966095,0.29994073510169983,0.03468768298625946,0.02680637128651142,-0.029306024312973022,0,3,-969,35,27,-28,1,-5,-63,633300,633.2999877929688,0.0,1500.0
13:05:36.900,AUTO,-35.3632647,149.1652324,49364,0.039637189358472824,-0.051234908401966095,0.29994073510169983,0.03468768298625946,0.02680637128651142,-0.029306024312973022,0,3,-969,35,27,-28,1,-5,-63,633300,633.2999877929688,0.0,1500.0
13:05:37.102,AUTO,-35.3632647,149.1652324,49364,0.039637189358472824,-0.051234908401966095,0.29994073510169983,0.03468768298625946,0.02680637128651142,-0.029306024312973022,0,3,-969,35,27,-28,1,-5,-63,633300,633.2999877929688,0.0,1500.0
13:05:37.303,AUTO,-35.363264,149.165233,49767,0.03468596190214157,-0.01999581977725029,0.2731105387210846,0.2373916357755661,0.04106421396136284,-0.03370527923107147,-3,5,-980,239,42,-33,18,23,-44,633700,633.7000122070312,0.0,1500.0
13:05:37.504,AUTO,-35.3632636,149.1652336,49870,0.025677718222141266,-0.00976651068776846,0.26399537920951843,-0.1701669842004776,0.04120059683918953,-0.038031209260225296,-2,-28,-963,-175,42,-37,20,28,-38,633810,633.8099975585938,0.0,1500.0
13:05:37.705,AUTO,-35.3632631,149.1652344,49956,0.011912709102034569,-0.0007297380361706018,0.2551591992378235,-0.5977379083633423,0.03638948127627373,-0.03333733230829239,-2,-40,-972,-599,37,-33,20,30,-31,633890,633.8900146484375,0.0,1500.0
13:05:37.905,AUTO,-35.3632626,149.1652352,50028,0.0038990031462162733,0.0066238087601959705,0.2469027042388916,-0.5110589861869812,0.026165058836340904,-0.028637710958719254,-2,-40,-972,-599,37,-33,19,31,-26,633960,633.8900146484375,0.0,1500.0
13:05:38.107,AUTO,-35.3632626,149.1652352,50028,0.0038990031462162733,0.0066238087601959705,0.2469027042388916,-0.5110589861869812,0.026165058836340904,-0.028637710958719254,-1,-14,-975,-506,27,-28,19,31,-26,633960,633.9599609375,0.0,1500.0
13:05:38.308,AUTO,-35.3632622,149.165236,50086,0.00398095790296793,0.011683258228003979,0.2394215166568756,0.07799509167671204,0.01703464984893799,-0.02649647556245327,-2,11,-983,86,18,-26,16,30,-22,634020,634.0199584960938,0.0,1500.0
13:05:38.509,AUTO,-35.3632618,149.1652367,50130,0.007684002164751291,0.014543544501066208,0.2316063940525055,0.6253328323364258,0.009195493534207344,-0.024317946285009384,0,24,-990,630,10,-23,14,28,-17,634070,634.0700073242188,0.0,1500.0
13:05:38.710,AUTO,-35.3632618,149.1652367,50130,0.007684002164751291,0.014543544501066208,0.2316063940525055,0.6253328323364258,0.009195493534207344,-0.024317946285009384,0,24,-990,630,10,-23,14,28,-17,634070,634.0700073242188,0.0,1500.0
13:05:38.912,AUTO,-35.3632618,149.1652367,50130,0.007684002164751291,0.014543544501066208,0.2316063940525055,0.6253328323364258,0.009195493534207344,-0.024317946285009384,0,24,-990,630,10,-23,14,28,-17,634070,634.0700073242188,0.0,1500.0
13:05:39.113,AUTO,-35.3632618,149.1652367,50130,0.007684002164751291,0.014543544501066208,0.2316063940525055,0.6253328323364258,0.009195493534207344,-0.024317946285009384,0,24,-990,630,10,-23,14,28,-17,634070,634.0700073242188,0.0,1500.0
13:05:39.314,AUTO,-35.363261,149.1652383,50159,-0.033779509365558624,0.041291847825050354,0.20983077585697174,-0.7782222032546997,0.03158978372812271,-0.011747048236429691,0,-50,-936,-785,32,-11,2,12,10,634090,634.0899658203125,0.0,1500.0
13:05:39.515,AUTO,-35.363261,149.1652384,50118,-0.032245758920907974,0.022882912307977676,0.2057957798242569,-0.818647027015686,-0.1334466189146042,-0.012520844116806984,1,-39,-999,-821,-132,-12,-3,3,15,634050,634.0499877929688,0.0,1500.0
13:05:39.716,AUTO,-35.3632611,149.1652382,50074,-0.023237980902194977,-0.011592747643589973,0.20226003229618073,-1.0671640634536743,-0.12468934804201126,-0.012189718894660473,0,-50,-995,-1073,-123,-11,-3,-2,15,634010,634.010009765625,0.0,1500.0
13:05:39.917,AUTO,-35.3632611,149.165238,50031,-0.007797887548804283,-0.03673813119530678,0.1978786438703537,-0.712591290473938,-0.08300118893384933,-0.018113909289240837,-1,-33,-1057,-713,-81,-17,2,-3,9,633970,633.969970703125,0.0,1500.0
13:05:40.118,AUTO,-35.3632611,149.165238,50031,-0.007797887548804283,-0.03673813119530678,0.1978786438703537,-0.712591290473938,-0.08300118893384933,-0.018113909289240837,-1,-33,-1057,-713,-81,-17,2,-3,9,633970,633.969970703125,0.0,1500.0
13:05:40.319,AUTO,-35.363261,149.1652379,50006,-0.0023118380922824144,-0.054907381534576416,0.19290557503700256,-0.47707831859588623,-0.06499988585710526,-0.0242793969810009,0,-4,-1004,-470,-63,-24,13,0,5,633940,633.9400024414062,0.0,1500.0
13:05:40.520,AUTO,-35.3632605,149.1652379,49988,0.006306632421910763,-0.06984394043684006,0.18768152594566345,0.0668565109372139,-0.051876168698072433,-0.026708392426371574,-2,25,-1007,76,-50,-26,27,3,2,633920,633.9199829101562,0.0,1500.0
13:05:40.721,AUTO,-35.3632605,149.1652379,49988,0.006306632421910763,-0.06984394043684006,0.18768152594566345,0.0668565109372139,-0.051876168698072433,-0.026708392426371574,-2,25,-1007,76,-50,-26,27,3,2,633920,633.9199829101562,0.0,1500.0
13:05:40.922,AUTO,-35.3632605,149.1652379,49988,0.006306632421910763,-0.06984394043684006,0.18768152594566345,0.0668565109372139,-0.051876168698072433,-0.026708392426371574,-2,25,-1007,76,-50,-26,27,3,2,633920,633.9199829101562,0.0,1500.0
13:05:41.123,AUTO,-35.3632605,149.1652379,49988,0.006306632421910763,-0.06984394043684006,0.18768152594566345,0.0668565109372139,-0.051876168698072433,-0.026708392426371574,-2,25,-1007,76,-50,-26,27,3,2,633920,633.9199829101562,0.0,1500.0
13:05:41.325,AUTO,-35.3632605,149.1652379,49988,-0.009859100915491581,-0.11091721057891846,0.3802299499511719,-0.42679503560066223,-0.03129950538277626,0.32118284702301025,-2,25,-1007,76,-50,-26,27,3,2,633920,633.9199829101562,0.0,1500.0
13:05:41.527,AUTO,-35.3632543,149.1652394,49954,-0.018487077206373215,-0.11851661652326584,0.42774495482444763,-0.6200655698776245,-0.034778375178575516,0.09695897996425629,-21,-30,-1004,-618,-33,96,113,22,-1,633890,633.8900146484375,0.0,1500.0
13:05:41.728,AUTO,-35.3632543,149.1652394,49954,-0.018487077206373215,-0.11851661652326584,0.42774495482444763,-0.6200655698776245,-0.034778375178575516,0.09695897996425629,-21,-30,-1004,-618,-33,96,113,22,-1,633890,633.8900146484375,0.0,1500.0
13:05:41.929,AUTO,-35.3632516,149.1652402,49952,-0.017592336982488632,-0.12885764241218567,0.43656468391418457,-0.015710411593317986,-0.043710678815841675,-0.03428566828370094,-32,4,-1007,-7,-42,-34,136,28,-2,633890,633.8900146484375,0.0,1500.0
13:05:42.130,AUTO,-35.3632484,149.1652412,49950,-0.0068977451883256435,-0.14233794808387756,0.4280155599117279,0.5298974514007568,-0.05635026469826698,-0.0714702159166336,-34,14,-1011,535,-55,-70,160,33,-1,633890,633.8900146484375,0.0,1500.0
13:05:42.331,AUTO,-35.3632447,149.1652424,49947,-0.003713468788191676,-0.15415766835212708,0.41523948311805725,0.4482708275318146,-0.04453347623348236,-0.06028911471366882,-40,-9,-1000,446,-43,-59,187,38,0,633880,633.8800048828125,0.0,1500.0
13:05:42.531,AUTO,-35.3632403,149.1652437,49942,-0.009349255822598934,-0.16438284516334534,0.40343403816223145,-0.17879174649715424,-0.0403841994702816,-0.03751515969634056,-49,-46,-1003,-183,-39,-37,216,43,0,633880,633.8800048828125,0.0,1500.0
13:05:42.732,AUTO,-35.3632403,149.1652437,49942,-0.009349255822598934,-0.16438284516334534,0.40343403816223145,-0.17879174649715424,-0.0403841994702816,-0.03751515969634056,-49,-46,-1003,-183,-39,-37,216,43,0,633880,633.8800048828125,0.0,1500.0
13:05:42.933,AUTO,-35.3632403,149.1652437,49942,-0.009349255822598934,-0.16438284516334534,0.40343403816223145,-0.17879174649715424,-0.0403841994702816,-0.03751515969634056,-49,-46,-1003,-183,-39,-37,216,43,0,633880,633.8800048828125,0.0,1500.0
13:05:43.135,AUTO,-35.3632403,149.1652437,49942,-0.009349255822598934,-0.16438284516334534,0.40343403816223145,-0.17879174649715424,-0.0403841994702816,-0.03751515969634056,-49,-46,-1003,-183,-39,-37,216,43,0,633880,633.8800048828125,0.0,1500.0
13:05:43.337,AUTO,-35.3632232,149.1652487,49926,0.0010586172575131059,-0.18968120217323303,0.38227319717407227,0.33620041608810425,0.0029754159040749073,-0.05141044408082962,-64,-14,-1012,339,4,-51,307,61,0,633860,633.8599853515625,0.0,1500.0
13:05:43.538,AUTO,-35.3632161,149.1652508,49922,0.007000611629337072,-0.1866147220134735,0.37835150957107544,0.0948750227689743,0.007661078125238419,-0.010733961127698421,-73,-39,-1004,91,9,-10,336,66,0,633860,633.8599853515625,0.0,1500.0
13:05:43.739,AUTO,-35.3632161,149.1652508,49922,0.007000611629337072,-0.1866147220134735,0.37835150957107544,0.0948750227689743,0.007661078125238419,-0.010733961127698421,-73,-39,-1004,91,9,-10,336,66,0,633860,633.8599853515625,0.0,1500.0
13:05:43.940,AUTO,-35.3632084,149.1652529,49921,0.007470959797501564,-0.1884727030992508,0.37419015169143677,-0.32459205389022827,-0.02099486254155636,-0.01947089657187462,-75,-54,-1000,-325,-19,-19,364,70,0,633860,633.8599853515625,0.0,1500.0
13:05:44.141,AUTO,-35.3632002,149.1652553,49919,0.007770533673465252,-0.1947379857301712,0.36954620480537415,-0.042647119611501694,-0.022908180952072144,-0.05800909921526909,-82,-40,-1002,-38,-21,-57,389,78,0,633850,633.8499755859375,0.0,1500.0
13:05:44.341,AUTO,-35.3631913,149.1652578,49916,0.018620504066348076,-0.2002861052751541,0.36604905128479004,0.2975046634674072,-0.025460582226514816,-0.04157651215791702,-92,-24,-1005,299,-24,-41,417,83,0,633850,633.8499755859375,0.0,1500.0
13:05:44.542,AUTO,-35.3631818,149.1652604,49912,0.023905185982584953,-0.20529256761074066,0.36225754022598267,0.06448526680469513,-0.0124979168176651,-0.0001980337838176638,-96,-50,-1002,62,-11,0,444,88,0,633850,633.8499755859375,0.0,1500.0
13:05:44.743,AUTO,-35.3631818,149.1652604,49912,0.023905185982584953,-0.20529256761074066,0.36225754022598267,0.06448526680469513,-0.0124979168176651,-0.0001980337838176638,-96,-50,-1002,62,-11,0,444,88,0,633850,633.8499755859375,0.0,1500.0
13:05:44.945,AUTO,-35.3631818,149.1652604,49912,0.023905185982584953,-0.20529256761074066,0.36225754022598267,0.06448526680469513,-0.0124979168176651,-0.0001980337838176638,-96,-50,-1002,62,-11,0,444,88,0,633850,633.8499755859375,0.0,1500.0
13:05:45.146,AUTO,-35.3631818,149.1652604,49912,0.023905185982584953,-0.20529256761074066,0.36225754022598267,0.06448526680469513,-0.0124979168176651,-0.0001980337838176638,-96,-50,-1002,62,-11,0,444,88,0,633850,633.8499755859375,0.0,1500.0
13:05:45.347,AUTO,-35.3631818,149.1652604,49912,0.023905185982584953,-0.20529256761074066,0.36225754022598267,0.06448526680469513,-0.0124979168176651,-0.0001980337838176638,-96,-50,-1002,62,-11,0,444,88,0,633850,633.8499755859375,0.0,1500.0
13:05:45.549,AUTO,-35.3631378,149.1652726,49892,0.03916658088564873,-0.21650449931621552,0.3478592038154602,-0.08069828152656555,0.06497718393802643,-0.010224232450127602,-91,-53,-1000,-81,66,-9,550,115,0,633830,633.8299560546875,0.0,1500.0
13:05:45.750,AUTO,-35.3631378,149.1652726,49892,0.03916658088564873,-0.21650449931621552,0.3478592038154602,-0.08069828152656555,0.06497718393802643,-0.010224232450127602,-91,-53,-1000,-81,66,-9,550,115,0,633830,633.8299560546875,0.0,1500.0
13:05:45.952,AUTO,-35.3631253,149.1652761,49892,0.041391029953956604,-0.19929848611354828,0.3460054397583008,-0.01586945541203022,0.05641923472285271,-0.018000388517975807,-116,-59,-1013,-14,57,-17,573,121,-3,633830,633.8299560546875,0.0,1500.0
13:05:46.153,AUTO,-35.3631123,149.1652798,49901,0.05163329094648361,-0.1935148537158966,0.3426787257194519,0.11907847225666046,-0.0027404846623539925,-0.025156866759061813,-109,-72,-991,119,-1,-25,591,125,-5,633840,633.8399658203125,0.0,1500.0
13:05:46.354,AUTO,-35.3630991,149.1652835,49913,0.05437295138835907,-0.1926058828830719,0.339659720659256,-0.016949616372585297,0.0069825490936636925,-0.00638216407969594,-126,-70,-993,-16,7,-6,607,129,-5,633850,633.8499755859375,0.0,1500.0
13:05:46.555,AUTO,-35.3630855,149.1652874,49923,0.05351003259420395,-0.1904955506324768,0.3369080424308777,-0.036089807748794556,0.01607654243707657,-0.00729488767683506,-127,-48,-989,-34,17,-7,620,135,-4,633860,633.8599853515625,0.0,1500.0
13:05:46.755,AUTO,-35.3630855,149.1652874,49923,0.05351003259420395,-0.1904955506324768,0.3369080424308777,-0.036089807748794556,0.01607654243707657,-0.00729488767683506,-127,-48,-989,-34,17,-7,620,135,-4,633860,633.8599853515625,0.0,1500.0
13:05:46.956,AUTO,-35.3630855,149.1652874,49923,0.05351003259420395,-0.1904955506324768,0.3369080424308777,-0.036089807748794556,0.01607654243707657,-0.00729488767683506,-127,-48,-989,-34,17,-7,620,135,-4,633860,633.8599853515625,0.0,1500.0
13:05:47.158,AUTO,-35.3630855,149.1652874,49923,0.05351003259420395,-0.1904955506324768,0.3369080424308777,-0.036089807748794556,0.01607654243707657,-0.00729488767683506,-127,-48,-989,-34,17,-7,620,135,-4,633860,633.8599853515625,0.0,1500.0
13:05:47.359,AUTO,-35.3630855,149.1652874,49923,0.05351003259420395,-0.1904955506324768,0.3369080424308777,-0.036089807748794556,0.01607654243707657,-0.00729488767683506,-127,-48,-989,-34,17,-7,620,135,-4,633860,633.8599853515625,0.0,1500.0
13:05:47.561,AUTO,-35.3630283,149.1653039,49975,0.06678586453199387,-0.1635531634092331,0.3272368311882019,0.02651863545179367,0.05057840049266815,-0.012317711487412453,-140,-44,-991,27,51,-12,661,146,-5,633910,633.9099731445312,0.0,1500.0
13:05:47.762,AUTO,-35.3630134,149.1653082,49988,0.06123918294906616,-0.1532445251941681,0.32613858580589294,-0.02639595977962017,0.03516104444861412,-0.00515915360301733,-135,-71,-990,-26,36,-5,666,149,-6,633920,633.9199829101562,0.0,1500.0
13:05:47.964,AUTO,-35.3630134,149.1653082,49988,0.06123918294906616,-0.1532445251941681,0.32613858580589294,-0.02639595977962017,0.03516104444861412,-0.00515915360301733,-135,-71,-990,-26,36,-5,666,149,-6,633920,633.9199829101562,0.0,1500.0
13:05:48.164,AUTO,-35.3629984,149.1653126,50003,0.06517336517572403,-0.1464211493730545,0.3238286077976227,0.009108657948672771,0.030858123674988747,-0.005510919261723757,-123,-79,-981,9,32,-4,670,149,-6,633940,633.9400024414062,0.0,1500.0
13:05:48.365,AUTO,-35.3629835,149.165317,50018,0.06933656334877014,-0.14477813243865967,0.32109788060188293,-0.012543278746306896,-0.019154146313667297,-0.002818010514602065,-126,-77,-970,-11,-18,-2,671,149,-5,633950,633.9500122070312,0.0,1500.0
13:05:48.566,AUTO,-35.3629686,149.1653214,50028,0.07135673612356186,-0.1404889076948166,0.3182522654533386,0.048668574541807175,0.012095650658011436,-0.007119894027709961,-144,-73,-990,49,12,-6,672,149,-3,633960,633.9599609375,0.0,1500.0
13:05:48.767,AUTO,-35.3629686,149.1653214,50028,0.07135673612356186,-0.1404889076948166,0.3182522654533386,0.048668574541807175,0.012095650658011436,-0.007119894027709961,-144,-73,-990,49,12,-6,672,149,-3,633960,633.9599609375,0.0,1500.0
13:05:48.968,AUTO,-35.3629686,149.1653214,50028,0.07135673612356186,-0.1404889076948166,0.3182522654533386,0.048668574541807175,0.012095650658011436,-0.007119894027709961,-144,-73,-990,49,12,-6,672,149,-3,633960,633.9599609375,0.0,1500.0
13:05:49.170,AUTO,-35.3629686,149.1653214,50028,0.07135673612356186,-0.1404889076948166,0.3182522654533386,0.048668574541807175,0.012095650658011436,-0.007119894027709961,-144,-73,-990,49,12,-6,672,149,-3,633960,633.9599609375,0.0,1500.0
13:05:49.371,AUTO,-35.3629236,149.1653348,50050,0.065758615732193,-0.13521887362003326,0.31398603320121765,-0.009932580403983593,-0.010068617761135101,0.004243944305926561,-137,-97,-983,-9,-9,4,667,148,0,633990,633.989990234375,0.0,1500.0
13:05:49.572,AUTO,-35.3629087,149.1653392,50046,0.06886681169271469,-0.1409696787595749,0.3117533028125763,0.04847872629761696,-0.020860139280557632,0.003661209950223565,-140,-88,-985,49,-19,4,667,147,1,633980,633.97998046875,0.0,1500.0
13:05:49.773,AUTO,-35.3628937,149.1653437,50037,0.06346657127141953,-0.14231930673122406,0.31050267815589905,-0.08705230057239532,0.02640686184167862,0.01819486729800701,-144,-82,-990,-87,27,18,668,147,2,633970,633.969970703125,0.0,1500.0
13:05:49.974,AUTO,-35.3628937,149.1653437,50037,0.06346657127141953,-0.14231930673122406,0.31050267815589905,-0.08705230057239532,0.02640686184167862,0.01819486729800701,-144,-82,-990,-87,27,18,668,147,2,633970,633.969970703125,0.0,1500.0
13:05:50.175,AUTO,-35.3628786,149.1653481,50028,0.06545848399400711,-0.14079688489437103,0.30876365303993225,-0.03543993458151817,-0.01733947917819023,0.006520688533782959,-126,-76,-986,-33,-16,7,670,147,2,633960,633.9599609375,0.0,1500.0
13:05:50.376,AUTO,-35.3628636,149.1653525,50019,0.06892035156488419,-0.14012140035629272,0.3072070777416229,0.12130633741617203,-0.006373438984155655,0.0005594283575192094,-137,-70,-990,121,-5,1,671,147,1,633950,633.9500122070312,0.0,1500.0
13:05:50.577,AUTO,-35.3628483,149.1653569,50010,0.0681995153427124,-0.13912181556224823,0.30626025795936584,-0.13201552629470825,-0.0029652495868504047,0.014953183941543102,-138,-87,-993,-132,-1,15,673,147,1,633950,633.9500122070312,0.0,1500.0
13:05:50.778,AUTO,-35.3628483,149.1653569,50010,0.0681995153427124,-0.13912181556224823,0.30626025795936584,-0.13201552629470825,-0.0029652495868504047,0.014953183941543102,-138,-87,-993,-132,-1,15,673,147,1,633950,633.9500122070312,0.0,1500.0
13:05:50.979,AUTO,-35.3628483,149.1653569,50010,0.0681995153427124,-0.13912181556224823,0.30626025795936584,-0.13201552629470825,-0.0029652495868504047,0.014953183941543102,-138,-87,-993,-132,-1,15,673,147,1,633950,633.9500122070312,0.0,1500.0
13:05:51.180,AUTO,-35.3628483,149.1653569,50010,0.0681995153427124,-0.13912181556224823,0.30626025795936584,-0.13201552629470825,-0.0029652495868504047,0.014953183941543102,-138,-87,-993,-132,-1,15,673,147,1,633950,633.9500122070312,0.0,1500.0
