time_stamp,MODE,roll,pitch,yaw,rollspeed,pitchspeed,yawspeed,lat,lon,relative_alt,vx,vy,vz,xacc,yacc,zacc,xgyro,ygyro,zgyro,RTL_ALT
11:51:08,STABILIZE,-0.0011478780070319772,0.0009430418722331524,0.024807877838611603,0.00033647636882960796,0.00036188389640301466,0.0019154902547597885,-35.3632621,149.1652375,0.0,-1.0,0.0,0.0,0.0,1.0,-1001.0,2.5,0.0,0.5,1500.0
11:51:14,AUTO,-0.0009246655972674489,0.0009633978479541838,0.02274571917951107,0.0003764079883694649,0.0002691011759452522,0.0015024906024336815,-35.3632622,149.1652375,0.0,-1.0,1.0,0.0,0.0,2.0,-1000.0,0.0,1.0,0.0,144628.5
11:51:16,AUTO,-0.0006427432817872614,0.0011175793479196727,0.022251338697969913,0.00026008416898548603,0.0002668897795956582,0.0014365778770297766,-35.3632621,149.1652375,0.0,0.0,0.0,1.0,0.0,2.0,-1000.0,0.0,0.5,0.0,287757.0
11:51:17,AUTO,-0.00038476304325740784,0.001460730010876432,0.02188450749963522,0.0003467749629635364,0.00027335599588695914,0.0014997297548688948,-35.3632621,149.16523742500002,0.0,0.0,0.0,0.5,0.0,1.5,-1000.0,0.25,0.25,0.5,267389.0
11:51:18,AUTO,-0.00019346066255820915,0.0016836037975735962,0.021630194038152695,0.00025650730822235346,0.00032344466308131814,0.0014573480002582073,-35.3632621,149.1652374,0.0,0.0,0.0,0.0,0.0,1.5,-1000.0,0.5,1.0,1.0,267389.0
11:51:20,AUTO,0.02723577246069908,-0.0017071783659048378,0.021010495722293854,0.04630200378596783,-0.007506153313443065,0.0024280600482597947,-35.36326205,149.1652376,1559.5,0.5,7.0,-145.5,0.0,-0.5,-1012.5,46.0,-6.5,1.5,198151.5
11:51:22,AUTO,-0.03898329474031925,0.01291895005851984,-0.07827067375183105,-0.039181871339678764,-0.019571149721741676,-0.037158203311264515,-35.3632609,149.16524535000002,4619.0,-1.0,31.0,-149.5,4.5,-7.0,-1003.0,-38.0,-18.5,-37.0,128914.0
11:51:23,AUTO,-0.04894814360886812,-0.006510181585326791,-0.09221533313393593,0.05764611344784498,0.0032444483804283664,-0.0036153911278233863,-35.363261075,149.165244325,6540.0,-2.25,-43.25,-149.5,-3.75,6.5,-1001.75,57.75,3.75,-3.5,180747.0
11:51:24,AUTO,-0.001956180902197957,0.00020878156647086143,-0.09504721313714981,0.0664491169154644,0.013317891396582127,0.0016958469641394913,-35.36326135,149.16523985,7696.0,-4.5,-59.0,-151.5,-7.0,13.5,-1003.5,66.5,14.0,0.5,180747.0
11:51:26,AUTO,0.00984735602105502,-0.011628719978034496,-0.07401051744818687,-0.07781868055462837,0.01482940511777997,-0.01928947540000081,-35.3632627,149.165235,10816.0,1.5,22.0,-149.5,2.0,-3.5,-1001.5,-76.5,15.0,-19.0,92463.5
11:51:28,AUTO,0.0009445028845220804,0.006228258833289146,-0.13704965263605118,0.018703248351812363,0.004372468334622681,-0.019043441861867905,-35.36326165,149.16523619999998,13916.5,3.5,-7.0,-153.0,-2.0,0.0,-1000.0,18.5,4.5,-19.0,4180.0
11:51:29,AUTO,0.010506728198379278,0.0068918667966499925,-0.15391060709953308,4.959976649843156e-05,-0.0018430778582114726,-0.009505201131105423,-35.3632615,149.16523542500002,15864.5,-2.25,0.5,-153.0,-0.25,0.0,-999.5,0.75,-0.75,-9.5,263689.0
11:51:30,AUTO,0.00783822895027697,0.005121547728776932,-0.16219189763069153,-0.0037623844109475613,-0.0012841853313148022,-0.012240921147167683,-35.3632615,149.1652354,17032.5,-3.5,4.5,-153.0,0.0,0.0,-1000.0,-2.5,0.0,-12.0,263689.0
11:51:32,AUTO,-0.05229530483484268,0.035105776973068714,-0.1149587593972683,-0.019684450700879097,0.09214694797992706,0.36393824219703674,-35.363261949999995,149.16523535,20117.5,-13.0,-20.0,-143.5,-0.5,2.5,-981.0,-18.0,92.0,363.0,133990.5
11:51:34,AUTO,0.04600808210670948,-0.024549217894673347,0.050326285883784294,-0.03592879790812731,0.034324487671256065,-0.0038889256538823247,-35.363264650000005,149.16523180000002,22253.0,9.0,27.5,-68.5,0.0,-5.0,-973.5,-34.5,34.5,-3.5,4292.0
11:51:35,AUTO,-0.00047203944995999336,0.010287518613040447,0.047383418306708336,-0.021517384564504027,0.015239473665133119,6.0726451920345426e-05,-35.363262725,149.16523645,22921.5,16.5,34.75,-39.75,0.25,-8.75,-977.25,-20.0,15.75,-0.25,2309.0
11:51:36,AUTO,-0.011845496948808432,0.01517060212790966,0.044930992648005486,-0.004804019816219807,-0.0007173265912570059,-0.0027196573792025447,-35.36326165,149.1652388,23155.5,8.5,21.5,-21.5,0.0,-5.0,-973.5,-4.0,0.0,-2.5,2309.0
11:51:38,AUTO,-0.0002922600833699107,-0.06217437423765659,0.03715105354785919,0.44998031109571457,-0.057579416781663895,-0.006065293913707137,-35.36326075,149.1652383,23007.5,22.0,-20.5,8.0,-7.0,14.5,-1020.0,450.0,-56.0,-6.5,130086.0
11:51:40,AUTO,0.03460134379565716,-0.14848069101572037,-0.11181624233722687,0.26409223675727844,-0.04702901467680931,0.03318034950643778,-35.36324329999999,149.16523224999997,22983.0,189.0,-28.5,-4.0,-39.0,-19.5,-1003.5,264.0,-45.5,32.5,257863.0
11:51:41,AUTO,0.038563608191907406,-0.18516632169485092,-0.11219751462340355,0.0782588655129075,-0.004985209146980196,-0.0011343886435497552,-35.3632137,149.16522665,23020.0,335.25,-47.5,-6.25,-66.75,-39.25,-1007.0,79.25,-3.75,-0.75,205087.0
11:51:42,AUTO,0.04510491155087948,-0.1944647878408432,-0.11538590490818024,-0.028529083356261253,-0.015561068430542946,-0.0068140276707708836,-35.36318865,149.16522215,23060.0,418.0,-61.5,-8.0,-84.0,-53.5,-1004.0,-27.5,-14.0,-6.0,205087.0
11:51:44,AUTO,0.06695668771862984,-0.19319505244493484,-0.12221001833677292,-0.008050166303291917,0.027048399671912193,-0.0028710311744362116,-35.3630953,149.16520524999999,23255.0,608.5,-92.5,-16.5,-123.5,-84.5,-1001.0,-7.0,27.5,-2.5,166174.5
11:51:46,AUTO,0.07409317046403885,-0.14258134365081787,-0.12406051531434059,0.013050861656665802,0.034366573207080364,-0.0009292596951127052,-35.36297765,149.165184,23633.0,676.5,-100.5,-18.5,-138.0,-73.5,-985.5,14.0,34.5,-1.0,127262.0
11:51:47,AUTO,0.07916855998337269,-0.1367201767861843,-0.12747026234865189,-0.0058223967789672315,-0.012248679297044873,0.003966777760069817,-35.36290149999999,149.1651702,23829.25,673.5,-99.75,-11.5,-135.75,-68.5,-978.75,-4.5,-11.0,3.75,223396.0
11:51:48,AUTO,0.07906986400485039,-0.1414826288819313,-0.12928282469511032,0.019511097110807896,-0.0069816370960325,-0.00683846790343523,-35.362855800000006,149.16516195,23896.0,678.0,-100.0,-8.5,-139.5,-70.0,-994.0,20.0,-6.0,-6.0,223396.0
11:51:50,AUTO,0.07783123105764389,-0.1322135105729103,-0.13171757012605667,-0.02521528454963118,0.01204176782630384,0.004719386401120573,-35.362733399999996,149.1651397,24109.5,682.5,-101.0,-14.5,-142.0,-89.0,-996.0,-24.0,12.5,4.5,127991.5
11:51:52,AUTO,0.0796244889497757,-0.07433228567242622,-0.13240833580493927,-0.005640105344355106,0.055421022698283195,-0.0034410639200359583,-35.36261195,149.16511745,24424.0,649.5,-94.5,-21.0,-134.5,-71.0,-990.5,-5.0,55.5,-2.5,32587.0
11:51:53,AUTO,0.07595800794661045,-0.014950014126952738,-0.13200095668435097,-0.020636904431739822,0.04516907315701246,-0.0026709485246101394,-35.362543450000004,149.16510505,24639.75,557.25,-80.5,-12.75,-115.25,-69.75,-989.5,-19.25,45.5,-2.25,96785.0
11:51:54,AUTO,0.06985005363821983,0.016510767862200737,-0.13239527493715286,0.03803333267569542,0.040524378418922424,0.00043977098539471626,-35.362507750000006,149.16509865,24719.5,481.5,-67.5,-7.0,-102.5,-57.5,-991.5,39.0,41.0,1.0,96785.0
11:51:56,AUTO,0.041233960539102554,0.05788018926978111,-0.1325705423951149,0.5459177792072296,0.02408368606120348,-0.021723869256675243,-35.36244165,149.1650875,24751.0,254.5,-33.0,-0.5,-52.0,-0.5,-1006.0,547.0,24.5,-21.0,106537.5
11:51:58,AUTO,0.014313585590571165,0.048076700419187546,-0.133538156747818,-0.08630645275115967,-0.021678530611097813,-0.007243220694363117,-35.3624147,149.16508215,24769.0,64.5,-1.0,0.0,-14.5,3.0,-1010.0,-84.5,-20.5,-6.0,116290.0
11:51:59,AUTO,0.017474660649895668,0.022226949222385883,-0.13661551475524902,-0.018461983650922775,-0.023271930869668722,0.0032851878786459565,-35.362411575,149.16508065,24772.75,12.25,9.25,-1.0,-2.25,0.5,-1002.5,-17.0,-21.75,3.5,297112.0
11:52:00,AUTO,0.01251604687422514,0.002800012269290164,-0.13905778527259827,-0.2033003568649292,-0.02879888191819191,0.00724234594963491,-35.3624117,149.16508005,24778.0,0.0,14.0,-0.5,0.0,6.5,-997.5,-201.0,-27.0,7.5,297112.0
11:52:02,RTL,0.013452076818794012,-0.0006590174161829054,-0.14138319343328476,-0.3842838704586029,0.022648323327302933,0.010642326436936855,-35.3624119,149.16507934999998,24790.5,17.0,15.5,-2.0,-1.0,-21.5,-1008.5,-382.0,23.0,11.0,178834.5
11:52:04,RTL,-0.00495626381598413,0.0034038425656035542,-0.13984369486570358,-0.056582190096378326,-0.0052578558679670095,0.00190599518828094,-35.36241095,149.1650808,25554.5,4.5,10.0,-85.0,1.5,-2.5,-1039.5,-54.5,-4.0,2.0,60557.0
11:52:05,RTL,0.0003363617433933541,0.0004370101378299296,-0.1402580663561821,0.030176708009094,-0.00468655358417891,-0.0004776949353981763,-35.3624109,149.1650816,26982.75,0.75,1.25,-135.0,0.0,-0.25,-1033.0,31.75,-3.5,0.25,67306.0
11:52:06,RTL,0.027299342676997185,-0.004323593690060079,-0.14019262045621872,0.042868366464972496,-0.008882539346814156,0.0016831581015139818,-35.3624109,149.16508205,28086.0,3.0,8.5,-148.5,0.0,-1.5,-1004.0,44.5,-7.5,2.5,67306.0
11:52:08,RTL,-0.08385740965604782,0.004856640240177512,-0.2130187526345253,-0.012315643019974232,-0.012802893063053489,-0.027009276673197746,-35.36240905,149.16508925,31124.0,-2.0,0.5,-149.0,1.0,-3.5,-1006.0,-10.0,-11.5,-25.5,144181.5
11:52:10,RTL,0.024944345466792583,0.012683297041803598,-0.22762896120548248,0.06455987691879272,0.007972776889801025,0.0024060598225332797,-35.3624108,149.16508045,34211.5,-24.0,-47.0,-152.0,-4.5,10.5,-1003.0,66.0,8.0,3.0,221057.0
11:52:11,RTL,0.02139300969429314,-0.024786148685961962,-0.18659649416804314,-0.06448927707970142,-0.007745376788079739,0.020816866774111986,-35.3624123,149.16507860000002,36171.25,-3.5,7.75,-149.75,0.75,-1.25,-998.5,-61.75,-7.0,22.0,44456.0
11:52:12,RTL,-0.016166110057383776,-0.0042372639290988445,-0.20798219740390778,-0.020051803905516863,0.029628023505210876,-0.05351238511502743,-35.362411699999996,149.1650795,37329.0,12.0,4.0,-150.5,-1.0,-4.0,-1002.5,-17.5,30.0,-52.0,44456.0
11:52:14,RTL,0.005307308165356517,0.01351078087463975,-0.272855669260025,0.006185895064845681,-0.002140090335160494,-0.012045332696288824,-35.36240995,149.16507875000002,40451.5,-6.0,-5.5,-152.0,-0.5,0.0,-999.0,8.0,-1.0,-10.5,124395.0
11:52:16,RTL,-0.0009989878599299118,0.002609550254419446,-0.29666538536548615,-0.004221832728944719,-0.0022063704673200846,-0.01958264596760273,-35.36241055,149.16507934999998,43566.5,-8.5,5.0,-152.0,1.0,0.0,-1000.0,-2.0,-1.0,-17.5,204334.0
11:52:17,RTL,-0.002858496503904462,0.001970189594430849,-0.32533465325832367,0.0008598151034675539,0.0022156935301609337,-0.02633137535303831,-35.3624108,149.16508005,45517.25,-5.25,2.0,-152.0,0.0,0.0,-1000.0,2.5,3.0,-24.5,230273.0
11:52:18,RTL,-0.0017319886246696115,0.0028055025031790137,-0.34423890709877014,0.0017774858279153705,0.002958203200250864,-0.026254075579345226,-35.3624108,149.16508025000002,46687.5,-4.0,0.5,-153.0,0.0,0.0,-1000.0,3.5,3.5,-24.5,230273.0
11:52:20,RTL,-9.152106940746307e-06,0.0028483180794864893,-0.3881385177373886,-0.0025823083706200123,0.0011064305435866117,-0.02000119350850582,-35.3624109,149.16508055,49802.5,-4.0,1.0,-153.0,0.0,0.0,-1000.0,-0.5,1.5,-18.5,209503.0
11:52:22,RTL,0.0015714988112449646,0.005090723047032952,-0.4191012382507324,0.0049026989145204425,0.005452227545902133,0.00944487052038312,-35.3624109,149.16508084999998,52916.0,-3.5,1.5,-152.0,0.0,0.0,-999.0,6.0,6.0,10.5,188733.0
11:52:23,RTL,0.0005270896044748952,0.0036423393175937235,-0.39059194177389145,-0.004066011286340654,-0.0019763412565225735,0.026202054228633642,-35.362411050000006,149.165081275,54855.75,-4.0,4.25,-152.0,0.25,0.0,-1000.0,-1.75,-0.5,27.0,202688.0
11:52:24,RTL,-0.0017753043211996555,0.001935262291226536,-0.371313139796257,-0.002687976462766528,-0.0005129686906002462,0.024730498902499676,-35.3624111,149.16508165,56018.5,-4.0,3.5,-152.0,0.0,0.0,-1000.0,-1.0,0.5,25.5,202688.0
11:52:26,RTL,-0.0010610800818540156,0.0014739696634933352,-0.330103799700737,0.0018752131727524102,0.0006473208195529878,0.017083249986171722,-35.3624112,149.1650819,59127.5,-2.0,0.0,-152.0,0.0,0.0,-1000.0,3.5,1.5,18.0,119916.5
11:52:28,RTL,0.0008215105626732111,0.0017992981593124568,-0.29976050555706024,0.00027002865681424737,0.00118421163642779,0.014081974048167467,-35.3624111,149.1650816,62232.5,-2.0,0.0,-152.0,0.0,0.0,-999.5,1.5,2.0,15.0,37145.0
11:52:29,RTL,0.0010131528979400173,0.0021553545957431197,-0.2843892499804497,-0.00016363512258976698,0.0005875903443666175,0.011567398207262158,-35.3624111,149.165081375,64175.0,-1.0,0.0,-152.0,0.0,0.0,-1000.0,1.25,1.5,12.5,46368.0
11:52:30,RTL,0.0006750425673089921,0.0022947152610868216,-0.2765365093946457,-0.0005417124484665692,-0.00038516800850629807,0.010619415901601315,-35.3624111,149.1650813,65345.0,-1.5,0.0,-152.0,0.0,0.0,-999.0,1.0,1.0,11.5,46368.0
11:52:32,RTL,0.0011971219792030752,0.0026321287732571363,-0.25932934880256653,0.0001962438109330833,0.0005149635253474116,0.008844007272273302,-35.362411,149.1650812,68443.0,-2.0,0.0,-152.0,0.0,0.0,-1000.0,1.5,1.5,9.5,59473.0
11:52:34,RTL,0.0006277693319134414,0.0020627271151170135,-0.2458425983786583,0.0003986159572377801,0.0003796478849835694,0.009389606304466724,-35.362411,149.1650811,71555.0,-2.0,0.0,-152.0,0.0,0.0,-1000.0,2.0,2.0,10.5,72578.0
11:52:35,RTL,0.0008337274048244581,0.002021585969487205,-0.23869181796908379,0.0012956273567397147,0.0002833389153238386,0.007307876134291291,-35.362411,149.1650811,73499.0,-2.0,0.0,-152.0,0.0,0.0,-1000.0,2.75,1.5,8.25,21184.0
11:52:36,RTL,0.0009161415509879589,0.0017932914197444916,-0.23429514467716217,0.0016163610271178186,0.0012200921773910522,0.006308447336778045,-35.362411,149.1650811,74664.5,-2.0,0.0,-152.0,0.0,0.0,-1000.0,2.5,2.5,7.0,21184.0
11:52:38,RTL,0.0010497088660486042,0.0016621716204099357,-0.2235342562198639,-0.0003742605331353843,0.002300240332260728,0.004819400724954903,-35.362411,149.1650811,77771.0,-1.0,0.0,-152.0,0.0,0.0,-999.5,1.0,3.5,6.0,68215.5
11:52:40,RTL,0.0010865527437999845,0.0016278787516057491,-0.21473302692174911,7.637595990672708e-05,0.0003696297644637525,0.004897565464489162,-35.362411,149.1650811,80872.0,-1.0,1.0,-152.0,0.0,0.0,-1000.0,1.5,2.0,6.0,115247.0
11:52:41,RTL,0.0010526906698942184,0.0018062559829559177,-0.20982995256781578,0.0009174024453386664,0.0006097846780903637,0.004568619537167251,-35.362411,149.1650811,82813.0,-1.0,1.0,-152.0,0.0,0.0,-999.75,2.5,2.0,5.5,243802.0
11:52:42,RTL,0.0010669143521226943,0.0017072730115614831,-0.207221157848835,7.801497122272849e-05,0.0004911879659630358,0.005197769962251186,-35.362411,149.1650811,83977.0,-1.0,1.0,-152.0,0.0,0.0,-999.5,1.5,2.0,6.5,243802.0
11:52:44,RTL,0.0013309639180079103,0.0017208178178407252,-0.20041987299919128,-0.0007416969165205956,0.00020780402701348066,0.0028968711849302053,-35.362411,149.165081,87086.0,-1.0,1.0,-152.0,0.0,0.0,-999.5,0.5,2.0,4.0,145783.0
11:52:46,RTL,0.001136758190114051,0.001707105664536357,-0.19455789774656296,-0.0014727854868397117,-0.001489129674155265,0.002755693334620446,-35.362411,149.165081,90192.0,-1.0,1.0,-152.0,0.0,0.0,-1000.0,0.5,0.5,4.0,47764.0
11:52:47,RTL,0.0011686215875670314,0.0017570321797393262,-0.19123242422938347,0.00046704569831490517,0.0005805710097774863,0.0039983829483389854,-35.362411,149.165081,92136.5,-1.0,1.0,-152.0,0.0,0.0,-999.75,2.0,2.0,5.25,68245.0
11:52:48,RTL,0.001208839297760278,0.001537263742648065,-0.189398393034935,0.0007558712968602777,-0.0003430894576013088,0.00038154289359226823,-35.362411,149.165081,93305.0,-1.0,1.0,-152.0,0.0,0.0,-1000.5,2.5,1.0,1.5,68245.0
11:52:50,RTL,0.0010118042409885675,0.0013106080004945397,-0.18494176119565964,0.0010849668178707361,-0.00041966134449467063,0.004097336437553167,-35.362411,149.165081,96411.0,-1.0,1.0,-152.0,0.0,0.0,-1000.0,2.5,1.0,5.0,73102.5
11:52:52,RTL,0.001318242575507611,0.001436196907889098,-0.18118833005428314,0.0010900585912168026,-5.366734694689512e-05,0.0032675921684131026,-35.362411,149.165081,99510.0,-1.0,0.0,-152.0,0.0,0.0,-1000.0,2.5,1.5,4.5,77960.0
11:52:54,RTL,0.001695229671895504,0.0019426074577495456,-0.17697970569133759,0.002085092826746404,0.00048134231474250555,0.002381503232754767,-35.362411,149.165081,102779.5,-1.0,1.0,-152.0,0.0,0.0,-1000.0,4.0,2.0,3.5,222981.0
11:52:56,RTL,0.0012907461496070027,0.0016884265933185816,-0.17426993697881699,-0.0014472559560090303,6.898120045661926e-05,0.001549342181533575,-35.362411,149.165081,105734.5,-1.0,1.0,-152.0,0.0,0.0,-999.5,1.0,2.0,3.0,222981.0
11:52:57,RTL,0.001356948894681409,0.001604915305506438,-0.17259782180190086,7.414893480017781e-05,0.0004250743368174881,0.0021988632215652615,-35.362411,149.165081,107672.25,-1.0,1.0,-152.0,0.0,0.0,-999.75,2.0,2.25,3.5,59363.0
11:52:58,RTL,0.0012879985733889043,0.0016256670351140201,-0.17177747935056686,0.0003395379171706736,0.0001492858282290399,0.0037545188097283244,-35.362411,149.165081,108838.5,-1.0,1.0,-152.0,0.0,0.0,-999.5,2.0,1.5,5.0,59363.0
11:53:00,RTL,0.0015216136816889048,0.0012205478851683438,-0.16933038085699081,0.0005994323291815817,0.0015394522342830896,0.001122725021559745,-35.362411,149.165081,112098.5,-1.0,1.0,-152.0,0.0,0.0,-1000.0,2.0,3.0,2.5,265832.0
11:53:02,RTL,0.0014453643816523254,0.0014857547357678413,-0.1675964668393135,0.000579129031393677,0.0005583245074376464,0.00021662056678906083,-35.362411,149.165081,115205.5,-1.0,1.0,-152.0,0.0,0.0,-1000.0,2.5,2.0,1.5,265832.0
11:53:03,RTL,0.0013174169580452144,0.0015632064896635711,-0.1665080450475216,0.00010017282329499722,0.0008074745419435203,0.001865191850811243,-35.362411,149.165081,117148.75,-1.0,1.0,-152.0,0.0,0.0,-999.5,1.5,2.25,3.25,129824.0
11:53:04,RTL,0.0013984903343953192,0.0013485383242368698,-0.16590484976768494,-9.113224223256111e-06,3.973004641011357e-05,0.0010489458800293505,-35.362411,149.165081,118316.0,-1.0,1.0,-152.0,0.0,0.0,-1000.0,2.0,1.5,2.5,129824.0
11:53:06,RTL,0.0013638365780934691,0.0015455993125215173,-0.16453571617603302,-0.00021324108820408583,0.00046195811592042446,0.0008343036170117557,-35.362411,149.165081,121421.0,-1.0,1.0,-152.0,0.0,0.0,-1000.5,1.5,2.5,2.0,27698.0
11:53:08,RTL,0.001442631590180099,0.002106794621795416,-0.16312655806541443,0.0002987375482916832,0.001829806831665337,0.0015816227532923222,-35.362411,149.165081,124537.5,-1.0,1.0,-152.0,0.0,0.0,-1000.0,2.0,3.5,3.0,27698.0
11:53:09,RTL,0.0011711972474586219,0.001742656750138849,-0.16176488250494003,0.0007842173799872398,-0.00031964463414624333,0.0012582078925333917,-35.362411,149.165081,126471.25,-1.0,1.0,-152.0,0.0,0.0,-1000.25,2.25,1.25,2.75,126913.0
11:53:10,RTL,0.0014744006330147386,0.0016098867636173964,-0.16149446368217468,0.00023460481315851212,0.0002816250780597329,-0.0006073436234146357,-35.362411,149.165081,127636.0,-1.0,1.0,-152.0,0.0,0.0,-1000.0,2.0,2.0,0.5,126913.0
11:53:12,RTL,0.0013228991883806884,0.0010511561995372176,-0.16043491661548615,0.0002800937509164214,4.714471288025379e-05,0.0014523036079481244,-35.362411,149.165081,130742.5,-1.0,1.0,-152.0,0.0,0.0,-999.5,2.0,2.0,3.0,132058.0
11:53:14,RTL,0.0014280210016295314,0.001522667589597404,-0.15965372323989868,0.0006610661512240767,0.0006251157028600574,0.0002445736899971962,-35.362411,149.165081,133856.5,-1.0,1.0,-152.0,0.0,0.0,-1000.0,2.5,2.5,1.5,132058.0
11:53:15,RTL,0.0014722984924446791,0.0013869170797988772,-0.15928734838962555,0.0006802508723922074,-0.0005114463856443763,0.0019874306162819266,-35.362411,149.165081,135799.25,-1.0,1.0,-152.0,0.0,0.0,-1000.25,2.5,1.0,3.5,272548.0
11:53:16,RTL,0.0012943300534971058,0.0015063089085742831,-0.1594085916876793,-0.0009564979700371623,0.00048088468611240387,0.001349892932921648,-35.362411,149.165081,136967.0,-1.0,1.0,-152.0,0.0,0.0,-999.5,1.0,2.5,2.5,272548.0
11:53:18,RTL,0.0014608323108404875,0.0015824127476662397,-0.1587771400809288,-0.0001995601924136281,0.00043630239088088274,0.001215133466757834,-35.362411,149.165081,140069.5,-1.0,1.0,-152.0,0.0,0.0,-1000.0,1.5,2.5,3.0,5192.0
11:53:20,RTL,0.0013026515953242779,0.0013808608637191355,-0.15802472084760666,-0.0009653540328145027,-0.0008757358300499618,0.0027402418199926615,-35.362411,149.165081,143175.5,-1.0,1.0,-152.0,0.0,0.0,-1000.0,1.0,1.0,4.0,5192.0
11:53:21,RTL,0.0009763003035914153,0.0014829514548182487,-0.1578102447092533,0.0004955236800014973,0.0004699635901488364,0.0008899736276362091,-35.362411,149.165081,145120.25,-1.0,1.0,-152.0,0.0,0.0,-999.75,2.5,2.25,2.5,127002.0
11:53:22,RTL,0.0013397528673522174,0.001303494384046644,-0.15752343833446503,-0.00032246147748082876,-0.0005367296980693936,0.0005507170571945608,-35.362411,149.165081,146286.5,-1.0,1.0,-152.0,0.0,0.0,-1000.0,2.0,1.5,2.0,127002.0
11:53:24,RTL,0.0015822292771190405,0.0019865422509610653,-0.15720397233963013,0.0009096980793401599,0.0006069509545341134,0.0004315756377764046,-35.362411,149.165081,149393.0,-1.0,1.0,-152.0,0.0,0.0,-1000.0,3.0,2.5,2.0,17483.0
11:53:26,RTL,0.001327871170360595,0.0013476491440087557,-0.15616141259670258,0.0009077932918444276,0.0004927563713863492,-0.00014342926442623138,-35.362411,149.165081,152496.0,-1.0,1.0,-152.0,0.0,0.0,-1000.0,3.0,2.5,1.5,17483.0
11:53:27,RTL,0.0013576928176917136,0.0009821374696912244,-0.15609969943761826,0.0007835783180780709,0.0002187179634347558,0.0008402956882491708,-35.362411,149.165081,154442.5,-1.0,1.0,-152.0,0.0,0.0,-1000.0,3.0,2.25,2.75,60355.0
11:53:28,RTL,0.0014686716604046524,0.0013916860334575176,-0.15591538697481155,0.0010275711538270116,0.000882944674231112,0.0019176047062501311,-35.362411,149.165081,155611.0,-0.5,1.0,-152.0,0.0,0.0,-1000.0,3.0,3.0,3.5,60355.0
11:53:30,RTL,0.0014549370971508324,0.0013513187877833843,-0.1557471603155136,0.00038730213418602943,0.0016377689316868782,0.0025258080568164587,-35.362411,149.165081,158714.0,-1.0,1.0,-152.0,0.0,0.0,-999.0,2.5,3.5,4.0,65533.0
11:53:32,RTL,0.001337829336989671,0.0014728413661941886,-0.15560020506381989,0.001106909941881895,-0.00017397955525666475,0.0016792891547083855,-35.362411,149.165081,161820.5,-1.0,1.0,-152.0,0.0,0.0,-1000.0,2.0,2.0,3.0,65533.0
11:53:33,RTL,0.0013993774191476405,0.0014962207351345569,-0.15564710274338722,-0.00032051836024038494,0.0004728492349386215,0.0005561656726058573,-35.362411,149.165081,163569.66666666666,-1.0,1.0,-152.0,0.0,0.0,-999.6666666666666,2.3333333333333335,3.0,2.6666666666666665,229238.0
11:53:34,RTL,0.0013854284770786762,0.0013458399334922433,-0.15581464767456055,0.002116954419761896,0.0008943778229877353,0.0012682732194662094,-35.362411,149.165081,164737.0,-1.0,1.0,-152.0,0.0,0.0,-1000.0,3.0,3.0,2.3333333333333335,229238.0
11:53:36,RTL,0.001364871277473867,0.001502114503333966,-0.15543037156263986,0.0008404006560643514,-0.00017374067101627588,0.002236456610262394,-35.362411,149.165081,167843.0,-1.0,1.0,-152.0,0.0,0.0,-1000.0,3.3333333333333335,2.0,4.0,16756.0
11:53:38,RTL,0.001374104021427532,0.0016235829874252279,-0.15541207790374756,0.0003591591181854407,3.742131715019544e-06,0.0013025285831342142,-35.362411,149.165081,170957.66666666666,-1.0,1.0,-152.0,0.0,0.0,-1000.0,2.3333333333333335,2.0,3.0,16756.0
11:53:39,RTL,0.0013908283241714041,0.0013279462388406198,-0.15529234210650125,0.0008386330058177313,0.0007483030203729868,0.002037524012848735,-35.362411,149.165081,172891.33333333334,-1.0,1.0,-152.0,0.0,0.0,-1000.0,3.0,3.0,4.0,103842.0
11:53:40,RTL,0.0013590951372558873,0.001487260723176102,-0.15521404147148132,4.382602249582609e-05,0.0004594340765227874,0.0008317667525261641,-35.362411,149.165081,174059.33333333334,-1.0,1.0,-152.0,0.0,0.0,-999.3333333333334,2.3333333333333335,2.6666666666666665,2.6666666666666665,103842.0
11:53:42,RTL,0.001363668163927893,0.001357478400071462,-0.1543877770503362,-2.5551610936721167e-06,0.00034199267004927,0.0008124801873539885,-35.362411,149.165081,177171.0,-1.0,1.0,-152.0,0.0,0.0,-999.6666666666666,2.6666666666666665,2.3333333333333335,2.6666666666666665,210640.0
11:53:44,RTL,0.0014166562274719279,0.0014530315141504009,-0.15454193452994028,0.0008885543017337719,0.0006850651310135921,0.0008522346227740248,-35.362411,149.165081,180277.33333333334,-1.0,1.0,-152.0,0.0,0.0,-999.6666666666666,3.3333333333333335,3.0,2.6666666666666665,210640.0
11:53:45,RTL,0.0014581270515918732,0.0014944285697614153,-0.15469390153884888,0.00042254900715003413,0.0008234333557387193,0.0002659996971487999,-35.362411,149.165081,182219.33333333334,-1.0,1.0,-152.0,0.0,0.0,-1000.0,2.3333333333333335,3.3333333333333335,2.0,41810.0
11:53:46,RTL,0.0014569728324810665,0.0013647322387744982,-0.15467078983783722,0.0002604903808484475,0.0005124671539912621,0.00028336870794494945,-35.362411,149.165081,183389.0,-1.0,1.0,-152.0,0.0,0.0,-1000.0,2.6666666666666665,2.6666666666666665,2.3333333333333335,41810.0
11:53:48,RTL,0.0013618847588077188,0.0015151521268611152,-0.15467012921969095,0.0009760005244364341,-8.210182810823123e-05,0.000745730164150397,-35.362411,149.165081,186490.33333333334,-1.0,1.0,-152.0,0.0,0.0,-1000.0,3.3333333333333335,2.3333333333333335,2.6666666666666665,26835.0
11:53:50,RTL,0.0014771177278210719,0.001312799130876859,-0.15451512734095255,-0.0003165395464748144,0.00023493892513215542,-0.00033296279919644195,-35.362411,149.165081,189597.0,-1.0,1.0,-152.0,0.0,0.0,-1000.0,2.0,2.6666666666666665,1.6666666666666667,26835.0
11:53:51,RTL,0.0013766693106542032,0.002034995510863761,-0.15454032023747763,0.0005839235770205656,-0.0001578255711744229,-0.00034788495395332575,-35.362411,149.165081,191541.0,-1.0,1.0,-152.0,0.0,0.0,-1000.3333333333334,3.0,2.0,2.0,293055.0
11:53:52,RTL,0.0012484015120814245,0.0018627555885662634,-0.1545271376768748,0.00018229250175257525,0.00013826259722312292,0.0009442639614765843,-35.362411,149.165081,192707.66666666666,-1.0,1.0,-152.0,0.0,0.0,-999.6666666666666,2.6666666666666665,2.6666666666666665,3.0,293055.0
11:53:54,RTL,0.001351270863475899,0.0014881176951651771,-0.15444629887739816,-0.00026267658298214275,-5.474399464825789e-05,0.0027452926927556596,-35.362411,149.165081,195814.0,-1.0,1.0,-152.0,0.0,0.0,-999.6666666666666,2.3333333333333335,2.3333333333333335,5.0,16542.0
11:53:56,RTL,0.001376500935293734,0.0013682777838160594,-0.15465555091698965,0.001266848761588335,0.0003240789907673995,0.001077971886843443,-35.362411,149.165081,198928.33333333334,-1.0,1.0,-152.0,0.0,0.0,-1000.0,3.6666666666666665,3.0,3.0,16542.0
11:53:57,RTL,0.00115288607776165,0.0015941069771846135,-0.15433553357919058,2.2198849668105442e-05,0.00043745067281027633,0.0023704428846637406,-35.362411,149.165081,200862.33333333334,-1.0,1.0,-152.0,0.0,0.0,-1000.0,2.6666666666666665,2.6666666666666665,4.666666666666667,219281.0
11:53:58,RTL,0.0008359715381326774,0.0014688270166516304,-0.1536684681971868,0.0011412075255066156,-0.0006688838281358281,0.0002892363506058852,-35.362411,149.165081,202032.33333333334,-1.0,1.0,-152.0,0.0,0.0,-1000.3333333333334,3.6666666666666665,1.6666666666666667,2.3333333333333335,219281.0
11:54:00,RTL,0.0013596158629904191,0.0013570351681361597,-0.15411909917990366,0.0014226095906148355,0.0011056556055943172,0.0018275852780789137,-35.362411,149.165081,205134.33333333334,-1.0,1.0,-152.0,0.0,0.0,-999.6666666666666,4.0,3.6666666666666665,4.0,68635.0
11:54:02,RTL,0.0016861392262702186,0.0014110622384275,-0.15404009819030762,-8.614927840729554e-05,0.00027332462680836517,0.00042543521461387474,-35.362411,149.165081,208248.0,-1.0,1.0,-152.0,0.0,0.0,-999.6666666666666,2.6666666666666665,3.0,2.6666666666666665,68635.0
11:54:03,RTL,0.0014123573200777173,0.0014958953252062201,-0.154094527165095,0.0004862905479967594,0.0007679708457241455,0.0004506110368917386,-35.362411,149.165081,210192.33333333334,-1.0,1.0,-152.0,0.0,0.0,-1000.0,3.0,3.3333333333333335,2.3333333333333335,215368.0
11:54:04,RTL,0.0013429402994612853,0.0015056614065542817,-0.15402589738368988,0.0006819038729493817,-0.00013570130492250124,0.0009898664429783821,-35.362411,149.165081,211358.33333333334,-1.0,1.0,-152.0,0.0,0.0,-1000.0,3.0,2.3333333333333335,3.3333333333333335,215368.0
11:54:06,RTL,0.0014530265470966697,0.0013831745988378923,-0.15415547291437784,-0.0005017148020366827,0.0014730165712535381,5.818670615553856e-06,-35.362411,149.165081,214464.66666666666,-1.0,1.0,-152.0,0.0,0.0,-999.6666666666666,2.0,4.0,2.3333333333333335,125299.0
11:54:08,RTL,0.001430609729140997,0.001436485443264246,-0.15408539275328317,9.335942255953948e-05,-0.00017154209005335966,-0.00016484875231981277,-35.362411,149.165081,217568.66666666666,-1.0,1.0,-152.0,0.0,0.0,-1000.0,2.6666666666666665,2.6666666666666665,2.3333333333333335,125299.0
11:54:09,RTL,0.0013345956103876233,0.001487678731791675,-0.1543020953734716,0.0001616325850288073,0.00023124980119367441,0.0011849504274626572,-35.362411,149.165081,219510.33333333334,-1.0,1.0,-152.0,0.0,0.0,-1000.0,2.6666666666666665,3.0,3.3333333333333335,273606.0
11:54:10,RTL,0.0013119860086590052,0.0015884473298986752,-0.1544602910677592,0.0014061654607454936,-1.2133813773592314e-05,0.00038943424200018245,-35.362411,149.165081,220675.66666666666,-1.0,1.0,-152.0,0.0,0.0,-1000.3333333333334,4.0,2.3333333333333335,2.6666666666666665,273606.0
11:54:12,RTL,0.0014762963401153684,0.0014351979286099474,-0.15422083934148154,0.0012731225385020177,0.0003156599123030901,0.0005335675862928232,-35.362411,149.165081,223786.0,-1.0,1.0,-152.0,0.0,0.0,-1000.3333333333334,4.0,3.0,2.6666666666666665,284394.0
11:54:14,RTL,0.0012980944787462552,0.0016180870588868856,-0.15365087489287058,0.0007878556692351898,0.000235753133893013,0.0016650777931014697,-35.362411,149.165081,226890.33333333334,-1.0,1.0,-152.0,0.0,0.0,-999.6666666666666,3.3333333333333335,3.0,4.0,284394.0
11:54:15,RTL,0.0011227238768090804,0.0012774162072067459,-0.15372022489706674,-0.0007605353991190592,0.0007837445009499788,0.0009505086733649174,-35.362411,149.165081,228837.66666666666,-1.0,1.0,-152.0,0.0,0.0,-999.6666666666666,2.0,3.6666666666666665,3.3333333333333335,161909.0
11:54:16,RTL,0.0010466353657344978,0.001327872935992976,-0.15378311276435852,-0.00012970692478120327,0.0008883698998639981,0.0009881430305540562,-35.362411,149.165081,230008.0,-1.0,1.0,-152.0,0.0,0.0,-999.6666666666666,2.6666666666666665,3.6666666666666665,3.6666666666666665,161909.0
11:54:18,RTL,0.0014125843687603872,0.0012758600835998852,-0.15395656724770865,0.0009960279955218236,-0.00048310783070822555,0.0002553608113278945,-35.362411,149.165081,233109.66666666666,-1.0,1.0,-152.0,0.0,0.0,-1000.3333333333334,3.6666666666666665,2.3333333333333335,2.6666666666666665,239534.0
11:54:20,RTL,0.0015705393549675744,0.0014308795410518844,-0.1540683706601461,-0.0011912304908037186,0.00034535668479899567,0.00016950571443885565,-35.362411,149.165081,236213.66666666666,-1.0,1.0,-152.0,0.0,0.0,-999.6666666666666,1.6666666666666667,3.3333333333333335,2.6666666666666665,239534.0
11:54:21,RTL,0.0014085239187503855,0.001399161604543527,-0.1539689302444458,0.00040237644376854104,-4.917103797197342e-05,0.0011610467142115037,-35.362411,149.165081,238163.33333333334,-1.0,1.0,-152.0,0.0,0.0,-1000.0,3.0,2.6666666666666665,3.6666666666666665,50489.0
11:54:22,RTL,0.0014419411309063435,0.0015494089263180892,-0.1539389193058014,-0.001331848402818044,-4.33575672407945e-05,0.0006699092530955871,-35.362411,149.165081,239328.66666666666,-1.0,1.0,-152.0,0.0,0.0,-1000.0,2.0,2.6666666666666665,3.0,50489.0
11:54:24,RTL,0.001460812093379597,0.0014495463110506535,-0.15411885579427084,-0.001115527741300563,-0.0008064538706094027,0.0017421578522771597,-35.362411,149.165081,242438.0,-1.0,1.0,-152.0,0.0,0.0,-1000.0,1.6666666666666667,2.0,4.333333333333333,9712.0
11:54:26,RTL,0.0014795066866402824,0.0014408162872617443,-0.15397298336029053,0.00047076446935534477,-0.0001908232613156239,0.0006526948418468237,-35.362411,149.165081,245540.66666666666,-1.0,1.0,-152.0,0.0,0.0,-1000.0,3.3333333333333335,2.6666666666666665,3.0,9712.0
11:54:27,RTL,0.0013964698106671374,0.0015336063612873356,-0.15414927899837494,-0.00030883634462952614,1.219559150437514e-05,0.00047973663701365393,-35.362411,149.165081,247482.0,-1.0,1.0,-152.0,0.0,0.0,-1000.0,2.6666666666666665,2.6666666666666665,3.0,297865.0
11:54:28,RTL,0.0013655896376197536,0.0016060138586908579,-0.15424694617589316,0.00032510608434677124,-0.00017816883822282156,0.0008181196171790361,-35.362411,149.165081,248646.66666666666,-1.0,1.0,-152.0,0.0,0.0,-1000.0,3.3333333333333335,2.6666666666666665,3.3333333333333335,297865.0
11:54:30,RTL,0.0012675114364052813,0.0016471558483317494,-0.15355185667673746,-6.915551299850146e-05,0.0004366286254177491,0.0019692219017694392,-35.362411,149.165081,251756.66666666666,-1.0,1.0,-152.0,0.0,0.0,-1000.0,3.0,3.3333333333333335,4.333333333333333,122593.0
11:54:32,RTL,0.0013400424892703693,0.00136520240145425,-0.15390485028425852,0.00042022850054005784,0.0007024432222048441,0.00086469699939092,-35.362411,149.165081,254863.33333333334,-1.0,1.0,-152.0,0.0,0.0,-1000.0,3.3333333333333335,3.6666666666666665,3.6666666666666665,122593.0
11:54:33,RTL,0.0014185014103228848,0.001407963999857505,-0.15381974975268045,0.0010083968130250771,0.000577776770417889,0.0003798531834036112,-35.362411,149.165081,256801.66666666666,-1.0,1.0,-152.0,0.0,0.0,-1000.0,4.0,3.6666666666666665,3.0,137160.0
11:54:34,RTL,0.0015134025209893782,0.001374347989136974,-0.15371053417523703,0.0002911276339242856,-0.00021061045117676258,0.002203955858324965,-35.362411,149.165081,257969.0,-1.0,1.0,-152.0,0.0,0.0,-1000.0,3.3333333333333335,3.0,5.0,137160.0
11:54:36,RTL,0.0013085599057376385,0.0014770367415621877,-0.15404094755649567,8.944057238598664e-05,-0.0004179795893530051,-0.00041255673083166283,-35.362411,149.165081,261085.66666666666,-1.0,1.0,-152.0,0.0,0.0,-1000.0,3.0,2.6666666666666665,2.0,261233.0
11:54:38,RTL,0.0011722613126039505,0.0015431937451163928,-0.15407406787077585,-0.0019089133323480685,-0.0004245252348482609,0.0012712584963689248,-35.362411,149.165081,264186.3333333333,-1.0,1.0,-152.0,0.0,0.0,-999.6666666666666,1.3333333333333333,2.3333333333333335,4.0,261233.0
11:54:39,RTL,0.001048948576984306,0.001428563108978172,-0.15396603445212045,0.0007699404377490282,-0.00013633926088611284,0.0008049259583155314,-35.362411,149.165081,266125.6666666667,-1.0,1.0,-152.0,0.0,0.0,-1000.0,3.6666666666666665,3.0,3.6666666666666665,76143.0
11:54:40,RTL,0.0013959284794206421,0.001458729850128293,-0.1540471315383911,0.0005324476708968481,0.0003441954031586647,0.0006033620641877254,-35.362411,149.165081,267290.6666666667,-1.0,1.0,-152.0,0.0,0.0,-1000.0,3.6666666666666665,3.6666666666666665,3.3333333333333335,76143.0
11:54:42,RTL,0.0014250909443944693,0.0014924310380592942,-0.15402907133102417,-0.0005326947818199793,0.00041093242665131885,0.0006312978609154621,-35.362411,149.165081,270404.6666666667,-1.0,1.0,-152.0,0.0,0.0,-999.6666666666666,2.3333333333333335,3.6666666666666665,3.3333333333333335,221068.0
11:54:44,RTL,0.0010863280234237511,0.034347069139281906,-0.1541315714518229,-0.0012637012793372075,0.048769060522317886,0.0002793317350248496,-35.362411333333334,149.16508103333334,273508.0,-12.0,3.0,-150.66666666666666,1.0,0.0,-998.6666666666666,2.0,51.666666666666664,3.0,221068.0
11:54:45,RTL,-0.004041570005938411,0.08021355171998341,-0.15392671525478363,-0.004983818934609492,0.03233126737177372,0.0015737333645423253,-35.362415633333335,149.16508190000002,275405.3333333333,-72.66666666666667,13.666666666666666,-145.66666666666666,10.333333333333334,6.333333333333333,-995.3333333333334,-1.0,35.666666666666664,4.666666666666667,127667.0
11:54:46,RTL,-0.014755282551050186,0.11301538596550624,-0.1423304701844851,-0.049957318852345146,0.08441978320479393,0.08445828105323017,-35.36242216666667,149.16508323333332,276498.0,-126.0,22.0,-136.0,22.333333333333332,8.333333333333334,-977.6666666666666,-45.666666666666664,87.33333333333333,87.33333333333333,127667.0
11:54:48,RTL,0.08853423595428467,0.12008639673391978,0.38032786051432294,0.017819630602995556,0.01679535210132599,0.06205634151895841,-35.3624644,149.16508646666668,278130.6666666667,-328.6666666666667,39.333333333333336,-16.333333333333332,74.66666666666667,3.6666666666666665,-943.0,21.666666666666668,20.0,65.0,188234.0
11:54:50,RTL,0.05387680108348528,0.2415421654780706,0.36787240703900653,-0.05854553232590357,0.03699703700840473,-0.04344390487919251,-35.362539133333335,149.16510563333335,277786.6666666667,-528.0,113.0,20.0,124.66666666666667,-5.333333333333333,-1019.6666666666666,-55.0,40.0,-39.666666666666664,188234.0
11:54:51,RTL,0.03210484857360522,0.23874776562054953,0.31842971841494244,-0.008991658687591553,-0.060863821456829705,-0.043711562951405845,-35.3626075,149.16512143333333,277613.0,-678.6666666666666,112.66666666666667,2.3333333333333335,177.33333333333334,15.666666666666666,-1020.0,-5.0,-56.666666666666664,-39.666666666666664,113743.0
11:54:52,RTL,0.010198968617866436,0.22342323760191599,0.26936859389146167,-0.008194380206987262,-0.021510130415360134,-0.08485691497723262,-35.36265503333333,149.1651312,277602.3333333333,-733.3333333333334,118.33333333333333,-2.6666666666666665,162.0,-0.6666666666666666,-990.6666666666666,-4.666666666666667,-17.333333333333332,-81.33333333333333,113743.0
11:54:54,RTL,-0.05997574950257937,0.26698888341585797,0.017359506338834763,0.02214602435318132,0.02500871568918228,-0.17980529367923737,-35.3627951,149.165158,277493.0,-832.0,119.66666666666667,37.0,163.0,61.333333333333336,-919.0,25.333333333333332,28.666666666666668,-176.0,230443.0
11:54:56,RTL,-0.11111585795879364,0.09100792805353801,-0.15281430383523306,-0.008704282343387604,-0.08292467705905437,0.0354739415148894,-35.3629518,149.16518473333332,277139.3333333333,-857.0,112.33333333333333,-50.666666666666664,196.33333333333334,102.33333333333333,-1078.0,-4.666666666666667,-78.66666666666667,38.666666666666664,230443.0
11:54:57,RTL,-0.0997832144300143,0.08951207871238391,0.2178371399641037,0.0814644939576586,-0.20906255642573038,0.23234678556521735,-35.3630432,149.1651958,277835.0,-779.6666666666666,47.0,-42.0,160.33333333333334,35.0,-964.0,84.66666666666667,-204.66666666666666,235.33333333333334,227030.0
11:54:58,RTL,-0.032633829240997635,-0.009906941869606575,0.28070560097694397,-0.05801623314619064,-0.05252572397391001,-0.033624199529488884,-35.363092900000005,149.16519966666667,278083.3333333333,-678.6666666666666,55.333333333333336,-14.333333333333334,150.66666666666666,25.666666666666668,-943.6666666666666,-54.333333333333336,-48.0,-30.0,227030.0
11:55:00,RTL,-0.05315457036097845,0.00725058753353854,0.19634071985880533,0.3855770130952199,0.027744939550757408,-0.03060995104412238,-35.3631877,149.16521946666668,277821.0,-399.0,94.0,9.333333333333334,97.0,18.666666666666668,-1009.6666666666666,388.6666666666667,31.0,-27.333333333333332,19275.0
11:55:02,RTL,-0.06994158277908961,-0.04698882872859637,0.1579369306564331,-0.28091811140378314,-0.04434629281361898,-0.019941483081008,-35.36324376666666,149.16523463333337,277765.6666666667,-218.66666666666666,32.333333333333336,-1.0,51.666666666666664,12.333333333333334,-1002.0,-276.3333333333333,-40.0,-16.333333333333332,19275.0
11:55:03,RTL,-0.04653469721476237,-0.058744803071022034,0.13773911694685617,-0.37509115288654965,0.02202541505297025,-0.021731349018712837,-35.36326136666667,149.16523800000002,277769.3333333333,-91.66666666666667,3.3333333333333335,0.0,22.333333333333332,-7.0,-1001.0,-371.0,25.333333333333332,-18.0,90079.0
11:55:04,RTL,-0.022739041596651077,-0.047501251101493835,0.12738187362750372,0.3450728803873062,0.012831637014945349,-0.01130977412685752,-35.36326606666666,149.1652387,277770.3333333333,-40.0,-5.666666666666667,0.0,10.0,13.666666666666666,-1002.0,348.3333333333333,16.0,-7.666666666666667,90079.0
11:55:06,RTL,0.00021391045690203706,-0.0034434883079181113,0.10528494417667389,0.19087683161099753,0.020025505994757015,-0.004969517545153697,-35.363267900000004,149.16523846666666,277783.3333333333,13.333333333333334,-8.666666666666666,0.0,-3.0,17.333333333333332,-1003.6666666666666,195.0,23.333333333333332,-1.3333333333333333,128425.0
11:55:08,RTL,0.0008799205534160137,-0.009279812996586164,0.08846321453650792,-0.08108252783616383,-0.0002911225116501252,-0.006757230187455813,-35.36326656666666,149.1652378,277789.6666666667,16.333333333333332,-1.6666666666666667,0.3333333333333333,-2.3333333333333335,-12.666666666666666,-1001.3333333333334,-78.0,3.0,-2.6666666666666665,128425.0
11:55:09,RTL,0.002599934426446756,-0.0024542720639146864,0.08004174133141835,0.11956224838892619,0.005424235636989276,-0.009653286542743444,-35.36326523333333,149.16523793333332,277787.3333333333,16.666666666666668,-1.6666666666666667,0.3333333333333333,-1.0,-7.333333333333333,-992.0,122.33333333333333,8.666666666666666,-5.666666666666667,271680.0
11:55:10,RTL,-0.005464277851084868,3.148612207345044e-05,0.07545062899589539,0.04964605222145716,-0.001290363570054372,-0.003812076523900032,-35.3632645,149.16523813333333,277786.6666666667,14.0,-3.0,0.0,-1.3333333333333333,6.666666666666667,-1000.3333333333334,53.333333333333336,2.0,-0.3333333333333333,271680.0
11:55:12,RTL,0.0026092248347898326,-0.001046693534590304,0.06448556234439214,-0.050973316033681236,-0.002937816005821029,-0.006584196661909421,-35.3632634,149.16523826666665,277624.6666666667,7.333333333333333,-6.0,42.666666666666664,-1.0,-24.666666666666668,-932.0,-49.333333333333336,0.3333333333333333,-2.6666666666666665,289980.0
11:55:14,RTL,-0.0073907736999293165,-0.0021376392105594277,0.05539591734608015,-1.4278862476348877,-0.005237426375970244,-0.003378484553347031,-35.3632629,149.16523753333334,275724.3333333333,4.333333333333333,-2.6666666666666665,108.66666666666667,-0.6666666666666666,-72.66666666666667,-1023.3333333333334,-1425.6666666666667,-1.6666666666666667,0.3333333333333333,289980.0
11:55:15,RTL,-0.003952601536487539,-0.0014659456598261993,0.04992498829960823,-1.297114610671997,0.0007048950841029485,-0.0063956379890441895,-35.363262733333336,149.16523703333334,274390.6666666667,4.0,0.6666666666666666,97.33333333333333,-0.3333333333333333,-68.33333333333333,-1018.6666666666666,-1294.6666666666667,3.6666666666666665,-2.3333333333333335,230240.0
11:55:16,RTL,-0.012934650915364424,-0.0008781882934272289,0.046523213386535645,-1.4689689079920452,-0.002574145638694366,-0.006066734514509638,-35.3632626,149.1652369,273625.3333333333,3.0,2.6666666666666665,99.0,0.0,-58.666666666666664,-997.0,-1465.6666666666667,0.3333333333333333,-2.3333333333333335,230240.0
11:55:18,RTL,-0.0135617945343256,-0.00336260333036383,0.039537028719981514,-1.2999557256698608,-0.006079947886367639,0.00014093595867355665,-35.3632626,149.1652366666667,271577.0,2.0,3.3333333333333335,99.0,-2.0,-39.666666666666664,-1003.6666666666666,-1295.6666666666667,-2.6666666666666665,4.0,58659.0
11:55:20,RTL,-0.0042198483521739645,-0.0013438965688692406,0.032627690583467484,-1.21515949567159,-0.00023006748718520006,-0.00279042636975646,-35.363262533333334,149.16523533333336,269537.3333333333,3.3333333333333335,15.333333333333334,98.33333333333333,1.6666666666666667,-37.333333333333336,-1013.6666666666666,-1210.3333333333333,2.6666666666666665,0.6666666666666666,58659.0
11:55:21,RTL,-0.026025208955009777,0.0017755958639706175,0.029061080267031986,-1.1379492282867432,0.0014839209616184235,-0.005068784734855096,-35.3632625,149.16523683333335,268272.6666666667,3.6666666666666665,12.0,98.33333333333333,1.0,-29.333333333333332,-998.3333333333334,-1133.3333333333333,4.0,-1.3333333333333333,14250.0
11:55:22,RTL,-0.03793945536017418,0.002415177101890246,0.026716963698466618,-1.156881848971049,-0.004607046566282709,0.0028055661047498384,-35.3632625,149.1652382,267508.6666666667,3.0,3.6666666666666665,100.0,2.3333333333333335,-27.333333333333332,-1004.3333333333334,-1151.6666666666667,-1.6666666666666667,6.333333333333333,14250.0
11:55:24,RTL,-0.04350008815526962,-0.0005624619661830366,0.021732077623407047,-0.4287688732147217,-0.006494371608520548,0.004208134875322382,-35.3632625,149.1652408333333,265477.0,2.0,-19.0,100.66666666666667,0.3333333333333333,25.333333333333332,-994.6666666666666,-423.6666666666667,-3.3333333333333335,7.333333333333333,13473.0
11:55:26,RTL,-0.011885043233633041,-0.00230666211185356,0.017819212128718693,0.5108827551205953,-0.0010262347447375457,0.006177314867575963,-35.3632626,149.1652399,263435.3333333333,3.0,-21.0,101.33333333333333,-1.0,57.0,-1007.6666666666666,515.3333333333334,2.0,9.666666666666666,13473.0
11:55:27,RTL,-0.00650523843554159,-0.0004617649343951295,0.01482587152471145,1.0046500166257222,0.00022302234234909216,0.0007907330679396788,-35.3632625,149.16523966666668,262155.6666666667,3.0,-19.0,100.33333333333333,-1.3333333333333333,73.66666666666667,-997.6666666666666,1008.3333333333334,3.0,4.333333333333333,108043.0
11:55:28,RTL,-0.0033596339247499904,-0.0003565361087870163,0.013476825940112272,1.2987497647603352,0.00012003870991369088,0.0030803856595108905,-35.36326243333334,149.16523963333336,261390.33333333334,2.0,-17.333333333333332,99.0,-1.3333333333333333,71.0,-1010.6666666666666,1302.0,3.3333333333333335,6.666666666666667,108043.0
11:55:30,RTL,0.0017039488690594833,0.0003180169199670975,0.01030623602370421,1.3250661293665569,0.0006459410457561413,1.4867323140303293e-05,-35.3632623,149.1652394,259359.33333333334,1.0,-15.333333333333334,99.66666666666667,0.0,72.33333333333333,-999.6666666666666,1327.6666666666667,3.0,3.6666666666666665,297500.0
11:55:32,RTL,0.009985764355709156,-0.0038226446292052665,0.0070732223490873975,1.2475089232126872,-0.00302131629238526,-0.00036979280412197113,-35.36326236666667,149.1652384,257316.0,0.3333333333333333,-12.333333333333334,100.33333333333333,-0.6666666666666666,75.0,-1022.0,1250.6666666666667,0.0,3.6666666666666665,297500.0
11:55:33,RTL,0.015671217814087868,-0.005004085600376129,0.005428606954713662,1.0995456377665203,0.00288472572962443,0.0008009071461856365,-35.3632625,149.16523703333334,256037.0,2.0,-1.3333333333333333,100.33333333333333,-1.6666666666666667,73.66666666666667,-1029.6666666666667,1102.6666666666667,5.333333333333333,4.0,267103.0
11:55:34,RTL,0.02494639717042446,-0.0035969302213440337,0.005881612344334523,1.3382878700892131,0.002553005935624242,0.0003683175115535657,-35.3632626,149.16523636666668,255274.66666666666,3.0,4.333333333333333,98.33333333333333,0.0,64.66666666666667,-1015.3333333333334,1340.3333333333333,5.0,3.6666666666666665,267103.0
11:55:36,RTL,0.00995488620052735,0.0004559270746540278,0.0030843485922863088,1.3948785463968914,0.0019502202824999888,0.001476709886143605,-35.3632625,149.165237,253235.33333333334,4.0,7.0,100.0,2.3333333333333335,56.0,-1016.3333333333334,1397.0,4.333333333333333,5.0,45841.0
11:55:38,RTL,0.0008877752334228717,0.0006920427307098483,0.00015923125708165267,1.1360773245493572,-0.0038085459964349866,-0.0014536927919834852,-35.3632625,149.1652397,251199.66666666666,3.0,-10.666666666666666,101.66666666666667,1.6666666666666667,17.666666666666668,-1008.3333333333334,1136.0,-1.0,2.3333333333333335,45841.0
11:55:39,RTL,5.462463013827801e-05,-0.0016161144788687427,-0.0004588762434044232,0.3070363601048787,-0.004901216831058264,-0.003014971036463976,-35.3632625,149.16524023333332,249931.33333333334,2.0,-21.0,101.33333333333333,-0.6666666666666666,-22.333333333333332,-975.0,306.3333333333333,-1.6666666666666667,0.6666666666666666,197250.0
11:55:40,RTL,0.0003709242058296998,-0.004106339920933048,-0.0016367844073101878,-0.5218827128410339,-0.0047260120045393705,-0.006169435257713,-35.3632625,149.16523963333333,249163.33333333334,1.0,-21.333333333333332,103.33333333333333,-2.0,-51.0,-1010.6666666666666,-521.6666666666666,-1.6666666666666667,-2.0,197250.0
11:55:42,RTL,0.006604363288109501,-0.0014490945419917505,-0.002333991384754578,-0.7934569716453552,-0.0009788146708160639,-0.0061873892943064375,-35.3632625,149.1652377,247111.0,2.0,-6.666666666666667,101.66666666666667,-0.3333333333333333,-71.66666666666667,-966.0,-793.3333333333334,1.6666666666666667,-2.0,224708.0
11:55:44,RTL,0.015169864520430565,-0.002638407750055194,-0.0035543113481253386,-0.8525151411692301,-0.0014687736984342337,0.00047077339453001815,-35.3632624,149.16523626666665,245079.66666666666,1.0,2.0,101.33333333333333,-1.3333333333333333,-68.33333333333333,-1007.6666666666666,-852.3333333333334,1.0,4.333333333333333,224708.0
11:55:45,RTL,0.004747478291392326,-0.002281860060368975,-0.004229356224338214,-1.3387995958328247,0.004142337789138158,-0.0047562999340395136,-35.3632624,149.16523543333332,243809.33333333334,1.3333333333333333,11.333333333333334,101.33333333333333,-1.6666666666666667,-65.66666666666667,-1002.3333333333334,-1337.6666666666667,6.666666666666667,-0.3333333333333333,232575.0
11:55:46,RTL,-0.0037888091367979846,-0.001644694129936397,-0.0057823060390849905,-1.4454969962437947,0.0027170354345192513,-0.005979445142050584,-35.3632624,149.16523506666667,243040.0,2.0,16.0,103.66666666666667,-0.6666666666666666,-52.333333333333336,-1002.0,-1443.0,5.0,-2.0,232575.0
11:55:48,RTL,-0.01895477995276451,0.0025766256731003523,-0.004940590355545282,-1.3762518167495728,0.0014703957131132483,-0.003933400381356478,-35.3632623,149.1652358,240982.66666666666,1.6666666666666667,18.666666666666668,101.33333333333333,1.3333333333333333,-38.0,-1018.3333333333334,-1373.0,3.6666666666666665,0.0,31362.0
11:55:50,RTL,-0.014255239628255367,0.000608623682637699,-0.006200212519615889,-1.3218462864557903,0.002108886605128646,-0.008599651201317707,-35.3632622,149.16523683333332,238933.0,0.0,5.0,99.33333333333333,-1.0,-44.666666666666664,-1009.3333333333334,-1319.3333333333333,4.333333333333333,-4.333333333333333,31362.0
11:55:51,RTL,-0.01556176288674275,0.0003990323014780491,-0.006655579588065545,-1.3137558301289876,-0.000896647572517395,-0.0020231565771003566,-35.3632622,149.1652369,237660.0,0.0,5.0,99.66666666666667,0.6666666666666666,-37.333333333333336,-1015.6666666666666,-1310.3333333333333,1.6666666666666667,2.0,237416.0
11:55:52,RTL,-0.024183134858806927,0.0009875860899531592,-0.0065926481038331985,-1.296796719233195,-0.0020034456780801215,2.2143746415774026e-06,-35.3632622,149.16523736666667,236891.0,0.3333333333333333,3.3333333333333335,99.33333333333333,0.6666666666666666,-37.666666666666664,-1002.0,-1293.3333333333333,0.6666666666666666,4.0,237416.0
11:55:54,RTL,-0.020557459443807602,0.00015035911443798491,-0.007678409883131583,-0.010029951731363932,-0.0018149276729673147,0.0016602571122348309,-35.3632622,149.1652387,234851.0,0.0,-5.0,99.33333333333333,0.0,36.333333333333336,-1005.6666666666666,-6.0,0.6666666666666666,5.666666666666667,200670.0
11:55:56,RTL,0.01064212853088975,-0.0010725169753034909,-0.0084058353677392,1.162188212076823,0.0021073301322758198,-0.0022967495024204254,-35.3632622,149.16523806666666,232819.33333333334,0.0,-5.666666666666667,99.66666666666667,-1.0,71.33333333333333,-1000.6666666666666,1165.3333333333333,4.333333333333333,1.3333333333333333,200670.0
11:55:57,RTL,0.011545558304836353,-0.0016648110855991642,-0.008539726336797079,1.1488617062568665,-0.001276197920863827,0.004967803601175547,-35.3632622,149.1652374,231539.33333333334,0.0,-0.3333333333333333,102.66666666666667,-1.6666666666666667,79.33333333333333,-978.0,1152.0,1.0,8.666666666666666,297792.0
11:55:58,RTL,0.01896282285451889,-0.00252601500445356,-0.008591695999105772,1.133044183254242,-0.00356971782942613,0.005517800183345874,-35.3632623,149.16523656666666,230776.0,0.0,4.0,97.33333333333333,-1.6666666666666667,75.66666666666667,-983.3333333333334,1136.3333333333333,-1.0,8.666666666666666,297792.0
11:56:00,RTL,0.04277398313085238,-0.001445545523893088,-0.008973522732655207,1.167277216911316,0.006653552098820607,-0.0005389649886637926,-35.3632624,149.16523466666663,228736.33333333334,2.0,19.0,98.66666666666667,0.6666666666666666,29.666666666666668,-1001.0,1168.6666666666667,9.0,3.0,16064.0
11:56:02,RTL,0.008689529650534192,0.0039754958512882395,-0.008895824352900187,0.28878506024678546,0.00010168086737394333,-0.0009356247416387001,-35.3632623,149.16523696666664,226692.66666666666,1.6666666666666667,11.666666666666666,100.66666666666667,2.3333333333333335,-32.666666666666664,-984.6666666666666,289.3333333333333,2.3333333333333335,2.3333333333333335,16064.0
11:56:03,RTL,0.010625385989745459,0.00012982796761207283,-0.009827801336844763,0.4512166778246562,-0.0043765105462322635,-0.0038956423134853444,-35.3632623,149.16523816666665,225420.0,0.0,-0.3333333333333333,100.33333333333333,1.0,-21.666666666666668,-987.0,451.6666666666667,-1.6666666666666667,0.3333333333333333,242531.0
11:56:04,RTL,0.013417799025774002,-0.00196460064034909,-0.010432510947187742,0.14906414598226547,-0.0014593223265061777,0.0003984180899957816,-35.3632623,149.16523803333334,224654.33333333334,0.0,-3.3333333333333335,100.33333333333333,0.0,-35.0,-982.6666666666666,149.66666666666666,0.3333333333333333,4.0,242531.0
11:56:06,RTL,0.030392009764909744,-0.004179596435278654,-0.010428643474976221,0.09568361441294353,-0.0012445827790846427,0.0013584936192880075,-35.36326256666667,149.1652361,222612.66666666666,2.0,5.0,103.66666666666667,-1.3333333333333333,-34.666666666666664,-982.3333333333334,96.66666666666667,1.0,5.333333333333333,20289.0
11:56:08,RTL,0.005095570988487452,-0.002254309404330949,-0.010332006650666395,-1.317969799041748,0.0006783567757035295,-0.002859450333441297,-35.363262533333334,149.16523433333333,220454.66666666666,3.0,20.666666666666668,96.0,-1.0,-41.0,-1006.6666666666666,-1314.0,2.3333333333333335,1.3333333333333333,20289.0
11:56:09,RTL,0.006656696321442723,-0.0005071920168120414,-0.010737862127522627,-0.8365262349446615,-0.0029457639902830124,0.0037906798534095287,-35.3632624,149.16523376666666,219181.33333333334,2.0,28.333333333333332,98.66666666666667,-0.3333333333333333,-2.6666666666666665,-1004.0,-831.0,-0.6666666666666666,7.666666666666667,215869.0
11:56:10,RTL,0.011058783158659935,0.0005765249176571766,-0.010139853693544865,-0.4644615401824315,0.0028933632808427014,-0.002395977731794119,-35.36326233333333,149.1652336,218416.66666666666,2.0,31.333333333333332,99.33333333333333,-0.3333333333333333,17.333333333333332,-985.3333333333334,-458.3333333333333,4.666666666666667,2.0,215869.0
11:56:12,RTL,0.017943391886850197,0.001667276956140995,-0.009890670888125896,0.9138810435930887,0.0009049418537567059,0.0032308436930179596,-35.3632622,149.1652344,216385.66666666666,0.0,29.666666666666668,100.66666666666667,0.3333333333333333,65.33333333333333,-1021.6666666666666,919.6666666666666,2.6666666666666665,7.0,3414.0
11:56:14,RTL,0.008734869149823984,0.0031148900743573904,-0.010065363409618536,1.0456355412801106,0.0029562561927984157,0.003369282465428114,-35.3632622,149.16523563333334,214337.33333333334,0.0,23.333333333333332,98.66666666666667,2.6666666666666665,69.33333333333333,-1004.6666666666666,1051.3333333333333,5.0,7.0,3414.0
11:56:15,RTL,-0.002888156227224196,0.0025276082645480833,-0.01012848907460769,1.235678752263387,-0.0029971154872328043,0.007165087231745322,-35.3632622,149.16523766666666,213065.33333333334,0.0,10.666666666666666,98.66666666666667,2.3333333333333335,70.33333333333333,-1015.3333333333334,1241.3333333333333,-1.0,10.666666666666666,133775.0
11:56:16,RTL,0.006562888467063506,0.0016128755717848737,-0.01108048235376676,1.1999752918879192,0.0027377383473018804,0.01112270502684017,-35.3632622,149.16523853333334,212303.33333333334,0.0,0.3333333333333333,98.66666666666667,2.3333333333333335,26.666666666666668,-1016.3333333333334,1203.6666666666667,4.666666666666667,14.0,133775.0
11:56:18,RTL,0.0013461882869402568,0.0003983957673578213,-0.010396828254063925,1.099088688691457,-0.001831680613880356,-0.002751815520847837,-35.36326236666667,149.16524,210258.0,1.0,-14.666666666666666,96.66666666666667,1.6666666666666667,24.0,-1018.3333333333334,1102.3333333333333,0.3333333333333333,1.0,47926.0
11:56:20,RTL,-0.007485644678430011,-0.0019025867028782766,-0.010239535321791967,-0.025722599277893703,-0.00021356142436464628,0.004887472527722518,-35.3632624,149.16524080000002,208220.33333333334,1.0,-28.0,98.66666666666667,-1.0,-43.0,-985.6666666666666,-23.666666666666668,1.6666666666666667,8.666666666666666,47926.0
11:56:21,RTL,0.008535491457829872,-0.003748707395667831,-0.011235335220893225,0.3710138375560443,-0.0038646703275541463,-0.003204408179347714,-35.3632624,149.1652397,206947.66666666666,1.0,-23.333333333333332,99.66666666666667,-2.0,-19.333333333333332,-995.6666666666666,372.3333333333333,-1.6666666666666667,0.3333333333333333,46239.0
11:56:22,RTL,0.009275916963815689,-0.004205055767670274,-0.012261067517101765,-0.3541169911623001,-0.0022754749904076257,-0.005270174394051234,-35.3632624,149.16523859999998,206186.33333333334,1.0,-17.666666666666668,99.66666666666667,-3.0,-48.0,-992.3333333333334,-352.3333333333333,0.0,-1.3333333333333333,46239.0
11:56:24,RTL,-0.0017961497554400314,-0.0013594126406436164,-0.01098106832553943,-1.3833341995875041,0.0008461601876964172,-0.0018350780010223389,-35.3632624,149.16523636666668,204147.0,2.0,0.6666666666666666,99.66666666666667,0.3333333333333333,-63.0,-1023.3333333333334,-1379.3333333333333,2.6666666666666665,2.3333333333333335,101582.0
11:56:26,RTL,-0.01883125739792983,0.003221433066452543,-0.010428768893082937,0.23572945843140283,0.0016363832013060649,0.0018489744203786056,-35.36326226666667,149.1652379,202108.33333333334,1.6666666666666667,2.6666666666666665,99.33333333333333,1.6666666666666667,43.333333333333336,-995.0,241.33333333333334,4.0,5.0,101582.0
11:56:27,RTL,-0.01671470422297716,0.0019242938918371995,-0.011830285501976808,0.6570124328136444,0.000388847974439462,-0.002200084117551645,-35.3632622,149.1652391,200827.0,0.0,-7.333333333333333,100.0,0.3333333333333333,63.0,-979.6666666666666,662.0,2.3333333333333335,1.3333333333333333,91897.0
11:56:28,RTL,-0.005358147279669841,0.0010386037756688893,-0.010868468321859837,1.1667261123657227,-0.003045150893740356,0.0034286978965004287,-35.3632622,149.1652395,200067.66666666666,0.0,-11.333333333333334,98.66666666666667,1.0,69.0,-1010.6666666666666,1171.0,-0.6666666666666666,6.666666666666667,91897.0
11:56:30,RTL,0.008165949024260044,-0.002198979763003687,-0.010075615408519903,1.258286754290263,-0.004064595326781273,-0.0006672737654298544,-35.3632623,149.1652399666667,198040.0,0.0,-19.333333333333332,103.0,-0.3333333333333333,37.0,-1002.0,1260.3333333333333,-2.0,2.6666666666666665,92077.0
11:56:32,RTL,0.014021853295465311,-0.001663282746449113,-0.011484410924216112,0.6574477056662241,-0.004749794878686468,-0.004759836631516616,-35.3632624,149.16523903333334,196007.0,1.0,-17.333333333333332,102.66666666666667,0.0,-4.666666666666667,-992.0,658.0,-2.3333333333333335,-1.0,92077.0
11:56:33,RTL,-0.006947127093250553,-0.000596389106552427,-0.011468645495673021,-0.9094883600870768,0.0007574832222114006,-0.009871776370952526,-35.3632624,149.16523876666668,194734.66666666666,2.0,-13.333333333333334,103.33333333333333,0.6666666666666666,-71.33333333333333,-967.0,-908.3333333333334,2.6666666666666665,-5.666666666666667,46735.0
11:56:34,RTL,-0.014886601207156977,-0.00026270140369888395,-0.011445099177459875,-1.1410428285598755,0.00024767945675800246,-0.0012494127731770277,-35.3632624,149.16523886666664,193959.66666666666,2.0,-12.666666666666666,101.0,0.0,-74.66666666666667,-995.0,-1139.3333333333333,1.6666666666666667,2.3333333333333335,46735.0
11:56:36,RTL,-0.02894679456949234,-0.0013132224169870217,-0.010883454543848833,-1.4722898801167805,-0.004124771027515332,0.0011964935498932998,-35.3632624,149.1652392,191910.0,1.0,-13.333333333333334,101.0,-0.3333333333333333,-54.333333333333336,-993.6666666666666,-1469.6666666666667,-1.6666666666666667,4.333333333333333,93505.0
11:56:38,RTL,-0.005793156800791621,-0.004015848273411393,-0.011408616167803606,-1.205089012781779,0.0006223733071237803,0.005083821248263121,-35.3632624,149.16523700000002,189863.0,1.0,-4.666666666666667,102.0,-2.3333333333333335,-20.0,-996.6666666666666,-1201.3333333333333,2.3333333333333335,8.0,93505.0
11:56:39,RTL,-0.0024428629937271276,-0.0025309037106732526,-0.011657128110527992,-0.6714030702908834,-0.00042612943798303604,0.002043160687511166,-35.3632624,149.1652358,188590.33333333334,2.0,8.333333333333334,102.0,-1.3333333333333333,8.333333333333334,-1008.3333333333334,-667.0,1.6666666666666667,5.666666666666667,2634.0
