time_stamp,roll,pitch,yaw,rollspeed,pitchspeed,yawspeed,lat,lon,relative_alt,vx,vy,vz,xacc,yacc,zacc,xgyro,ygyro,zgyro,MODE,RTL_ALT
14:47:39,-0.0004050078277941793,0.0009723925613798201,0.02340775914490223,0.0003823673469014466,0.0001622404088266194,0.001635642722249031,-35.3632622,149.16523755,0.0,-1.0,3.0,1.0,0.0,1.5,-1000.0,0.0,0.0,0.0,STABILIZE,123463.0
14:47:41,-0.0008311836863867939,0.0009693914907984436,0.022736934944987297,0.00021316501079127192,0.0002511576167307794,0.0017088064923882484,-35.3632622,149.1652375,0.0,-1.0,1.5,1.0,0.0,1.5,-1000.0,0.0,0.0,0.5,AUTO,123463.0
14:47:42,-0.0009542387560941279,0.000985640348517336,0.022409436758607626,0.00029498309595510364,0.0002643369953148067,0.0015277718484867364,-35.36326215,149.1652375,5.5,-0.5,0.25,0.0,0.0,1.5,-1000.0,0.0,0.25,0.5,AUTO,300000.0
14:47:43,-0.0008440436504315585,0.001095757179427892,0.022241304628551006,0.000191570317838341,0.00026938162045553327,0.0015283249085769057,-35.3632621,149.1652375,11.5,0.0,0.0,-1.0,0.0,1.0,-1000.0,1.0,0.0,0.0,AUTO,300000.0
14:47:45,-0.00037003013130743057,0.0016522090299986303,0.021717719733715057,0.00034280281397514045,0.0003272743779234588,0.001475089113228023,-35.3632621,149.1652375,11.5,0.0,0.0,0.0,0.0,1.0,-1000.0,0.0,0.0,1.0,AUTO,300000.0
14:47:46,0.004178857692750171,0.000845553327962989,0.02138148294761777,0.012810187821742147,0.0005909168103244156,0.0012560622053570114,-35.3632621,149.1652375,599.5,0.0,1.0,-108.75,0.0,0.0,-1091.0,13.25,1.25,0.5,AUTO,204800.0
14:47:47,0.029271576553583145,-0.0020702991751022637,0.021333444863557816,0.045811545103788376,-0.007506946101784706,0.002749412087723613,-35.363262,149.1652376,1604.0,1.0,9.0,-145.5,0.0,-0.5,-1011.0,46.0,-6.5,2.0,AUTO,204800.0
14:47:49,-0.038714196532964706,0.0036200047470629215,-0.06669553928077221,-0.05757814459502697,-0.006515017710626125,-0.037564389407634735,-35.36326085,149.16524545,4650.0,3.0,32.0,-148.0,3.5,-8.0,-1001.5,-56.5,-6.0,-37.5,AUTO,204800.0
14:47:50,-0.04994966788217425,0.003975278523284942,-0.10570869967341423,0.05899222753942013,0.003815080795902759,-0.013784602866508067,-35.3632608,149.165244075,6566.75,-6.5,-46.5,-148.0,-4.0,7.25,-1001.25,59.25,4.25,-13.75,AUTO,200.0
14:47:51,-0.001529894769191742,0.009667581878602505,-0.11161530017852783,0.06866426393389702,0.009837815538048744,-0.0014072497724555433,-35.3632615,149.16523945,7724.5,-15.5,-60.0,-149.5,-4.5,14.0,-1003.0,68.5,10.0,-1.0,AUTO,200.0
14:47:53,0.028530480340123177,-0.06558690965175629,-0.03246074728667736,-0.10231324285268784,0.005402218550443649,0.025857333093881607,-35.3632646,149.16523519999998,10826.0,12.0,32.0,-147.0,2.0,-5.0,-995.5,-101.0,6.0,25.5,AUTO,200.0
14:47:54,-0.030304361134767532,0.014768186170840636,-0.13047944381833076,0.01865409454330802,0.035374341532588005,-0.07444311678409576,-35.36326105,149.16523755,12748.0,30.0,-3.5,-150.5,-5.75,-5.0,-1004.25,19.25,35.5,-74.25,AUTO,212540.0
14:47:55,-0.0043236573110334575,0.02946790400892496,-0.1720276102423668,0.04818057268857956,0.01028099562972784,-0.030972173437476158,-35.3632595,149.16523655,13920.0,8.0,-18.0,-152.0,-5.0,0.5,-1001.0,48.5,10.5,-30.5,AUTO,212540.0
14:47:57,0.006067917449399829,0.0023814217711333185,-0.16585420072078705,-0.019586049485951662,-0.011469629593193531,-0.002388422202784568,-35.36326095,149.1652354,17040.0,-16.5,9.5,-151.0,3.0,0.0,-999.0,-18.5,-10.5,-3.0,AUTO,212540.0
14:47:58,-0.03729999857023358,0.016306819394230843,-0.020798499695956707,0.09848248679190874,-0.04626463400200009,0.21374162007123232,-35.363262825,149.16523410000002,18872.75,-26.75,-33.0,-124.75,0.75,8.25,-954.75,99.0,-45.25,212.75,AUTO,60752.0
14:47:59,0.05558459646999836,-0.0398440808057785,0.04389234818518162,0.06878864206373692,-0.024140442837961018,-0.03516162000596523,-35.3632646,149.16523115,19717.0,-19.5,-21.5,-88.5,0.0,8.0,-957.5,69.0,-23.0,-35.5,AUTO,60752.0
14:48:01,0.0025915743317455053,0.009959794580936432,0.024015573784708977,-0.027988769114017487,0.016172924544662237,0.0034079900942742825,-35.3632631,149.1652356,20880.0,17.5,40.5,-31.5,0.5,-10.0,-977.5,-27.0,16.5,2.5,AUTO,60752.0
14:48:02,-0.03171294485218823,0.020425752736628056,0.02077854797244072,0.0825546570122242,-0.010000439477153122,-0.002382994905929081,-35.36326155,149.16523935,21064.25,3.5,12.75,4.5,0.25,0.25,-968.0,83.5,-8.75,-2.0,AUTO,300000.0
14:48:03,-0.046596551313996315,0.005564731312915683,0.018825427629053593,-0.41378846764564514,-0.03195245284587145,-0.0030790272867307067,-35.3632615,149.16523925,20946.5,-6.5,-21.0,19.5,-1.0,-29.0,-1009.5,-413.0,-30.5,-3.0,AUTO,300000.0
14:48:05,-0.06103186495602131,-0.06897693872451782,-0.519324004650116,0.3835151195526123,-0.04626486636698246,-0.8450104892253876,-35.36326185,149.1652271,20819.5,6.0,-109.5,-1.0,-20.5,26.0,-1011.0,383.5,-45.0,-845.0,AUTO,300000.0
14:48:06,0.018182350788265467,-0.1580183170735836,-1.384849101305008,0.05325659643858671,-0.06603461690247059,-0.41152545252407435,-35.3632606,149.16520615000002,20826.5,18.75,-218.5,0.25,-42.25,-21.75,-1003.0,54.0,-64.75,-411.25,AUTO,144657.0
14:48:07,0.047701483592391014,-0.1796296313405037,-1.4805917143821716,0.09921911358833313,0.0038416855968534946,0.09641149640083313,-35.3632592,149.16518595,20818.5,26.5,-302.0,0.5,-59.5,-38.5,-1009.5,99.5,4.5,95.5,AUTO,144657.0
14:48:09,0.06266062334179878,-0.20516777783632278,-1.4521406888961792,-0.003445606678724289,0.0018304712721146643,0.0006292012985795736,-35.3632522,149.16509735,20809.0,55.0,-509.0,-0.5,-98.5,-49.0,-1001.0,-2.5,2.0,0.0,AUTO,144657.0
14:48:10,0.07407314702868462,-0.17667102441191673,-1.4537351727485657,-0.0024381211114814505,0.01237415336072445,0.0011095469672000036,-35.36324555,149.16501957500003,20854.25,65.0,-604.0,-7.25,-110.0,-64.25,-990.25,-2.0,12.5,1.0,AUTO,282069.0
14:48:11,0.07779398560523987,-0.16845954954624176,-1.453804850578308,0.03065473586320877,0.011066047940403223,-0.0020440497319214046,-35.36324115,149.16496815,20905.0,69.5,-640.0,-7.0,-125.5,-62.5,-987.0,31.0,11.0,-2.5,AUTO,282069.0
14:48:13,0.08860376849770546,-0.1254977472126484,-1.456318438053131,-0.0046438907738775015,-0.019604971632361412,0.0003621632931753993,-35.363228500000005,149.1648212,21042.0,72.0,-669.5,-7.0,-131.5,-81.0,-978.5,-3.5,-18.5,-0.5,AUTO,282069.0
14:48:14,0.08474556170403957,-0.1091730110347271,-1.456740289926529,0.0012933571415487677,0.05577045399695635,-0.004478786315303296,-35.363220424999994,149.16472935000002,21067.0,71.75,-664.0,-5.25,-135.75,-73.75,-997.75,1.75,56.0,-4.25,AUTO,223720.0
14:48:15,0.0809992104768753,-0.06444968096911907,-1.455606460571289,-0.0030268458649516106,0.06374670937657356,-0.005810893373563886,-35.36321565,149.16467525000002,21117.5,68.5,-635.5,-9.0,-125.5,-74.5,-993.5,-2.5,64.0,-5.5,AUTO,223720.0
14:48:17,0.07533113658428192,0.03529235254973173,-1.4523974657058716,0.2546449601650238,0.05405677296221256,-0.030375654809176922,-35.36320555,149.1645523,21204.5,55.5,-454.5,1.0,-94.5,-33.0,-997.0,256.5,54.5,-30.5,AUTO,223720.0
14:48:18,0.05344480276107788,0.05372684635221958,-1.4547036290168762,-0.11075789108872414,0.009231398114934564,-0.006486861850135028,-35.363200825,149.16450025,21156.75,43.5,-302.5,3.25,-59.75,-42.25,-1006.0,-109.5,10.0,-7.0,AUTO,273495.0
14:48:19,0.040798915550112724,0.06749327853322029,-1.4549618363380432,-0.37608160078525543,0.0261821411550045,0.007299238815903664,-35.36319855,149.16447805,21135.0,34.0,-220.5,1.0,-43.0,-56.5,-1007.0,-375.5,26.5,6.5,AUTO,273495.0
14:48:21,0.016657409258186817,0.042381295934319496,-1.457116723060608,0.4722496569156647,-0.020925828255712986,-0.0034797508269548416,-35.3631956,149.1644513,21116.0,13.5,-45.5,0.0,-9.0,16.5,-1011.0,473.0,-20.0,-4.0,AUTO,273495.0
14:48:22,0.007304822967853397,0.013776308740489185,-1.458888202905655,0.01777833327651024,-0.028091483749449253,0.0013850891846232116,-35.363195525,149.16444905,21122.25,4.0,-3.0,-0.5,0.25,-1.25,-1003.25,18.75,-26.75,0.75,AUTO,245200.0
14:48:23,0.0036395336501300335,-0.007320753415115178,-1.4593648314476013,0.17450067400932312,-0.03206089325249195,0.002971796435303986,-35.3631957,149.1644494,21126.5,3.0,2.0,-0.5,1.0,20.0,-1007.5,176.5,-31.0,2.0,RTL,245200.0
14:48:25,-0.0023786015226505697,-0.0027989348163828254,-1.4592484831809998,0.1211264505982399,-0.0025138521450571716,-0.0004088988061994314,-35.36319535,149.1644499,21298.5,0.5,-4.0,-32.5,0.5,10.0,-1048.5,122.5,-1.5,0.0,RTL,245200.0
14:48:26,-0.000109858892756165,-0.003326137491967529,-1.4599635601043701,0.0242270159360487,-0.0006000462744850665,-0.0003757569211302325,-35.363195049999995,149.16445005,22130.25,-2.75,-4.0,-93.75,0.0,-0.5,-1047.0,25.0,0.0,-0.75,RTL,282276.0
14:48:27,0.0003896002745022997,-0.0033170166425406933,-1.460679531097412,-0.0014065512805245817,-0.0010898000764427707,-0.0008245683275163174,-35.363195,149.1644501,22971.5,-3.5,-4.0,-128.5,0.0,0.0,-1045.0,-0.5,-0.5,-1.0,RTL,282276.0
14:48:29,0.03328272281214595,0.010659901308827102,-1.4868848323822021,-0.14366379007697105,0.060083107091486454,-0.08323775604367256,-35.3631922,149.16444945,25961.0,50.0,-4.5,-144.0,1.5,-11.0,-992.5,-142.5,60.5,-83.0,RTL,282276.0
14:48:30,-0.057063446380198,0.0037872170796617866,-1.5367226898670197,0.0009909742511808872,0.02965411322657019,-0.052883085794746876,-35.363189150000004,149.16444855,27862.5,-6.25,-5.25,-148.5,-1.75,-1.25,-1001.75,1.75,30.0,-52.75,RTL,142681.0
14:48:31,-0.03258218802511692,0.0188377657905221,-1.5741875767707825,0.05964820086956024,0.007262100465595722,-0.025828872807323933,-35.3631909,149.16444825000002,29022.0,-44.5,5.0,-149.0,-4.5,7.5,-1001.0,60.0,7.5,-25.0,RTL,142681.0
14:48:33,0.03520038351416588,-0.04980463907122612,-1.5044706463813782,0.034384495578706264,-0.037632145918905735,0.07782141119241714,-35.3631977,149.1644526,32141.0,-6.5,10.5,-151.0,0.5,5.0,-1002.0,35.0,-36.5,77.0,RTL,142681.0
14:48:34,0.0001917732588481158,-0.0039779378566890955,-1.5227695107460022,-0.04132806486450136,0.07736686710268259,-0.0861585196107626,-35.363197125,149.164449325,34066.25,16.5,-35.0,-148.75,-7.0,-7.75,-1003.5,-39.5,77.5,-85.5,RTL,300000.0
14:48:35,-0.0076682905200868845,0.03137783519923687,-1.583552598953247,0.017186047974973917,0.018229120410978794,-0.054689981043338776,-35.363196849999994,149.1644462,35234.0,1.0,-20.5,-152.0,-5.5,-5.0,-1002.5,18.0,18.5,-54.5,RTL,300000.0
14:48:37,0.011004460044205189,0.00808655796572566,-1.6000967621803284,-0.0099415248259902,-0.017584966961294413,0.0014124767330940813,-35.36319745,149.16444655,38356.5,8.0,23.0,-151.0,4.0,0.5,-1000.0,-8.0,-16.0,1.5,RTL,300000.0
14:48:38,0.0011426713899709284,-0.005478424776811153,-1.6140013337135315,-0.0019517930340953171,-0.0031635196355637163,-0.02150216419249773,-35.36319675,149.164448725,40307.25,8.0,15.0,-151.5,3.0,0.0,-1000.5,-0.75,-2.0,-20.75,RTL,237211.0
14:48:39,0.0022028659004718065,-0.005891288165003061,-1.6338231563568115,0.004970010602846742,0.0032683435129001737,-0.030716167762875557,-35.3631965,149.1644494,41479.0,4.5,7.5,-152.0,1.0,0.0,-1000.0,5.5,4.0,-30.0,RTL,237211.0
14:48:41,0.008284613490104675,0.002027801994699985,-1.6913946866989136,0.00043873570393770933,0.0023815265740267932,-0.023456824012100697,-35.3631966,149.16444955,44600.5,4.0,1.0,-152.0,0.0,0.0,-1000.0,1.5,3.0,-23.0,RTL,237211.0
14:48:42,0.007437212858349085,0.003365194075740874,-1.7196675539016724,-0.0012386592425173149,0.0009238598577212542,-0.019721570424735546,-35.3631965,149.1644494,46547.75,5.75,2.5,-152.0,0.0,0.0,-1000.0,0.0,1.5,-18.75,RTL,200.0
14:48:43,0.005768698640167713,0.0029298338340595365,-1.7354859709739685,-0.001287938328459859,0.00016221951227635145,-0.020839412696659565,-35.363196349999996,149.1644494,47715.5,6.0,3.0,-152.0,0.0,0.0,-1000.5,0.0,1.0,-20.0,RTL,200.0
14:48:45,0.006240003043785691,0.0027890411438420415,-1.7227377891540527,0.0005783195374533534,-0.0018538820440880954,0.03016727976500988,-35.36319575,149.16444955,50826.5,7.0,5.0,-151.0,1.0,0.0,-1000.0,1.5,-0.5,30.0,RTL,200.0
14:48:46,0.003651059349067509,-0.0007724708630121313,-1.6899555623531342,0.0009666523546911776,-0.00013903403305448592,0.025098885409533978,-35.36319535,149.16444985,52762.5,5.25,3.25,-152.0,0.0,0.0,-1000.0,1.75,0.75,25.25,RTL,193759.0
14:48:47,0.003680880065076053,-0.0011247426155023277,-1.6731553673744202,0.002311623189598322,0.0007921351934783161,0.02263163961470127,-35.3631952,149.16445,53928.5,3.5,2.0,-152.0,0.0,0.0,-1000.0,3.5,1.5,22.5,RTL,193759.0
14:48:49,0.005402671871706843,-0.0007730083598289639,-1.6378002762794495,0.003533883602358401,0.001789943955373019,0.017529777251183987,-35.3631952,149.16445,57030.0,1.0,0.0,-152.0,0.0,0.0,-1000.0,4.5,2.5,17.5,RTL,193759.0
14:48:50,0.006628878065384924,-0.00012323276860115584,-1.6204040348529816,-0.00016744775348342955,0.001087399577954784,0.013970134546980262,-35.363195425,149.164449825,58971.0,1.25,0.0,-152.0,0.0,0.0,-1000.0,1.25,1.75,14.25,RTL,196734.0
14:48:51,0.006371554685756564,0.0002877560109482147,-1.6112020611763,3.6252953577786684e-05,0.0019224280840717256,0.012986717745661736,-35.3631955,149.1644497,60135.5,2.0,0.0,-152.0,0.0,0.0,-1000.0,1.0,3.0,13.5,RTL,196734.0
14:48:53,0.005389803787693381,0.0002748718252405524,-1.591472327709198,-0.002004543785005808,0.000795220781583339,0.010556166525930166,-35.3631956,149.1644496,63244.0,2.0,1.0,-152.0,0.0,0.0,-999.5,0.0,2.0,10.5,RTL,196734.0
14:48:54,0.005452138255350292,-9.36685119086178e-05,-1.5815058648586273,0.0006660086655756459,-2.6793524739332497e-05,0.010521288262680173,-35.3631956,149.1644495,65184.75,2.0,1.0,-152.0,0.0,0.0,-999.75,1.5,1.0,10.75,RTL,300000.0
14:48:55,0.005422529997304082,-7.12015462340787e-05,-1.5761873126029968,0.001538090466056019,0.0005515748634934425,0.008584199007600546,-35.3631956,149.1644495,66349.5,2.0,1.0,-152.0,0.0,0.0,-1000.5,2.5,1.5,9.0,RTL,300000.0
14:48:57,0.005309232976287603,0.00011753510989365168,-1.5638832449913025,-0.00033430627081543207,0.0009569198591634631,0.008974765427410603,-35.3631956,149.1644495,69462.5,1.0,1.0,-152.0,0.0,0.0,-999.0,1.0,1.5,9.5,RTL,300000.0
14:48:58,0.005408851080574095,-4.028191278848681e-05,-1.5569632649421692,0.0009766493167262524,0.00019291823264211416,0.006851221085526049,-35.3631956,149.1644495,71394.25,2.0,1.0,-152.0,0.0,0.0,-1000.25,2.25,1.5,7.5,RTL,74886.0
14:48:59,0.005492968717589974,-3.2069438020698726e-06,-1.5531123280525208,-0.0009337529772892594,0.0011791912256740034,0.007468427764251828,-35.3631956,149.1644495,72559.5,2.0,1.0,-152.0,0.0,0.0,-999.0,1.0,2.0,8.5,RTL,74886.0
14:49:01,0.005827110726386309,0.0002803949610097334,-1.5428637862205505,5.832972237840295e-05,0.002616211655549705,0.00646440195851028,-35.363195649999994,149.1644495,75672.5,2.0,1.0,-152.0,0.0,0.0,-999.0,1.0,4.0,7.5,RTL,74886.0
14:49:02,0.005654349224641919,-0.00011789546442741994,-1.5374299585819244,0.00046705789281986654,0.00011369324056431651,0.0056842046324163675,-35.3631957,149.164449475,77616.75,2.0,1.0,-152.0,0.0,0.0,-1000.0,1.75,1.25,6.25,RTL,190906.0
14:49:03,0.005616278620436788,0.00039080392161849886,-1.5344560742378235,0.0015666750259697437,0.001485771092120558,0.006249250844120979,-35.3631957,149.1644494,78782.0,2.0,1.0,-152.0,0.0,0.0,-999.5,3.0,2.5,7.5,RTL,190906.0
14:49:05,0.005027808714658022,0.0003724226698977873,-1.5272957682609558,0.00025477114832028747,0.0002707099774852395,0.003186652436852455,-35.3631957,149.1644494,81887.5,1.0,1.0,-152.0,0.0,0.0,-999.5,2.0,1.0,3.5,RTL,190906.0
14:49:06,0.0052590893271068735,6.238440619199537e-05,-1.5233195622762044,5.041412077844143e-05,0.0006349414664631089,0.005614220630377531,-35.3631957,149.1644494,83786.33333333333,1.0,1.0,-152.0,0.0,0.0,-999.6666666666666,1.6666666666666667,2.0,6.333333333333333,RTL,168358.0
14:49:07,0.005324848772337039,0.000188576101209037,-1.5210226774215698,0.0005438268805543581,0.0009574573098992308,0.003785107129563888,-35.3631957,149.1644494,84953.66666666667,1.0,1.0,-152.0,0.0,0.0,-999.6666666666666,2.0,2.3333333333333335,4.666666666666667,RTL,168358.0
14:49:09,0.005085854946325223,-0.00028119048996207613,-1.5156858364741008,0.0027415415194506445,-6.604039420684178e-05,0.004301892515892784,-35.3631957,149.1644494,88062.0,1.0,1.0,-152.0,0.0,0.0,-1000.3333333333334,4.0,1.0,5.333333333333333,RTL,168358.0
14:49:10,0.005293481517583132,-0.00010789380758069456,-1.51254403591156,0.0011701423985262711,0.001663400170703729,0.003908793558366597,-35.3631957,149.1644494,90001.0,1.0,1.0,-152.0,0.0,0.0,-999.6666666666666,2.6666666666666665,3.0,5.0,RTL,45998.0
14:49:11,0.005204173891494672,2.5159074842425373e-05,-1.510755221048991,0.0010216430528089404,0.0006542739380771915,0.002304640947841108,-35.3631957,149.1644494,91164.66666666667,1.0,1.0,-152.0,0.0,0.0,-1000.3333333333334,2.3333333333333335,2.0,3.3333333333333335,RTL,45998.0
14:49:13,0.0054452084004879,1.881728773393358e-05,-1.5067871411641438,-0.00020049551191429296,0.0002570667614539464,0.0032663903354356685,-35.3631957,149.1644494,94271.0,1.0,1.0,-152.0,0.0,0.0,-1000.3333333333334,2.0,1.6666666666666667,4.333333333333333,RTL,45998.0
14:49:14,0.0054305434847871465,9.832972136791795e-05,-1.504252831141154,0.0001974105058858792,0.0004407111555337906,0.002010592996763686,-35.3631957,149.1644494,96215.33333333333,1.0,1.0,-152.0,0.0,0.0,-999.6666666666666,1.6666666666666667,2.0,3.3333333333333335,RTL,300000.0
14:49:15,0.005340747690449159,7.181108715788771e-05,-1.5030815601348877,0.00012878996009627977,0.0003890766917417447,0.003594572034974893,-35.3631957,149.1644494,97381.66666666667,1.0,1.0,-152.0,0.0,0.0,-999.6666666666666,1.3333333333333333,1.6666666666666667,4.333333333333333,RTL,300000.0
14:49:17,0.005204295584311088,0.0006248140416573733,-1.4997252623240154,0.00021108752116560936,0.00147457766191413,0.0034195514551053443,-35.3631957,149.1644494,100487.0,1.0,1.0,-152.0,0.0,0.0,-999.3333333333334,2.0,3.0,4.666666666666667,RTL,300000.0
14:49:18,0.0054673187745114165,0.00025756350078154355,-1.4974246422449748,-0.00019846022284279266,0.00048811151646077633,0.002048397553153336,-35.3631957,149.1644494,102425.66666666667,1.0,1.0,-152.0,0.0,0.0,-1000.0,2.0,2.0,3.3333333333333335,RTL,24284.0
14:49:19,0.005020863376557827,9.61942714639008e-06,-1.4963779052098591,0.00012155711495627959,0.0009769916844864686,0.002265212514127294,-35.3631957,149.1644494,103591.33333333333,1.0,1.0,-152.0,0.0,0.0,-999.6666666666666,1.3333333333333333,2.3333333333333335,3.6666666666666665,RTL,24284.0
14:49:21,0.005038831693430741,-0.0004340796440374106,-1.494184970855713,0.0003127342400451501,-0.0008241219911724329,0.0018100204567114513,-35.3631957,149.1644494,106704.33333333333,1.0,1.0,-152.0,0.0,0.0,-1000.0,2.0,0.6666666666666666,3.0,RTL,24284.0
14:49:22,0.005233614395062129,-0.0001364395745137396,-1.4926227728525798,0.0010304596507921815,6.212375592440367e-05,0.0024590494576841593,-35.3631957,149.1644494,108643.33333333333,1.0,1.0,-152.0,0.0,0.0,-999.6666666666666,2.6666666666666665,1.3333333333333333,3.3333333333333335,RTL,300000.0
14:49:23,0.005027162532011668,-0.00011269612878095359,-1.4921295642852783,0.0006311896722763777,0.00011283062243213256,0.002718634243744115,-35.3631957,149.1644494,109807.33333333333,1.0,1.0,-152.0,0.0,0.0,-1000.0,2.0,1.6666666666666667,4.0,RTL,300000.0
14:49:25,0.005546460238595803,-1.6776274909110118e-05,-1.4904173215230305,6.910910209019978e-05,0.001192536981155475,0.0014687449438497424,-35.3631957,149.1644494,112915.0,1.0,1.0,-152.0,0.0,0.0,-999.3333333333334,1.6666666666666667,2.3333333333333335,2.3333333333333335,RTL,300000.0
14:49:26,0.00545542873442173,1.3737846832858244e-05,-1.489366094271342,-0.0016472659384210904,0.0006847907789051533,0.0012888993757466476,-35.3631957,149.1644494,114858.33333333333,1.0,1.0,-152.0,0.0,0.0,-1000.0,0.3333333333333333,2.3333333333333335,3.0,RTL,257723.0
14:49:27,0.005282153996328513,-7.065720637911e-05,-1.4885045289993286,0.0005219618324190378,-0.0002962286040807764,0.00017561045630524555,-35.3631957,149.1644494,116029.0,1.0,1.0,-152.0,0.0,0.0,-1000.0,2.3333333333333335,1.3333333333333333,1.6666666666666667,RTL,257723.0
14:49:29,0.005249192006886005,6.245007110313357e-05,-1.487371285756429,0.0008201752401267489,-5.774525925517082e-05,0.0024266178564478955,-35.3631957,149.1644494,119136.33333333333,1.0,1.0,-152.0,0.0,0.0,-1000.0,2.6666666666666665,1.6666666666666667,3.6666666666666665,RTL,257723.0
14:49:30,0.005147835394988458,-9.112522699676143e-06,-1.4864823420842488,-0.0007705913546184698,4.8645888455212116e-05,0.00027409230824559927,-35.3631957,149.1644494,121077.0,1.0,1.0,-152.0,0.0,0.0,-1000.0,1.3333333333333333,1.6666666666666667,1.3333333333333333,RTL,214642.0
14:49:31,0.0048955522167185945,6.519292946904898e-05,-1.4860690434773762,0.0007893330572793881,0.00122755765914917,1.1277268640697002e-05,-35.3631957,149.1644494,122241.66666666667,1.0,1.0,-152.0,0.0,0.0,-999.6666666666666,2.3333333333333335,2.6666666666666665,1.3333333333333333,RTL,214642.0
14:49:33,0.005079643335193396,4.963020910508931e-05,-1.4852272669474285,-0.000493103095019857,0.0004895029123872519,0.0018245416382948558,-35.3631957,149.1644494,125348.0,1.0,1.0,-152.0,0.0,0.0,-1000.0,1.3333333333333333,2.0,3.3333333333333335,RTL,214642.0
14:49:34,0.005175342472891013,-0.0001809323924438407,-1.4838312864303589,0.00018060719594359398,0.0006942442463090023,0.0023122027050703764,-35.3631957,149.1644494,127289.33333333333,1.0,1.0,-152.0,0.0,0.0,-999.6666666666666,2.0,2.0,4.0,RTL,123887.0
14:49:35,0.005313296181460221,-2.9632663123872287e-05,-1.4836466709772747,0.0016865077583740156,0.0011180030802885692,0.0013112591889997323,-35.3631957,149.1644494,128458.0,1.0,1.0,-152.0,0.0,0.0,-999.6666666666666,3.3333333333333335,2.6666666666666665,2.6666666666666665,RTL,123887.0
14:49:37,0.005124401456365983,-3.85730587974346e-06,-1.4827335278193157,0.0014528685715049505,0.0007966652046889067,0.0007470814744010568,-35.3631957,149.1644494,131561.66666666666,1.0,1.0,-152.0,0.0,0.0,-1000.3333333333334,3.6666666666666665,2.3333333333333335,2.0,RTL,123887.0
14:49:38,0.005608040218551953,-3.314400009912788e-05,-1.4825576146443684,0.0008554720164587101,6.69845612719655e-05,0.0012264510927100976,-35.3631957,149.1644494,133502.0,1.0,1.0,-152.0,0.0,0.0,-999.6666666666666,2.6666666666666665,1.6666666666666667,2.6666666666666665,RTL,143589.0
14:49:39,0.005383799163003762,-3.0170813261065632e-05,-1.4822367429733276,-0.00020090960121403137,0.0012717896606773138,0.001477061149974664,-35.3631957,149.1644494,134667.66666666666,1.0,1.0,-152.0,0.0,0.0,-1000.0,1.6666666666666667,3.0,3.3333333333333335,RTL,143589.0
14:49:41,0.005113545494774978,0.00035526354137497645,-1.4818950096766155,6.233473929266135e-05,9.210613400985797e-05,0.000647122700077792,-35.3631957,149.1644494,137776.66666666666,1.0,1.0,-152.0,0.0,0.0,-999.6666666666666,2.0,1.6666666666666667,2.6666666666666665,RTL,143589.0
14:49:42,0.004693446370462577,0.0001073619653955878,-1.4814852873484294,0.0002504093572497368,0.0008215182460844517,0.0005136598677684864,-35.3631957,149.1644494,139719.33333333334,1.0,1.0,-152.0,0.0,0.0,-1000.0,2.0,2.6666666666666665,2.0,RTL,65826.0
14:49:43,0.004712108677874009,-9.705258465449636e-05,-1.4813205003738403,-0.0003960727093120416,-0.00024775050890942413,0.0009541669860482216,-35.3631956,149.1644494,140883.33333333334,1.0,1.0,-152.0,0.0,0.0,-999.6666666666666,2.0,1.3333333333333333,2.6666666666666665,RTL,65826.0
14:49:45,0.005068201882143815,7.245422724129942e-05,-1.4807864824930828,0.0010110737445453803,0.0012619674671441317,0.0017258061561733484,-35.3631956,149.1644494,143998.0,1.0,1.0,-152.0,0.0,0.0,-999.6666666666666,3.0,2.6666666666666665,3.3333333333333335,RTL,65826.0
14:49:46,0.005109901384760936,8.755505859880941e-05,-1.4806918700536091,0.0005490840412676334,2.1310135101278622e-05,0.0006661904044449329,-35.3631956,149.1644494,145931.66666666666,1.0,1.0,-152.0,0.0,0.0,-1000.3333333333334,2.6666666666666665,2.0,2.3333333333333335,RTL,200.0
14:49:47,0.004956210032105446,-0.00013848628562603457,-1.4807127714157104,0.0004193429679920276,0.0003976065975924333,0.0010123906346658866,-35.3631956,149.1644494,147102.0,1.0,1.0,-152.0,0.0,0.0,-1000.0,2.6666666666666665,2.0,3.0,RTL,200.0
14:49:49,0.0050369976088404655,-0.00015048405233149728,-1.4803455273310344,0.00039917843726774055,0.0013324680427710216,0.00123916519805789,-35.3631956,149.1644494,150210.33333333334,1.0,1.0,-152.0,0.0,0.0,-999.6666666666666,2.0,3.3333333333333335,3.0,RTL,200.0
14:49:50,0.0051329184013108415,-0.00012199722793108474,-1.4792698224385579,0.0015731727083524067,0.0004112664610147476,0.0007438605728869637,-35.3631956,149.1644494,152151.66666666666,1.0,1.0,-152.0,0.0,0.0,-1000.0,3.6666666666666665,2.3333333333333335,2.0,RTL,200.0
14:49:51,0.0053995115061601,2.8172273080902716e-05,-1.4792697032292683,0.0013772620198627312,0.0010480980078379314,0.0015680803917348385,-35.3631956,149.1644494,153316.66666666666,1.0,1.0,-152.0,0.0,0.0,-1000.0,3.3333333333333335,2.6666666666666665,3.6666666666666665,RTL,200.0
14:49:53,0.005243614781647921,-6.919694957711424e-05,-1.4791117906570435,-0.000567963890110453,0.0007615221741919717,0.0005896470199028651,-35.3631956,149.1644494,156428.33333333334,1.0,1.0,-152.0,0.0,0.0,-999.6666666666666,2.0,2.6666666666666665,2.3333333333333335,RTL,200.0
14:49:54,0.0053160359772543115,0.00013967215393980345,-1.4790189266204834,0.00017107937795420489,0.0011578296155979235,0.00020046004404624304,-35.3631956,149.1644494,158365.33333333334,1.0,1.0,-152.0,0.0,0.0,-999.6666666666666,2.0,3.0,2.0,RTL,227121.0
14:49:55,0.00514016409094135,-1.2267593471430397e-05,-1.4789759318033855,0.0008488191912571589,0.0009857474360615015,0.0005955796999235948,-35.3631956,149.1644494,159532.66666666666,1.0,1.0,-152.0,0.0,0.0,-999.3333333333334,3.0,3.0,2.3333333333333335,RTL,227121.0
14:49:57,0.0048853672730426,0.00023449806515903523,-1.479080319404602,0.0007357635380079349,0.0002136176529650887,0.0008121212789167961,-35.3631956,149.1644494,162637.0,1.0,1.0,-152.0,0.0,0.0,-1000.0,3.0,2.3333333333333335,3.0,RTL,227121.0
14:49:58,0.004941686366995175,9.962561731905832e-05,-1.478861888249715,0.00012771377805620432,-0.00013531232252717018,0.0019113492065419753,-35.3631956,149.1644494,164578.33333333334,1.0,1.0,-152.0,0.0,0.0,-999.3333333333334,2.6666666666666665,2.0,3.6666666666666665,RTL,23918.0
14:49:59,0.00510033421839277,0.00013572532043326646,-1.4789029359817505,0.0009003004912907878,0.00033544407536586124,0.0005608836654573679,-35.3631956,149.1644494,165743.33333333334,1.0,1.0,-152.0,0.0,0.0,-999.6666666666666,3.3333333333333335,2.3333333333333335,2.3333333333333335,RTL,23918.0
14:50:01,0.0050837852371235686,-0.0003756029764190316,-1.4787126382191975,0.0005042375608657798,-0.0005872647743672132,0.0013295655759672325,-35.3631956,149.1644494,168853.66666666666,1.0,1.0,-152.0,0.0,0.0,-1000.0,2.6666666666666665,1.3333333333333333,3.3333333333333335,RTL,23918.0
14:50:02,0.004939955814431111,-6.212516776334572e-05,-1.478779713312785,0.0006998806881407896,-0.0006206714703390995,0.0021837458480149508,-35.3631956,149.1644494,170795.0,1.0,1.0,-152.0,0.0,0.0,-999.6666666666666,3.0,1.6666666666666667,4.0,RTL,213753.0
14:50:03,0.0052349854571123915,-0.0004513637298562874,-1.4786909818649292,0.001806053410594662,0.0006696094448367754,0.0013075858199348052,-35.3631956,149.1644494,171959.66666666666,1.0,1.0,-152.0,0.0,0.0,-999.3333333333334,4.0,2.3333333333333335,3.0,RTL,213753.0
14:50:05,0.005241778834412496,-0.00010082583564023177,-1.4786394437154133,1.0487701122959455e-05,0.0007237436560293039,-0.00033985994135340053,-35.3631956,149.1644494,175075.66666666666,1.0,1.0,-152.0,0.0,0.0,-1000.0,2.3333333333333335,2.6666666666666665,1.6666666666666667,RTL,213753.0
14:50:06,0.005290343736608823,0.00047348356262470287,-1.4777727127075195,0.0018434410449117422,-0.0002813126581410567,0.0011966002639383078,-35.3631956,149.1644494,177009.33333333334,1.0,1.0,-152.0,0.0,0.0,-1000.3333333333334,4.0,1.6666666666666667,3.0,RTL,300000.0
14:50:07,0.005220403429120779,-3.366364035173319e-05,-1.4778478145599365,-0.001111879711970687,-0.00011906858223179977,0.0009407300967723131,-35.3631956,149.1644494,178177.0,1.0,1.0,-152.0,0.0,0.0,-999.6666666666666,1.6666666666666667,2.0,3.0,RTL,300000.0
14:50:09,0.00473584762463967,0.00024037970069912262,-1.4775370359420776,-0.001350234301450352,0.0006312265371282896,0.0006275413713107506,-35.3631956,149.1644494,181289.0,1.0,1.0,-152.0,0.0,0.0,-1000.0,0.6666666666666666,2.6666666666666665,2.3333333333333335,RTL,300000.0
14:50:10,0.004893996752798557,-0.00015289885292683417,-1.4781049887339275,0.0009448948161055645,8.350005373358727e-05,0.0015233185452719529,-35.3631956,149.1644494,183230.33333333334,1.0,1.0,-152.0,0.0,0.0,-1000.3333333333334,3.0,2.3333333333333335,3.6666666666666665,RTL,83831.0
14:50:11,0.005081169152011474,-0.00016854646734524673,-1.4779070218404133,0.0017744878617425759,0.0011474367541571457,0.0012672161683440208,-35.3631956,149.1644494,184395.66666666666,1.0,1.0,-152.0,0.0,0.0,-999.6666666666666,4.0,3.3333333333333335,3.0,RTL,83831.0
14:50:13,0.004908149441083272,7.35518539537831e-05,-1.4780362049738567,-0.0007194500649347901,-0.00010288270035137732,0.0008552917279303074,-35.3631956,149.1644494,187506.0,1.0,1.0,-152.0,0.0,0.0,-1000.0,1.6666666666666667,2.3333333333333335,2.6666666666666665,RTL,83831.0
14:50:14,0.00502295062566797,-0.00018237229232909158,-1.477950652440389,0.0001856587283934156,0.0007634991779923439,0.00011701284286876519,-35.3631956,149.1644494,189443.66666666666,1.0,1.0,-152.0,0.0,0.0,-999.6666666666666,2.6666666666666665,3.3333333333333335,2.0,RTL,300000.0
14:50:15,0.004997221753001213,-0.00039308144187089056,-1.478009819984436,0.0009898357869436343,-0.0005477997474372387,0.0014173708235224087,-35.3631956,149.1644494,190608.0,1.0,1.0,-152.0,0.0,0.0,-999.6666666666666,3.3333333333333335,1.3333333333333333,3.6666666666666665,RTL,300000.0
14:50:17,0.005493669304996729,-0.00011741080015781336,-1.4779656330744426,0.0007084257279833158,0.0004182451715071996,0.00036886435312529403,-35.3631956,149.1644494,193714.66666666666,1.0,1.0,-152.0,0.0,0.0,-999.6666666666666,3.3333333333333335,3.0,2.6666666666666665,RTL,300000.0
14:50:18,0.005426735617220402,-0.00016200740598530197,-1.478043834368388,-0.0010974955124159653,0.0006245288532227278,-7.2058600684007e-05,-35.3631956,149.1644494,195659.0,1.0,1.0,-152.0,0.0,0.0,-999.6666666666666,1.6666666666666667,2.6666666666666665,2.3333333333333335,RTL,150060.0
14:50:19,0.0052842336396376295,0.0003466751368250698,-1.4781304995218914,-0.0010687833031018574,0.0010436761658638716,-0.000794814977174004,-35.3631956,149.1644494,196825.66666666666,1.0,1.0,-152.0,0.0,0.0,-1000.3333333333334,1.0,3.3333333333333335,1.3333333333333333,RTL,150060.0
14:50:21,0.005183628449837367,0.00010243867048605655,-1.478112816810608,0.0003161427254478137,0.0009770434504995744,0.0008953320793807507,-35.3631956,149.1644494,199931.0,1.0,1.0,-152.0,0.0,0.0,-999.6666666666666,3.0,3.3333333333333335,3.0,RTL,150060.0
14:50:22,0.00464202215274175,0.00026614249509293586,-1.4773168563842773,-0.000745000938574473,0.0006684848728279272,8.897227235138416e-05,-35.3631956,149.1644494,201878.33333333334,1.0,1.0,-152.0,0.0,0.0,-1000.0,2.0,3.3333333333333335,2.0,RTL,109134.0
14:50:23,0.0047368874462942285,-0.00010784182086354122,-1.4771475791931152,0.00047707736181716126,-0.0007727096478144327,0.0006941969816883405,-35.3631956,149.1644494,203045.0,1.0,1.0,-152.0,0.0,0.0,-1000.3333333333334,2.6666666666666665,1.6666666666666667,2.6666666666666665,RTL,109134.0
14:50:25,0.0050921182458599406,-0.0001416169228226257,-1.477393349011739,0.0003240776713937521,0.0004640178910146157,0.0009940587139377992,-35.3631956,149.1644494,206150.33333333334,1.0,1.0,-152.0,0.0,0.0,-999.6666666666666,3.0,2.6666666666666665,3.0,RTL,109134.0
14:50:26,0.004905277397483587,4.238886958773946e-06,-1.4775971174240112,-0.00026969704777002335,0.0005972017534077168,0.00044448340001205605,-35.3631956,149.1644494,208086.66666666666,1.0,1.0,-152.0,0.0,0.0,-1000.0,2.3333333333333335,3.0,2.3333333333333335,RTL,107583.0
14:50:27,0.0049950252287089825,-3.7713808220966406e-05,-1.4776889085769653,0.0003200490027666092,-0.00016290942827860513,0.0009779775670419137,-35.3631956,149.1644494,209252.0,1.0,1.0,-152.0,0.0,0.0,-1000.0,3.0,2.3333333333333335,3.0,RTL,107583.0
14:50:29,0.0026791171403601766,0.056146156042814255,-1.4774041970570881,-0.0027233979975183806,0.03553713237245878,0.0014479033028086026,-35.3631957,149.1644512,212348.0,-1.0,36.333333333333336,-149.0,4.333333333333333,2.3333333333333335,-998.0,0.3333333333333333,37.666666666666664,3.6666666666666665,RTL,107583.0
14:50:30,-0.007764500876267751,0.09902291496594746,-1.4768637816111247,-0.00811976877351602,0.03842997302611669,-0.00042728617942581576,-35.363196300000006,149.164461,214210.66666666666,-8.0,114.66666666666667,-140.0,18.0,10.666666666666666,-991.3333333333334,-4.333333333333333,40.666666666666664,1.6666666666666667,RTL,200.0
14:50:31,-0.03495818407585224,0.17052972068389258,-1.3877286116282146,-0.12124014149109523,0.1484976957241694,0.35803115864594776,-35.3631971,149.16447293333331,215224.0,-21.333333333333332,182.66666666666666,-115.66666666666667,33.333333333333336,13.666666666666666,-945.6666666666666,-117.66666666666667,151.0,360.3333333333333,RTL,200.0
14:50:33,0.08898919820785522,0.14150133728981018,-0.9219402074813843,-0.03263077853868405,0.06261120364069939,0.02870064911743005,-35.3632061,149.1645373,216150.33333333334,-31.666666666666668,380.0,14.0,87.66666666666667,5.333333333333333,-959.0,-29.666666666666668,65.33333333333333,31.0,RTL,200.0
14:50:34,0.05892680833737055,0.2121365269025167,-0.933468242486318,-0.07076850160956383,0.015454423846676946,-0.03701805602759123,-35.3632083,149.16459853333333,215805.33333333334,-18.0,512.0,24.333333333333332,120.66666666666667,-0.6666666666666666,-1019.3333333333334,-67.66666666666667,18.0,-33.666666666666664,RTL,200.0
14:50:35,0.022897017498811085,0.2092628280321757,-0.9673287073771158,-0.0447565745562315,-0.029507306404411793,-0.0471226175626119,-35.36321006666667,149.16464396666666,215671.0,-35.666666666666664,584.0,7.333333333333333,133.66666666666666,1.0,-1017.3333333333334,-42.0,-26.0,-44.0,RTL,200.0
14:50:37,-0.017064175258080166,0.16719966133435568,-1.0502570072809856,0.019555825817709167,-0.025857357308268547,-0.03303601654867331,-35.36322063333333,149.16478486666668,215707.0,-74.33333333333333,673.3333333333334,-6.0,153.66666666666666,12.666666666666666,-989.6666666666666,22.666666666666668,-22.333333333333332,-30.0,RTL,200.0
14:50:38,-0.026704141249259312,0.1531693438688914,-1.095580816268921,0.00889273569919169,0.023841102917989094,-0.03497742799421152,-35.36322933333333,149.1648779,215775.33333333334,-76.66666666666667,674.6666666666666,-0.6666666666666666,151.66666666666666,31.0,-977.0,12.0,26.333333333333332,-31.666666666666668,RTL,220526.0
14:50:39,-0.025199012209971745,0.14656129479408264,-1.1200097799301147,-0.010406120990713438,-0.041388665325939655,-0.03093450888991356,-35.3632347,149.1649338,215768.66666666666,-76.33333333333333,676.0,1.3333333333333333,150.33333333333334,28.0,-994.6666666666666,-7.0,-38.0,-27.333333333333332,RTL,220526.0
14:50:41,-0.05862914646665255,0.0459480918943882,-1.1718331178029378,0.2036479910214742,-0.03512310050427914,-0.02084650161365668,-35.36324763333334,149.1650741,215830.0,-62.0,574.0,0.3333333333333333,131.33333333333334,42.0,-997.0,206.33333333333334,-31.333333333333332,-18.0,RTL,220526.0
14:50:42,-0.05616834759712219,-0.02066660936300953,-1.1941415468851726,0.5313533544540405,-0.05603029206395149,-0.00960771149645249,-35.3632544,149.16514476666666,215807.33333333334,-49.666666666666664,443.6666666666667,3.0,97.0,57.0,-1001.3333333333334,534.0,-52.666666666666664,-6.666666666666667,RTL,80704.0
14:50:43,-0.06344499439001083,-0.039137241741021477,-1.2070224285125732,-0.5308497945467631,-0.0016306728745500247,-0.026930635794997215,-35.36325776666667,149.16517786666668,215777.33333333334,-39.666666666666664,350.3333333333333,5.0,80.66666666666667,13.333333333333334,-993.0,-527.0,1.3333333333333333,-24.0,RTL,80704.0
14:50:45,-0.03468501940369606,-0.0734414557615916,-1.2333794434865315,0.20362276832262674,0.02566234061184029,0.00563261021549503,-35.3632629,149.1652307,215726.66666666666,-13.666666666666666,127.0,2.0,28.666666666666668,28.0,-1001.6666666666666,207.33333333333334,28.333333333333332,8.333333333333334,RTL,80704.0
14:50:46,-0.010679811976539591,-0.046718704203764595,-1.2471163670221965,-0.11461171507835388,0.017825452300409477,-0.008982130791991949,-35.36326416666667,149.1652417,215719.33333333334,-3.3333333333333335,36.333333333333336,0.3333333333333333,7.666666666666667,9.666666666666666,-999.3333333333334,-110.66666666666667,20.666666666666668,-5.666666666666667,RTL,300000.0
14:50:47,0.0071313650502512855,-0.03283184083799521,-1.253957748413086,-0.051755537589391075,0.020999967120587826,-0.013030052495499453,-35.363264533333336,149.16524353333332,215724.66666666666,2.0,6.333333333333333,0.0,1.6666666666666667,-13.333333333333334,-996.3333333333334,-49.0,23.333333333333332,-9.666666666666666,RTL,300000.0
14:50:49,0.008731871377676725,-0.0057929341758911805,-1.268804391225179,0.36803200592597324,-0.017300696733097237,-0.0065026247563461466,-35.363264,149.16524303333335,215739.66666666666,10.0,-5.0,0.3333333333333333,0.0,15.0,-999.3333333333334,371.3333333333333,-14.0,-3.0,RTL,300000.0
14:50:50,-0.007588448779036601,-0.00886395356307427,-1.2769460678100586,0.06324747732530038,0.004778648881862561,-0.0015241111783931653,-35.36326293333334,149.1652424,215737.33333333334,5.0,-13.0,0.3333333333333333,-1.6666666666666667,11.333333333333334,-1000.0,67.0,7.0,1.3333333333333333,RTL,227307.0
14:50:51,-0.001666310088088115,-0.005670516596486171,-1.2815224329630535,-0.30323853592077893,0.0064590005204081535,-0.006864897984390457,-35.36326259999999,149.1652416,215738.66666666666,0.3333333333333333,-15.333333333333334,0.3333333333333333,-2.3333333333333335,-21.333333333333332,-991.0,-300.3333333333333,8.666666666666666,-3.6666666666666665,RTL,227307.0
14:50:53,0.0011585438624024391,-0.0018597463301072519,-1.292495886484782,0.30251481135686237,-0.00036022540492316085,-0.002653870382346213,-35.36326196666666,149.16523973333332,215738.33333333334,-2.3333333333333335,-11.333333333333334,0.3333333333333333,-1.3333333333333333,14.666666666666666,-1002.6666666666666,305.6666666666667,1.6666666666666667,0.3333333333333333,RTL,227307.0
14:50:54,-0.0069859760502974195,-0.0026207763391236463,-1.2984159390131633,-0.4355701083938281,0.0011589027320345242,-0.004038357719158133,-35.36326196666666,149.1652389666667,215546.0,-3.6666666666666665,-8.0,47.333333333333336,-1.0,2.6666666666666665,-934.6666666666666,-431.0,3.6666666666666665,-0.6666666666666666,RTL,154294.0
14:50:55,0.002205004643959304,-0.0029342243603120246,-1.3013741970062256,0.7665724158287048,-0.0014116764068603516,0.003196237220739325,-35.363262033333335,149.16523866666668,215014.0,-1.6666666666666667,-6.333333333333333,91.66666666666667,-1.0,63.0,-956.6666666666666,771.3333333333334,0.6666666666666666,5.666666666666667,RTL,154294.0
14:50:57,0.011975004648168882,-0.004382327509423097,-1.3096208969751995,1.1533544262250264,-0.004105821174258987,-0.004855598711098234,-35.363262133333336,149.16523826666665,212790.66666666666,-0.3333333333333333,-4.0,102.0,-2.0,73.66666666666667,-1026.6666666666667,1157.3333333333333,-1.6666666666666667,-1.6666666666666667,RTL,154294.0
14:50:58,0.029069336131215096,-0.005593719271322091,-1.3143680095672607,1.3222211996714275,0.0011902903206646442,-0.00025871019655217725,-35.363263100000005,149.1652379,211502.66666666666,4.0,-2.6666666666666665,99.0,-1.0,68.0,-1024.0,1326.0,3.3333333333333335,2.6666666666666665,RTL,227008.0
14:50:59,0.03450331340233485,-0.003244598861783743,-1.316751519838969,1.2831337054570515,0.001118175491380195,-0.0016536884941160679,-35.3632633,149.16523773333336,210739.0,8.666666666666666,-2.0,97.33333333333333,0.0,43.333333333333336,-1031.3333333333333,1285.6666666666667,2.6666666666666665,1.6666666666666667,RTL,227008.0
14:51:01,0.026519582296411198,-0.002656698925420642,-1.3229920069376628,1.0928789377212524,-0.0028473772884656987,-0.005296210835998257,-35.363262966666674,149.16523763333333,208701.66666666666,7.666666666666667,-0.3333333333333333,97.66666666666667,-0.6666666666666666,23.666666666666668,-1065.3333333333333,1095.0,-0.6666666666666666,-2.0,RTL,227008.0
14:51:02,0.026012244323889416,-0.0008825482497438012,-1.3266117175420125,0.6367788314819336,-0.0023594327891866365,-0.01048056206976374,-35.36326293333334,149.1652376,207430.33333333334,6.0,-0.6666666666666666,103.0,1.0,-15.333333333333334,-989.3333333333334,637.6666666666666,-0.3333333333333333,-6.666666666666667,RTL,248693.0
14:51:03,0.008585823804120688,0.0016816796463293333,-1.3283060391743977,-0.3425380264719327,-0.0004270343730847041,-0.010158383597930273,-35.36326236666667,149.16523763333336,206663.0,3.6666666666666665,-1.6666666666666667,99.33333333333333,5.333333333333333,-65.66666666666667,-986.3333333333334,-340.3333333333333,1.3333333333333333,-6.666666666666667,RTL,248693.0
14:51:05,-0.02192698170741399,-0.0008947933577777197,-1.3330680926640828,-0.774767796198527,-0.003724603603283564,-0.00840410590171814,-35.36325956666667,149.16523843333331,204626.33333333334,-21.0,-5.666666666666667,101.33333333333333,2.0,-69.0,-973.3333333333334,-773.3333333333334,-1.3333333333333333,-4.666666666666667,RTL,248693.0
14:51:06,-0.03103845256070296,-0.004829073945681254,-1.3356706301371257,-1.3280661900838215,0.005483235775803526,-0.006204839834632973,-35.36325936666667,149.16523876666668,203364.0,-28.0,-7.666666666666667,100.66666666666667,-1.6666666666666667,-63.333333333333336,-982.6666666666666,-1325.3333333333333,7.333333333333333,-2.6666666666666665,RTL,242437.0
14:51:07,-0.02894536405801773,-0.006381121619294087,-1.337781508763631,-1.2702426513036091,-0.004527783719822764,0.006177225615829229,-35.363259899999996,149.16523873333335,202596.33333333334,-27.0,-8.0,101.33333333333333,-3.3333333333333335,-37.0,-1019.0,-1267.0,-2.3333333333333335,9.666666666666666,RTL,242437.0
14:51:09,0.0022957564991277954,-0.0042523899270842476,-1.3406468232472737,-0.4800960123538971,0.004309681477025151,0.002961080754175782,-35.363262600000006,149.16523776666665,200537.66666666666,-4.0,-4.0,100.33333333333333,-3.3333333333333335,21.0,-1022.0,-475.6666666666667,6.0,5.666666666666667,RTL,242437.0
14:51:10,0.012502575448403755,-0.003253830519194404,-1.3425702651341755,0.017881877720355988,0.0022825528091440597,-0.0034298845566809177,-35.3632639,149.16523706666666,199259.33333333334,8.333333333333334,1.0,99.66666666666667,-4.333333333333333,41.666666666666664,-977.3333333333334,23.0,4.333333333333333,0.0,RTL,300000.0
14:51:11,0.026578236371278763,-0.0030532875874390206,-1.3434010744094849,0.31698312362035114,0.005416033479074637,8.11251811683178e-06,-35.36326483333334,149.16523676666665,198493.0,17.666666666666668,3.6666666666666665,99.33333333333333,-3.3333333333333335,59.0,-984.6666666666666,321.6666666666667,7.0,3.3333333333333335,RTL,300000.0
14:51:13,0.022100429981946945,0.0028973500399539867,-1.3456300099690754,1.1109248399734497,0.0033873022378732762,0.007631106612583001,-35.36326486666667,149.16523643333332,196456.66666666666,31.666666666666668,7.0,102.33333333333333,1.6666666666666667,71.0,-1011.6666666666666,1115.0,5.666666666666667,10.666666666666666,RTL,300000.0
14:51:14,0.014572539987663427,0.004329885356128216,-1.3476105133692424,1.4373561143875122,0.000366778423388799,0.004675486125051975,-35.363263366666665,149.1652368,195188.0,21.666666666666668,5.666666666666667,101.66666666666667,2.3333333333333335,59.666666666666664,-981.0,1440.6666666666667,2.0,7.333333333333333,RTL,107978.0
14:51:15,0.007846263082077106,0.002843947382643819,-1.3485788504282634,1.2857931057612102,-0.004374029114842415,0.003641831766193112,-35.3632624,149.1652371,194413.0,12.0,3.6666666666666665,99.0,4.333333333333333,56.666666666666664,-1018.6666666666666,1289.3333333333333,-1.6666666666666667,6.333333333333333,RTL,107978.0
14:51:17,-0.004835206549614668,0.0013172143953852355,-1.3508275747299194,0.6376660366853079,-0.00536732655018568,-0.004359035170637071,-35.36326,149.16523800000002,192385.0,-14.333333333333334,-2.0,99.0,2.3333333333333335,-9.0,-1008.6666666666666,638.6666666666666,-2.3333333333333335,-1.0,RTL,107978.0
14:51:18,-0.010681801786025366,-0.0014814778114669025,-1.3519804080327351,-0.20799989501635233,-0.0017407090247919161,-0.005746113912512858,-35.3632594,149.16523833333335,191108.66666666666,-25.666666666666668,-4.666666666666667,102.0,0.3333333333333333,-47.0,-1004.0,-207.33333333333334,0.6666666666666666,-1.6666666666666667,RTL,202960.0
14:51:19,-0.015232767288883528,-0.003931354808931549,-1.3527177969614665,-0.8316583037376404,-0.00560850091278553,-0.006848148147885998,-35.363259533333334,149.16523846666666,190339.66666666666,-27.666666666666668,-5.333333333333333,99.66666666666667,-0.6666666666666666,-61.0,-1008.3333333333334,-830.3333333333334,-3.3333333333333335,-3.3333333333333335,RTL,202960.0
14:51:21,0.006613524708275993,-0.005311986897140741,-1.3542472124099731,-1.1038270592689514,-0.002826936232546965,-0.002338839190391203,-35.36326183333333,149.1652379,188294.66666666666,-14.333333333333334,-3.3333333333333335,95.33333333333333,-3.0,-63.333333333333336,-993.6666666666666,-1102.0,-0.3333333333333333,0.6666666666666666,RTL,202960.0
14:51:22,0.011321231878052155,-0.00381011290786167,-1.3549288511276245,-1.300405462582906,0.0011551615316420794,-0.010151020639265576,-35.36326333333333,149.16523736666667,187003.66666666666,2.3333333333333335,-0.3333333333333333,98.0,-2.6666666666666665,-65.33333333333333,-1013.3333333333334,-1298.0,3.3333333333333335,-6.666666666666667,RTL,200.0
14:51:23,0.003123154165223241,-0.0014235775161068887,-1.3553998072942097,-1.1603951454162598,0.005866542148093383,-0.0022079492531095943,-35.36326383333333,149.16523709999998,186244.0,9.333333333333334,0.6666666666666666,98.0,-1.6666666666666667,-31.333333333333332,-1000.0,-1156.3333333333333,7.666666666666667,1.3333333333333333,RTL,200.0
14:51:25,-0.012369603539506594,0.003726313589140773,-1.356202205022176,-0.3552041749159495,0.0041189839442571,0.006552998519813021,-35.36326326666667,149.16523683333332,184202.33333333334,15.0,3.6666666666666665,99.33333333333333,1.6666666666666667,21.333333333333332,-994.6666666666666,-350.0,6.0,9.666666666666666,RTL,200.0
14:51:26,-0.02397436524430911,0.0008028014951075116,-1.3575719197591145,-1.117360790570577,-0.0030768131837248802,0.0014688206526140373,-35.36326223333334,149.1652372,182928.33333333334,5.0,2.6666666666666665,98.66666666666667,0.6666666666666666,-22.333333333333332,-1022.3333333333334,-1113.0,-1.0,4.666666666666667,RTL,247782.0
14:51:27,-0.01987482359011968,-0.0023629850087066493,-1.357709487279256,-1.0646768013636272,-0.001331876575325926,0.0034979581832885742,-35.3632621,149.16523743333332,182176.66666666666,0.6666666666666666,1.3333333333333333,98.66666666666667,-0.3333333333333333,-17.666666666666668,-981.6666666666666,-1060.3333333333333,1.0,6.666666666666667,RTL,247782.0
14:51:29,-0.01766325005640586,0.00042952670870969695,-1.35832945505778,-0.04486371576786041,0.004904313323398431,-0.002328493787596623,-35.3632619,149.1652377,180138.0,0.3333333333333333,-1.0,99.33333333333333,1.0,31.0,-997.3333333333334,-40.333333333333336,6.666666666666667,1.3333333333333333,RTL,247782.0
14:51:30,-0.022979585453867912,0.0024294343311339617,-1.3589047988255818,0.5030296047528585,-0.002015059581026435,0.005261569128682216,-35.363260700000005,149.16523786666667,178864.0,-6.333333333333333,-2.0,102.0,2.0,53.666666666666664,-987.0,507.3333333333333,0.3333333333333333,8.333333333333334,RTL,40807.0
14:51:31,-0.013163795384267965,0.0011571664751196902,-1.35832683245341,1.133201797803243,-0.007105266364912192,0.0047250355904301005,-35.36326003333333,149.16523803333334,178101.66666666666,-14.333333333333334,-3.0,97.66666666666667,0.6666666666666666,65.66666666666667,-1010.0,1136.6666666666667,-4.333333333333333,8.333333333333334,RTL,40807.0
14:51:33,0.01596250819663207,-0.003915955778211355,-1.3597297668457031,1.0295567512512207,-0.0031432879623025656,-0.004760780604556203,-35.363260233333335,149.16523823333333,176070.66666666666,-22.666666666666668,-4.0,100.66666666666667,-2.3333333333333335,22.333333333333332,-1017.6666666666666,1030.3333333333333,-0.6666666666666666,-1.3333333333333333,RTL,40807.0
14:51:34,0.030702682211995125,-0.004466845653951168,-1.360417326291402,1.1301048199335735,0.00033789481191585463,0.0021532756897310414,-35.363261599999994,149.16523786666667,174803.33333333334,-15.0,-3.0,102.33333333333333,-2.6666666666666665,26.333333333333332,-990.0,1130.6666666666667,2.0,5.0,RTL,193048.0
14:51:35,0.03491819649934769,-0.0023788747300083437,-1.3603108723958333,0.783637007077535,-0.00023798753196994463,-0.0033370372839272022,-35.36326236666667,149.16523759999998,174035.0,-4.666666666666667,-1.3333333333333333,103.0,-0.3333333333333333,5.0,-1004.0,784.0,2.0,0.0,RTL,193048.0
14:51:37,0.04606202617287636,-0.0031175201293081045,-1.3609163363774617,0.8308427135149637,-0.002872688928619027,-0.00037993087122837704,-35.36326386666667,149.16523703333334,171996.33333333334,8.666666666666666,2.3333333333333335,102.0,-2.0,4.666666666666667,-1001.0,831.3333333333334,0.0,3.3333333333333335,RTL,193048.0
14:51:38,0.054302667578061424,-0.0002081300966286411,-1.3608648379643757,0.8207621773084005,0.0015503716034193833,-0.012082169918964306,-35.36326483333334,149.1652366666667,170719.0,20.666666666666668,4.0,104.33333333333333,0.3333333333333333,-2.0,-968.6666666666666,821.6666666666666,3.3333333333333335,-8.0,RTL,254691.0
14:51:39,0.03851685921351115,0.0025049273390322924,-1.3608113924662273,0.4477277770638466,-0.0005695518727103869,-0.008915608515962958,-35.36326463333333,149.1652366,169954.33333333334,24.666666666666668,5.0,99.33333333333333,2.3333333333333335,-18.666666666666668,-1005.6666666666666,448.6666666666667,1.6666666666666667,-5.0,RTL,254691.0
14:51:41,0.004635724083830913,0.001831854033904771,-1.3617688417434692,-0.8143579065799713,-0.0033066493148605027,-0.007670773348460595,-35.36326276666667,149.16523703333334,167899.33333333334,10.333333333333334,3.3333333333333335,99.66666666666667,2.3333333333333335,-74.33333333333333,-992.6666666666666,-812.6666666666666,-0.6666666666666666,-3.3333333333333335,RTL,254691.0
14:51:42,-0.012212057908376059,-0.001597182301338762,-1.3616125186284382,-1.254750410715739,-0.0022856250094870725,0.001693934512635072,-35.363262,149.16523750000002,166621.66666666666,0.3333333333333333,1.3333333333333333,98.66666666666667,0.0,-65.66666666666667,-1028.3333333333333,-1252.3333333333333,0.0,5.0,RTL,244668.0
14:51:43,-0.011544298070172468,-0.0018330669263377786,-1.3619317213694255,-1.4340854088465373,0.00026843549373249215,0.0026535484163711467,-35.363262,149.1652376,165850.33333333334,0.0,0.0,104.0,0.6666666666666666,-57.666666666666664,-1003.0,-1430.6666666666667,2.3333333333333335,6.0,RTL,244668.0
14:51:45,-0.007117584192504485,-0.0031997127613673606,-1.3622101545333862,-0.9332846999168396,0.0007630985540648302,0.006656571601827939,-35.3632627,149.16523746666667,163805.66666666666,1.6666666666666667,1.0,103.66666666666667,-2.3333333333333335,-5.0,-980.0,-928.3333333333334,2.6666666666666665,9.666666666666666,RTL,244668.0
14:51:46,0.009924178787817558,-0.003959056843693058,-1.3625565369923909,-0.7538708845774332,-0.0004885110538452864,0.002821858429039518,-35.3632641,149.16523706666666,162534.33333333334,11.0,2.6666666666666665,100.33333333333333,-3.6666666666666665,-1.0,-994.3333333333334,-748.6666666666666,1.6666666666666667,6.333333333333333,RTL,132476.0
14:51:47,0.020442572111884754,-0.0025989369799693427,-1.3620857000350952,-0.2619611546397209,0.004607111137981216,0.011635283629099527,-35.363265000000006,149.16523676666668,161769.66666666666,20.0,4.333333333333333,101.66666666666667,-3.0,28.333333333333332,-1002.3333333333334,-256.3333333333333,6.666666666666667,15.0,RTL,132476.0
14:51:49,0.02333616403241952,0.006037531265368064,-1.3625829617182414,1.277959903081258,0.008196786977350712,0.00750764599069953,-35.36326450000001,149.1652365,159724.33333333334,31.0,6.0,98.33333333333333,3.3333333333333335,59.0,-1006.3333333333334,1282.3333333333333,10.333333333333334,10.666666666666666,RTL,132476.0
14:51:50,0.016162269438306492,0.0038324201789995036,-1.3628389437993367,1.0548065900802612,-0.006320135823140542,0.0004993323236703873,-35.363262666666664,149.16523686666667,158442.33333333334,15.0,5.666666666666667,100.33333333333333,2.0,15.333333333333334,-1016.0,1057.3333333333333,-3.3333333333333335,4.0,RTL,300000.0
14:51:51,0.012344866370161375,0.00029629455336059135,-1.3620657523473103,0.3609008714556694,-0.006722447617600362,-0.007246553897857666,-35.363262133333336,149.1652372,157678.66666666666,5.333333333333333,4.333333333333333,100.0,1.3333333333333333,-19.333333333333332,-1010.0,362.6666666666667,-4.0,-3.0,RTL,300000.0
14:51:53,0.018605503874520462,-0.0044583969283849,-1.3618577321370442,-1.0912591616312664,0.002944973452637593,-0.004342417387912671,-35.36326306666667,149.1652375,155643.66666666666,3.0,0.0,99.33333333333333,-0.6666666666666666,-76.0,-952.0,-1088.6666666666667,5.0,-0.3333333333333333,RTL,300000.0
14:51:54,0.009580889716744423,-0.0004992767111010229,-1.362924853960673,-0.6248989105224609,0.00029578525573015213,-0.00919180503115058,-35.36326296666667,149.1652375,154358.66666666666,7.0,-0.6666666666666666,98.0,1.6666666666666667,-69.66666666666667,-983.6666666666666,-622.0,2.3333333333333335,-5.0,RTL,280551.0
14:51:55,0.00032906360380972427,0.0031792176887392998,-1.3628194729487102,-0.9043845534324646,0.0024610397716363273,-0.003972395633657773,-35.3632623,149.1652375,153592.66666666666,6.0,-0.3333333333333333,98.33333333333333,1.6666666666666667,-67.66666666666667,-1003.0,-901.6666666666666,4.333333333333333,0.0,RTL,280551.0
14:51:57,-0.0041145106467107935,-0.001985521987080574,-1.3637107213338215,-0.9939850767453512,-0.006567818811163306,-0.004528467310592532,-35.3632611,149.1652377,151558.66666666666,-10.333333333333334,0.0,98.66666666666667,-0.6666666666666666,-63.333333333333336,-994.0,-991.0,-3.6666666666666665,-0.6666666666666666,RTL,280551.0
14:51:58,0.014616440360744795,-0.006736294211198886,-1.3632304668426514,-0.6070343255996704,-0.006562584079802036,-0.0025679985216508308,-35.36326223333333,149.16523766666668,150281.66666666666,-5.333333333333333,0.0,99.0,-4.333333333333333,-53.333333333333336,-994.6666666666666,-604.0,-3.3333333333333335,1.3333333333333333,RTL,210737.0
14:51:59,0.029231442138552666,-0.008501587125162283,-1.363304336865743,-1.1756772994995117,-0.0025225194015850625,0.0006915826816111803,-35.363263866666664,149.1652374,149532.66666666666,1.3333333333333333,0.3333333333333333,98.33333333333333,-3.6666666666666665,-66.33333333333333,-995.3333333333334,-1172.0,0.3333333333333333,4.666666666666667,RTL,210737.0
14:52:01,0.015445920949180921,-0.00030430305438737076,-1.3630434274673462,-0.9311420917510986,0.008962135296314955,0.008359465282410383,-35.36326606666666,149.1652366,147504.0,35.666666666666664,4.333333333333333,103.33333333333333,0.3333333333333333,-11.333333333333334,-981.0,-924.0,11.0,12.333333333333334,RTL,210737.0
14:52:02,-0.0038957695942372084,0.005688889417797327,-1.3622645139694214,-0.45171937346458435,0.0022634975612163544,0.008811037677029768,-35.3632646,149.1652365333333,146225.66666666666,33.666666666666664,5.0,102.33333333333333,4.0,8.333333333333334,-971.0,-444.3333333333333,4.666666666666667,12.333333333333334,RTL,200.0
14:52:03,-0.021263982479770977,0.005099121170739333,-1.3623605569203694,-0.3551444212595622,-0.003237756007971863,0.007234136884411176,-35.36326316666666,149.16523683333335,145459.66666666666,23.333333333333332,4.666666666666667,101.66666666666667,4.0,18.333333333333332,-1003.6666666666666,-347.3333333333333,-0.6666666666666666,10.666666666666666,RTL,200.0
14:52:05,-0.017808604364593823,-0.004378965978200237,-1.3623857100804646,-0.6651288469632467,-0.0015968534474571545,0.005062905140221119,-35.36326193333333,149.16523766666668,143428.33333333334,1.3333333333333333,0.6666666666666666,102.33333333333333,0.0,8.0,-1019.0,-657.6666666666666,1.0,8.333333333333334,RTL,200.0
14:52:06,-0.002533674434137841,-0.005224137722204129,-1.3626129627227783,-0.4556666115919749,0.005095218385880192,0.009692465731253227,-35.363262533333334,149.1652378,142166.33333333334,2.6666666666666665,-0.3333333333333333,102.0,-1.3333333333333333,20.0,-983.0,-448.0,7.333333333333333,13.333333333333334,RTL,300000.0
14:52:07,-0.004504669923335314,-0.0034518775840600333,-1.3632656733194988,-0.3161179373661677,0.0029472329964240393,0.0010524739821751912,-35.363262733333336,149.1652378,141399.66666666666,6.0,-1.0,104.0,-1.6666666666666667,25.333333333333332,-1011.6666666666666,-308.3333333333333,5.0,4.333333333333333,RTL,300000.0
14:52:09,0.015824916151662666,-0.004377333447337151,-1.3626868327458699,-0.10757258472343285,0.0003682731185108423,-0.000464088749140501,-35.36326423333333,149.1652372,139357.66666666666,15.333333333333334,1.6666666666666667,103.0,-3.6666666666666665,36.0,-996.3333333333334,-100.0,2.0,3.3333333333333335,RTL,300000.0
14:52:10,0.030755669499437015,-0.0042575861637790995,-1.3629716237386067,-0.1089629332224528,0.0035202316163728633,0.0033800179759661355,-35.363265899999995,149.16523676666668,138069.33333333334,29.333333333333332,4.333333333333333,104.0,-2.0,40.666666666666664,-970.0,-101.0,5.333333333333333,7.0,RTL,39056.0
14:52:11,0.040811728686094284,-0.002962631561482946,-1.3630298376083374,0.7049135565757751,0.0012141023762524128,-0.00066973059438169,-35.36326643333334,149.1652365,137309.66666666666,38.666666666666664,6.333333333333333,100.33333333333333,-1.3333333333333333,62.666666666666664,-1012.3333333333334,713.0,3.0,3.3333333333333335,RTL,39056.0
14:52:13,0.040227881322304405,-0.0016490764489086966,-1.362345854441325,0.908154159784317,0.002932886127382517,-0.0019622275916238627,-35.363266933333335,149.1652362,135270.66666666666,49.0,9.333333333333334,103.0,-1.6666666666666667,73.66666666666667,-999.3333333333334,916.6666666666666,5.666666666666667,2.0,RTL,39056.0
14:52:14,0.038997966796159744,0.0009708967021045586,-1.3621679147084553,1.0791230003039043,0.0050101187856247025,0.0060887145809829235,-35.3632668,149.1652361,133991.33333333334,51.666666666666664,10.0,103.66666666666667,0.6666666666666666,78.0,-990.0,1088.6666666666667,7.333333333333333,9.333333333333334,RTL,261209.0
14:52:15,0.032690449307362236,0.003440741915255785,-1.3625980615615845,1.1711444060007732,0.005416132354487975,0.0037331636995077133,-35.3632663,149.16523623333333,133222.0,49.333333333333336,9.333333333333334,101.0,4.0,69.66666666666667,-1003.3333333333334,1181.0,7.333333333333333,7.333333333333333,RTL,261209.0
14:52:17,-0.015598456064860025,0.0017580684968076337,-1.3627289533615112,0.40034444133440655,-0.005561716544131438,0.007525979541242123,-35.363262600000006,149.16523723333333,131171.0,20.0,5.0,100.66666666666667,2.0,51.666666666666664,-1009.3333333333334,410.3333333333333,-2.6666666666666665,11.0,RTL,261209.0
14:52:18,-0.004321712612484892,-0.0018507285276427865,-1.3627505699793498,0.9486460189024607,0.002775925677269697,0.005347127405305703,-35.363261800000004,149.1652378,129891.0,4.666666666666667,0.3333333333333333,103.0,0.6666666666666666,71.66666666666667,-970.6666666666666,958.6666666666666,4.666666666666667,8.666666666666666,RTL,162754.0
14:52:19,0.0012700276759763558,-0.0023902752436697483,-1.3623922268549602,1.2728953957557678,0.0011733269008497398,0.004755942927052577,-35.3632614,149.1652381,129130.66666666667,-0.6666666666666666,-1.0,100.66666666666667,0.6666666666666666,70.33333333333333,-1011.6666666666666,1282.0,3.6666666666666665,8.0,RTL,162754.0
14:52:21,0.015122282318770885,-0.0008807734460181867,-1.3630270957946777,1.422655502955119,-0.004342590187055369,-0.0023592551394055286,-35.36326093333333,149.16523816666668,127079.66666666667,-10.333333333333334,-4.0,100.33333333333333,0.3333333333333333,39.666666666666664,-1021.6666666666666,1430.3333333333333,-2.0,1.6666666666666667,RTL,162754.0
