time_stamp,MODE,lat,lon,relative_alt,roll,pitch,yaw,rollspeed,pitchspeed,yawspeed,xacc,yacc,zacc,xgyro,ygyro,zgyro,vx,vy,vz,RTL_ALT
14:47:29.818,STABILIZE,-35.3632622,149.1652374,8,-0.0003091515100095421,0.001474436605349183,0.028179271146655083,0.00046761706471443176,0.0003296111535746604,0.0022539666388183832,0,1,-1000,0,0,0,-2,0,-3,123463.0
14:47:30.020,STABILIZE,-35.3632622,149.1652374,8,-0.0003091515100095421,0.001474436605349183,0.028179271146655083,0.00046761706471443176,0.0003296111535746604,0.0022539666388183832,0,1,-1000,0,0,0,-2,0,-3,123463.0
14:47:30.222,STABILIZE,-35.3632622,149.1652374,8,-0.0003091515100095421,0.001474436605349183,0.028179271146655083,0.00046761706471443176,0.0003296111535746604,0.0022539666388183832,0,1,-1000,0,0,0,-2,0,-3,123463.0
14:47:30.423,STABILIZE,-35.3632622,149.1652374,8,-0.00041063225944526494,0.0011565771419554949,0.027339089661836624,0.00021683666273020208,0.00024269596906378865,0.0021409352775663137,0,1,-1000,0,0,0,-2,0,-3,123463.0
14:47:30.625,STABILIZE,-35.3632622,149.1652374,8,-0.00041063225944526494,0.0011565771419554949,0.027339089661836624,0.00021683666273020208,0.00024269596906378865,0.0021409352775663137,0,1,-1000,0,0,0,-2,0,-3,123463.0
14:47:30.826,STABILIZE,-35.3632622,149.1652374,10,-0.00044310337398201227,0.0011139160487800837,0.027196237817406654,0.000172802887391299,0.00022470118710771203,0.002149011939764023,0,1,-1000,0,0,0,-1,1,-2,123463.0
14:47:31.028,STABILIZE,-35.3632622,149.1652374,10,-0.00044310337398201227,0.0011139160487800837,0.027196237817406654,0.000172802887391299,0.00022470118710771203,0.002149011939764023,0,1,-1000,0,0,0,-1,1,-2,123463.0
14:47:31.229,STABILIZE,-35.3632622,149.1652374,10,-0.00044310337398201227,0.0011139160487800837,0.027196237817406654,0.000172802887391299,0.00022470118710771203,0.002149011939764023,0,1,-1000,0,0,0,-1,1,-2,123463.0
14:47:31.432,STABILIZE,-35.3632622,149.1652374,10,-0.00044310337398201227,0.0011139160487800837,0.027196237817406654,0.000172802887391299,0.00022470118710771203,0.002149011939764023,0,1,-1000,0,0,0,-1,1,-1,123463.0
14:47:31.635,STABILIZE,-35.3632622,149.1652374,10,-0.00044310337398201227,0.0011139160487800837,0.027196237817406654,0.000172802887391299,0.00022470118710771203,0.002149011939764023,0,1,-1000,0,0,0,-1,1,-1,123463.0
14:47:31.836,STABILIZE,-35.3632622,149.1652374,10,-0.00044310337398201227,0.0011139160487800837,0.027196237817406654,0.000172802887391299,0.00022470118710771203,0.002149011939764023,0,1,-1000,0,0,0,-1,1,-1,123463.0
14:47:32.038,STABILIZE,-35.3632622,149.1652374,10,-0.00044310337398201227,0.0011139160487800837,0.027196237817406654,0.000172802887391299,0.00022470118710771203,0.002149011939764023,0,1,-1000,0,0,0,-1,1,-1,123463.0
14:47:32.239,STABILIZE,-35.3632622,149.1652374,10,-0.00044310337398201227,0.0011139160487800837,0.027196237817406654,0.000172802887391299,0.00022470118710771203,0.002149011939764023,0,1,-1000,0,0,0,-1,1,-1,123463.0
14:47:32.441,STABILIZE,-35.3632622,149.1652374,10,-0.00044310337398201227,0.0011139160487800837,0.027196237817406654,0.000172802887391299,0.00022470118710771203,0.002149011939764023,0,1,-1000,0,0,0,-1,1,-1,123463.0
14:47:32.643,STABILIZE,-35.3632622,149.1652374,10,-0.00044310337398201227,0.0011139160487800837,0.027196237817406654,0.000172802887391299,0.00022470118710771203,0.002149011939764023,0,1,-1000,0,0,0,-1,1,-1,123463.0
14:47:32.844,STABILIZE,-35.3632622,149.1652374,10,-0.00044310337398201227,0.0011139160487800837,0.027196237817406654,0.000172802887391299,0.00022470118710771203,0.002149011939764023,0,1,-1000,0,0,0,-1,1,-1,123463.0
14:47:33.046,STABILIZE,-35.3632622,149.1652374,10,-0.00044310337398201227,0.0011139160487800837,0.027196237817406654,0.000172802887391299,0.00022470118710771203,0.002149011939764023,0,1,-1000,0,0,0,-1,1,-1,123463.0
14:47:33.248,STABILIZE,-35.3632621,149.1652374,22,-0.000498727080412209,0.0009220431093126535,0.026007968932390213,0.0003205650136806071,0.0002978527918457985,0.0018795621581375599,0,1,-1000,0,0,0,-1,0,-3,123463.0
14:47:33.451,STABILIZE,-35.3632621,149.1652374,22,-0.000498727080412209,0.0009220431093126535,0.026007968932390213,0.0003205650136806071,0.0002978527918457985,0.0018795621581375599,0,1,-1000,0,0,0,-1,0,-3,123463.0
14:47:33.662,STABILIZE,-35.3632621,149.1652374,22,-0.000498727080412209,0.0009220431093126535,0.026007968932390213,0.0003205650136806071,0.0002978527918457985,0.0018795621581375599,0,1,-1000,0,0,0,-1,0,-3,123463.0
14:47:33.863,STABILIZE,-35.3632621,149.1652374,22,-0.000498727080412209,0.0009220431093126535,0.026007968932390213,0.0003205650136806071,0.0002978527918457985,0.0018795621581375599,0,1,-1000,0,0,0,-1,0,-3,123463.0
14:47:34.065,STABILIZE,-35.3632621,149.1652374,22,-0.000498727080412209,0.0009220431093126535,0.026007968932390213,0.0003205650136806071,0.0002978527918457985,0.0018795621581375599,0,1,-1000,0,0,0,-1,0,-3,123463.0
14:47:34.267,STABILIZE,-35.3632621,149.1652374,22,-0.000498727080412209,0.0009220431093126535,0.026007968932390213,0.0003205650136806071,0.0002978527918457985,0.0018795621581375599,0,1,-1000,0,0,0,-1,0,-3,123463.0
14:47:34.468,STABILIZE,-35.3632621,149.1652374,21,-0.000498727080412209,0.0009220431093126535,0.026007968932390213,0.0003205650136806071,0.0002978527918457985,0.0018795621581375599,0,1,-1000,0,0,0,-1,1,-2,123463.0
14:47:34.670,STABILIZE,-35.3632621,149.1652374,21,-0.000498727080412209,0.0009220431093126535,0.026007968932390213,0.0003205650136806071,0.0002978527918457985,0.0018795621581375599,0,1,-1000,0,0,0,-1,1,-2,123463.0
14:47:34.871,STABILIZE,-35.3632621,149.1652374,21,-0.000498727080412209,0.0009220431093126535,0.026007968932390213,0.0003205650136806071,0.0002978527918457985,0.0018795621581375599,0,1,-1000,0,0,0,-1,1,-2,123463.0
14:47:35.073,STABILIZE,-35.3632621,149.1652374,21,-0.00044885181705467403,0.0009080083691515028,0.025189045816659927,0.0002997913979925215,0.0003899886505678296,0.0019246201263740659,0,1,-1000,0,0,0,-1,1,-2,123463.0
14:47:35.274,STABILIZE,-35.3632621,149.1652375,18,-0.00045556682744063437,0.0009213333833031356,0.025089886039495468,0.0002273829304613173,0.00011098512914031744,0.0019103133818134665,0,1,-1000,0,0,0,-1,1,-1,123463.0
14:47:35.476,STABILIZE,-35.3632621,149.1652375,18,-0.00045556682744063437,0.0009213333833031356,0.025089886039495468,0.0002273829304613173,0.00011098512914031744,0.0019103133818134665,0,1,-1000,0,0,0,-1,1,-1,123463.0
14:47:35.677,STABILIZE,-35.3632621,149.1652375,18,-0.00045556682744063437,0.0009213333833031356,0.025089886039495468,0.0002273829304613173,0.00011098512914031744,0.0019103133818134665,0,1,-1000,0,0,0,-1,1,-1,123463.0
14:47:35.878,STABILIZE,-35.3632621,149.1652375,18,-0.00045556682744063437,0.0009213333833031356,0.025089886039495468,0.0002273829304613173,0.00011098512914031744,0.0019103133818134665,0,1,-1000,0,0,0,-1,1,-1,123463.0
14:47:36.080,STABILIZE,-35.3632621,149.1652375,18,-0.00045556682744063437,0.0009213333833031356,0.025089886039495468,0.0002273829304613173,0.00011098512914031744,0.0019103133818134665,0,1,-1000,0,0,0,-1,1,-1,123463.0
14:47:36.281,STABILIZE,-35.3632621,149.1652374,20,-0.0003475014236755669,0.0009536457364447415,0.024641573429107666,0.00029175117379054427,0.0003515433636493981,0.0017927295994013548,0,1,-1000,0,0,0,-1,1,-2,123463.0
14:47:36.483,STABILIZE,-35.3632621,149.1652374,20,-0.00033598917070776224,0.0009492030367255211,0.024530556052923203,0.00032233126694336534,0.00019895343575626612,0.0018103905022144318,0,1,-1000,0,1,1,-1,1,-2,123463.0
14:47:36.684,STABILIZE,-35.3632621,149.1652374,20,-0.00033598917070776224,0.0009492030367255211,0.024530556052923203,0.00032233126694336534,0.00019895343575626612,0.0018103905022144318,0,1,-1000,0,1,1,-1,1,-2,123463.0
14:47:36.885,STABILIZE,-35.3632621,149.1652374,20,-0.00033598917070776224,0.0009492030367255211,0.024530556052923203,0.00032233126694336534,0.00019895343575626612,0.0018103905022144318,0,1,-1000,0,1,1,-1,1,-2,123463.0
14:47:37.087,STABILIZE,-35.3632621,149.1652375,18,-0.00033715233439579606,0.0009624731028452516,0.024326112121343613,0.0003516950528137386,0.00031317700631916523,0.0018340537790209055,0,1,-1000,0,0,0,-1,1,-1,123463.0
14:47:37.288,STABILIZE,-35.3632621,149.1652375,18,-0.00033715233439579606,0.0009624731028452516,0.024326112121343613,0.0003516950528137386,0.00031317700631916523,0.0018340537790209055,0,1,-1000,0,0,0,-1,1,-1,123463.0
14:47:37.490,STABILIZE,-35.3632621,149.1652375,18,-0.00033715233439579606,0.0009624731028452516,0.024326112121343613,0.0003516950528137386,0.00031317700631916523,0.0018340537790209055,0,1,-1000,0,0,0,-1,1,-1,123463.0
14:47:37.691,STABILIZE,-35.3632621,149.1652375,18,-0.00033715233439579606,0.0009624731028452516,0.024326112121343613,0.0003516950528137386,0.00031317700631916523,0.0018340537790209055,0,1,-1000,0,0,0,-1,1,-1,123463.0
14:47:37.893,STABILIZE,-35.3632621,149.1652375,18,-0.00033715233439579606,0.0009624731028452516,0.024326112121343613,0.0003516950528137386,0.00031317700631916523,0.0018340537790209055,0,1,-1000,0,0,0,-1,1,-1,123463.0
14:47:38.094,STABILIZE,-35.3632621,149.1652375,18,-0.00033715233439579606,0.0009624731028452516,0.024326112121343613,0.0003516950528137386,0.00031317700631916523,0.0018340537790209055,0,1,-1000,0,0,0,-1,1,-1,123463.0
14:47:38.296,STABILIZE,-35.3632622,149.1652375,10,-0.0004393391136545688,0.0009770015021786094,0.02379377745091915,0.00014824909158051014,0.0002776088076643646,0.001731685595586896,0,1,-1000,0,0,0,-1,2,0,123463.0
14:47:38.497,STABILIZE,-35.3632622,149.1652375,10,-0.0004393391136545688,0.0009770015021786094,0.02379377745091915,0.00014824909158051014,0.0002776088076643646,0.001731685595586896,0,1,-1000,0,0,0,-1,2,0,123463.0
14:47:38.699,STABILIZE,-35.3632622,149.1652375,10,-0.0004998009535484016,0.000972681911662221,0.023602522909641266,0.0001917648478411138,0.00028372829547151923,0.0016936943866312504,0,1,-1000,0,0,1,-1,2,0,123463.0
14:47:38.900,STABILIZE,-35.3632622,149.1652375,10,-0.0004998009535484016,0.000972681911662221,0.023602522909641266,0.0001917648478411138,0.00028372829547151923,0.0016936943866312504,0,1,-1000,0,0,1,-1,2,0,123463.0
14:47:39.101,STABILIZE,-35.3632622,149.1652375,5,-0.0005395877524279058,0.0009770969627425075,0.023495817556977272,0.000257746665738523,0.00030070776119828224,0.0016488016117364168,0,1,-1000,0,0,0,-1,2,0,123463.0
14:47:39.303,STABILIZE,-35.3632622,149.1652375,0,-0.0004050078277941793,0.0009723925613798201,0.02340775914490223,0.0003823673469014466,0.0001622404088266194,0.001635642722249031,0,1,-1000,0,0,0,-1,3,1,123463.0
14:47:39.504,STABILIZE,-35.3632622,149.1652376,0,-0.0004050078277941793,0.0009723925613798201,0.02340775914490223,0.0003823673469014466,0.0001622404088266194,0.001635642722249031,0,2,-1000,0,0,0,-1,3,1,123463.0
14:47:39.705,STABILIZE,-35.3632622,149.1652376,0,-0.0004050078277941793,0.0009723925613798201,0.02340775914490223,0.0003823673469014466,0.0001622404088266194,0.001635642722249031,0,2,-1000,0,0,0,-1,3,1,123463.0
14:47:39.906,STABILIZE,-35.3632622,149.1652376,0,-0.0004050078277941793,0.0009723925613798201,0.02340775914490223,0.0003823673469014466,0.0001622404088266194,0.001635642722249031,0,2,-1000,0,0,0,-1,3,1,123463.0
14:47:40.108,STABILIZE,-35.3632622,149.1652376,0,-0.0004050078277941793,0.0009723925613798201,0.02340775914490223,0.0003823673469014466,0.0001622404088266194,0.001635642722249031,0,2,-1000,0,0,0,-1,3,1,123463.0
14:47:40.309,STABILIZE,-35.3632622,149.1652376,0,-0.0004050078277941793,0.0009723925613798201,0.02340775914490223,0.0003823673469014466,0.0001622404088266194,0.001635642722249031,0,2,-1000,0,0,0,-1,3,1,123463.0
14:47:40.510,STABILIZE,-35.3632622,149.1652376,0,-0.0004050078277941793,0.0009723925613798201,0.02340775914490223,0.0003823673469014466,0.0001622404088266194,0.001635642722249031,0,2,-1000,0,0,0,-1,3,1,123463.0
14:47:40.712,STABILIZE,-35.3632622,149.1652376,0,-0.0004050078277941793,0.0009723925613798201,0.02340775914490223,0.0003823673469014466,0.0001622404088266194,0.001635642722249031,0,1,-1000,1,0,0,-1,3,1,123463.0
14:47:40.913,STABILIZE,-35.3632622,149.1652376,0,-0.0004050078277941793,0.0009723925613798201,0.02340775914490223,0.0003823673469014466,0.0001622404088266194,0.001635642722249031,0,1,-1000,1,0,0,-1,3,1,123463.0
14:47:41.114,STABILIZE,-35.3632622,149.1652376,0,-0.0004050078277941793,0.0009723925613798201,0.02340775914490223,0.0003823673469014466,0.0001622404088266194,0.001635642722249031,0,1,-1000,1,0,0,-1,3,1,123463.0
14:47:41.315,STABILIZE,-35.3632622,149.1652375,0,-0.0008311836863867939,0.0009693914907984436,0.022736934944987297,0.00021316501079127192,0.0002511576167307794,0.0017088064923882484,0,2,-1000,0,0,1,-1,2,1,123463.0
14:47:41.517,STABILIZE,-35.3632622,149.1652375,0,-0.0008311836863867939,0.0009693914907984436,0.022736934944987297,0.00021316501079127192,0.0002511576167307794,0.0017088064923882484,0,1,-1000,0,0,0,-1,1,1,123463.0
14:47:41.719,AUTO,-35.3632622,149.1652375,0,-0.0008311836863867939,0.0009693914907984436,0.022736934944987297,0.00021316501079127192,0.0002511576167307794,0.0017088064923882484,0,1,-1000,0,0,0,-1,1,1,123463.0
14:47:41.920,AUTO,-35.3632622,149.1652375,0,-0.0008311836863867939,0.0009693914907984436,0.022736934944987297,0.00021316501079127192,0.0002511576167307794,0.0017088064923882484,0,1,-1000,0,0,0,-1,1,1,123463.0
14:47:42.121,AUTO,-35.3632622,149.1652375,0,-0.0008311836863867939,0.0009693914907984436,0.022736934944987297,0.00021316501079127192,0.0002511576167307794,0.0017088064923882484,0,1,-1000,0,0,0,-1,1,1,123463.0
14:47:42.322,AUTO,-35.3632622,149.1652375,3,-0.0009594221482984722,0.0009666599216870964,0.02249056287109852,0.00037206104025244713,0.00023268256336450577,0.0014938984531909227,0,2,-1000,0,0,1,-1,1,1,300000.0
14:47:42.524,AUTO,-35.3632622,149.1652375,2,-0.0009701104718260467,0.0009727124124765396,0.02243754081428051,0.00029592716600745916,0.00021887861657887697,0.001596132991835475,0,2,-1000,0,0,0,-1,1,1,300000.0
14:47:42.725,AUTO,-35.3632621,149.1652375,7,-0.0009634502348490059,0.0009850551141425967,0.022385738790035248,0.000299814622849226,0.0003237984492443502,0.0014753146097064018,0,1,-1000,0,0,1,0,-1,-1,300000.0
14:47:42.927,AUTO,-35.3632621,149.1652375,10,-0.0009239721694029868,0.0010181339457631111,0.022323904559016228,0.00021212955471128225,0.00028198835207149386,0.0015457413392141461,0,1,-1000,0,1,0,0,0,-1,300000.0
14:47:43.129,AUTO,-35.3632621,149.1652375,10,-0.0009239721694029868,0.0010181339457631111,0.022323904559016228,0.00021212955471128225,0.00028198835207149386,0.0015457413392141461,0,1,-1000,0,1,0,0,0,-1,300000.0
14:47:43.330,AUTO,-35.3632621,149.1652375,11,-0.0008740859921090305,0.0010705100139603019,0.02226492576301098,0.00017723208293318748,0.00031018356094136834,0.001521417172625661,0,1,-1000,1,0,0,0,0,-1,300000.0
14:47:43.534,AUTO,-35.3632621,149.1652375,12,-0.0008140013087540865,0.001121004344895482,0.022217683494091034,0.0002059085527434945,0.0002285796799696982,0.0015352326445281506,0,1,-1000,1,0,0,0,0,-1,300000.0
14:47:43.736,AUTO,-35.3632621,149.1652375,12,-0.0008140013087540865,0.001121004344895482,0.022217683494091034,0.0002059085527434945,0.0002285796799696982,0.0015352326445281506,0,1,-1000,1,0,0,0,0,-1,300000.0
14:47:43.938,AUTO,-35.3632621,149.1652375,12,-0.0008140013087540865,0.001121004344895482,0.022217683494091034,0.0002059085527434945,0.0002285796799696982,0.0015352326445281506,0,1,-1000,1,0,0,0,0,-1,300000.0
14:47:44.140,AUTO,-35.3632621,149.1652375,12,-0.0008140013087540865,0.001121004344895482,0.022217683494091034,0.0002059085527434945,0.0002285796799696982,0.0015352326445281506,0,1,-1000,1,0,0,0,0,-1,300000.0
14:47:44.341,AUTO,-35.3632621,149.1652375,12,-0.0006476095877587795,0.001320636598393321,0.02204723097383976,0.000317376630846411,0.000373206683434546,0.0015215741004794836,0,2,-1000,0,0,1,0,0,0,300000.0
14:47:44.543,AUTO,-35.3632621,149.1652375,12,-0.000584007881116122,0.0013883516658097506,0.0219710785895586,0.00034334714291617274,0.00037391914520412683,0.0015197101747617126,0,1,-1000,1,0,0,0,0,0,300000.0
14:47:44.745,AUTO,-35.3632621,149.1652375,12,-0.0005250745452940464,0.0014621230075135827,0.021893367171287537,0.00025948387337848544,0.00035859982017427683,0.0015156459994614124,0,1,-1000,0,0,0,0,0,0,300000.0
14:47:44.947,AUTO,-35.3632621,149.1652375,12,-0.00046525380457751453,0.0015382366254925728,0.02183077298104763,0.0003594381851144135,0.00029286619974300265,0.0014763156650587916,0,2,-1000,1,0,0,0,0,0,300000.0
14:47:45.150,AUTO,-35.3632621,149.1652375,12,-0.00046525380457751453,0.0015382366254925728,0.02183077298104763,0.0003594381851144135,0.00029286619974300265,0.0014763156650587916,0,2,-1000,1,0,0,0,0,0,300000.0
14:47:45.353,AUTO,-35.3632621,149.1652375,12,-0.00040473093395121396,0.0016164248809218407,0.021756906062364578,0.0003017621347680688,0.00037493364652618766,0.0014857929199934006,0,1,-1000,0,0,1,0,0,0,300000.0
14:47:45.556,AUTO,-35.3632621,149.1652375,11,-0.0003353293286636472,0.00168799317907542,0.021678533405065536,0.0003838434931822121,0.00027961510932072997,0.0014643853064626455,0,1,-1000,0,0,1,0,0,0,300000.0
14:47:45.769,AUTO,-35.3632621,149.1652375,11,-0.0003353293286636472,0.00168799317907542,0.021678533405065536,0.0003838434931822121,0.00027961510932072997,0.0014643853064626455,0,1,-1000,0,0,1,0,0,0,300000.0
14:47:45.971,AUTO,-35.3632621,149.1652375,11,-0.0003353293286636472,0.00168799317907542,0.021678533405065536,0.0003838434931822121,0.00027961510932072997,0.0014643853064626455,0,1,-1000,0,0,1,0,0,0,300000.0
14:47:46.173,AUTO,-35.3632621,149.1652375,210,0.00202933163382113,0.00023700525343883783,0.02156025730073452,-0.0029180243145674467,0.0044093504548072815,0.0021511507220566273,0,0,-1129,-2,5,1,0,1,-72,300000.0
14:47:46.375,AUTO,-35.3632621,149.1652375,210,0.00202933163382113,0.00023700525343883783,0.02156025730073452,-0.0029180243145674467,0.0044093504548072815,0.0021511507220566273,0,0,-1129,-2,5,1,0,1,-72,204800.0
14:47:46.577,AUTO,-35.3632621,149.1652375,429,0.0014135020319372416,0.0010331353405490518,0.021390538662672043,-0.004494185093790293,0.0035118977539241314,0.0008871644968166947,0,0,-1109,-4,4,0,0,1,-101,204800.0
14:47:46.778,AUTO,-35.3632621,149.1652375,711,0.0015921719605103135,0.00154025643132627,0.02137492038309574,0.010718357749283314,0.0005353185115382075,0.00023622970911674201,0,0,-1087,11,1,0,0,0,-124,204800.0
14:47:46.980,AUTO,-35.3632621,149.1652375,1048,0.011680425144731998,0.0005718162865377963,0.021200215443968773,0.047934602946043015,-0.006092899478971958,0.0017497038934379816,0,0,-1039,48,-5,1,0,2,-138,204800.0
14:47:47.181,AUTO,-35.363262,149.1652375,1415,0.023570723831653595,-0.0011239867890253663,0.021242065355181694,0.04669295623898506,-0.0070974379777908325,0.002435786183923483,0,0,-1016,47,-6,2,1,6,-144,204800.0
14:47:47.384,AUTO,-35.363262,149.1652375,1415,0.023570723831653595,-0.0011239867890253663,0.021242065355181694,0.04669295623898506,-0.0070974379777908325,0.002435786183923483,0,0,-1016,47,-6,2,1,6,-144,204800.0
14:47:47.586,AUTO,-35.363262,149.1652377,1793,0.034972429275512695,-0.003016611561179161,0.021424824371933937,0.04493013396859169,-0.00791645422577858,0.0030630379915237427,0,-1,-1006,45,-7,2,1,12,-147,204800.0
14:47:47.787,AUTO,-35.363262,149.1652377,1793,0.034972429275512695,-0.003016611561179161,0.021424824371933937,0.04493013396859169,-0.00791645422577858,0.0030630379915237427,0,-1,-1006,45,-7,2,1,12,-147,204800.0
14:47:47.989,AUTO,-35.363262,149.1652377,1793,0.034972429275512695,-0.003016611561179161,0.021424824371933937,0.04493013396859169,-0.00791645422577858,0.0030630379915237427,0,-1,-1006,45,-7,2,1,12,-147,204800.0
14:47:48.191,AUTO,-35.3632616,149.1652398,2944,0.06210167706012726,-0.008522258140146732,-0.008306745439767838,-0.01714135706424713,0.027833491563796997,-0.049735188484191895,0,-8,-992,-16,28,-50,8,44,-147,204800.0
14:47:48.392,AUTO,-35.3632616,149.1652398,2944,0.06210167706012726,-0.008522258140146732,-0.008306745439767838,-0.01714135706424713,0.027833491563796997,-0.049735188484191895,0,-8,-992,-16,28,-50,8,44,-147,204800.0
14:47:48.593,AUTO,-35.3632614,149.1652411,3323,0.03956929221749306,0.014297710731625557,-0.031299889087677,-0.14436723291873932,0.09293232858181,-0.09936214983463287,2,-9,-991,-143,93,-99,9,54,-144,204800.0
14:47:48.795,AUTO,-35.3632612,149.1652425,3697,-0.0036193793639540672,0.022917615249753,-0.04982161894440651,-0.1383557915687561,-0.011062536388635635,-0.05159816890954971,4,-11,-1008,-137,-10,-52,6,55,-144,204800.0
14:47:48.997,AUTO,-35.363261,149.1652439,4075,-0.023104550316929817,0.01301638875156641,-0.057198986411094666,-0.042705509811639786,-0.040828727185726166,-0.03058648481965065,4,-9,-1010,-42,-40,-30,3,47,-146,204800.0
14:47:49.199,AUTO,-35.3632609,149.165245,4458,-0.031131092458963394,0.004401467740535736,-0.06242799386382103,-0.03887367621064186,-0.01712610386312008,-0.03411160036921501,4,-9,-1003,-38,-16,-34,3,38,-148,204800.0
14:47:49.401,AUTO,-35.3632609,149.165245,4458,-0.031131092458963394,0.004401467740535736,-0.06242799386382103,-0.03887367621064186,-0.01712610386312008,-0.03411160036921501,4,-9,-1003,-38,-16,-34,3,38,-148,204800.0
14:47:49.603,AUTO,-35.3632608,149.1652459,4842,-0.04629730060696602,0.002838541753590107,-0.07096308469772339,-0.07628261297941208,0.004096068441867828,-0.04101717844605446,3,-7,-1000,-75,4,-41,3,26,-148,204800.0
14:47:49.805,AUTO,-35.3632608,149.1652459,4842,-0.04629730060696602,0.002838541753590107,-0.07096308469772339,-0.07628261297941208,0.004096068441867828,-0.04101717844605446,3,-7,-1000,-75,4,-41,3,26,-148,204800.0
14:47:50.008,AUTO,-35.3632608,149.1652459,4842,-0.04629730060696602,0.002838541753590107,-0.07096308469772339,-0.07628261297941208,0.004096068441867828,-0.04101717844605446,3,-7,-1000,-75,4,-41,3,26,-148,204800.0
14:47:50.210,AUTO,-35.3632607,149.1652458,5991,-0.07172580808401108,0.0031934515573084354,-0.09943148493766785,0.05075566843152046,-0.002983461134135723,-0.02313629537820816,-2,2,-1002,51,-2,-23,-2,-29,-148,204800.0
14:47:50.412,AUTO,-35.3632607,149.1652449,6374,-0.05812956765294075,0.002878788625821471,-0.10460317134857178,0.057070065289735794,0.0022421639878302813,-0.01586427539587021,-4,6,-1000,57,3,-16,-5,-43,-148,200.0
14:47:50.614,AUTO,-35.3632607,149.1652449,6374,-0.05812956765294075,0.002878788625821471,-0.10460317134857178,0.057070065289735794,0.0022421639878302813,-0.01586427539587021,-4,6,-1000,57,3,-16,-5,-43,-148,200.0
14:47:50.816,AUTO,-35.3632608,149.1652436,6756,-0.043144986033439636,0.00391552085056901,-0.10829536616802216,0.06223020702600479,0.006753359921276569,-0.010222977958619595,-4,10,-1001,63,7,-10,-8,-54,-148,200.0
14:47:51.018,AUTO,-35.363261,149.165242,7146,-0.02679830975830555,0.005913353059440851,-0.11050477623939514,0.06591296941041946,0.009248260408639908,-0.005914862733334303,-6,11,-1002,66,9,-6,-11,-60,-148,200.0
14:47:51.220,AUTO,-35.3632613,149.1652403,7531,-0.01007829885929823,0.008426830172538757,-0.11150021851062775,0.06825549155473709,0.010135753080248833,-0.002715104492381215,-6,13,-1003,68,10,-2,-14,-61,-149,200.0
14:47:51.422,AUTO,-35.3632617,149.1652386,7918,0.007018509320914745,0.010908333584666252,-0.11173038184642792,0.06907303631305695,0.009539877995848656,-9.939505252987146e-05,-3,15,-1003,69,10,0,-17,-59,-150,200.0
14:47:51.624,AUTO,-35.3632617,149.1652386,7918,0.007018509320914745,0.010908333584666252,-0.11173038184642792,0.06907303631305695,0.009539877995848656,-9.939505252987146e-05,-3,15,-1003,69,10,0,-17,-59,-150,200.0
14:47:51.825,AUTO,-35.3632617,149.1652386,7918,0.007018509320914745,0.010908333584666252,-0.11173038184642792,0.06907303631305695,0.009539877995848656,-9.939505252987146e-05,-3,15,-1003,69,10,0,-17,-59,-150,200.0
14:47:52.027,AUTO,-35.3632617,149.1652386,7918,0.007018509320914745,0.010908333584666252,-0.11173038184642792,0.06907303631305695,0.009539877995848656,-9.939505252987146e-05,-3,15,-1003,69,10,0,-17,-59,-150,200.0
14:47:52.229,AUTO,-35.3632631,149.1652346,9083,0.056907907128334045,0.01392301730811596,-0.10895292460918427,0.06390015035867691,-0.00296996021643281,0.0037013646215200424,0,10,-1002,64,-2,3,-24,-27,-152,200.0
14:47:52.430,AUTO,-35.3632637,149.1652341,9476,0.06960270553827286,0.010210748761892319,-0.10507494956254959,0.017241794615983963,-0.04092619940638542,0.04540856555104256,1,7,-997,17,-40,44,-25,-10,-151,200.0
14:47:52.633,AUTO,-35.3632637,149.1652341,9476,0.06960270553827286,0.010210748761892319,-0.10507494956254959,0.017241794615983963,-0.04092619940638542,0.04540856555104256,1,7,-997,17,-40,44,-25,-10,-151,200.0
14:47:52.836,AUTO,-35.3632642,149.1652339,9865,0.06339213997125626,-0.013021720573306084,-0.08684982359409332,-0.040641043335199356,-0.11281321942806244,0.10193425416946411,4,3,-996,-39,-112,101,-22,6,-150,200.0
14:47:53.038,AUTO,-35.3632646,149.1652342,10251,0.05435347184538841,-0.04281290993094444,-0.06113770231604576,-0.022659745067358017,-0.1056554988026619,0.11368253827095032,6,0,-1001,-21,-105,113,-12,19,-149,200.0
14:47:53.240,AUTO,-35.3632647,149.1652348,10636,0.04349585995078087,-0.06809832155704498,-0.034166354686021805,-0.0743808001279831,-0.06734893471002579,0.08209539204835892,3,-3,-995,-73,-66,81,3,30,-148,200.0
14:47:53.442,AUTO,-35.3632645,149.1652356,11016,0.013565100729465485,-0.06307549774646759,-0.030755139887332916,-0.13024568557739258,0.07815337181091309,-0.030380725860595703,1,-7,-996,-129,78,-30,21,34,-146,200.0
14:47:53.644,AUTO,-35.3632645,149.1652356,11016,0.013565100729465485,-0.06307549774646759,-0.030755139887332916,-0.13024568557739258,0.07815337181091309,-0.030380725860595703,1,-7,-996,-129,78,-30,21,34,-146,200.0
14:47:53.846,AUTO,-35.3632645,149.1652356,11016,0.013565100729465485,-0.06307549774646759,-0.030755139887332916,-0.13024568557739258,0.07815337181091309,-0.030380725860595703,1,-7,-996,-129,78,-30,21,34,-146,200.0
14:47:54.048,AUTO,-35.3632645,149.1652356,11016,0.013565100729465485,-0.06307549774646759,-0.030755139887332916,-0.13024568557739258,0.07815337181091309,-0.030380725860595703,1,-7,-996,-129,78,-30,21,34,-146,200.0
14:47:54.250,AUTO,-35.3632622,149.1652376,12165,-0.03544396907091141,0.0014063712442293763,-0.09882368892431259,-0.007336322218179703,0.056467197835445404,-0.09806051850318909,-5,-9,-1007,-6,56,-98,38,10,-149,200.0
14:47:54.452,AUTO,-35.3632614,149.1652377,12552,-0.03520924970507622,0.01276793796569109,-0.12300961464643478,0.011651212349534035,0.04153383895754814,-0.08329221606254578,-5,-7,-1005,12,42,-83,34,0,-150,212540.0
14:47:54.653,AUTO,-35.3632614,149.1652377,12552,-0.03520924970507622,0.01276793796569109,-0.12300961464643478,0.011651212349534035,0.04153383895754814,-0.08329221606254578,-5,-7,-1005,12,42,-83,34,0,-150,212540.0
14:47:54.855,AUTO,-35.3632606,149.1652376,12942,-0.029680080711841583,0.020089704543352127,-0.14264492690563202,0.030377887189388275,0.025811567902565002,-0.06607099622488022,-7,-3,-1003,31,26,-66,28,-9,-151,212540.0
14:47:55.056,AUTO,-35.36326,149.1652373,13333,-0.02088414505124092,0.02480873093008995,-0.15743954479694366,0.03992360085248947,0.017684761434793472,-0.050348736345767975,-6,-1,-1002,40,18,-50,20,-15,-152,212540.0
14:47:55.258,AUTO,-35.3632596,149.1652368,13724,-0.010226971469819546,0.02825019136071205,-0.16824007034301758,0.04682481288909912,0.011855018325150013,-0.036485396325588226,-6,0,-1001,47,12,-36,12,-18,-152,212540.0
14:47:55.460,AUTO,-35.3632594,149.1652363,14116,0.0015796568477526307,0.03068561665713787,-0.175815150141716,0.04953633248806,0.008706972934305668,-0.02545895054936409,-4,1,-1001,50,9,-25,4,-18,-152,212540.0
14:47:55.662,AUTO,-35.3632594,149.1652363,14116,0.0015796568477526307,0.03068561665713787,-0.175815150141716,0.04953633248806,0.008706972934305668,-0.02545895054936409,-4,1,-1001,50,9,-25,4,-18,-152,212540.0
14:47:55.871,AUTO,-35.3632594,149.1652363,14116,0.0015796568477526307,0.03068561665713787,-0.175815150141716,0.04953633248806,0.008706972934305668,-0.02545895054936409,-4,1,-1001,50,9,-25,4,-18,-152,212540.0
14:47:56.077,AUTO,-35.3632594,149.1652363,14116,0.0015796568477526307,0.03068561665713787,-0.175815150141716,0.04953633248806,0.008706972934305668,-0.02545895054936409,-4,1,-1001,50,9,-25,4,-18,-152,212540.0
14:47:56.279,AUTO,-35.3632595,149.1652351,15289,0.019039586186408997,0.02175244130194187,-0.17514243721961975,0.003673270810395479,-0.017836134880781174,0.010825345292687416,0,2,-999,4,-17,10,-13,-4,-151,212540.0
14:47:56.480,AUTO,-35.3632598,149.165235,15679,0.01811085268855095,0.017024334520101547,-0.17179352045059204,-0.011561866849660873,-0.01881592348217964,0.012719297781586647,1,2,-998,-11,-18,12,-16,0,-151,212540.0
14:47:56.682,AUTO,-35.3632601,149.165235,16067,0.015399462543427944,0.012187408283352852,-0.1686287671327591,-0.012581423856317997,-0.018665941432118416,0.009970718994736671,2,2,-999,-11,-18,9,-17,4,-151,212540.0
14:47:56.883,AUTO,-35.3632601,149.165235,16067,0.015399462543427944,0.012187408283352852,-0.1686287671327591,-0.012581423856317997,-0.018665941432118416,0.009970718994736671,2,2,-999,-11,-18,9,-17,4,-151,212540.0
14:47:57.085,AUTO,-35.3632605,149.1652351,16458,0.011606479994952679,0.007641690317541361,-0.16642005741596222,-0.014958701096475124,-0.01674851030111313,0.0036034653894603252,3,1,-1000,-14,-16,3,-17,7,-150,212540.0
14:47:57.287,AUTO,-35.3632608,149.1652353,16846,0.007749087177217007,0.003947282675653696,-0.1655779927968979,-0.014094519428908825,-0.012973697856068611,0.0010481224162504077,3,0,-1000,-13,-12,0,-17,9,-151,212540.0
14:47:57.489,AUTO,-35.3632611,149.1652355,17234,0.004386747721582651,0.000815560866612941,-0.1661304086446762,-0.0250775795429945,-0.009965561330318451,-0.005824966821819544,3,0,-998,-24,-9,-6,-16,10,-151,212540.0
14:47:57.690,AUTO,-35.3632611,149.1652355,17234,0.004386747721582651,0.000815560866612941,-0.1661304086446762,-0.0250775795429945,-0.009965561330318451,-0.005824966821819544,3,0,-998,-24,-9,-6,-16,10,-151,212540.0
14:47:57.892,AUTO,-35.3632611,149.1652355,17234,0.004386747721582651,0.000815560866612941,-0.1661304086446762,-0.0250775795429945,-0.009965561330318451,-0.005824966821819544,3,0,-998,-24,-9,-6,-16,10,-151,212540.0
14:47:58.094,AUTO,-35.3632611,149.1652355,17234,0.004386747721582651,0.000815560866612941,-0.1661304086446762,-0.0250775795429945,-0.009965561330318451,-0.005824966821819544,3,0,-998,-24,-9,-6,-16,10,-151,212540.0
14:47:58.295,AUTO,-35.363262,149.1652354,18372,-0.07544399797916412,0.019413640722632408,-0.1317797154188156,-0.036050599068403244,0.12768900394439697,0.30979272723197937,1,3,-975,-35,128,309,-16,-17,-142,212540.0
14:47:58.497,AUTO,-35.3632624,149.1652348,18727,-0.06693001091480255,0.047038108110427856,-0.03389088064432144,0.09863542020320892,-0.02579735405743122,0.35931071639060974,0,7,-948,99,-25,358,-26,-33,-132,60752.0
14:47:58.699,AUTO,-35.3632631,149.1652337,19050,-0.024482615292072296,0.017986701801419258,0.030767276883125305,0.18334470689296722,-0.17133797705173492,0.161445751786232,1,12,-946,184,-170,161,-33,-42,-119,60752.0
14:47:58.901,AUTO,-35.3632631,149.1652337,19050,-0.024482615292072296,0.017986701801419258,0.030767276883125305,0.18334470689296722,-0.17133797705173492,0.161445751786232,1,12,-946,184,-170,161,-33,-42,-119,60752.0
14:47:59.102,AUTO,-35.3632638,149.1652325,19342,0.017656629905104637,-0.019211173057556152,0.05170932039618492,0.14800041913986206,-0.1156122088432312,0.02441728487610817,1,11,-950,148,-114,23,-32,-40,-106,60752.0
14:47:59.304,AUTO,-35.3632644,149.1652315,19602,0.04741258546710014,-0.03760087117552757,0.048591721802949905,0.09462624788284302,-0.04452434554696083,-0.032563939690589905,0,10,-955,95,-43,-33,-24,-29,-94,60752.0
14:47:59.506,AUTO,-35.3632648,149.1652308,19832,0.06375660747289658,-0.042087290436029434,0.03919297456741333,0.042951036244630814,-0.0037565401289612055,-0.03775930032134056,0,6,-960,43,-3,-38,-15,-14,-83,60752.0
14:47:59.708,AUTO,-35.3632648,149.1652308,19832,0.06375660747289658,-0.042087290436029434,0.03919297456741333,0.042951036244630814,-0.0037565401289612055,-0.03775930032134056,0,6,-960,43,-3,-38,-15,-14,-83,60752.0
14:47:59.910,AUTO,-35.3632648,149.1652308,19832,0.06375660747289658,-0.042087290436029434,0.03919297456741333,0.042951036244630814,-0.0037565401289612055,-0.03775930032134056,0,6,-960,43,-3,-38,-15,-14,-83,60752.0
14:48:00.112,AUTO,-35.3632648,149.1652308,19832,0.06375660747289658,-0.042087290436029434,0.03919297456741333,0.042951036244630814,-0.0037565401289612055,-0.03775930032134056,0,6,-960,43,-3,-38,-15,-14,-83,60752.0
14:48:00.314,AUTO,-35.3632649,149.1652313,20372,0.05195941403508186,-0.023754587396979332,0.025834495201706886,-0.04109898582100868,0.03605922311544418,-0.0019380212761461735,0,-5,-972,-40,36,-2,10,28,-57,60752.0
14:48:00.515,AUTO,-35.3632647,149.1652319,20512,0.0406203530728817,-0.014803322963416576,0.025242257863283157,-0.04558756574988365,0.03462953492999077,0.0007021808414719999,0,-8,-975,-44,35,0,15,36,-50,60752.0
14:48:00.717,AUTO,-35.3632643,149.1652329,20636,0.028079140931367874,-0.005973955150693655,0.024883532896637917,-0.05251970887184143,0.03411641716957092,0.004209211561828852,0,-10,-978,-51,34,3,18,41,-45,60752.0
14:48:00.919,AUTO,-35.3632638,149.165234,20744,0.016441239044070244,0.0022366615012288094,0.024632524698972702,-0.042320363223552704,0.03146984428167343,0.005142529495060444,0,-10,-979,-41,32,4,19,43,-39,60752.0
14:48:01.120,AUTO,-35.3632638,149.165234,20744,0.016441239044070244,0.0022366615012288094,0.024632524698972702,-0.042320363223552704,0.03146984428167343,0.005142529495060444,0,-10,-979,-41,32,4,19,43,-39,60752.0
14:48:01.322,AUTO,-35.3632633,149.1652351,20839,0.0064077177084982395,0.007928967475891113,0.024233371019363403,-0.027214709669351578,0.019766036421060562,0.0031673945486545563,1,-10,-978,-26,20,2,18,42,-34,60752.0
14:48:01.524,AUTO,-35.3632629,149.1652361,20921,-0.0012245690450072289,0.01199062168598175,0.02379777655005455,-0.028762828558683395,0.012579812668263912,0.0036485856398940086,0,-10,-977,-28,13,3,17,39,-29,60752.0
14:48:01.726,AUTO,-35.3632629,149.1652361,20921,-0.0012245690450072289,0.01199062168598175,0.02379777655005455,-0.028762828558683395,0.012579812668263912,0.0036485856398940086,0,-10,-977,-28,13,3,17,39,-29,60752.0
14:48:01.928,AUTO,-35.3632629,149.1652361,20921,-0.0012245690450072289,0.01199062168598175,0.02379777655005455,-0.028762828558683395,0.012579812668263912,0.0036485856398940086,0,-10,-977,-28,13,3,17,39,-29,60752.0
14:48:02.129,AUTO,-35.3632629,149.1652361,20921,-0.0012245690450072289,0.01199062168598175,0.02379777655005455,-0.028762828558683395,0.012579812668263912,0.0036485856398940086,0,-10,-977,-28,13,3,17,39,-29,60752.0
14:48:02.331,AUTO,-35.3632618,149.1652387,21071,-0.013095831498503685,0.016085002571344376,0.022166213020682335,-0.015913009643554688,-0.002552606165409088,-0.0015534302219748497,1,-7,-971,-15,-1,-1,9,25,-10,60752.0
14:48:02.533,AUTO,-35.3632616,149.1652393,21086,-0.01544248592108488,0.015104688704013824,0.021564362570643425,-0.07532638311386108,-0.003391061443835497,-0.0025888164527714252,0,-7,-965,-74,-2,-2,6,19,-2,300000.0
14:48:02.735,AUTO,-35.3632614,149.1652397,21072,-0.055058520287275314,0.02922729216516018,0.019967492669820786,-0.0800883024930954,0.017976079136133194,-0.004727283492684364,0,6,-951,-78,18,-5,2,10,12,300000.0
14:48:02.937,AUTO,-35.3632614,149.1652397,21028,-0.04325494170188904,0.021286027505993843,0.019416123628616333,0.501546323299408,-0.0520341694355011,-0.0006624494562856853,0,9,-985,501,-50,0,-3,-3,18,300000.0
14:48:03.138,AUTO,-35.3632614,149.1652397,21028,-0.04325494170188904,0.021286027505993843,0.019416123628616333,0.501546323299408,-0.0520341694355011,-0.0006624494562856853,0,9,-985,501,-50,0,-3,-3,18,300000.0
14:48:03.340,AUTO,-35.3632615,149.1652395,20973,-0.0437307208776474,0.009282923303544521,0.01925070770084858,-0.13215738534927368,-0.04033995792269707,-0.002002037363126874,0,-29,-990,-132,-39,-2,-6,-16,22,300000.0
14:48:03.542,AUTO,-35.3632615,149.165239,20920,-0.04946238175034523,0.0018465393222868443,0.018400147557258606,-0.6954195499420166,-0.02356494776904583,-0.004156017210334539,-2,-29,-1029,-694,-22,-4,-7,-26,17,300000.0
14:48:03.744,AUTO,-35.3632615,149.165239,20920,-0.04946238175034523,0.0018465393222868443,0.018400147557258606,-0.6954195499420166,-0.02356494776904583,-0.004156017210334539,-2,-29,-1029,-694,-22,-4,-7,-26,17,300000.0
14:48:03.945,AUTO,-35.3632615,149.165239,20920,-0.04946238175034523,0.0018465393222868443,0.018400147557258606,-0.6954195499420166,-0.02356494776904583,-0.004156017210334539,-2,-29,-1029,-694,-22,-4,-7,-26,17,300000.0
14:48:04.147,AUTO,-35.3632615,149.165239,20920,-0.04946238175034523,0.0018465393222868443,0.018400147557258606,-0.6954195499420166,-0.02356494776904583,-0.004156017210334539,-2,-29,-1029,-694,-22,-4,-7,-26,17,300000.0
14:48:04.350,AUTO,-35.3632618,149.165236,20833,-0.04195027053356171,-0.011834435164928436,0.015615756623446941,0.6286174654960632,-0.01214449293911457,-0.002396841999143362,-4,31,-1016,629,-11,-2,-4,-52,3,300000.0
14:48:04.552,AUTO,-35.3632619,149.1652346,20824,-0.05497074872255325,-0.014806032180786133,0.014500363729894161,-0.19804991781711578,-0.009272902272641659,-0.0030029150657355785,-9,-8,-1008,-198,-8,-3,-2,-62,1,300000.0
14:48:04.754,AUTO,-35.3632619,149.1652329,20820,-0.07485111802816391,-0.02090475521981716,-0.030851799994707108,-0.6645538806915283,0.009271593764424324,-0.4007880389690399,-10,-11,-1014,-663,9,-401,0,-74,0,300000.0
14:48:04.957,AUTO,-35.3632619,149.1652309,20819,-0.0718645229935646,-0.03657639026641846,-0.1991925984621048,-0.010656117461621761,-0.011484313756227493,-0.8193032145500183,-11,33,-1001,-8,-10,-819,3,-86,0,300000.0
14:48:05.160,AUTO,-35.3632619,149.1652309,20819,-0.0718645229935646,-0.03657639026641846,-0.1991925984621048,-0.010656117461621761,-0.011484313756227493,-0.8193032145500183,-11,33,-1001,-8,-10,-819,3,-86,0,300000.0
14:48:05.362,AUTO,-35.3632619,149.1652285,20819,-0.06398577243089676,-0.057193562388420105,-0.4137362837791443,0.5473660826683044,-0.04501296579837799,-0.8809455633163452,-17,41,-1007,548,-44,-881,5,-101,-1,300000.0
14:48:05.564,AUTO,-35.3632618,149.1652257,20820,-0.05807795748114586,-0.08076031506061554,-0.6249117255210876,0.21966415643692017,-0.04751676693558693,-0.8090754151344299,-24,11,-1015,219,-46,-809,7,-118,-1,300000.0
14:48:05.778,AUTO,-35.3632618,149.1652257,20820,-0.05807795748114586,-0.08076031506061554,-0.6249117255210876,0.21966415643692017,-0.04751676693558693,-0.8090754151344299,-24,11,-1015,219,-46,-809,7,-118,-1,300000.0
14:48:05.980,AUTO,-35.3632618,149.1652257,20820,-0.05807795748114586,-0.08076031506061554,-0.6249117255210876,0.21966415643692017,-0.04751676693558693,-0.8090754151344299,-24,11,-1015,219,-46,-809,7,-118,-1,300000.0
14:48:06.182,AUTO,-35.3632612,149.1652143,20828,-0.008525455370545387,-0.13770772516727448,-1.186022162437439,0.48539844155311584,-0.06522814184427261,-0.723045289516449,-40,11,-1005,486,-64,-723,15,-180,-1,300000.0
14:48:06.384,AUTO,-35.3632612,149.1652143,20828,-0.008525455370545387,-0.13770772516727448,-1.186022162437439,0.48539844155311584,-0.06522814184427261,-0.723045289516449,-40,11,-1005,486,-64,-723,15,-180,-1,300000.0
14:48:06.586,AUTO,-35.3632608,149.1652093,20829,0.017781436443328857,-0.15190598368644714,-1.363176941871643,0.16710355877876282,-0.06959030777215958,-0.6686484217643738,-40,-27,-996,167,-68,-668,17,-204,0,144657.0
14:48:06.788,AUTO,-35.3632604,149.1652037,20826,0.027250993996858597,-0.16450902819633484,-1.481335163116455,-0.42698097229003906,-0.07824192941188812,-0.2549188733100891,-40,-46,-1006,-426,-77,-254,20,-231,1,144657.0
14:48:06.990,AUTO,-35.36326,149.1651973,20823,0.0362224280834198,-0.17795053124427795,-1.5088621377944946,-0.012494642287492752,-0.05107808858156204,0.0005107744946144521,-49,-25,-1005,-11,-50,0,23,-259,1,144657.0
14:48:07.192,AUTO,-35.3632595,149.16519,20819,0.04858751595020294,-0.1810094565153122,-1.4927616119384766,0.3487224578857422,0.012032674625515938,0.09460358321666718,-57,-26,-1013,349,12,94,25,-288,1,144657.0
14:48:07.394,AUTO,-35.3632595,149.16519,20819,0.04858751595020294,-0.1810094565153122,-1.4927616119384766,0.3487224578857422,0.012032674625515938,0.09460358321666718,-57,-26,-1013,349,12,94,25,-288,1,144657.0
14:48:07.596,AUTO,-35.3632589,149.1651819,20818,0.046815451234579086,-0.1782498061656952,-1.4684218168258667,-0.15028423070907593,-0.0043493034318089485,0.09821940958499908,-62,-51,-1006,-150,-3,97,28,-316,0,144657.0
14:48:07.798,AUTO,-35.3632589,149.1651819,20818,0.046815451234579086,-0.1782498061656952,-1.4684218168258667,-0.15028423070907593,-0.0043493034318089485,0.09821940958499908,-62,-51,-1006,-150,-3,97,28,-316,0,144657.0
14:48:08.001,AUTO,-35.3632589,149.1651819,20818,0.046815451234579086,-0.1782498061656952,-1.4684218168258667,-0.15028423070907593,-0.0043493034318089485,0.09821940958499908,-62,-51,-1006,-150,-3,97,28,-316,0,144657.0
14:48:08.203,AUTO,-35.3632567,149.1651532,20819,0.05342888459563255,-0.18796469271183014,-1.4450229406356812,-0.017889322713017464,-0.013228234834969044,0.0037465186323970556,-90,-52,-1004,-17,-12,3,40,-393,0,144657.0
14:48:08.404,AUTO,-35.3632567,149.1651532,20819,0.05342888459563255,-0.18796469271183014,-1.4450229406356812,-0.017889322713017464,-0.013228234834969044,0.0037465186323970556,-90,-52,-1004,-17,-12,3,40,-393,0,144657.0
14:48:08.606,AUTO,-35.3632559,149.1651422,20820,0.05436183884739876,-0.1943073570728302,-1.4471995830535889,-0.122708261013031,-0.04806967452168465,-0.004525779280811548,-84,-51,-995,-121,-47,-4,43,-417,0,144657.0
14:48:08.808,AUTO,-35.3632549,149.1651303,20819,0.06110215559601784,-0.2026299089193344,-1.449783205986023,0.11452171206474304,-0.03945988044142723,-0.010780274868011475,-92,-49,-997,115,-38,-11,46,-443,0,144657.0
14:48:09.010,AUTO,-35.3632539,149.1651178,20814,0.062031712383031845,-0.20660285651683807,-1.4512685537338257,-0.027126576751470566,-0.002795075299218297,-0.0016583369579166174,-89,-55,-997,-26,-2,-1,49,-470,0,144657.0
14:48:09.212,AUTO,-35.3632528,149.1651044,20810,0.06169494241476059,-0.20687314867973328,-1.451818585395813,0.011647138744592667,0.0008850632002577186,0.0022338381968438625,-88,-52,-999,12,1,1,53,-497,0,144657.0
14:48:09.414,AUTO,-35.3632516,149.1650903,20808,0.06362630426883698,-0.2034624069929123,-1.4524627923965454,-0.018538352102041245,0.00277587934397161,-0.0009754355996847153,-109,-46,-1003,-17,3,-1,57,-521,-1,144657.0
14:48:09.616,AUTO,-35.3632516,149.1650903,20808,0.06362630426883698,-0.2034624069929123,-1.4524627923965454,-0.018538352102041245,0.00277587934397161,-0.0009754355996847153,-109,-46,-1003,-17,3,-1,57,-521,-1,144657.0
14:48:09.819,AUTO,-35.3632516,149.1650903,20808,0.06362630426883698,-0.2034624069929123,-1.4524627923965454,-0.018538352102041245,0.00277587934397161,-0.0009754355996847153,-109,-46,-1003,-17,3,-1,57,-521,-1,144657.0
14:48:10.021,AUTO,-35.3632516,149.1650903,20808,0.06362630426883698,-0.2034624069929123,-1.4524627923965454,-0.018538352102041245,0.00277587934397161,-0.0009754355996847153,-109,-46,-1003,-17,3,-1,57,-521,-1,144657.0
14:48:10.223,AUTO,-35.3632477,149.1650444,20830,0.07090716809034348,-0.1828577220439911,-1.4536206722259521,-0.018028229475021362,0.010011876933276653,-0.0004923614324070513,-106,-60,-989,-17,10,0,63,-582,-6,144657.0
14:48:10.425,AUTO,-35.3632463,149.1650281,20845,0.07329630106687546,-0.17880219221115112,-1.4538187980651855,0.01990542933344841,0.020713046193122864,-0.0033409239258617163,-109,-62,-994,20,21,-3,64,-598,-7,144657.0
14:48:10.626,AUTO,-35.3632463,149.1650281,20845,0.07329630106687546,-0.17880219221115112,-1.4538187980651855,0.01990542933344841,0.020713046193122864,-0.0033409239258617163,-109,-62,-994,20,21,-3,64,-598,-7,282069.0
14:48:10.828,AUTO,-35.3632448,149.1650114,20862,0.07438738644123077,-0.17332817614078522,-1.4537231922149658,-0.011932884342968464,0.008273298852145672,0.002554805250838399,-116,-70,-993,-11,8,2,66,-612,-8,282069.0
14:48:11.030,AUTO,-35.3632434,149.1649944,20880,0.07770173251628876,-0.1716960072517395,-1.4537780284881592,0.0003032000386156142,0.010498391464352608,0.005716667976230383,-109,-65,-985,0,11,5,67,-624,-8,282069.0
14:48:11.232,AUTO,-35.3632419,149.164977,20897,0.07735767960548401,-0.1706681251525879,-1.4535963535308838,0.03837382420897484,0.008975722827017307,0.0008237623842433095,-124,-59,-985,39,9,0,69,-635,-7,282069.0
14:48:11.435,AUTO,-35.3632404,149.1649593,20913,0.07823029160499573,-0.16625097393989563,-1.4540133476257324,0.022935647517442703,0.013156373053789139,-0.004911861848086119,-127,-66,-989,23,13,-5,70,-645,-7,282069.0
14:48:11.638,AUTO,-35.3632404,149.1649593,20913,0.07823029160499573,-0.16625097393989563,-1.4540133476257324,0.022935647517442703,0.013156373053789139,-0.004911861848086119,-127,-66,-989,23,13,-5,70,-645,-7,282069.0
14:48:11.840,AUTO,-35.3632404,149.1649593,20913,0.07823029160499573,-0.16625097393989563,-1.4540133476257324,0.022935647517442703,0.013156373053789139,-0.004911861848086119,-127,-66,-989,23,13,-5,70,-645,-7,282069.0
14:48:12.042,AUTO,-35.3632404,149.1649593,20913,0.07823029160499573,-0.16625097393989563,-1.4540133476257324,0.022935647517442703,0.013156373053789139,-0.004911861848086119,-127,-66,-989,23,13,-5,70,-645,-7,282069.0
14:48:12.244,AUTO,-35.3632357,149.164905,20964,0.08220329880714417,-0.15537501871585846,-1.4553284645080566,-0.0002401640231255442,0.03734739124774933,-0.0012205414241179824,-138,-87,-994,0,38,-1,72,-665,-7,282069.0
14:48:12.446,AUTO,-35.3632341,149.1648866,20980,0.08368831127882004,-0.1447145789861679,-1.4550918340682983,-0.016632279381155968,0.02682037651538849,-0.0024159527383744717,-134,-69,-990,-16,27,-2,72,-669,-8,282069.0
14:48:12.648,AUTO,-35.3632341,149.1648866,20980,0.08368831127882004,-0.1447145789861679,-1.4550918340682983,-0.016632279381155968,0.02682037651538849,-0.0024159527383744717,-134,-69,-990,-16,27,-2,72,-669,-8,282069.0
14:48:12.851,AUTO,-35.3632325,149.1648681,20998,0.08456235378980637,-0.137018620967865,-1.4544789791107178,0.025654038414359093,0.030343668535351753,-0.005693161394447088,-132,-75,-986,26,30,-5,73,-671,-8,282069.0
14:48:13.053,AUTO,-35.363231,149.1648495,21017,0.08858827501535416,-0.1272132247686386,-1.4552494287490845,-0.022459015250205994,0.03807913139462471,-0.010686817578971386,-128,-85,-985,-21,39,-10,71,-671,-9,282069.0
14:48:13.255,AUTO,-35.3632293,149.1648305,21035,0.09026255458593369,-0.12201940268278122,-1.456102967262268,-0.008508602157235146,-0.01610701158642769,-0.0006999634206295013,-130,-81,-983,-7,-15,-1,72,-670,-9,282069.0
14:48:13.458,AUTO,-35.3632277,149.1648119,21049,0.08694498240947723,-0.12897609174251556,-1.4565339088439941,-0.0007791793905198574,-0.023102931678295135,0.0014242900069803,-133,-81,-974,0,-22,0,72,-669,-5,282069.0
14:48:13.660,AUTO,-35.3632277,149.1648119,21049,0.08694498240947723,-0.12897609174251556,-1.4565339088439941,-0.0007791793905198574,-0.023102931678295135,0.0014242900069803,-133,-81,-974,0,-22,0,72,-669,-5,282069.0
14:48:13.862,AUTO,-35.3632277,149.1648119,21049,0.08694498240947723,-0.12897609174251556,-1.4565339088439941,-0.0007791793905198574,-0.023102931678295135,0.0014242900069803,-133,-81,-974,0,-22,0,72,-669,-5,282069.0
14:48:14.064,AUTO,-35.3632277,149.1648119,21049,0.08694498240947723,-0.12897609174251556,-1.4565339088439941,-0.0007791793905198574,-0.023102931678295135,0.0014242900069803,-133,-81,-974,0,-22,0,72,-669,-5,282069.0
14:48:14.266,AUTO,-35.3632229,149.1647569,21056,0.08880390226840973,-0.13402023911476135,-1.457273006439209,0.004747194703668356,0.02646063268184662,-0.0006315766368061304,-126,-63,-984,5,27,0,72,-670,-1,282069.0
14:48:14.468,AUTO,-35.3632212,149.1647385,21057,0.0848541334271431,-0.11874737590551376,-1.4566558599472046,0.011421474628150463,0.07975666224956512,-0.0034862151369452477,-145,-86,-1013,12,80,-3,72,-669,-3,282069.0
14:48:14.670,AUTO,-35.3632196,149.1647201,21068,0.08360191434621811,-0.09745090454816818,-1.456408143043518,0.0010723407613113523,0.07373686879873276,-0.00779320765286684,-144,-77,-1007,1,74,-8,72,-663,-8,223720.0
14:48:14.871,AUTO,-35.3632196,149.1647201,21068,0.08360191434621811,-0.09745090454816818,-1.456408143043518,0.0010723407613113523,0.07373686879873276,-0.00779320765286684,-144,-77,-1007,1,74,-8,72,-663,-8,223720.0
14:48:15.073,AUTO,-35.363218,149.1647019,21087,0.08172229677438736,-0.08647352457046509,-1.456624150276184,-0.0120675815269351,0.04312765225768089,-0.006004145834594965,-128,-69,-987,-11,43,-6,71,-654,-9,223720.0
14:48:15.276,AUTO,-35.3632164,149.164684,21107,0.08218631893396378,-0.07201007008552551,-1.4559307098388672,0.02269408106803894,0.07415249198675156,-0.006730084773153067,-126,-71,-993,23,74,-6,69,-643,-9,223720.0
14:48:15.478,AUTO,-35.3632149,149.1646665,21128,0.07981210201978683,-0.05688929185271263,-1.455282211303711,-0.02874777279794216,0.05334092676639557,-0.004891701973974705,-125,-78,-994,-28,54,-5,68,-628,-9,223720.0
14:48:15.680,AUTO,-35.3632149,149.1646665,21128,0.07981210201978683,-0.05688929185271263,-1.455282211303711,-0.02874777279794216,0.05334092676639557,-0.004891701973974705,-125,-78,-994,-28,54,-5,68,-628,-9,223720.0
14:48:15.882,AUTO,-35.3632149,149.1646665,21128,0.07981210201978683,-0.05688929185271263,-1.455282211303711,-0.02874777279794216,0.05334092676639557,-0.004891701973974705,-125,-78,-994,-28,54,-5,68,-628,-9,223720.0
14:48:16.084,AUTO,-35.3632149,149.1646665,21128,0.07981210201978683,-0.05688929185271263,-1.455282211303711,-0.02874777279794216,0.05334092676639557,-0.004891701973974705,-125,-78,-994,-28,54,-5,68,-628,-9,223720.0
14:48:16.286,AUTO,-35.3632108,149.1646163,21186,0.08621207624673843,-0.02220562845468521,-1.4546421766281128,-0.12001710385084152,0.028745613992214203,-0.0033490583300590515,-125,-67,-990,-119,29,-3,62,-569,-6,223720.0
14:48:16.488,AUTO,-35.3632096,149.164601,21198,0.08255830407142639,-0.017866909503936768,-1.4547597169876099,0.017453322187066078,0.028237201273441315,-0.011888724751770496,-107,-60,-983,18,28,-12,61,-546,-3,223720.0
14:48:16.690,AUTO,-35.3632084,149.1645862,21204,0.08715241402387619,-0.003517404431477189,-1.4543921947479248,0.19503730535507202,0.06333330273628235,-0.008955865167081356,-108,-65,-996,195,64,-9,59,-522,-2,223720.0
14:48:16.892,AUTO,-35.3632084,149.1645862,21204,0.08715241402387619,-0.003517404431477189,-1.4543921947479248,0.19503730535507202,0.06333330273628235,-0.008955865167081356,-108,-65,-996,195,64,-9,59,-522,-2,223720.0
14:48:17.094,AUTO,-35.3632072,149.164572,21208,0.07597500830888748,0.0115435142070055,-1.4527232646942139,-0.46802058815956116,0.060548629611730576,0.014735556207597256,-108,-94,-998,-467,61,14,57,-497,-1,223720.0
14:48:17.296,AUTO,-35.3632061,149.1645586,21207,0.07209445536136627,0.029476920142769814,-1.4518086910247803,-0.1365642547607422,0.06412087380886078,-0.013997035101056099,-95,-45,-1001,-134,65,-14,57,-470,0,223720.0
14:48:17.498,AUTO,-35.363205,149.164546,21202,0.07856781780719757,0.04110778495669365,-1.452986240386963,0.6458541750907898,0.043992672115564346,-0.046754274517297745,-94,-21,-993,647,44,-47,54,-439,2,223720.0
14:48:17.700,AUTO,-35.363205,149.164546,21202,0.07856781780719757,0.04110778495669365,-1.452986240386963,0.6458541750907898,0.043992672115564346,-0.046754274517297745,-94,-21,-993,647,44,-47,54,-439,2,223720.0
14:48:17.902,AUTO,-35.363205,149.164546,21202,0.07856781780719757,0.04110778495669365,-1.452986240386963,0.6458541750907898,0.043992672115564346,-0.046754274517297745,-94,-21,-993,647,44,-47,54,-439,2,223720.0
14:48:18.104,AUTO,-35.363205,149.164546,21202,0.07856781780719757,0.04110778495669365,-1.452986240386963,0.6458541750907898,0.043992672115564346,-0.046754274517297745,-94,-21,-993,647,44,-47,54,-439,2,273495.0
14:48:18.306,AUTO,-35.3632021,149.1645132,21172,0.06045018136501312,0.05362164229154587,-1.4527755975723267,-0.7248767018318176,0.007582426071166992,0.01438154000788927,-68,-95,-1008,-725,8,13,46,-345,3,273495.0
14:48:18.508,AUTO,-35.3632012,149.1645041,21162,0.0452316515147686,0.05080297961831093,-1.4541606903076172,-0.5825024843215942,-0.0065860506147146225,-0.0006251861341297626,-60,-51,-993,-580,-5,-1,46,-316,4,273495.0
14:48:18.710,AUTO,-35.3632004,149.1644957,21151,0.04993049427866936,0.05274172127246857,-1.455695629119873,0.18520884215831757,0.008331329561769962,-0.024658717215061188,-58,-14,-1006,187,9,-25,43,-288,4,273495.0
14:48:18.912,AUTO,-35.3632004,149.1644957,21151,0.04993049427866936,0.05274172127246857,-1.455695629119873,0.18520884215831757,0.008331329561769962,-0.024658717215061188,-58,-14,-1006,187,9,-25,43,-288,4,273495.0
14:48:19.114,AUTO,-35.3631996,149.164488,21142,0.05816688388586044,0.05774104222655296,-1.456182599067688,0.6791387796401978,0.027597887441515923,-0.015045084059238434,-53,-9,-1017,680,28,-15,39,-261,2,273495.0
14:48:19.316,AUTO,-35.3631989,149.1644811,21136,0.04926616698503494,0.06414511799812317,-1.455074667930603,-0.06879296898841858,0.026064712554216385,0.008105998858809471,-46,-51,-1005,-69,26,7,36,-234,2,273495.0
14:48:19.518,AUTO,-35.3631982,149.164475,21134,0.032331664115190506,0.07084143906831741,-1.4548490047454834,-0.6833702325820923,0.026299569755792618,0.006492478772997856,-40,-62,-1009,-682,27,6,32,-207,0,273495.0
14:48:19.720,AUTO,-35.3631982,149.164475,21134,0.032331664115190506,0.07084143906831741,-1.4548490047454834,-0.6833702325820923,0.026299569755792618,0.006492478772997856,-40,-62,-1009,-682,27,6,32,-207,0,273495.0
14:48:19.922,AUTO,-35.3631982,149.164475,21134,0.032331664115190506,0.07084143906831741,-1.4548490047454834,-0.6833702325820923,0.026299569755792618,0.006492478772997856,-40,-62,-1009,-682,27,6,32,-207,0,273495.0
14:48:20.124,AUTO,-35.3631982,149.164475,21134,0.032331664115190506,0.07084143906831741,-1.4548490047454834,-0.6833702325820923,0.026299569755792618,0.006492478772997856,-40,-62,-1009,-682,27,6,32,-207,0,273495.0
14:48:20.326,AUTO,-35.3631968,149.1644612,21125,0.034193381667137146,0.07601916044950485,-1.4561095237731934,0.7695502042770386,-0.04105910658836365,-0.010180465877056122,-25,16,-1012,770,-40,-10,24,-126,1,273495.0
14:48:20.528,AUTO,-35.3631964,149.1644581,21121,0.03137720376253128,0.06601697206497192,-1.4560681581497192,0.21321479976177216,-0.039590850472450256,0.006573847495019436,-20,-23,-1006,213,-38,5,20,-103,1,273495.0
14:48:20.730,AUTO,-35.3631961,149.1644555,21119,0.0161251500248909,0.0568484291434288,-1.4561210870742798,-0.5889854431152344,-0.032558634877204895,0.005592125002294779,-16,-45,-1002,-588,-31,5,18,-83,0,273495.0
14:48:20.932,AUTO,-35.3631959,149.1644535,21118,0.006235884502530098,0.050147645175457,-1.456580400466919,-0.5606561899185181,-0.020560121163725853,-0.007059477735310793,-12,-18,-997,-559,-19,-8,16,-66,0,273495.0
14:48:21.134,AUTO,-35.3631959,149.1644535,21118,0.006235884502530098,0.050147645175457,-1.456580400466919,-0.5606561899185181,-0.020560121163725853,-0.007059477735310793,-12,-18,-997,-559,-19,-8,16,-66,0,273495.0
14:48:21.336,AUTO,-35.3631957,149.1644519,21116,0.013854198157787323,0.04489196091890335,-1.456785798072815,0.3789063096046448,-0.020779700949788094,-0.005437452811747789,-10,20,-1013,380,-20,-6,15,-52,0,273495.0
14:48:21.538,AUTO,-35.3631955,149.1644507,21116,0.01946062035858631,0.03987063094973564,-1.4574476480484009,0.5655930042266846,-0.02107195556163788,-0.0015220488421618938,-8,13,-1009,566,-20,-2,12,-39,0,273495.0
14:48:21.740,AUTO,-35.3631955,149.1644507,21116,0.01946062035858631,0.03987063094973564,-1.4574476480484009,0.5655930042266846,-0.02107195556163788,-0.0015220488421618938,-8,13,-1009,566,-20,-2,12,-39,0,273495.0
14:48:21.942,AUTO,-35.3631955,149.1644507,21116,0.01946062035858631,0.03987063094973564,-1.4574476480484009,0.5655930042266846,-0.02107195556163788,-0.0015220488421618938,-8,13,-1009,566,-20,-2,12,-39,0,273495.0
14:48:22.145,AUTO,-35.3631955,149.1644507,21116,0.01946062035858631,0.03987063094973564,-1.4574476480484009,0.5655930042266846,-0.02107195556163788,-0.0015220488421618938,-8,13,-1009,566,-20,-2,12,-39,0,245200.0
14:48:22.347,AUTO,-35.3631954,149.1644491,21119,0.00579907838255167,0.02368675358593464,-1.4583740234375,0.25553667545318604,-0.025207016617059708,-0.0013253625947982073,-1,26,-1001,257,-24,-1,7,-10,-1,245200.0
14:48:22.549,AUTO,-35.3631955,149.164449,21121,0.015529998578131199,0.017489656805992126,-1.4587888717651367,0.569355845451355,-0.029657838866114616,0.0012421421706676483,0,17,-1016,570,-28,0,4,-4,-1,245200.0
14:48:22.751,AUTO,-35.3631956,149.164449,21124,0.009283861145377159,0.01052915584295988,-1.4590781927108765,-0.16133137047290802,-0.028052842244505882,0.003023652359843254,0,-20,-998,-161,-27,2,3,0,0,245200.0
14:48:22.953,AUTO,-35.3631956,149.1644491,21125,-0.0013936462346464396,0.003399668727070093,-1.4593117237091064,-0.592447817325592,-0.029448237270116806,0.0025999248027801514,2,-28,-998,-591,-28,2,2,2,0,245200.0
14:48:23.155,AUTO,-35.3631956,149.1644491,21125,-0.0013936462346464396,0.003399668727070093,-1.4593117237091064,-0.592447817325592,-0.029448237270116806,0.0025999248027801514,2,-28,-998,-591,-28,2,2,2,0,245200.0
14:48:23.357,AUTO,-35.3631957,149.1644493,21125,-0.0018518036231398582,-0.0038054289761930704,-1.4594042301177979,-0.19815784692764282,-0.03446852043271065,0.0021066355984658003,1,8,-1012,-196,-33,1,3,3,0,245200.0
14:48:23.559,AUTO,-35.3631957,149.1644495,21128,0.009130870923399925,-0.010836077854037285,-1.4593254327774048,0.5471591949462891,-0.029653266072273254,0.003836957272142172,1,32,-1003,549,-29,3,3,1,-1,245200.0
14:48:23.761,RTL,-35.3631957,149.1644495,21128,0.009130870923399925,-0.010836077854037285,-1.4593254327774048,0.5471591949462891,-0.029653266072273254,0.003836957272142172,1,32,-1003,549,-29,3,3,1,-1,245200.0
14:48:23.963,RTL,-35.3631957,149.1644495,21128,0.009130870923399925,-0.010836077854037285,-1.4593254327774048,0.5471591949462891,-0.029653266072273254,0.003836957272142172,1,32,-1003,549,-29,3,3,1,-1,245200.0
14:48:24.165,RTL,-35.3631957,149.1644495,21128,0.009130870923399925,-0.010836077854037285,-1.4593254327774048,0.5471591949462891,-0.029653266072273254,0.003836957272142172,1,32,-1003,549,-29,3,3,1,-1,245200.0
14:48:24.367,RTL,-35.3631957,149.1644498,21139,0.0007251210627146065,-0.005799520760774612,-1.4593816995620728,-0.08768273890018463,0.003902594093233347,0.003069431520998478,1,7,-1009,-85,4,2,3,-3,-2,245200.0
14:48:24.570,RTL,-35.3631957,149.1644498,21148,0.008865217678248882,-0.0046620662324130535,-1.45926034450531,0.59422367811203,0.00014532555360347033,0.0016516000032424927,1,24,-1016,595,1,1,3,-4,-4,245200.0
14:48:24.772,RTL,-35.3631956,149.1644499,21165,0.010172462090849876,-0.0034266216680407524,-1.459317922592163,0.3273886740207672,0.0040986924432218075,-0.002126731676980853,1,1,-1033,327,4,-2,2,-4,-9,245200.0
14:48:24.974,RTL,-35.3631955,149.1644499,21199,-0.004374335985630751,-0.002787163946777582,-1.4590686559677124,-0.44273704290390015,0.0022823913022875786,-0.003153902944177389,1,-23,-1034,-441,2,-3,1,-4,-17,245200.0
14:48:25.176,RTL,-35.3631954,149.1644499,21256,-0.005972258746623993,-0.002879572566598654,-1.45918869972229,-0.11359496414661407,-0.003745337715372443,-0.00040211662417277694,1,6,-1046,-111,-3,0,1,-4,-26,245200.0
14:48:25.378,RTL,-35.3631954,149.1644499,21256,-0.005972258746623993,-0.002879572566598654,-1.45918869972229,-0.11359496414661407,-0.003745337715372443,-0.00040211662417277694,1,6,-1046,-111,-3,0,1,-4,-26,245200.0
14:48:25.580,RTL,-35.3631953,149.1644499,21341,0.0012150557013228536,-0.002718297066166997,-1.4593082666397095,0.35584786534309387,-0.0012823665747419,-0.0004156809882260859,0,14,-1051,356,0,0,0,-4,-39,245200.0
14:48:25.785,RTL,-35.3631953,149.1644499,21341,0.0012150557013228536,-0.002718297066166997,-1.4593082666397095,0.35584786534309387,-0.0012823665747419,-0.0004156809882260859,0,14,-1051,356,0,0,0,-4,-39,245200.0
14:48:25.988,RTL,-35.3631953,149.1644499,21341,0.0012150557013228536,-0.002718297066166997,-1.4593082666397095,0.35584786534309387,-0.0012823665747419,-0.0004156809882260859,0,14,-1051,356,0,0,0,-4,-39,245200.0
14:48:26.190,RTL,-35.3631951,149.16445,21783,-0.00046410871436819434,-0.003255239687860012,-1.4596261978149414,0.12333104014396667,-0.00044976279605180025,-0.0005941098206676543,0,3,-1049,124,0,-1,-2,-4,-76,282276.0
