time_stamp,MODE,lat,lon,relative_alt,roll,pitch,yaw,rollspeed,pitchspeed,yawspeed,xacc,yacc,zacc,xgyro,ygyro,zgyro,vx,vy,vz,RTL_ALT
13:38:20.612,STABILIZE,-35.3632621,149.1652376,0,-9.658370254328474e-05,0.0009076406713575125,0.023593254387378693,0.00020916451467201114,0.00015094090485945344,0.001840182114392519,0,1,-1000,0,0,0,-1,3,1,94215.0
13:38:20.814,STABILIZE,-35.3632621,149.1652376,0,-9.658370254328474e-05,0.0009076406713575125,0.023593254387378693,0.00020916451467201114,0.00015094090485945344,0.001840182114392519,0,1,-1000,0,0,0,-1,3,1,94215.0
13:38:21.015,STABILIZE,-35.3632621,149.1652376,0,-0.00035028994898311794,0.0009047499625012279,0.023286566138267517,0.00019035558216273785,0.00020762981148436666,0.001874829875305295,0,2,-1000,0,0,0,-1,2,1,94215.0
13:38:21.216,STABILIZE,-35.3632621,149.1652376,0,-0.0004202266572974622,0.0009136434528045356,0.023169532418251038,0.0001859520561993122,0.0002455099602229893,0.0017641409067437053,0,2,-1000,0,0,0,-1,2,1,94215.0
13:38:21.418,STABILIZE,-35.3632621,149.1652376,0,-0.0004202266572974622,0.0009136434528045356,0.023169532418251038,0.0001859520561993122,0.0002455099602229893,0.0017641409067437053,0,2,-1000,0,0,0,-1,2,1,94215.0
13:38:21.619,STABILIZE,-35.3632621,149.1652376,0,-0.0004892533179372549,0.0009133753483183682,0.023092536255717278,0.0002405506675131619,0.00021287845447659492,0.001812279224395752,0,1,-1000,0,0,0,-1,2,1,94215.0
13:38:21.821,STABILIZE,-35.3632621,149.1652376,0,-0.0004892533179372549,0.0009133753483183682,0.023092536255717278,0.0002405506675131619,0.00021287845447659492,0.001812279224395752,0,1,-1000,0,0,0,-1,2,1,94215.0
13:38:22.022,STABILIZE,-35.3632621,149.1652375,0,-0.0004892533179372549,0.0009133753483183682,0.023092536255717278,0.0002405506675131619,0.00021287845447659492,0.001812279224395752,0,1,-1000,0,0,0,-1,2,1,94215.0
13:38:22.224,STABILIZE,-35.3632621,149.1652375,0,-0.0004892533179372549,0.0009133753483183682,0.023092536255717278,0.0002405506675131619,0.00021287845447659492,0.001812279224395752,0,1,-1000,0,0,0,-1,2,1,94215.0
13:38:22.426,STABILIZE,-35.3632621,149.1652375,0,-0.0004892533179372549,0.0009133753483183682,0.023092536255717278,0.0002405506675131619,0.00021287845447659492,0.001812279224395752,0,1,-1000,0,0,0,-1,2,1,94215.0
13:38:22.628,STABILIZE,-35.3632621,149.1652375,0,-0.0004892533179372549,0.0009133753483183682,0.023092536255717278,0.0002405506675131619,0.00021287845447659492,0.001812279224395752,0,1,-1000,0,0,0,-1,2,1,94215.0
13:38:22.830,STABILIZE,-35.3632621,149.1652375,0,-0.0004892533179372549,0.0009133753483183682,0.023092536255717278,0.0002405506675131619,0.00021287845447659492,0.001812279224395752,0,1,-1000,0,0,0,-1,2,1,94215.0
13:38:23.031,STABILIZE,-35.3632621,149.1652375,0,-0.0004892533179372549,0.0009133753483183682,0.023092536255717278,0.0002405506675131619,0.00021287845447659492,0.001812279224395752,0,1,-1000,0,0,0,-1,2,1,94215.0
13:38:23.233,STABILIZE,-35.3632621,149.1652375,0,-0.0006389480549842119,0.000973105663433671,0.022558048367500305,0.0001594536006450653,0.000249062548391521,0.0016275434754788876,0,1,-1000,0,0,1,-1,1,0,94215.0
13:38:23.434,STABILIZE,-35.3632621,149.1652375,0,-0.0006389480549842119,0.000973105663433671,0.022558048367500305,0.0001594536006450653,0.000249062548391521,0.0016275434754788876,0,1,-1000,0,0,1,-1,1,0,94215.0
13:38:23.636,STABILIZE,-35.3632621,149.1652375,0,-0.0006389480549842119,0.000973105663433671,0.022558048367500305,0.0001594536006450653,0.000249062548391521,0.0016275434754788876,0,1,-1000,0,0,1,-1,1,0,94215.0
13:38:23.837,STABILIZE,-35.3632621,149.1652375,0,-0.0006389480549842119,0.000973105663433671,0.022558048367500305,0.0001594536006450653,0.000249062548391521,0.0016275434754788876,0,1,-1000,0,0,1,-1,1,0,94215.0
13:38:24.038,STABILIZE,-35.3632622,149.1652375,0,-0.0006389480549842119,0.000973105663433671,0.022558048367500305,0.0001594536006450653,0.000249062548391521,0.0016275434754788876,0,1,-1000,0,0,1,-1,1,1,94215.0
13:38:24.240,STABILIZE,-35.3632622,149.1652375,0,-0.0006389480549842119,0.000973105663433671,0.022558048367500305,0.0001594536006450653,0.000249062548391521,0.0016275434754788876,0,1,-1000,0,0,0,-1,1,1,94215.0
13:38:24.449,STABILIZE,-35.3632622,149.1652375,0,-0.0006389480549842119,0.000973105663433671,0.022558048367500305,0.0001594536006450653,0.000249062548391521,0.0016275434754788876,0,1,-1000,0,0,0,-1,1,1,94215.0
13:38:24.654,STABILIZE,-35.3632622,149.1652375,0,-0.0006389480549842119,0.000973105663433671,0.022558048367500305,0.0001594536006450653,0.000249062548391521,0.0016275434754788876,0,1,-1000,0,0,0,-1,1,1,94215.0
13:38:24.857,STABILIZE,-35.3632622,149.1652375,0,-0.0006389480549842119,0.000973105663433671,0.022558048367500305,0.0001594536006450653,0.000249062548391521,0.0016275434754788876,0,1,-1000,0,0,0,-1,1,1,94215.0
13:38:25.058,STABILIZE,-35.3632622,149.1652375,0,-0.000801157089881599,0.0010039963526651263,0.022110607475042343,0.00032860017381608486,0.000352530216332525,0.0017423185054212809,0,1,-1000,0,0,0,-1,1,1,94215.0
13:38:25.260,STABILIZE,-35.3632622,149.1652375,0,-0.000801157089881599,0.0010039963526651263,0.022110607475042343,0.00032860017381608486,0.000352530216332525,0.0017423185054212809,0,1,-1000,0,0,0,-1,1,1,94215.0
13:38:25.461,STABILIZE,-35.3632622,149.1652375,0,-0.000801157089881599,0.0010039963526651263,0.022110607475042343,0.00032860017381608486,0.000352530216332525,0.0017423185054212809,0,2,-1000,0,0,1,-1,1,1,94215.0
13:38:25.662,STABILIZE,-35.3632622,149.1652375,0,-0.000801157089881599,0.0010039963526651263,0.022110607475042343,0.00032860017381608486,0.000352530216332525,0.0017423185054212809,0,2,-1000,0,0,1,-1,1,1,94215.0
13:38:25.864,STABILIZE,-35.3632622,149.1652375,0,-0.0008641966269351542,0.000998833915218711,0.02192048355937004,0.0002799861249513924,0.0003013757523149252,0.0015852617798373103,0,2,-1000,0,0,1,-1,1,1,94215.0
13:38:26.065,STABILIZE,-35.3632622,149.1652375,0,-0.0008641966269351542,0.000998833915218711,0.02192048355937004,0.0002799861249513924,0.0003013757523149252,0.0015852617798373103,0,2,-1000,0,0,1,-1,1,1,94215.0
13:38:26.266,STABILIZE,-35.3632622,149.1652375,0,-0.0008641966269351542,0.000998833915218711,0.02192048355937004,0.0002799861249513924,0.0003013757523149252,0.0015852617798373103,0,2,-1000,0,0,1,-1,1,1,94215.0
13:38:26.468,STABILIZE,-35.3632622,149.1652375,0,-0.0008641966269351542,0.000998833915218711,0.02192048355937004,0.0002799861249513924,0.0003013757523149252,0.0015852617798373103,0,2,-1000,0,0,1,-1,1,1,94215.0
13:38:26.669,STABILIZE,-35.3632622,149.1652375,0,-0.0008641966269351542,0.000998833915218711,0.02192048355937004,0.0002799861249513924,0.0003013757523149252,0.0015852617798373103,0,2,-1000,0,0,1,-1,1,1,94215.0
13:38:26.870,STABILIZE,-35.3632622,149.1652375,0,-0.0008641966269351542,0.000998833915218711,0.02192048355937004,0.0002799861249513924,0.0003013757523149252,0.0015852617798373103,0,2,-1000,0,0,1,-1,1,1,94215.0
13:38:27.072,STABILIZE,-35.3632622,149.1652375,0,-0.000909003836568445,0.0009853406809270382,0.02163301408290863,0.0003610962303355336,0.00023174314992502332,0.0017126693855971098,0,1,-1000,0,0,0,-1,1,1,94215.0
13:38:27.273,STABILIZE,-35.3632622,149.1652375,0,-0.000909003836568445,0.0009853406809270382,0.02163301408290863,0.0003610962303355336,0.00023174314992502332,0.0017126693855971098,0,1,-1000,1,0,0,-1,1,1,94215.0
13:38:27.475,STABILIZE,-35.3632622,149.1652375,0,-0.0009217803017236292,0.0009721281239762902,0.021549154072999954,0.00021986057981848717,0.00017809990094974637,0.001624549739062786,0,1,-1000,1,0,0,-1,1,1,94215.0
13:38:27.677,STABILIZE,-35.3632622,149.1652375,0,-0.0009217803017236292,0.0009721281239762902,0.021549154072999954,0.00021986057981848717,0.00017809990094974637,0.001624549739062786,0,1,-1000,1,0,0,-1,1,1,94215.0
13:38:27.879,STABILIZE,-35.3632622,149.1652375,0,-0.0009217803017236292,0.0009721281239762902,0.021549154072999954,0.00021986057981848717,0.00017809990094974637,0.001624549739062786,0,1,-1000,1,0,0,-1,1,1,94215.0
13:38:28.080,STABILIZE,-35.3632622,149.1652375,0,-0.0009394968510605395,0.0009767322335392237,0.021430782973766327,0.00028094224398955703,0.0002824216498993337,0.0014921925030648708,0,1,-1000,1,0,0,-1,1,1,94215.0
13:38:28.282,STABILIZE,-35.3632622,149.1652375,0,-0.0009394968510605395,0.0009767322335392237,0.021430782973766327,0.00028094224398955703,0.0002824216498993337,0.0014921925030648708,0,1,-1000,1,0,0,-1,1,1,94215.0
13:38:28.491,AUTO,-35.3632622,149.1652375,0,-0.0009394968510605395,0.0009767322335392237,0.021430782973766327,0.00028094224398955703,0.0002824216498993337,0.0014921925030648708,0,1,-1000,1,0,0,-1,1,1,94215.0
13:38:28.693,AUTO,-35.3632622,149.1652375,0,-0.0009394968510605395,0.0009767322335392237,0.021430782973766327,0.00028094224398955703,0.0002824216498993337,0.0014921925030648708,0,1,-1000,1,0,0,-1,1,1,94215.0
13:38:28.894,AUTO,-35.3632622,149.1652375,0,-0.0009394968510605395,0.0009767322335392237,0.021430782973766327,0.00028094224398955703,0.0002824216498993337,0.0014921925030648708,0,1,-1000,1,0,0,-1,1,1,94215.0
13:38:29.096,AUTO,-35.3632622,149.1652375,1,-0.000963506696280092,0.0009779139654710889,0.021276628598570824,0.00034438015427440405,0.00043137394823133945,0.0016745771281421185,0,2,-1000,0,0,1,-1,1,1,94215.0
13:38:29.297,AUTO,-35.3632622,149.1652375,0,-0.0007960097282193601,0.0009747567819431424,0.02123163640499115,0.00018827617168426514,0.00018666329560801387,0.001436734921298921,0,1,-1000,1,0,1,-1,1,1,94215.0
13:38:29.517,AUTO,-35.3632621,149.1652375,0,-0.0007880437769927084,0.0009913151152431965,0.021183641627430916,0.00011603417806327343,0.00015821692068129778,0.0016044923104345798,0,1,-1000,1,0,1,0,0,1,94215.0
13:38:29.739,AUTO,-35.3632621,149.1652375,0,-0.0007586255669593811,0.0010235576191917062,0.021129515022039413,0.00028641289100050926,0.0002502456190995872,0.001518875826150179,0,1,-1000,1,1,1,0,0,1,94215.0
13:38:30.035,AUTO,-35.3632621,149.1652375,0,-0.000722465745639056,0.0010757290292531252,0.02108483389019966,0.000391715788282454,0.0002360003418289125,0.0014758738689124584,0,1,-1000,0,0,1,0,0,1,94215.0
13:38:30.285,AUTO,-35.3632621,149.1652375,0,-0.0006733487243764102,0.00113027379848063,0.021027488633990288,0.00036857620580121875,0.0003906452329829335,0.0014641088200733066,0,1,-1000,1,0,0,0,0,0,94215.0
13:38:30.582,AUTO,-35.3632621,149.1652375,0,-0.0006733487243764102,0.00113027379848063,0.021027488633990288,0.00036857620580121875,0.0003906452329829335,0.0014641088200733066,0,1,-1000,1,0,0,0,0,0,94215.0
13:38:30.784,AUTO,-35.3632621,149.1652375,0,-0.0006733487243764102,0.00113027379848063,0.021027488633990288,0.00036857620580121875,0.0003906452329829335,0.0014641088200733066,0,1,-1000,1,0,0,0,0,0,94215.0
13:38:30.986,AUTO,-35.3632621,149.1652375,0,-0.0004980206722393632,0.0013310289941728115,0.020868411287665367,0.0002869553864002228,0.0003839393029920757,0.0014308326644822955,0,1,-1000,1,0,1,0,0,0,94215.0
13:38:31.188,AUTO,-35.3632621,149.1652375,0,-0.0004980206722393632,0.0013310289941728115,0.020868411287665367,0.0002869553864002228,0.0003839393029920757,0.0014308326644822955,0,1,-1000,1,0,1,0,0,0,94215.0
13:38:31.389,AUTO,-35.3632621,149.1652375,0,-0.0004382813349366188,0.0013989873696118593,0.02079084701836109,0.00031001929892227054,0.00034836423583328724,0.0014860512455925345,0,2,-1000,0,1,1,0,0,0,94215.0
13:38:31.591,AUTO,-35.3632621,149.1652375,0,-0.0003802844148594886,0.0014687831280753016,0.020732250064611435,0.00032539619132876396,0.0001899590715765953,0.0014961811248213053,0,1,-1000,0,0,0,0,0,0,3096.0
13:38:31.792,AUTO,-35.3632621,149.1652375,0,-0.00031203427352011204,0.0015437862602993846,0.020673736929893494,0.0002462455886416137,0.0002882278640754521,0.0014416258782148361,0,1,-1000,1,0,1,0,0,0,3096.0
13:38:31.994,AUTO,-35.3632621,149.1652375,0,-0.00024557564756833017,0.0016200389945879579,0.020607875660061836,0.0003114459686912596,0.00023280293680727482,0.0015076377894729376,0,2,-1000,1,0,1,0,0,0,3096.0
13:38:32.196,AUTO,-35.3632621,149.1652375,0,-0.00017351063434034586,0.0016927545657381415,0.020530687645077705,0.0003205339307896793,0.00033042323775589466,0.0013806847855448723,0,1,-1000,1,0,0,0,0,0,3096.0
13:38:32.398,AUTO,-35.3632621,149.1652375,0,-0.00017351063434034586,0.0016927545657381415,0.020530687645077705,0.0003205339307896793,0.00033042323775589466,0.0013806847855448723,0,1,-1000,1,0,0,0,0,0,3096.0
13:38:32.601,AUTO,-35.3632621,149.1652375,0,-0.00017351063434034586,0.0016927545657381415,0.020530687645077705,0.0003205339307896793,0.00033042323775589466,0.0013806847855448723,0,1,-1000,1,0,0,0,0,0,3096.0
13:38:32.802,AUTO,-35.3632621,149.1652375,0,-0.00017351063434034586,0.0016927545657381415,0.020530687645077705,0.0003205339307896793,0.00033042323775589466,0.0013806847855448723,0,1,-1000,1,0,0,0,0,0,3096.0
13:38:33.004,AUTO,-35.3632621,149.1652375,181,0.002951493952423334,0.0001328363287029788,0.020394546911120415,0.005840268451720476,0.003959177993237972,0.003825085237622261,0,0,-1130,6,4,3,0,0,-69,3096.0
13:38:33.205,AUTO,-35.3632621,149.1652375,394,0.001873024390079081,0.0011250542011111975,0.020377038046717644,-0.008102165535092354,0.0023754381109029055,0.0009857314871624112,0,0,-1110,-7,3,0,0,0,-98,3096.0
13:38:33.407,AUTO,-35.3632621,149.1652375,394,0.001873024390079081,0.0011250542011111975,0.020377038046717644,-0.008102165535092354,0.0023754381109029055,0.0009857314871624112,0,0,-1110,-7,3,0,0,0,-98,3096.0
13:38:33.609,AUTO,-35.3632621,149.1652375,670,0.0015061679296195507,0.001607568934559822,0.02030407078564167,-0.00025362224550917745,-8.099660044535995e-05,0.00147240050137043,0,0,-1090,0,0,1,0,0,-122,3096.0
13:38:33.810,AUTO,-35.3632621,149.1652375,1005,0.010306422598659992,0.0008596540428698063,0.019886046648025513,0.04755562171339989,-0.0058561814948916435,0.0010281847789883614,0,0,-1042,48,-5,0,0,1,-137,3096.0
13:38:34.012,AUTO,-35.363262,149.1652375,1371,0.02218778431415558,-0.0008675305871292949,0.019804449751973152,0.04730639234185219,-0.007401654031127691,0.0019125554244965315,0,0,-1018,47,-7,1,0,5,-143,3096.0
13:38:34.214,AUTO,-35.363262,149.1652377,1749,0.03366207703948021,-0.002746508689597249,0.019900085404515266,0.0450390987098217,-0.007838810794055462,0.00266977003775537,0,-1,-1007,45,-7,2,1,11,-146,3096.0
13:38:34.416,AUTO,-35.363262,149.1652377,1749,0.03366207703948021,-0.002746508689597249,0.019900085404515266,0.0450390987098217,-0.007838810794055462,0.00266977003775537,0,-1,-1007,45,-7,2,1,11,-146,3096.0
13:38:34.618,AUTO,-35.363262,149.1652377,1749,0.03366207703948021,-0.002746508689597249,0.019900085404515266,0.0450390987098217,-0.007838810794055462,0.00266977003775537,0,-1,-1007,45,-7,2,1,11,-146,3096.0
13:38:34.821,AUTO,-35.363262,149.1652377,1749,0.03366207703948021,-0.002746508689597249,0.019900085404515266,0.0450390987098217,-0.007838810794055462,0.00266977003775537,0,-1,-1007,45,-7,2,1,11,-146,3096.0
13:38:35.028,AUTO,-35.3632616,149.1652396,2903,0.062483131885528564,-0.009531844407320023,-0.007859150879085064,-0.0029464608523994684,0.013523980043828487,-0.036751650273799896,0,-8,-993,-2,14,-37,8,42,-147,3096.0
13:38:35.281,AUTO,-35.3632614,149.1652409,3283,0.044090885668992996,0.010957259684801102,-0.029381826519966125,-0.12944626808166504,0.10113288462162018,-0.10262758284807205,2,-11,-991,-128,101,-102,9,53,-144,3096.0
13:38:35.579,AUTO,-35.3632612,149.1652423,3659,0.00044671681826002896,0.023321107029914856,-0.05025060847401619,-0.18203336000442505,0.007507016882300377,-0.0994316041469574,5,-13,-998,-181,8,-99,6,54,-143,3096.0
13:38:35.882,AUTO,-35.363261,149.1652437,4035,-0.03185733035206795,0.042629487812519073,-0.08823534846305847,-0.0658625140786171,0.09289960563182831,-0.15886715054512024,6,-9,-1013,-65,93,-158,0,47,-146,3096.0
13:38:36.084,AUTO,-35.3632611,149.1652448,4418,-0.039084553718566895,0.05265910550951958,-0.1200370341539383,-0.0161200650036335,0.01234299037605524,-0.11213832348585129,6,-9,-1005,-15,12,-112,-10,36,-148,3096.0
13:38:36.286,AUTO,-35.3632613,149.1652457,4806,-0.052279550582170486,0.038698866963386536,-0.13006773591041565,-0.06858472526073456,-0.11659462749958038,0.006215821020305157,8,-3,-1000,-68,-115,6,-20,24,-148,3096.0
13:38:36.489,AUTO,-35.3632613,149.1652457,4806,-0.052279550582170486,0.038698866963386536,-0.13006773591041565,-0.06858472526073456,-0.11659462749958038,0.006215821020305157,8,-3,-1000,-68,-115,6,-20,24,-148,3096.0
13:38:36.691,AUTO,-35.3632613,149.1652457,4806,-0.052279550582170486,0.038698866963386536,-0.13006773591041565,-0.06858472526073456,-0.11659462749958038,0.006215821020305157,8,-3,-1000,-68,-115,6,-20,24,-148,3096.0
13:38:36.895,AUTO,-35.3632613,149.1652457,4806,-0.052279550582170486,0.038698866963386536,-0.13006773591041565,-0.06858472526073456,-0.11659462749958038,0.006215821020305157,8,-3,-1000,-68,-115,6,-20,24,-148,2380.0
13:38:37.097,AUTO,-35.3632628,149.1652457,5955,-0.05898541957139969,-0.02805827371776104,-0.08818123489618301,0.05487539991736412,-0.02308696322143078,0.03659960255026817,1,6,-1003,55,-22,36,-17,-23,-149,2380.0
13:38:37.299,AUTO,-35.3632631,149.165245,6342,-0.044987909495830536,-0.031172558665275574,-0.08124236017465591,0.058997709304094315,-0.009299085475504398,0.028729354962706566,0,7,-1001,59,-8,28,-10,-35,-149,2380.0
13:38:37.501,AUTO,-35.3632633,149.1652439,6728,-0.030073823407292366,-0.03189932927489281,-0.07655882090330124,0.06165672093629837,-0.0007004189537838101,0.022788316011428833,-2,7,-1001,62,0,22,-4,-44,-149,2380.0
13:38:37.704,AUTO,-35.3632634,149.1652426,7114,-0.014897139742970467,-0.030874956399202347,-0.07283062487840652,0.0620814673602581,0.006193690933287144,0.01844257116317749,-5,8,-1001,62,7,17,2,-48,-150,2380.0
13:38:37.907,AUTO,-35.3632634,149.1652426,7114,-0.014897139742970467,-0.030874956399202347,-0.07283062487840652,0.0620814673602581,0.006193690933287144,0.01844257116317749,-5,8,-1001,62,7,17,2,-48,-150,2380.0
13:38:38.109,AUTO,-35.3632633,149.1652412,7502,0.000503360410220921,-0.028501691296696663,-0.06989601999521255,0.06218014284968376,0.011955175548791885,0.015100525692105293,-6,13,-1002,62,12,14,8,-49,-150,2380.0
13:38:38.311,AUTO,-35.3632632,149.1652398,7891,0.015659205615520477,-0.025066426023840904,-0.06759770959615707,0.06160275638103485,0.01499493233859539,0.012162016704678535,-8,5,-1002,62,15,11,13,-46,-151,2380.0
13:38:38.513,AUTO,-35.3632632,149.1652398,7891,0.015659205615520477,-0.025066426023840904,-0.06759770959615707,0.06160275638103485,0.01499493233859539,0.012162016704678535,-8,5,-1002,62,15,11,13,-46,-151,2380.0
13:38:38.716,AUTO,-35.3632632,149.1652398,7891,0.015659205615520477,-0.025066426023840904,-0.06759770959615707,0.06160275638103485,0.01499493233859539,0.012162016704678535,-8,5,-1002,62,15,11,13,-46,-151,2380.0
13:38:38.918,AUTO,-35.3632632,149.1652398,7891,0.015659205615520477,-0.025066426023840904,-0.06759770959615707,0.06160275638103485,0.01499493233859539,0.012162016704678535,-8,5,-1002,62,15,11,13,-46,-151,2380.0
13:38:39.120,AUTO,-35.363262,149.1652368,9060,0.028323743492364883,-0.0004328741051722318,-0.07693187147378922,-0.022491056472063065,0.03961809352040291,-0.02818317525088787,-7,3,-999,-21,40,-28,20,-24,-150,2380.0
13:38:39.322,AUTO,-35.3632616,149.1652361,9452,0.02275218814611435,0.008000791072845459,-0.08392530679702759,-0.01853065937757492,0.026250608265399933,-0.023252494633197784,-7,1,-1000,-17,26,-23,18,-18,-150,2380.0
13:38:39.524,AUTO,-35.3632612,149.1652357,9840,0.018245583400130272,0.01320041436702013,-0.0901288390159607,-0.016301285475492477,0.01596890203654766,-0.018797267228364944,-5,1,-1000,-15,16,-18,15,-13,-150,2380.0
13:38:39.726,AUTO,-35.3632609,149.1652353,10227,0.015070684254169464,0.01620686613023281,-0.09531165659427643,-0.0064580682665109634,0.00754074240103364,-0.013547142967581749,-4,0,-1001,-5,8,-13,11,-9,-150,2380.0
13:38:39.932,AUTO,-35.3632609,149.1652353,10227,0.015070684254169464,0.01620686613023281,-0.09531165659427643,-0.0064580682665109634,0.00754074240103364,-0.013547142967581749,-4,0,-1001,-5,8,-13,11,-9,-150,2380.0
13:38:40.188,AUTO,-35.3632607,149.165235,10615,0.013428661040961742,0.016872448846697807,-0.09847883880138397,-0.006450059823691845,0.00021318270592018962,-0.006242003291845322,-3,0,-1000,-6,0,-6,6,-6,-150,2380.0
13:38:40.429,AUTO,-35.3632606,149.1652348,11003,0.01187050249427557,0.016581537202000618,-0.1006816178560257,-0.003964941017329693,-0.001463601365685463,-0.006118868011981249,-2,0,-1000,-3,0,-6,2,-3,-151,2380.0
13:38:40.650,AUTO,-35.3632606,149.1652348,11003,0.01187050249427557,0.016581537202000618,-0.1006816178560257,-0.003964941017329693,-0.001463601365685463,-0.006118868011981249,-2,0,-1000,-3,0,-6,2,-3,-151,2380.0
13:38:40.957,AUTO,-35.3632606,149.1652348,11003,0.01187050249427557,0.016581537202000618,-0.1006816178560257,-0.003964941017329693,-0.001463601365685463,-0.006118868011981249,-2,0,-1000,-3,0,-6,2,-3,-151,2380.0
13:38:41.170,AUTO,-35.3632606,149.1652347,12167,0.009034402668476105,0.011595812626183033,-0.10372993350028992,-0.0030898279510438442,-0.008258812129497528,-0.0011099723633378744,0,0,-1000,-2,-7,-1,-5,2,-151,2380.0
13:38:41.372,AUTO,-35.3632606,149.1652347,12557,0.008132491260766983,0.00930181983858347,-0.10430745035409927,-0.0034376594703644514,-0.009362095035612583,-0.0008656076388433576,1,0,-1000,-2,-8,0,-7,4,-151,2380.0
13:38:41.575,AUTO,-35.3632608,149.1652347,12945,0.0071167778223752975,0.007116264663636684,-0.10533226281404495,-0.003284552600234747,-0.006443128455430269,-0.005322042852640152,1,0,-1000,-2,-6,-5,-8,5,-151,2380.0
13:38:41.777,AUTO,-35.3632609,149.1652348,13334,0.006031064782291651,0.005321227014064789,-0.10683777928352356,-0.00400524539873004,-0.008702985942363739,-0.00463969586417079,1,0,-1000,-3,-7,-5,-8,6,-151,104028.0
13:38:41.979,AUTO,-35.3632611,149.1652349,13722,0.005110766738653183,0.0035024750977754593,-0.10897170007228851,-0.003793656826019287,-0.005644496530294418,-0.009831678122282028,1,0,-1000,-2,-4,-10,-8,6,-151,104028.0
13:38:42.183,AUTO,-35.3632611,149.1652349,13722,0.005110766738653183,0.0035024750977754593,-0.10897170007228851,-0.003793656826019287,-0.005644496530294418,-0.009831678122282028,1,0,-1000,-2,-4,-10,-8,6,-151,104028.0
13:38:42.385,AUTO,-35.3632613,149.1652351,14111,0.004353413823992014,0.0020770812407135963,-0.11173281073570251,-0.0011415737681090832,-0.005250700283795595,-0.011499750427901745,1,0,-1000,0,-4,-11,-7,7,-151,104028.0
13:38:42.586,AUTO,-35.3632613,149.1652351,14111,0.004353413823992014,0.0020770812407135963,-0.11173281073570251,-0.0011415737681090832,-0.005250700283795595,-0.011499750427901745,1,0,-1000,0,-4,-11,-7,7,-151,104028.0
13:38:42.788,AUTO,-35.3632613,149.1652351,14111,0.004353413823992014,0.0020770812407135963,-0.11173281073570251,-0.0011415737681090832,-0.005250700283795595,-0.011499750427901745,1,0,-1000,0,-4,-11,-7,7,-151,104028.0
13:38:42.990,AUTO,-35.3632616,149.1652354,15278,0.0020052259787917137,-0.00028969303821213543,-0.1239636018872261,0.00020960270194336772,0.00019228883320465684,-0.019425665959715843,1,0,-1000,0,0,-19,-5,6,-151,104028.0
13:38:43.192,AUTO,-35.3632616,149.1652354,15278,0.0020052259787917137,-0.00028969303821213543,-0.1239636018872261,0.00020960270194336772,0.00019228883320465684,-0.019425665959715843,1,0,-1000,0,0,-19,-5,6,-151,104028.0
13:38:43.393,AUTO,-35.3632617,149.1652355,15667,0.00185868248809129,-0.00016786348714958876,-0.12937940657138824,0.000735141453333199,0.00035097490763291717,-0.02254539541900158,1,0,-1000,1,0,-22,-4,5,-152,104028.0
13:38:43.595,AUTO,-35.3632618,149.1652356,16056,0.0017637810669839382,3.664209998532897e-06,-0.1350979506969452,-0.0005701849586330354,0.0016143189277499914,-0.024078110232949257,0,0,-1000,0,2,-24,-3,5,-152,104028.0
13:38:43.797,AUTO,-35.3632618,149.1652357,16454,0.0018987879157066345,0.00012518855510279536,-0.14089776575565338,0.0008222692995332181,0.0010402973275631666,-0.023479383438825607,0,0,-1000,1,1,-23,-2,4,-152,104028.0
13:38:43.998,AUTO,-35.3632618,149.1652357,16844,0.002363812644034624,0.0009550732793286443,-0.14718447625637054,0.002353380434215069,0.002098487224429846,-0.02311953343451023,0,0,-1000,3,2,-23,-1,3,-152,104028.0
13:38:44.200,AUTO,-35.3632618,149.1652358,17233,0.002946294844150543,0.002026765374466777,-0.1538270264863968,0.004565271083265543,0.005414704792201519,-0.024352606385946274,0,0,-1000,5,6,-24,-1,3,-152,104028.0
13:38:44.402,AUTO,-35.3632618,149.1652358,17233,0.002946294844150543,0.002026765374466777,-0.1538270264863968,0.004565271083265543,0.005414704792201519,-0.024352606385946274,0,0,-1000,5,6,-24,-1,3,-152,104028.0
13:38:44.604,AUTO,-35.3632618,149.1652358,17233,0.002946294844150543,0.002026765374466777,-0.1538270264863968,0.004565271083265543,0.005414704792201519,-0.024352606385946274,0,0,-1000,5,6,-24,-1,3,-152,104028.0
13:38:44.806,AUTO,-35.3632618,149.1652358,17233,0.002946294844150543,0.002026765374466777,-0.1538270264863968,0.004565271083265543,0.005414704792201519,-0.024352606385946274,0,0,-1000,5,6,-24,-1,3,-152,104028.0
13:38:45.007,AUTO,-35.3632618,149.1652358,18394,0.004514326341450214,0.003487999550998211,-0.17158913612365723,0.002157125622034073,0.0014289501123130322,-0.022549528628587723,0,0,-1000,2,2,-22,-1,3,-152,104028.0
13:38:45.284,AUTO,-35.3632618,149.1652359,18784,0.004816027358174324,0.003995205741375685,-0.17735667526721954,0.0005513494834303856,0.0026045069098472595,-0.022311318665742874,0,0,-1000,1,3,-22,-1,3,-152,104028.0
13:38:45.499,AUTO,-35.3632618,149.1652359,19174,0.004820632748305798,0.0045760562643408775,-0.1831047385931015,0.0008627019706182182,0.002437042538076639,-0.022036338225007057,0,0,-1000,1,3,-22,-1,4,-152,104028.0
13:38:45.735,AUTO,-35.3632618,149.165236,19564,0.004735706374049187,0.0044295936822891235,-0.1881006956100464,-0.0014081047847867012,-0.0020234580151736736,-0.017485326156020164,0,0,-999,0,-1,-18,-2,4,-152,104028.0
13:38:45.981,AUTO,-35.3632618,149.165236,19953,0.004410253372043371,0.004267905838787556,-0.19314447045326233,-0.00026444176910445094,0.0010928690899163485,-0.020094197243452072,0,0,-1000,0,1,-20,-2,4,-152,104028.0
13:38:46.201,AUTO,-35.3632618,149.165236,19953,0.004410253372043371,0.004267905838787556,-0.19314447045326233,-0.00026444176910445094,0.0010928690899163485,-0.020094197243452072,0,0,-1000,0,1,-20,-2,4,-152,104028.0
13:38:46.436,AUTO,-35.3632618,149.1652361,20343,0.004074453376233578,0.0042960671707987785,-0.19813400506973267,-0.00035176874371245503,0.0016282651340588927,-0.02157289907336235,0,0,-1000,0,2,-21,-2,4,-152,104028.0
13:38:46.640,AUTO,-35.3632618,149.1652361,20343,0.004074453376233578,0.0042960671707987785,-0.19813400506973267,-0.00035176874371245503,0.0016282651340588927,-0.02157289907336235,0,0,-1000,0,2,-21,-2,4,-152,104028.0
13:38:46.843,AUTO,-35.3632618,149.1652361,20343,0.004074453376233578,0.0042960671707987785,-0.19813400506973267,-0.00035176874371245503,0.0016282651340588927,-0.02157289907336235,0,0,-1000,0,2,-21,-2,4,-152,104028.0
13:38:47.045,AUTO,-35.3632618,149.1652361,20343,0.004074453376233578,0.0042960671707987785,-0.19813400506973267,-0.00035176874371245503,0.0016282651340588927,-0.02157289907336235,0,0,-1000,0,2,-21,-2,4,-152,54007.0
13:38:47.247,AUTO,-35.3632618,149.1652364,21672,0.002897269558161497,0.0037450261879712343,-0.21438081562519073,0.000605939538218081,0.0014681010507047176,-0.019696205854415894,0,0,-1000,1,2,-19,-2,4,-152,54007.0
13:38:47.448,AUTO,-35.3632618,149.1652364,22061,0.0026810045819729567,0.0037754245568066835,-0.21922481060028076,2.584286266937852e-05,-0.0012833434157073498,-0.01968839392066002,0,0,-1000,0,0,-19,-2,4,-152,54007.0
13:38:47.650,AUTO,-35.3632618,149.1652365,22450,0.0024334732443094254,0.003357923123985529,-0.22385014593601227,0.000183708849363029,-0.002295908983796835,-0.02042832411825657,0,0,-1000,0,-1,-20,-2,4,-152,54007.0
13:38:47.852,AUTO,-35.3632618,149.1652366,22840,0.002236787462607026,0.003184328321367502,-0.228640615940094,0.00035955430939793587,0.000979189295321703,-0.02187589928507805,0,0,-1000,1,1,-22,-2,4,-152,54007.0
13:38:48.053,AUTO,-35.3632618,149.1652366,22840,0.002236787462607026,0.003184328321367502,-0.228640615940094,0.00035955430939793587,0.000979189295321703,-0.02187589928507805,0,0,-1000,1,1,-22,-2,4,-152,54007.0
13:38:48.255,AUTO,-35.3632619,149.1652366,23238,0.0019941474311053753,0.0032715953420847654,-0.23362530767917633,-2.128200139850378e-05,0.001828221371397376,-0.020090144127607346,0,0,-1000,0,2,-20,-2,4,-152,54007.0
13:38:48.457,AUTO,-35.3632619,149.1652367,23627,0.001818592892959714,0.0032836375758051872,-0.2384718656539917,0.0016628572484478354,0.0010310211218893528,-0.020100746303796768,0,0,-1000,2,1,-20,-2,3,-152,54007.0
13:38:48.659,AUTO,-35.3632619,149.1652367,23627,0.001818592892959714,0.0032836375758051872,-0.2384718656539917,0.0016628572484478354,0.0010310211218893528,-0.020100746303796768,0,0,-1000,2,1,-20,-2,3,-152,54007.0
13:38:48.860,AUTO,-35.3632619,149.1652367,23627,0.001818592892959714,0.0032836375758051872,-0.2384718656539917,0.0016628572484478354,0.0010310211218893528,-0.020100746303796768,0,0,-1000,2,1,-20,-2,3,-152,54007.0
13:38:49.062,AUTO,-35.3632619,149.1652368,24788,0.0024561004247516394,0.0021800510585308075,-0.25185108184814453,-0.0009055970003828406,-0.002410376211628318,-0.015508851036429405,0,0,-1000,0,-1,-15,-2,3,-153,54007.0
13:38:49.264,AUTO,-35.3632619,149.1652368,24788,0.0024561004247516394,0.0021800510585308075,-0.25185108184814453,-0.0009055970003828406,-0.002410376211628318,-0.015508851036429405,0,0,-1000,0,-1,-15,-2,3,-153,54007.0
13:38:49.465,AUTO,-35.363262,149.1652369,25175,-0.007107171695679426,0.004279218148440123,-0.25169074535369873,-0.04928286373615265,0.01865547150373459,0.01817418448626995,0,0,-995,-48,19,18,-2,2,-151,54007.0
13:38:49.667,AUTO,-35.363262,149.1652368,25561,-0.00817445944994688,0.006555535830557346,-0.24589762091636658,0.02718218043446541,0.002420531352981925,0.026909157633781433,0,0,-1004,28,3,26,-4,0,-151,54007.0
13:38:49.869,AUTO,-35.3632621,149.1652368,25949,-0.0004991467576473951,0.005580946337431669,-0.23881131410598755,0.031804364174604416,-0.004555422347038984,0.029976950958371162,0,0,-1002,32,-3,29,-5,-1,-152,54007.0
13:38:50.070,AUTO,-35.3632622,149.1652368,26339,0.005883329082280397,0.004242452792823315,-0.2310422658920288,0.021233970299363136,-0.005140651948750019,0.030208172276616096,0,0,-1001,22,-4,29,-5,0,-153,54007.0
13:38:50.272,AUTO,-35.3632622,149.1652368,26339,0.005883329082280397,0.004242452792823315,-0.2310422658920288,0.021233970299363136,-0.005140651948750019,0.030208172276616096,0,0,-1001,22,-4,29,-5,0,-153,54007.0
13:38:50.474,AUTO,-35.3632622,149.1652368,26728,0.009127436205744743,0.002686834894120693,-0.22352559864521027,0.007227730937302113,-0.005459144711494446,0.027584174647927284,0,0,-999,8,-4,27,-5,0,-152,54007.0
13:38:50.676,AUTO,-35.3632622,149.1652368,26728,0.009127436205744743,0.002686834894120693,-0.22352559864521027,0.007227730937302113,-0.005459144711494446,0.027584174647927284,0,0,-999,8,-4,27,-5,0,-152,54007.0
13:38:50.878,AUTO,-35.3632622,149.1652368,26728,0.009127436205744743,0.002686834894120693,-0.22352559864521027,0.007227730937302113,-0.005459144711494446,0.027584174647927284,0,0,-999,8,-4,27,-5,0,-152,54007.0
13:38:51.093,AUTO,-35.3632622,149.1652368,26728,0.009127436205744743,0.002686834894120693,-0.22352559864521027,0.007227730937302113,-0.005459144711494446,0.027584174647927284,0,0,-999,8,-4,27,-5,0,-152,54007.0
13:38:51.330,AUTO,-35.3632624,149.165237,28280,0.00035885392571799457,0.006933760829269886,-0.18561843037605286,-0.07584796845912933,0.06738750636577606,0.163556307554245,0,-1,-975,-75,68,163,-2,6,-149,54007.0
13:38:51.554,AUTO,-35.3632625,149.165237,28651,-0.024627478793263435,0.03258656710386276,-0.11279291659593582,-0.12199617177248001,0.11413167417049408,0.4129094183444977,0,-1,-975,-75,68,163,-6,3,-142,54007.0
13:38:51.832,AUTO,-35.3632627,149.165237,29006,-0.054130543023347855,0.06447040289640427,0.022537201642990112,-0.13519258797168732,0.07822924107313156,0.6062003970146179,1,1,-975,-134,78,606,-18,-6,-136,54007.0
13:38:52.122,AUTO,-35.3632632,149.1652367,29338,-0.05265874043107033,0.049859341233968735,0.1318226009607315,0.05810609087347984,-0.18309567868709564,0.2865111529827118,4,4,-945,59,-182,286,-30,-19,-123,54007.0
13:38:52.339,AUTO,-35.3632639,149.165236,29635,-0.026930013671517372,0.002468838356435299,0.17479737102985382,0.10712103545665741,-0.18314167857170105,0.08367424458265305,4,7,-948,108,-182,83,-33,-28,-109,54007.0
13:38:52.543,AUTO,-35.3632639,149.165236,29635,-0.026930013671517372,0.002468838356435299,0.17479737102985382,0.10712103545665741,-0.18314167857170105,0.08367424458265305,4,7,-948,108,-182,83,-33,-28,-109,54007.0
13:38:52.761,AUTO,-35.3632639,149.165236,29635,-0.026930013671517372,0.002468838356435299,0.17479737102985382,0.10712103545665741,-0.18314167857170105,0.08367424458265305,4,7,-948,108,-182,83,-33,-28,-109,54007.0
13:38:52.966,AUTO,-35.3632639,149.165236,29635,-0.026930013671517372,0.002468838356435299,0.17479737102985382,0.10712103545665741,-0.18314167857170105,0.08367424458265305,4,7,-948,108,-182,83,-33,-28,-109,12255.0
13:38:53.169,AUTO,-35.3632654,149.1652338,30348,0.034512825310230255,-0.04997805133461952,0.16318869590759277,0.02103017456829548,0.0005178668070584536,-0.04147063195705414,0,4,-966,21,1,-41,-7,-13,-78,12255.0
13:38:53.371,AUTO,-35.3632654,149.1652336,30535,0.040821682661771774,-0.04615117982029915,0.15355239808559418,0.06087297573685646,0.02254360169172287,-0.03164295479655266,0,3,-970,61,23,-31,2,-2,-69,12255.0
13:38:53.572,AUTO,-35.3632654,149.1652336,30703,0.038884252309799194,-0.038204584270715714,0.14662188291549683,-0.08723276853561401,0.037114210426807404,-0.021800819784402847,-2,-5,-973,-86,37,-21,10,7,-62,12255.0
13:38:53.774,AUTO,-35.3632654,149.1652336,30703,0.038884252309799194,-0.038204584270715714,0.14662188291549683,-0.08723276853561401,0.037114210426807404,-0.021800819784402847,-2,-5,-973,-86,37,-21,10,7,-62,12255.0
13:38:53.978,AUTO,-35.3632651,149.1652337,30853,0.03457694128155708,-0.028190016746520996,0.1418462097644806,-0.0013797276187688112,0.040287841111421585,-0.015878189355134964,-2,0,-977,0,41,-15,17,16,-56,12255.0
13:38:54.180,AUTO,-35.3632646,149.1652342,30991,0.0317610464990139,-0.017827890813350677,0.13846665620803833,0.03950856998562813,0.04093165323138237,-0.010536707006394863,-2,-12,-977,40,41,-10,21,22,-50,12255.0
13:38:54.382,AUTO,-35.3632641,149.1652348,31110,0.016138987615704536,-0.008997077122330666,0.13538512587547302,-0.5542510747909546,0.033565279096364975,-0.0069664292968809605,-3,-30,-969,-553,34,-7,23,25,-44,12255.0
13:38:54.584,AUTO,-35.3632641,149.1652348,31110,0.016138987615704536,-0.008997077122330666,0.13538512587547302,-0.5542510747909546,0.033565279096364975,-0.0069664292968809605,-3,-30,-969,-553,34,-7,23,25,-44,12255.0
13:38:54.786,AUTO,-35.3632641,149.1652348,31110,0.016138987615704536,-0.008997077122330666,0.13538512587547302,-0.5542510747909546,0.033565279096364975,-0.0069664292968809605,-3,-30,-969,-553,34,-7,23,25,-44,12255.0
13:38:54.988,AUTO,-35.3632641,149.1652348,31110,0.016138987615704536,-0.008997077122330666,0.13538512587547302,-0.5542510747909546,0.033565279096364975,-0.0069664292968809605,-3,-30,-969,-553,34,-7,23,25,-44,12255.0
13:38:55.190,AUTO,-35.3632625,149.1652369,31379,0.007539127487689257,0.011500535532832146,0.1281789094209671,0.11344549059867859,0.01869894564151764,-0.01057837437838316,-2,-17,-981,113,19,-10,20,26,-29,12255.0
13:38:55.392,AUTO,-35.363262,149.1652376,31443,-0.005733595695346594,0.01412506215274334,0.12560096383094788,-0.5835407376289368,0.009946096688508987,-0.012364093214273453,-1,-41,-962,-583,11,-12,17,23,-22,12255.0
13:38:55.593,AUTO,-35.3632616,149.1652382,31490,-0.012553149834275246,0.015878478065133095,0.12307389080524445,-0.49542391300201416,0.010094646364450455,-0.006389670539647341,0,-12,-972,-493,11,-6,14,20,-16,12255.0
13:38:55.795,AUTO,-35.3632616,149.1652382,31490,-0.012553149834275246,0.015878478065133095,0.12307389080524445,-0.49542391300201416,0.010094646364450455,-0.006389670539647341,0,-12,-972,-493,11,-6,14,20,-16,12255.0
13:38:56.016,AUTO,-35.3632613,149.1652387,31520,-0.007528033573180437,0.016382157802581787,0.12075644731521606,0.23773255944252014,-0.0004550796002149582,-0.004811644088476896,0,20,-976,239,0,-4,11,17,-9,12255.0
13:38:56.229,AUTO,-35.3632611,149.1652391,31530,-0.005367272067815065,0.016337381675839424,0.11747372150421143,0.5726731419563293,0.006149455439299345,-0.07078971713781357,0,48,-949,574,7,-71,7,14,0,12255.0
13:38:56.502,AUTO,-35.363261,149.1652394,31508,-0.028477627784013748,0.04151150584220886,0.11017438769340515,0.8515242338180542,0.009163898415863514,0.0031576103065162897,0,26,-987,852,10,3,1,4,12,12255.0
13:38:56.774,AUTO,-35.363261,149.1652394,31508,-0.028477627784013748,0.04151150584220886,0.11017438769340515,0.8515242338180542,0.009163898415863514,0.0031576103065162897,0,26,-987,852,10,3,1,4,12,12255.0
13:38:57.084,AUTO,-35.363261,149.1652394,31508,-0.028477627784013748,0.04151150584220886,0.11017438769340515,0.8515242338180542,0.009163898415863514,0.0031576103065162897,0,26,-987,852,10,3,1,4,12,12255.0
13:38:57.287,AUTO,-35.3632614,149.1652394,31423,0.00240532448515296,0.007820439524948597,0.11051544547080994,-0.4964790642261505,-0.02164413407444954,-0.0028079822659492493,3,-33,-1035,-496,-20,-2,-12,-6,0,12255.0
13:38:57.489,AUTO,-35.3632617,149.1652395,31434,0.01070097554475069,0.0030380685348063707,0.1081661731004715,-0.44237270951271057,-0.014999995008111,-7.092610758263618e-05,4,-12,-1048,-441,-14,0,-13,-1,-11,12255.0
13:38:57.691,AUTO,-35.3632621,149.1652396,31474,0.02660212852060795,0.0004522666858974844,0.10640265047550201,0.23195213079452515,-0.011646578088402748,0.000875217723660171,5,17,-1049,233,-10,0,-13,5,-24,12255.0
13:38:57.894,AUTO,-35.3632624,149.16524,31546,0.03856136277318001,-0.0005119748529978096,0.10503073036670685,0.4106692969799042,0.0003215189790353179,0.002204596996307373,5,12,-1073,411,1,2,-13,14,-37,198393.0
13:38:58.097,AUTO,-35.3632628,149.1652406,31652,0.04012975096702576,0.0004419122124090791,0.10391563177108765,-0.04480026662349701,0.004176991991698742,-0.0071830833330750465,7,-14,-1057,-44,5,-7,-12,22,-50,198393.0
13:38:58.299,AUTO,-35.3632628,149.1652406,31652,0.04012975096702576,0.0004419122124090791,0.10391563177108765,-0.04480026662349701,0.004176991991698742,-0.0071830833330750465,7,-14,-1057,-44,5,-7,-12,22,-50,198393.0
13:38:58.501,AUTO,-35.3632632,149.1652415,31793,0.03681035712361336,0.0018369222525507212,0.1030239462852478,-0.22700053453445435,0.005568160675466061,-0.0026941706892102957,7,-9,-1053,-225,6,-2,-12,32,-63,198393.0
13:38:58.704,AUTO,-35.3632632,149.1652415,31793,0.03681035712361336,0.0018369222525507212,0.1030239462852478,-0.22700053453445435,0.005568160675466061,-0.0026941706892102957,7,-9,-1053,-225,6,-2,-12,32,-63,198393.0
13:38:58.906,AUTO,-35.3632632,149.1652415,31793,0.03681035712361336,0.0018369222525507212,0.1030239462852478,-0.22700053453445435,0.005568160675466061,-0.0026941706892102957,7,-9,-1053,-225,6,-2,-12,32,-63,198393.0
13:38:59.108,AUTO,-35.3632643,149.1652455,32410,0.031943801790475845,-0.004384543281048536,0.4071277678012848,-0.08651725202798843,0.001695649465546012,0.8705164790153503,6,-17,-1049,-85,2,870,-12,55,-100,198393.0
13:38:59.310,AUTO,-35.3632646,149.1652473,32677,0.033717188984155655,-0.00956965982913971,0.6246275305747986,0.04792848229408264,0.007835552096366882,0.8536767363548279,4,-11,-1048,49,8,853,-12,61,-112,198393.0
13:38:59.512,AUTO,-35.3632646,149.1652473,32677,0.033717188984155655,-0.00956965982913971,0.6246275305747986,0.04792848229408264,0.007835552096366882,0.8536767363548279,4,-11,-1048,49,8,853,-12,61,-112,198393.0
13:38:59.714,AUTO,-35.363265,149.1652492,32974,0.03379184752702713,-0.014932380057871342,0.8274157047271729,0.0317188985645771,0.009439381770789623,0.7754878401756287,0,-16,-1046,32,10,775,-13,68,-123,198393.0
13:38:59.916,AUTO,-35.3632654,149.1652512,33300,0.0321725495159626,-0.020398469641804695,1.0082441568374634,0.0032279198057949543,-0.0034440946765244007,0.6584340333938599,-3,-16,-1038,4,-2,658,-14,74,-134,198393.0
13:39:00.119,AUTO,-35.3632659,149.1652535,33654,0.03226383775472641,-0.02522624097764492,1.1460824012756348,0.01866328902542591,0.006061369553208351,0.4592152237892151,-8,-16,-1024,19,7,459,-16,80,-141,198393.0
13:39:00.321,AUTO,-35.3632664,149.1652559,34019,0.03526661545038223,-0.025203639641404152,1.2435660362243652,0.02050240896642208,0.01810348965227604,0.3371334373950958,-10,-18,-1010,21,18,337,-18,86,-145,198393.0
13:39:00.523,AUTO,-35.3632664,149.1652559,34019,0.03526661545038223,-0.025203639641404152,1.2435660362243652,0.02050240896642208,0.01810348965227604,0.3371334373950958,-10,-18,-1010,21,18,337,-18,86,-145,198393.0
13:39:00.725,AUTO,-35.3632664,149.1652559,34019,0.03526661545038223,-0.025203639641404152,1.2435660362243652,0.02050240896642208,0.01810348965227604,0.3371334373950958,-10,-18,-1010,21,18,337,-18,86,-145,198393.0
13:39:00.928,AUTO,-35.3632664,149.1652559,34019,0.03526661545038223,-0.025203639641404152,1.2435660362243652,0.02050240896642208,0.01810348965227604,0.3371334373950958,-10,-18,-1010,21,18,337,-18,86,-145,198393.0
13:39:01.130,AUTO,-35.3632683,149.1652637,35137,0.043562375009059906,-0.014661231078207493,1.408621072769165,-0.009546734392642975,0.006316712591797113,0.1540084332227707,-12,-19,-999,-8,7,154,-34,97,-147,198393.0
13:39:01.338,AUTO,-35.3632692,149.1652664,35514,0.04147138074040413,-0.01457157637923956,1.442814588546753,-0.006676832679659128,0.006296902429312468,0.1270301640033722,-15,-20,-1000,-5,7,127,-39,99,-147,198393.0
13:39:01.574,AUTO,-35.3632701,149.1652692,35891,0.036403194069862366,-0.01641399972140789,1.4739594459533691,-0.02948746643960476,-0.012704544700682163,0.12571699917316437,-11,-24,-998,-28,-11,126,-43,100,-147,198393.0
13:39:01.788,AUTO,-35.3632701,149.1652692,35891,0.036403194069862366,-0.01641399972140789,1.4739594459533691,-0.02948746643960476,-0.012704544700682163,0.12571699917316437,-11,-24,-998,-28,-11,126,-43,100,-147,198393.0
13:39:02.061,AUTO,-35.3632722,149.1652749,36643,0.008594806306064129,-0.036527637392282486,1.545142412185669,-0.043086763471364975,-0.03603903204202652,0.14649631083011627,-15,-24,-999,-42,-35,146,-44,107,-146,198393.0
13:39:02.328,AUTO,-35.3632731,149.1652779,37018,-0.00161657331045717,-0.040848005563020706,1.5776174068450928,-0.041432175785303116,0.007694691885262728,0.10416501760482788,-16,-22,-998,-40,8,104,-39,112,-146,198393.0
13:39:02.532,AUTO,-35.3632731,149.1652779,37018,-0.00161657331045717,-0.040848005563020706,1.5776174068450928,-0.041432175785303116,0.007694691885262728,0.10416501760482788,-16,-22,-998,-40,8,104,-39,112,-146,198393.0
13:39:02.736,AUTO,-35.3632731,149.1652779,37018,-0.00161657331045717,-0.040848005563020706,1.5776174068450928,-0.041432175785303116,0.007694691885262728,0.10416501760482788,-16,-22,-998,-40,8,104,-39,112,-146,198393.0
13:39:02.939,AUTO,-35.3632731,149.1652779,37018,-0.00161657331045717,-0.040848005563020706,1.5776174068450928,-0.041432175785303116,0.007694691885262728,0.10416501760482788,-16,-22,-998,-40,8,104,-39,112,-146,198393.0
13:39:03.142,AUTO,-35.3632749,149.1652873,38156,-0.013930188491940498,0.012482837773859501,1.6023932695388794,0.020926419645547867,0.05755656212568283,0.014018372632563114,-21,-17,-1009,21,58,14,-14,110,-151,198393.0
13:39:03.345,AUTO,-35.3632752,149.1652902,38545,-0.008018015883862972,0.0263691283762455,1.6051031351089478,0.02551688812673092,0.05412230268120766,0.008387072943150997,-21,-13,-1007,26,55,8,-7,100,-153,21732.0
13:39:03.547,AUTO,-35.3632752,149.1652902,38545,-0.008018015883862972,0.0263691283762455,1.6051031351089478,0.02551688812673092,0.05412230268120766,0.008387072943150997,-21,-13,-1007,26,55,8,-7,100,-153,21732.0
13:39:03.749,AUTO,-35.3632752,149.1652928,38939,-0.0011366032995283604,0.039450570940971375,1.6067144870758057,0.029763245955109596,0.050530340522527695,0.004611195530742407,-19,-11,-1005,30,51,4,-2,87,-154,21732.0
13:39:03.951,AUTO,-35.3632752,149.165295,39336,0.006760112475603819,0.051345787942409515,1.6076618432998657,0.033315353095531464,0.04497309401631355,0.0017116554081439972,-17,-8,-1004,33,45,1,0,72,-155,21732.0
13:39:04.153,AUTO,-35.3632752,149.1652968,39734,0.015445487573742867,0.06143323704600334,1.6081693172454834,0.03637124225497246,0.03664969652891159,-3.116042717010714e-05,-14,-6,-1002,37,37,0,0,55,-155,21732.0
13:39:04.355,AUTO,-35.3632752,149.165298,40130,0.022823654115200043,0.06744543462991714,1.6106066703796387,0.019428398460149765,0.009237796999514103,0.018828703090548515,-10,-4,-999,20,9,18,-1,36,-154,21732.0
13:39:04.568,AUTO,-35.3632752,149.165298,40130,0.022823654115200043,0.06744543462991714,1.6106066703796387,0.019428398460149765,0.009237796999514103,0.018828703090548515,-10,-4,-999,20,9,18,-1,36,-154,21732.0
13:39:04.772,AUTO,-35.3632752,149.165298,40130,0.022823654115200043,0.06744543462991714,1.6106066703796387,0.019428398460149765,0.009237796999514103,0.018828703090548515,-10,-4,-999,20,9,18,-1,36,-154,21732.0
13:39:04.974,AUTO,-35.3632752,149.165298,40130,0.022823654115200043,0.06744543462991714,1.6106066703796387,0.019428398460149765,0.009237796999514103,0.018828703090548515,-10,-4,-999,20,9,18,-1,36,-154,21732.0
13:39:05.176,AUTO,-35.3632754,149.1652991,41305,0.010611502453684807,0.025559701025485992,1.6670854091644287,-0.030262500047683716,-0.09002704173326492,0.11905902624130249,0,-1,-998,-29,-89,119,-9,-4,-151,21732.0
13:39:05.378,AUTO,-35.3632756,149.1652991,41693,0.0037326407618820667,0.002316730795428157,1.6993627548217773,-0.02809200808405876,-0.09365435689687729,0.1360016018152237,2,0,-999,-27,-92,136,-9,-7,-150,21732.0
13:39:05.582,AUTO,-35.3632757,149.1652989,42080,-0.0016410078387707472,-0.01964619569480419,1.7335478067398071,-0.013829641975462437,-0.08255191147327423,0.13573941588401794,2,0,-1001,-12,-81,136,-9,-4,-151,21732.0
13:39:05.783,AUTO,-35.3632757,149.1652989,42080,-0.0016410078387707472,-0.01964619569480419,1.7335478067398071,-0.013829641975462437,-0.08255191147327423,0.13573941588401794,2,0,-1001,-12,-81,136,-9,-4,-151,21732.0
13:39:05.985,AUTO,-35.3632759,149.1652989,42471,-0.005126938223838806,-0.03860453516244888,1.7677809000015259,-0.006661026738584042,-0.0697312206029892,0.1336214542388916,0,-1,-1001,-5,-68,133,-9,4,-151,21732.0
13:39:06.187,AUTO,-35.363276,149.1652991,42858,-0.008075017482042313,-0.05459820106625557,1.8009953498840332,-0.004256509244441986,-0.06037033721804619,0.12902481853961945,-1,-1,-999,-3,-59,129,-8,15,-151,21732.0
13:39:06.389,AUTO,-35.3632761,149.1652997,43244,-0.010438855737447739,-0.06745816022157669,1.8328474760055542,-0.0009780362015590072,-0.047230809926986694,0.12421851605176926,-4,-2,-998,0,-46,124,-8,30,-150,21732.0
13:39:06.591,AUTO,-35.3632761,149.1652997,43244,-0.010438855737447739,-0.06745816022157669,1.8328474760055542,-0.0009780362015590072,-0.047230809926986694,0.12421851605176926,-4,-2,-998,0,-46,124,-8,30,-150,21732.0
13:39:06.794,AUTO,-35.3632761,149.1652997,43244,-0.010438855737447739,-0.06745816022157669,1.8328474760055542,-0.0009780362015590072,-0.047230809926986694,0.12421851605176926,-4,-2,-998,0,-46,124,-8,30,-150,21732.0
13:39:06.996,AUTO,-35.3632761,149.1652997,43244,-0.010438855737447739,-0.06745816022157669,1.8328474760055542,-0.0009780362015590072,-0.047230809926986694,0.12421851605176926,-4,-2,-998,0,-46,124,-8,30,-150,21732.0
13:39:07.198,AUTO,-35.3632765,149.1653043,44381,-0.027990344911813736,-0.09493887424468994,1.9284400939941406,-0.035387441515922546,-0.04733363911509514,0.14892378449440002,-17,-2,-993,-34,-46,149,-8,84,-145,21732.0
13:39:07.449,AUTO,-35.3632765,149.165307,44750,-0.040286317467689514,-0.10328248143196106,1.966552972793579,-0.028188930824398994,-0.027299178764224052,0.15203243494033813,-21,-4,-992,-27,-26,152,-5,106,-142,21732.0
13:39:07.724,AUTO,-35.3632765,149.1653102,45111,-0.03968258202075958,-0.09814664721488953,1.9951509237289429,0.0404333658516407,0.05247080698609352,0.09567081928253174,-27,-2,-998,41,53,95,-2,128,-140,21732.0
13:39:08.020,AUTO,-35.3632764,149.1653141,45471,-0.03084667958319187,-0.079923614859581,2.0139665603637695,0.044622793793678284,0.07994037121534348,0.06865108013153076,-31,0,-1003,45,80,68,0,146,-140,21732.0
13:39:08.274,AUTO,-35.3632763,149.1653183,45831,-0.015388509258627892,-0.06129108741879463,2.022507667541504,0.10000494867563248,0.04956623539328575,0.005678866989910603,-35,0,-1004,101,50,5,3,158,-141,21732.0
13:39:08.477,AUTO,-35.3632761,149.1653228,46192,0.01819312945008278,-0.05652828514575958,2.010420322418213,0.1400132030248642,0.004246574826538563,-0.07418655604124069,-39,3,-1006,140,5,-74,1,163,-142,21732.0
13:39:08.687,AUTO,-35.3632761,149.1653228,46192,0.01819312945008278,-0.05652828514575958,2.010420322418213,0.1400132030248642,0.004246574826538563,-0.07418655604124069,-39,3,-1006,140,5,-74,1,163,-142,21732.0
13:39:08.891,AUTO,-35.3632761,149.1653228,46192,0.01819312945008278,-0.05652828514575958,2.010420322418213,0.1400132030248642,0.004246574826538563,-0.07418655604124069,-39,3,-1006,140,5,-74,1,163,-142,21732.0
13:39:09.095,AUTO,-35.3632768,149.1653365,47305,0.11516762524843216,-0.04626975581049919,1.9131102561950684,0.044621095061302185,-0.017829738557338715,-0.10857145488262177,-39,-17,-999,45,-17,-108,-43,157,-145,21732.0
13:39:09.298,AUTO,-35.3632768,149.1653365,47305,0.11516762524843216,-0.04626975581049919,1.9131102561950684,0.044621095061302185,-0.017829738557338715,-0.10857145488262177,-39,-17,-999,45,-17,-108,-43,157,-145,44649.0
13:39:09.500,AUTO,-35.3632779,149.1653409,47668,0.12323064357042313,-0.04144679009914398,1.9261832237243652,-0.002750272862613201,0.12593694031238556,0.10353487730026245,-36,-15,-953,-1,126,103,-66,152,-137,44649.0
13:39:09.703,AUTO,-35.3632794,149.1653451,48002,0.10930412262678146,0.008447712287306786,1.954235315322876,-0.08203474432229996,0.2513149380683899,0.07589063048362732,-31,-22,-950,-81,252,76,-84,142,-124,44649.0
13:39:09.905,AUTO,-35.3632813,149.1653489,48304,0.08391134440898895,0.06769836694002151,1.9725298881530762,-0.11492687463760376,0.22244350612163544,0.03326394781470299,-28,-27,-946,-114,223,33,-92,121,-110,44649.0
13:39:10.107,AUTO,-35.3632833,149.1653521,48569,0.05859721451997757,0.10778707265853882,1.9790011644363403,-0.09541310369968414,0.11129534244537354,0.004810807760804892,-21,-24,-941,-94,111,5,-90,94,-95,44649.0
13:39:10.309,AUTO,-35.3632833,149.1653521,48569,0.05859721451997757,0.10778707265853882,1.9790011644363403,-0.09541310369968414,0.11129534244537354,0.004810807760804892,-21,-24,-941,-94,111,5,-90,94,-95,44649.0
13:39:10.512,AUTO,-35.3632852,149.1653545,48797,0.03267281875014305,0.12268158793449402,1.9779483079910278,-0.09344017505645752,0.020842168480157852,-0.011928253807127476,-14,-22,-941,-92,21,-11,-81,64,-78,44649.0
13:39:10.714,AUTO,-35.3632852,149.1653545,48797,0.03267281875014305,0.12268158793449402,1.9779483079910278,-0.09344017505645752,0.020842168480157852,-0.011928253807127476,-14,-22,-941,-92,21,-11,-81,64,-78,44649.0
13:39:10.916,AUTO,-35.3632852,149.1653545,48797,0.03267281875014305,0.12268158793449402,1.9779483079910278,-0.09344017505645752,0.020842168480157852,-0.011928253807127476,-14,-22,-941,-92,21,-11,-81,64,-78,44649.0
13:39:11.118,AUTO,-35.3632893,149.1653571,49232,-0.017405439168214798,0.09465750306844711,1.9653451442718506,-0.010392138734459877,-0.06605471670627594,-0.015202004462480545,1,-9,-961,-9,-65,-14,-39,-4,-37,44649.0
13:39:11.321,AUTO,-35.36329,149.1653569,49317,-0.025184253230690956,0.07683901488780975,1.9620888233184814,-0.07924617826938629,-0.0727815181016922,-0.013830436393618584,4,-8,-967,-78,-71,-13,-25,-18,-28,44649.0
13:39:11.523,AUTO,-35.36329,149.1653569,49317,-0.025184253230690956,0.07683901488780975,1.9620888233184814,-0.07924617826938629,-0.0727815181016922,-0.013830436393618584,4,-8,-967,-78,-71,-13,-25,-18,-28,44649.0
13:39:11.725,AUTO,-35.3632905,149.1653565,49378,-0.030183259397745132,0.059054356068372726,1.9594647884368896,-0.03833469748497009,-0.06598217040300369,-0.01049182191491127,5,0,-970,-37,-65,-10,-12,-28,-20,44649.0
13:39:11.927,AUTO,-35.3632907,149.1653557,49419,-0.01769608072936535,0.04401924088597298,1.9571914672851562,0.6095219850540161,-0.04915636032819748,-0.005243487190455198,6,17,-958,610,-48,-5,-2,-34,-11,44649.0
13:39:12.129,AUTO,-35.3632906,149.1653547,49432,-0.01771559566259384,0.032639358192682266,1.954034686088562,0.0034177806228399277,-0.03694973886013031,-0.01291953306645155,9,-18,-961,3,-35,-12,6,-37,0,44649.0
13:39:12.332,AUTO,-35.3632904,149.1653537,49425,-0.02653093822300434,0.021473277360200882,1.9509363174438477,-0.584110677242279,-0.05254709720611572,-0.01043108943849802,8,-36,-958,-583,-51,-10,13,-39,5,44649.0
13:39:12.534,AUTO,-35.3632904,149.1653537,49425,-0.02653093822300434,0.021473277360200882,1.9509363174438477,-0.584110677242279,-0.05254709720611572,-0.01043108943849802,8,-36,-958,-583,-51,-10,13,-39,5,44649.0
13:39:12.737,AUTO,-35.3632904,149.1653537,49425,-0.02653093822300434,0.021473277360200882,1.9509363174438477,-0.584110677242279,-0.05254709720611572,-0.01043108943849802,8,-36,-958,-583,-51,-10,13,-39,5,44649.0
13:39:12.939,AUTO,-35.3632904,149.1653537,49425,-0.02653093822300434,0.021473277360200882,1.9509363174438477,-0.584110677242279,-0.05254709720611572,-0.01043108943849802,8,-36,-958,-583,-51,-10,13,-39,5,44649.0
13:39:13.174,AUTO,-35.3632896,149.1653508,49339,-0.021120859310030937,-0.011646298691630363,1.9424378871917725,0.20804110169410706,-0.021574100479483604,-0.01109748613089323,6,39,-984,210,-20,-10,19,-30,13,44649.0
13:39:13.479,AUTO,-35.3632892,149.16535,49300,-0.008998902514576912,-0.016696006059646606,1.940657138824463,0.8047600984573364,-0.015928396955132484,-0.0030356338247656822,4,51,-986,806,-14,-2,19,-24,14,44649.0
13:39:13.814,AUTO,-35.363289,149.1653494,49261,-0.0002477706002537161,-0.01944613829255104,1.9383951425552368,0.7538859844207764,-0.007157700601965189,-0.007620419375598431,4,27,-1014,754,-6,-7,19,-18,13,44649.0
13:39:14.146,AUTO,-35.3632885,149.1653488,49198,-0.005832046736031771,-0.017861569300293922,1.9349474906921387,-0.16286523640155792,0.006153807044029236,-0.008608724921941757,0,-26,-1001,-163,7,-8,17,-6,9,44649.0
13:39:14.409,AUTO,-35.3632883,149.1653487,49174,-0.018127335235476494,-0.01590651646256447,1.9331806898117065,-0.7127751708030701,0.006935415789484978,-0.007067655213177204,0,-38,-1018,-712,7,-6,16,-1,6,44649.0
13:39:14.611,AUTO,-35.3632883,149.1653487,49174,-0.018127335235476494,-0.01590651646256447,1.9331806898117065,-0.7127751708030701,0.006935415789484978,-0.007067655213177204,0,-38,-1018,-712,7,-6,16,-1,6,44649.0
13:39:14.815,AUTO,-35.3632883,149.1653487,49174,-0.018127335235476494,-0.01590651646256447,1.9331806898117065,-0.7127751708030701,0.006935415789484978,-0.007067655213177204,0,-38,-1018,-712,7,-6,16,-1,6,44649.0
13:39:15.017,AUTO,-35.3632883,149.1653487,49174,-0.018127335235476494,-0.01590651646256447,1.9331806898117065,-0.7127751708030701,0.006935415789484978,-0.007067655213177204,0,-38,-1018,-712,7,-6,16,-1,6,44649.0
13:39:15.222,AUTO,-35.3632878,149.1653491,49140,-9.096317080548033e-05,-0.0029384579975157976,1.9283400774002075,0.4454116225242615,0.0199930090457201,-0.008403414860367775,-3,37,-994,447,20,-8,13,6,0,4759.0
13:39:15.423,AUTO,-35.3632876,149.1653494,49138,0.014025607146322727,0.0028479588218033314,1.9260988235473633,0.7093908190727234,0.02410745993256569,-0.008490810170769691,-3,26,-1001,710,25,-8,12,6,0,4759.0
13:39:15.625,RTL,-35.3632874,149.1653497,49137,0.012979143299162388,0.009917845018208027,1.9246412515640259,-0.032702311873435974,0.02707168646156788,-0.011776607483625412,-4,-18,-996,-33,28,-11,12,4,-1,4759.0
13:39:15.827,RTL,-35.3632872,149.16535,49136,0.0027400264516472816,0.010294335894286633,1.9225479364395142,-0.6641882658004761,0.0021768570877611637,-0.009972438216209412,-4,-31,-999,-663,3,-9,11,1,0,4759.0
13:39:16.029,RTL,-35.3632872,149.16535,49136,0.0027400264516472816,0.010294335894286633,1.9225479364395142,-0.6641882658004761,0.0021768570877611637,-0.009972438216209412,-4,-31,-999,-663,3,-9,11,1,0,4759.0
13:39:16.231,RTL,-35.3632869,149.1653502,49132,0.0018779137171804905,0.010737985372543335,1.9205782413482666,-0.6335206031799316,0.0037179577630013227,-0.004188141785562038,-2,-10,-990,-632,4,-4,8,-1,1,4759.0
13:39:16.434,RTL,-35.3632867,149.1653504,49125,0.015443691983819008,0.01048124860972166,1.9192558526992798,0.5215960144996643,-0.012759792618453503,-0.010165697894990444,-3,37,-1004,523,-11,-10,6,-4,1,4759.0
13:39:16.637,RTL,-35.3632867,149.1653504,49125,0.015443691983819008,0.01048124860972166,1.9192558526992798,0.5215960144996643,-0.012759792618453503,-0.010165697894990444,-3,37,-1004,523,-11,-10,6,-4,1,4759.0
13:39:16.839,RTL,-35.3632867,149.1653504,49125,0.015443691983819008,0.01048124860972166,1.9192558526992798,0.5215960144996643,-0.012759792618453503,-0.010165697894990444,-3,37,-1004,523,-11,-10,6,-4,1,4759.0
13:39:17.041,RTL,-35.3632867,149.1653504,49125,0.015443691983819008,0.01048124860972166,1.9192558526992798,0.5215960144996643,-0.012759792618453503,-0.010165697894990444,-3,37,-1004,523,-11,-10,6,-4,1,4759.0
13:39:17.243,RTL,-35.3632861,149.1653509,49109,0.013480234891176224,0.01570330187678337,1.914609432220459,-0.5607786178588867,0.06734196096658707,-0.00482623977586627,-2,-35,-1000,-560,68,-4,2,-8,0,4759.0
13:39:17.444,RTL,-35.3632859,149.1653509,49109,0.010778721421957016,0.03308260440826416,1.9136122465133667,-0.5918759107589722,0.07147049903869629,-0.006675178185105324,0,-15,-1011,-590,72,-6,0,-14,0,4759.0
13:39:17.646,RTL,-35.3632857,149.1653509,49112,0.01667032763361931,0.04961400479078293,1.9126479625701904,0.25955331325531006,0.05919170379638672,0.006806601770222187,1,31,-1003,261,60,7,0,-23,-2,4759.0
13:39:17.848,RTL,-35.3632856,149.1653505,49115,0.029001735150814056,0.06400272250175476,1.9110099077224731,0.6797565817832947,0.057917870581150055,-0.0002600394655019045,5,28,-998,680,59,0,1,-34,-1,4759.0
13:39:18.050,RTL,-35.3632856,149.1653505,49115,0.029001735150814056,0.06400272250175476,1.9110099077224731,0.6797565817832947,0.057917870581150055,-0.0002600394655019045,5,28,-998,680,59,0,1,-34,-1,4759.0
13:39:18.252,RTL,-35.3632854,149.1653497,49115,0.02066955901682377,0.07736754417419434,1.909684181213379,0.008745599538087845,0.054040178656578064,-0.008009853772819042,8,-16,-995,8,55,-7,3,-48,0,4759.0
13:39:18.455,RTL,-35.3632852,149.1653485,49113,0.010139983147382736,0.0886874571442604,1.9084908962249756,-0.570098340511322,0.03954214230179787,-0.009945959784090519,11,-26,-999,-569,41,-9,6,-64,0,4759.0
13:39:18.657,RTL,-35.3632852,149.1653485,49113,0.010139983147382736,0.0886874571442604,1.9084908962249756,-0.570098340511322,0.03954214230179787,-0.009945959784090519,11,-26,-999,-569,41,-9,6,-64,0,4759.0
13:39:18.861,RTL,-35.3632852,149.1653485,49113,0.010139983147382736,0.0886874571442604,1.9084908962249756,-0.570098340511322,0.03954214230179787,-0.009945959784090519,11,-26,-999,-569,41,-9,6,-64,0,4759.0
13:39:19.070,RTL,-35.3632852,149.1653485,49113,0.010139983147382736,0.0886874571442604,1.9084908962249756,-0.570098340511322,0.03954214230179787,-0.009945959784090519,11,-26,-999,-569,41,-9,6,-64,0,4759.0
13:39:19.317,RTL,-35.3632843,149.1653421,49110,0.0056348382495343685,0.1223345398902893,1.9054465293884277,0.6143769025802612,0.044411685317754745,0.005953157786279917,24,39,-1009,616,45,6,18,-120,0,4759.0
13:39:19.542,RTL,-35.3632838,149.1653388,49107,0.003762324806302786,0.12463682889938354,1.904222011566162,0.3142000734806061,-0.025950530543923378,-0.005821936763823032,34,21,-1010,314,-24,-5,24,-141,0,4759.0
13:39:19.818,RTL,-35.3632825,149.1653306,49108,-0.02658463642001152,0.10303861647844315,1.9025120735168457,-0.3851242661476135,-0.05275409668684006,-0.0030413498170673847,39,15,-998,-383,-51,-2,35,-176,-1,4759.0
13:39:20.100,RTL,-35.3632817,149.1653259,49112,-0.021943720057606697,0.08861806243658066,1.902315378189087,0.4282304346561432,-0.04771352931857109,0.005757276434451342,38,48,-1005,430,-46,6,39,-188,-2,4759.0
13:39:20.417,RTL,-35.3632808,149.1653209,49117,-0.018347393721342087,0.07576286047697067,1.9017202854156494,0.4159591794013977,-0.05103514716029167,0.0010152317117899656,39,27,-1004,416,-49,1,44,-195,-1,4759.0
