time_stamp,MODE,lat,lon,relative_alt,roll,pitch,yaw,rollspeed,pitchspeed,yawspeed,xacc,yacc,zacc,xgyro,ygyro,zgyro,vx,vy,vz,RTL_ALT
06:21:47.309,STABILIZE,-35.3632621,149.1652374,30,-2.4179726096917875e-05,0.001600574585609138,0.02841920591890812,0.0002268582466058433,0.00027182381018064916,0.002386075910180807,0,1,-1000,0,0,0,-1,1,-2,1500.0
06:21:47.509,STABILIZE,-35.3632621,149.1652374,30,-2.4179726096917875e-05,0.001600574585609138,0.02841920591890812,0.0002268582466058433,0.00027182381018064916,0.002386075910180807,0,1,-1000,0,0,0,-1,1,-2,1500.0
06:21:47.710,STABILIZE,-35.3632621,149.1652374,30,-2.4179726096917875e-05,0.001600574585609138,0.02841920591890812,0.0002268582466058433,0.00027182381018064916,0.002386075910180807,0,1,-1000,0,0,0,-1,1,-2,1500.0
06:21:47.911,STABILIZE,-35.3632621,149.1652374,30,-2.4179726096917875e-05,0.001600574585609138,0.02841920591890812,0.0002268582466058433,0.00027182381018064916,0.002386075910180807,0,1,-1000,0,0,0,-1,1,-2,1500.0
06:21:48.112,STABILIZE,-35.3632621,149.1652374,30,-2.4179726096917875e-05,0.001600574585609138,0.02841920591890812,0.0002268582466058433,0.00027182381018064916,0.002386075910180807,0,1,-1000,0,0,0,-1,1,-2,1500.0
06:21:48.313,STABILIZE,-35.3632621,149.1652374,30,0.00019373676332179457,0.001583062345162034,0.027724115177989006,0.00026786423404701054,0.00015103272744454443,0.0022772736847400665,0,0,-1001,0,0,0,-1,1,-2,1500.0
06:21:48.514,STABILIZE,-35.3632621,149.1652374,30,0.00019373676332179457,0.001583062345162034,0.027724115177989006,0.00026786423404701054,0.00015103272744454443,0.0022772736847400665,0,0,-1001,0,0,0,-1,1,-2,1500.0
06:21:48.715,STABILIZE,-35.3632621,149.1652374,30,0.00019373676332179457,0.001583062345162034,0.027724115177989006,0.00026786423404701054,0.00015103272744454443,0.0022772736847400665,0,0,-1001,0,0,0,-1,1,-2,1500.0
06:21:48.916,STABILIZE,-35.3632621,149.1652374,30,0.00019373676332179457,0.001583062345162034,0.027724115177989006,0.00026786423404701054,0.00015103272744454443,0.0022772736847400665,0,0,-1001,0,0,0,-1,1,-2,1500.0
06:21:49.117,STABILIZE,-35.3632622,149.1652375,24,-6.252015009522438e-05,0.0014618001878261566,0.02725323848426342,0.0003619066555984318,0.00040335714584216475,0.0022439928725361824,0,1,-1000,0,0,0,-2,2,0,1500.0
06:21:49.318,STABILIZE,-35.3632622,149.1652375,24,-6.252015009522438e-05,0.0014618001878261566,0.02725323848426342,0.0003619066555984318,0.00040335714584216475,0.0022439928725361824,0,1,-1000,0,0,0,-2,2,0,1500.0
06:21:49.520,STABILIZE,-35.3632622,149.1652375,24,-6.252015009522438e-05,0.0014618001878261566,0.02725323848426342,0.0003619066555984318,0.00040335714584216475,0.0022439928725361824,0,1,-1000,0,0,0,-2,2,0,1500.0
06:21:49.721,STABILIZE,-35.3632622,149.1652375,24,-6.252015009522438e-05,0.0014618001878261566,0.02725323848426342,0.0003619066555984318,0.00040335714584216475,0.0022439928725361824,0,1,-1000,0,0,0,-2,2,0,1500.0
06:21:49.923,STABILIZE,-35.3632622,149.1652375,24,-6.252015009522438e-05,0.0014618001878261566,0.02725323848426342,0.0003619066555984318,0.00040335714584216475,0.0022439928725361824,0,1,-1000,0,0,0,-2,2,0,1500.0
06:21:50.124,STABILIZE,-35.3632622,149.1652375,24,-0.0004448192776180804,0.00122089555952698,0.02666069008409977,0.0002790458966046572,0.00021507558994926512,0.002159044612199068,0,1,-1000,0,0,0,-2,2,0,1500.0
06:21:50.326,STABILIZE,-35.3632622,149.1652375,24,-0.0005152015364728868,0.0011771519202739,0.02651742286980152,0.00021237385226413608,0.0002946611202787608,0.002089232439175248,0,1,-1000,0,0,0,-2,2,0,1500.0
06:21:50.527,STABILIZE,-35.3632622,149.1652375,24,-0.0005152015364728868,0.0011771519202739,0.02651742286980152,0.00021237385226413608,0.0002946611202787608,0.002089232439175248,0,1,-1000,0,0,0,-2,2,0,1500.0
06:21:50.729,STABILIZE,-35.3632622,149.1652375,21,-0.000593965349253267,0.0011268131202086806,0.02638080157339573,0.00016944430535659194,0.00016646180301904678,0.0020786223467439413,0,1,-1000,0,0,1,-1,1,0,1500.0
06:21:50.930,STABILIZE,-35.3632622,149.1652375,21,-0.0006509707309305668,0.001091503188945353,0.026272796094417572,0.0001911528524942696,0.0003367376630194485,0.0021085727494210005,0,1,-1000,0,0,0,-1,1,0,1500.0
06:21:51.132,STABILIZE,-35.3632622,149.1652375,20,-0.0006992481648921967,0.0010643958812579513,0.026153208687901497,0.0002019334933720529,0.00022645533317700028,0.002131387358531356,0,1,-1000,0,0,1,-1,1,0,1500.0
06:21:51.333,STABILIZE,-35.3632622,149.1652375,20,-0.0007499378407374024,0.0010303168091922998,0.0260245930403471,0.00019600545056164265,0.0003007272316608578,0.0020458262879401445,0,1,-1000,0,0,0,-1,1,0,1500.0
06:21:51.535,STABILIZE,-35.3632622,149.1652375,20,-0.0007499378407374024,0.0010303168091922998,0.0260245930403471,0.00019600545056164265,0.0003007272316608578,0.0020458262879401445,0,1,-1000,0,0,0,-1,1,0,1500.0
06:21:51.737,STABILIZE,-35.3632622,149.1652375,20,-0.0007499378407374024,0.0010303168091922998,0.0260245930403471,0.00019600545056164265,0.0003007272316608578,0.0020458262879401445,0,1,-1000,0,0,0,-1,1,0,1500.0
06:21:51.939,STABILIZE,-35.3632622,149.1652375,20,-0.0007499378407374024,0.0010303168091922998,0.0260245930403471,0.00019600545056164265,0.0003007272316608578,0.0020458262879401445,0,1,-1000,0,0,0,-1,1,0,1500.0
06:21:52.141,STABILIZE,-35.3632621,149.1652375,19,-0.0007106935372576118,0.00097651343094185,0.02570069022476673,0.0001455324236303568,0.00030420388793572783,0.0019387195352464914,0,1,-1000,0,0,0,-1,1,0,1500.0
06:21:52.342,STABILIZE,-35.3632621,149.1652375,19,-0.0007106935372576118,0.00097651343094185,0.02570069022476673,0.0001455324236303568,0.00030420388793572783,0.0019387195352464914,0,1,-1000,0,0,0,-1,1,0,1500.0
06:21:52.544,STABILIZE,-35.3632621,149.1652375,19,-0.0007106935372576118,0.00097651343094185,0.02570069022476673,0.0001455324236303568,0.00030420388793572783,0.0019387195352464914,0,1,-1000,0,0,0,-1,1,0,1500.0
06:21:52.745,STABILIZE,-35.3632621,149.1652375,19,-0.0007106935372576118,0.00097651343094185,0.02570069022476673,0.0001455324236303568,0.00030420388793572783,0.0019387195352464914,0,1,-1000,0,0,0,-1,1,0,1500.0
06:21:52.946,STABILIZE,-35.3632621,149.1652375,17,-0.0007947373669594526,0.0009435074171051383,0.025411665439605713,0.00018072419334203005,0.00025097993784584105,0.0020172863733023405,0,1,-1000,1,0,0,-1,1,0,1500.0
06:21:53.148,STABILIZE,-35.3632621,149.1652375,17,-0.0007947373669594526,0.0009435074171051383,0.025411665439605713,0.00018072419334203005,0.00025097993784584105,0.0020172863733023405,0,1,-1000,0,0,0,-1,1,0,1500.0
06:21:53.350,STABILIZE,-35.3632621,149.1652375,17,-0.0007947373669594526,0.0009435074171051383,0.025411665439605713,0.00018072419334203005,0.00025097993784584105,0.0020172863733023405,0,1,-1000,0,0,0,-1,1,0,1500.0
06:21:53.553,STABILIZE,-35.3632621,149.1652375,17,-0.0007947373669594526,0.0009435074171051383,0.025411665439605713,0.00018072419334203005,0.00025097993784584105,0.0020172863733023405,0,1,-1000,0,0,0,-1,1,0,1500.0
06:21:53.759,STABILIZE,-35.3632621,149.1652375,17,-0.0007947373669594526,0.0009435074171051383,0.025411665439605713,0.00018072419334203005,0.00025097993784584105,0.0020172863733023405,0,1,-1000,0,0,0,-1,1,0,1500.0
06:21:53.963,STABILIZE,-35.3632621,149.1652375,17,-0.0007947373669594526,0.0009435074171051383,0.025411665439605713,0.00018072419334203005,0.00025097993784584105,0.0020172863733023405,0,1,-1000,0,0,0,-1,1,0,1500.0
06:21:54.164,STABILIZE,-35.3632621,149.1652375,16,-0.0008975203381851315,0.0009232775191776454,0.024952484294772148,0.00015579094178974628,0.0002629475202411413,0.0018764834385365248,0,2,-1000,0,0,0,-1,1,0,1500.0
06:21:54.366,STABILIZE,-35.3632621,149.1652375,16,-0.0008975203381851315,0.0009232775191776454,0.024952484294772148,0.00015579094178974628,0.0002629475202411413,0.0018764834385365248,0,2,-1000,0,0,0,-1,1,0,1500.0
06:21:54.567,STABILIZE,-35.3632621,149.1652375,15,-0.0009354591020382941,0.0009184493101201952,0.024760175496339798,0.0001952816965058446,0.00020058744121342897,0.0018098159926012158,0,1,-1000,1,1,0,-1,1,0,1500.0
06:21:54.769,STABILIZE,-35.3632621,149.1652375,15,-0.0009354591020382941,0.0009184493101201952,0.024760175496339798,0.0001952816965058446,0.00020058744121342897,0.0018098159926012158,0,1,-1000,1,1,0,-1,1,0,1500.0
06:21:54.971,STABILIZE,-35.3632621,149.1652375,15,-0.0009354591020382941,0.0009184493101201952,0.024760175496339798,0.0001952816965058446,0.00020058744121342897,0.0018098159926012158,0,1,-1000,1,1,0,-1,1,0,1500.0
06:21:55.172,STABILIZE,-35.3632621,149.1652375,15,-0.0009354591020382941,0.0009184493101201952,0.024760175496339798,0.0001952816965058446,0.00020058744121342897,0.0018098159926012158,0,1,-1000,1,1,0,-1,1,0,1500.0
06:21:55.374,STABILIZE,-35.3632621,149.1652375,15,-0.0009354591020382941,0.0009184493101201952,0.024760175496339798,0.0001952816965058446,0.00020058744121342897,0.0018098159926012158,0,1,-1000,1,1,0,-1,1,0,1500.0
06:21:55.575,STABILIZE,-35.3632621,149.1652375,15,-0.0009354591020382941,0.0009184493101201952,0.024760175496339798,0.0001952816965058446,0.00020058744121342897,0.0018098159926012158,0,1,-1000,1,1,0,-1,1,0,1500.0
06:21:55.777,STABILIZE,-35.3632621,149.1652375,15,-0.0009354591020382941,0.0009184493101201952,0.024760175496339798,0.0001952816965058446,0.00020058744121342897,0.0018098159926012158,0,1,-1000,1,1,0,-1,1,0,1500.0
06:21:55.979,STABILIZE,-35.3632621,149.1652375,15,-0.0009354591020382941,0.0009184493101201952,0.024760175496339798,0.0001952816965058446,0.00020058744121342897,0.0018098159926012158,0,1,-1000,1,1,0,-1,1,0,1500.0
06:21:56.181,STABILIZE,-35.3632621,149.1652375,5,-0.0007854441064409912,0.0009254004107788205,0.02425054833292961,0.0001926457043737173,0.0003054998815059662,0.0018064072355628014,0,1,-1000,0,0,0,-1,1,1,1500.0
06:21:56.382,STABILIZE,-35.3632621,149.1652375,5,-0.0008258477901108563,0.0009217126644216478,0.024147912859916687,0.0003114148275926709,0.0003136398154310882,0.0017265509814023972,0,2,-1000,0,0,0,-1,1,1,1500.0
06:21:56.584,STABILIZE,-35.3632621,149.1652375,5,-0.0008258477901108563,0.0009217126644216478,0.024147912859916687,0.0003114148275926709,0.0003136398154310882,0.0017265509814023972,0,2,-1000,0,0,0,-1,1,1,1500.0
06:21:56.785,STABILIZE,-35.3632621,149.1652375,5,-0.0008258477901108563,0.0009217126644216478,0.024147912859916687,0.0003114148275926709,0.0003136398154310882,0.0017265509814023972,0,2,-1000,0,0,0,-1,1,1,1500.0
06:21:56.987,STABILIZE,-35.3632621,149.1652375,5,-0.0008258477901108563,0.0009217126644216478,0.024147912859916687,0.0003114148275926709,0.0003136398154310882,0.0017265509814023972,0,2,-1000,0,0,0,-1,1,1,1500.0
06:21:57.189,STABILIZE,-35.3632621,149.1652375,5,-0.0008258477901108563,0.0009217126644216478,0.024147912859916687,0.0003114148275926709,0.0003136398154310882,0.0017265509814023972,0,2,-1000,0,0,0,-1,1,1,1500.0
06:21:57.390,STABILIZE,-35.3632621,149.1652375,2,-0.0009807659080252051,0.0009398648398928344,0.023828823119401932,0.00015687308041378856,0.00021352816838771105,0.0017225602641701698,0,2,-1000,0,0,0,-1,1,0,1500.0
06:21:57.593,STABILIZE,-35.3632621,149.1652375,2,-0.0009807659080252051,0.0009398648398928344,0.023828823119401932,0.00015687308041378856,0.00021352816838771105,0.0017225602641701698,0,2,-1000,0,0,0,-1,1,0,1500.0
06:21:57.794,STABILIZE,-35.3632621,149.1652375,2,-0.0009807659080252051,0.0009398648398928344,0.023828823119401932,0.00015687308041378856,0.00021352816838771105,0.0017225602641701698,0,2,-1000,0,0,0,-1,1,0,1500.0
06:21:57.995,STABILIZE,-35.3632621,149.1652375,2,-0.0009807659080252051,0.0009398648398928344,0.023828823119401932,0.00015687308041378856,0.00021352816838771105,0.0017225602641701698,0,2,-1000,0,0,0,-1,1,0,1500.0
06:21:58.197,STABILIZE,-35.3632622,149.1652375,1,-0.0010753319365903735,0.0009505589841865003,0.023606279864907265,9.963277261704206e-05,0.00023427937412634492,0.001682208152487874,0,1,-1000,1,0,0,-1,1,0,1500.0
06:21:58.399,STABILIZE,-35.3632621,149.1652375,1,-0.0010753319365903735,0.0009505589841865003,0.023606279864907265,9.963277261704206e-05,0.00023427937412634492,0.001682208152487874,0,2,-1000,0,0,0,-1,1,0,1500.0
06:21:58.600,STABILIZE,-35.3632621,149.1652375,1,-0.0009697051136754453,0.000964514387305826,0.023468846455216408,0.009151523932814598,0.0001823265920393169,0.0016883332282304764,0,-1,-1005,9,1,0,-1,0,-1,1500.0
06:21:58.803,STABILIZE,-35.3632621,149.1652375,1,-0.0009697051136754453,0.000964514387305826,0.023468846455216408,0.009151523932814598,0.0001823265920393169,0.0016883332282304764,0,-1,-1005,9,1,0,-1,0,-1,1500.0
06:21:59.004,STABILIZE,-35.3632621,149.1652375,1,-0.0009697051136754453,0.000964514387305826,0.023468846455216408,0.009151523932814598,0.0001823265920393169,0.0016883332282304764,0,-1,-1005,9,1,0,-1,0,-1,1500.0
06:21:59.206,STABILIZE,-35.3632621,149.1652375,1,-0.0009697051136754453,0.000964514387305826,0.023468846455216408,0.009151523932814598,0.0001823265920393169,0.0016883332282304764,0,-1,-1005,9,1,0,-1,0,-1,1500.0
06:21:59.408,STABILIZE,-35.3632621,149.1652375,1,-0.0009697051136754453,0.000964514387305826,0.023468846455216408,0.009151523932814598,0.0001823265920393169,0.0016883332282304764,0,2,-1000,0,1,0,-1,0,-1,1500.0
06:21:59.610,STABILIZE,-35.3632621,149.1652375,1,-0.0009697051136754453,0.000964514387305826,0.023468846455216408,0.009151523932814598,0.0001823265920393169,0.0016883332282304764,0,2,-1000,0,1,0,-1,0,-1,1500.0
06:21:59.812,STABILIZE,-35.3632621,149.1652375,1,-0.0009697051136754453,0.000964514387305826,0.023468846455216408,0.009151523932814598,0.0001823265920393169,0.0016883332282304764,0,2,-1000,0,1,0,-1,0,-1,1500.0
06:22:00.013,STABILIZE,-35.3632621,149.1652375,1,-0.0009697051136754453,0.000964514387305826,0.023468846455216408,0.009151523932814598,0.0001823265920393169,0.0016883332282304764,0,2,-1000,0,1,0,-1,0,-1,1500.0
06:22:00.215,STABILIZE,-35.3632622,149.1652375,11,-0.0008901710971258581,0.0009777640225365758,0.023090388625860214,0.0002204204211011529,0.000252309488132596,0.0016734113451093435,0,1,-1000,0,1,0,-1,0,0,1500.0
06:22:00.416,STABILIZE,-35.3632622,149.1652375,11,-0.0008857158245518804,0.0009794869692996144,0.02300860732793808,0.0002848764997906983,0.00031503394711762667,0.0016279066912829876,0,1,-1000,0,1,0,-1,0,0,1500.0
06:22:00.618,STABILIZE,-35.3632622,149.1652375,11,-0.0008857158245518804,0.0009794869692996144,0.02300860732793808,0.0002848764997906983,0.00031503394711762667,0.0016279066912829876,0,1,-1000,0,1,0,-1,0,0,1500.0
06:22:00.820,STABILIZE,-35.3632622,149.1652375,11,-0.0008857158245518804,0.0009794869692996144,0.02300860732793808,0.0002848764997906983,0.00031503394711762667,0.0016279066912829876,0,2,-1000,0,0,0,-1,0,0,1500.0
06:22:01.021,STABILIZE,-35.3632622,149.1652375,11,-0.0008857158245518804,0.0009794869692996144,0.02300860732793808,0.0002848764997906983,0.00031503394711762667,0.0016279066912829876,0,2,-1000,0,0,0,-1,0,0,1500.0
06:22:01.222,STABILIZE,-35.3632622,149.1652375,11,-0.0008857158245518804,0.0009794869692996144,0.02300860732793808,0.0002848764997906983,0.00031503394711762667,0.0016279066912829876,0,2,-1000,0,0,0,-1,0,0,1500.0
06:22:01.424,STABILIZE,-35.3632622,149.1652375,13,-0.0008603512542322278,0.0009787033777683973,0.02271699346601963,0.00031557067995890975,0.0002954341471195221,0.0015042906161397696,0,2,-1000,1,0,0,-1,1,0,1500.0
06:22:01.625,STABILIZE,-35.3632622,149.1652375,13,-0.0008603512542322278,0.0009787033777683973,0.02271699346601963,0.00031557067995890975,0.0002954341471195221,0.0015042906161397696,0,2,-1000,1,0,0,-1,1,0,1500.0
06:22:01.827,STABILIZE,-35.3632622,149.1652375,13,-0.0008603512542322278,0.0009787033777683973,0.02271699346601963,0.00031557067995890975,0.0002954341471195221,0.0015042906161397696,0,2,-1000,1,0,0,-1,1,0,1500.0
06:22:02.028,STABILIZE,-35.3632622,149.1652375,13,-0.0008603512542322278,0.0009787033777683973,0.02271699346601963,0.00031557067995890975,0.0002954341471195221,0.0015042906161397696,0,2,-1000,1,0,0,-1,1,0,1500.0
06:22:02.230,STABILIZE,-35.3632622,149.1652375,13,-0.0008603512542322278,0.0009787033777683973,0.02271699346601963,0.00031557067995890975,0.0002954341471195221,0.0015042906161397696,0,2,-1000,1,0,0,-1,1,0,1500.0
06:22:02.431,STABILIZE,-35.3632622,149.1652375,13,-0.0008603512542322278,0.0009787033777683973,0.02271699346601963,0.00031557067995890975,0.0002954341471195221,0.0015042906161397696,0,2,-1000,1,0,0,-1,1,0,1500.0
06:22:02.633,STABILIZE,-35.3632622,149.1652375,14,-0.0008603512542322278,0.0009787033777683973,0.02271699346601963,0.00031557067995890975,0.0002954341471195221,0.0015042906161397696,0,1,-1000,1,0,0,-1,1,0,1500.0
06:22:02.834,STABILIZE,-35.3632622,149.1652375,14,-0.0007308486383408308,0.0010037027532234788,0.022300206124782562,0.0003138831234537065,0.0002521893475204706,0.0015016819816082716,0,2,-1000,1,0,0,-1,1,0,1500.0
06:22:03.036,STABILIZE,-35.3632622,149.1652375,14,-0.0007308486383408308,0.0010037027532234788,0.022300206124782562,0.0003138831234537065,0.0002521893475204706,0.0015016819816082716,0,2,-1000,1,0,0,-1,1,0,1500.0
06:22:03.238,STABILIZE,-35.3632622,149.1652375,14,-0.0007308486383408308,0.0010037027532234788,0.022300206124782562,0.0003138831234537065,0.0002521893475204706,0.0015016819816082716,0,2,-1000,1,0,0,-1,1,0,1500.0
06:22:03.439,STABILIZE,-35.3632622,149.1652375,14,-0.0007687461911700666,0.000992538291029632,0.022171955555677414,0.000265183683950454,0.0002091388450935483,0.0014419924700632691,0,2,-1000,1,0,0,-1,1,0,1500.0
06:22:03.641,AUTO,-35.3632622,149.1652375,14,-0.0007687461911700666,0.000992538291029632,0.022171955555677414,0.000265183683950454,0.0002091388450935483,0.0014419924700632691,0,2,-1000,1,0,0,-1,1,0,1500.0
06:22:03.843,AUTO,-35.3632622,149.1652375,14,-0.0007687461911700666,0.000992538291029632,0.022171955555677414,0.000265183683950454,0.0002091388450935483,0.0014419924700632691,0,2,-1000,1,0,0,-1,1,0,1500.0
06:22:04.045,AUTO,-35.3632622,149.1652375,14,-0.0007687461911700666,0.000992538291029632,0.022171955555677414,0.000265183683950454,0.0002091388450935483,0.0014419924700632691,0,2,-1000,1,0,0,-1,1,0,1500.0
06:22:04.247,AUTO,-35.3632622,149.1652375,4,-0.0008060340769588947,0.0010091857984662056,0.02201017551124096,0.0002606622874736786,0.0003760442486964166,0.001427681534551084,0,2,-1000,1,0,0,-1,1,0,1500.0
06:22:04.448,AUTO,-35.3632622,149.1652375,5,-0.0008101573912426829,0.0010172735201194882,0.02194245718419552,0.0003122252528555691,0.0002692452981136739,0.0014604118186980486,0,1,-1000,0,1,1,-1,1,0,1500.0
06:22:04.650,AUTO,-35.3632621,149.1652375,5,-0.0008112387149594724,0.0010411646217107773,0.021874427795410156,0.00024237146135419607,0.00022296461975201964,0.0015098955482244492,0,2,-1000,1,1,0,0,1,0,1500.0
06:22:04.852,AUTO,-35.3632621,149.1652375,5,-0.0007840885664336383,0.0010731614893302321,0.021818138659000397,0.00028965261299163103,0.00034979829797521234,0.001525042811408639,0,1,-1000,0,0,1,0,0,0,1500.0
06:22:05.054,AUTO,-35.3632621,149.1652375,5,-0.0007553111645393074,0.0011238196166232228,0.021756784990429878,0.0002329234266653657,0.00021321786334738135,0.0014431446325033903,0,1,-1000,1,0,1,0,0,0,1500.0
06:22:05.256,AUTO,-35.3632621,149.1652375,5,-0.0007553111645393074,0.0011238196166232228,0.021756784990429878,0.0002329234266653657,0.00021321786334738135,0.0014431446325033903,0,1,-1000,1,0,1,0,0,0,1500.0
06:22:05.458,AUTO,-35.3632621,149.1652375,5,-0.0007141958922147751,0.0011749700643122196,0.021685807034373283,0.0003573718713596463,0.00022064457880333066,0.0013906601816415787,0,2,-1000,1,1,1,0,0,0,1500.0
06:22:05.661,AUTO,-35.3632621,149.1652375,5,-0.0007141958922147751,0.0011749700643122196,0.021685807034373283,0.0003573718713596463,0.00022064457880333066,0.0013906601816415787,0,2,-1000,1,1,1,0,0,0,1500.0
06:22:05.863,AUTO,-35.3632621,149.1652375,5,-0.0007141958922147751,0.0011749700643122196,0.021685807034373283,0.0003573718713596463,0.00022064457880333066,0.0013906601816415787,0,2,-1000,1,1,1,0,0,0,1500.0
06:22:06.064,AUTO,-35.3632621,149.1652375,6,-0.0002615269913803786,0.0013657166855409741,0.02150609903037548,0.00031011446844786406,0.0002873929915949702,0.0013910108245909214,0,1,-1000,0,0,1,0,0,0,1500.0
06:22:06.310,AUTO,-35.3632621,149.1652375,6,-0.0002038089878624305,0.0014377676416188478,0.021434398368000984,0.00033258943585678935,0.00027874013176187873,0.0015062295133247972,0,1,-1000,1,0,0,0,0,0,1500.0
06:22:06.641,AUTO,-35.3632621,149.1652375,6,-0.00014315306907519698,0.0015070270746946335,0.021355805918574333,0.0003569148830138147,0.0002971311332657933,0.0013129203580319881,0,1,-1000,1,1,0,0,0,0,1500.0
06:22:06.883,AUTO,-35.3632621,149.1652375,6,-8.397485362365842e-05,0.0015824934234842658,0.021268442273139954,0.00029387156246230006,0.00032940536038950086,0.0013504551025107503,0,2,-1000,1,1,1,0,0,0,1500.0
06:22:07.110,AUTO,-35.3632621,149.1652375,6,-2.6579242330626585e-05,0.0016594160115346313,0.021189508959650993,0.0002976582618430257,0.000431520224083215,0.0013524319510906935,0,2,-1000,1,0,0,0,0,0,1500.0
06:22:07.359,AUTO,-35.3632621,149.1652375,6,4.1227784095099196e-05,0.001737647457048297,0.021105676889419556,0.00028152804588899016,0.0002773218438960612,0.0013592017348855734,0,1,-1000,1,0,1,0,0,0,1500.0
06:22:07.564,AUTO,-35.3632621,149.1652375,6,4.1227784095099196e-05,0.001737647457048297,0.021105676889419556,0.00028152804588899016,0.0002773218438960612,0.0013592017348855734,0,1,-1000,1,0,1,0,0,0,1500.0
06:22:07.769,AUTO,-35.3632621,149.1652375,6,4.1227784095099196e-05,0.001737647457048297,0.021105676889419556,0.00028152804588899016,0.0002773218438960612,0.0013592017348855734,0,1,-1000,1,0,1,0,0,0,1500.0
06:22:07.980,AUTO,-35.3632621,149.1652375,6,4.1227784095099196e-05,0.001737647457048297,0.021105676889419556,0.00028152804588899016,0.0002773218438960612,0.0013592017348855734,0,1,-1000,1,0,1,0,0,0,1500.0
06:22:08.184,AUTO,-35.3632621,149.1652375,203,0.0025705955922603607,0.00021739948715548962,0.020980048924684525,-0.0034019274171441793,0.00539427250623703,0.0027495301328599453,0,0,-1130,-2,5,2,0,0,-72,148196.0
06:22:08.386,AUTO,-35.3632621,149.1652375,417,0.0018850787309929729,0.0011970949126407504,0.021023187786340714,-0.003334643552079797,0.0036217672750353813,0.0015225692186504602,0,0,-1109,-2,4,1,0,0,-101,148196.0
06:22:08.587,AUTO,-35.3632621,149.1652375,702,0.0018427666509523988,0.0016027449164539576,0.020967205986380577,0.009253603406250477,-0.0005719067412428558,-0.0012549038510769606,0,0,-1087,9,0,-1,0,0,-125,148196.0
06:22:08.789,AUTO,-35.3632621,149.1652375,702,0.0018427666509523988,0.0016027449164539576,0.020967205986380577,0.009253603406250477,-0.0005719067412428558,-0.0012549038510769606,0,0,-1087,9,0,-1,0,0,-125,148196.0
06:22:08.991,AUTO,-35.3632621,149.1652375,1040,0.01168165635317564,0.0006643598317168653,0.020647626370191574,0.047897934913635254,-0.005915200803428888,0.001224033534526825,0,0,-1039,48,-5,0,0,1,-139,148196.0
06:22:09.193,AUTO,-35.3632621,149.1652375,1412,0.02376318722963333,-0.001035575638525188,0.02062963880598545,0.04706352576613426,-0.007524037268012762,0.0021674935705959797,0,0,-1016,47,-6,1,1,5,-145,148196.0
06:22:09.395,AUTO,-35.363262,149.1652377,1789,0.035183440893888474,-0.002975486684590578,0.02074400708079338,0.04496682807803154,-0.008262704126536846,0.00273716077208519,0,-1,-1006,45,-7,2,1,12,-147,148196.0
06:22:09.597,AUTO,-35.363262,149.1652377,1789,0.035183440893888474,-0.002975486684590578,0.02074400708079338,0.04496682807803154,-0.008262704126536846,0.00273716077208519,0,-1,-1006,45,-7,2,1,12,-147,148196.0
06:22:09.800,AUTO,-35.363262,149.1652377,1789,0.035183440893888474,-0.002975486684590578,0.02074400708079338,0.04496682807803154,-0.008262704126536846,0.00273716077208519,0,-1,-1006,45,-7,2,1,12,-147,148196.0
06:22:10.003,AUTO,-35.363262,149.1652377,1789,0.035183440893888474,-0.002975486684590578,0.02074400708079338,0.04496682807803154,-0.008262704126536846,0.00273716077208519,0,-1,-1006,45,-7,2,1,12,-147,148196.0
06:22:10.209,AUTO,-35.3632616,149.1652397,2933,0.062407445162534714,-0.008632596582174301,-0.008511794731020927,-0.015928873792290688,0.026413340121507645,-0.04552139714360237,2,-8,-992,-14,27,-46,8,44,-147,148196.0
06:22:10.411,AUTO,-35.3632614,149.165241,3312,0.040568821132183075,0.01390737947076559,-0.03150001913309097,-0.14169293642044067,0.09488463401794434,-0.1012306660413742,3,-11,-991,-141,95,-101,10,53,-145,148196.0
06:22:10.613,AUTO,-35.3632611,149.1652425,3687,-0.003519294783473015,0.023910507559776306,-0.05168088153004646,-0.15600043535232544,0.008343073539435863,-0.08199380338191986,4,-11,-1006,-155,8,-82,6,54,-144,148196.0
06:22:10.816,AUTO,-35.363261,149.1652439,4064,-0.025910086929798126,0.02503352239727974,-0.07029630988836288,-0.050338827073574066,0.006337953265756369,-0.07759787887334824,3,-11,-1011,-49,6,-77,1,47,-147,148196.0
06:22:11.036,AUTO,-35.363261,149.1652439,4064,-0.025910086929798126,0.02503352239727974,-0.07029630988836288,-0.050338827073574066,0.006337953265756369,-0.07759787887334824,3,-11,-1011,-49,6,-77,1,47,-147,148196.0
06:22:11.356,AUTO,-35.3632609,149.1652458,4830,-0.05087728425860405,0.012478256598114967,-0.0888695940375328,-0.07326354086399078,-0.05601443722844124,-0.004654455929994583,5,-7,-1000,-72,-55,-4,-5,24,-149,148196.0
06:22:11.673,AUTO,-35.3632609,149.1652458,4830,-0.05087728425860405,0.012478256598114967,-0.0888695940375328,-0.07326354086399078,-0.05601443722844124,-0.004654455929994583,5,-7,-1000,-72,-55,-4,-5,24,-149,148196.0
06:22:11.971,AUTO,-35.3632609,149.1652458,4830,-0.05087728425860405,0.012478256598114967,-0.0888695940375328,-0.07326354086399078,-0.05601443722844124,-0.004654455929994583,5,-7,-1000,-72,-55,-4,-5,24,-149,148196.0
06:22:12.216,AUTO,-35.3632612,149.1652456,5989,-0.0656023919582367,-0.012001367285847664,-0.08382430672645569,0.04812924563884735,0.0012135186698287725,-0.003987508360296488,-1,4,-1001,49,2,-4,-2,-29,-149,148196.0
06:22:12.446,AUTO,-35.3632613,149.1652447,6373,-0.0519765168428421,-0.011695373803377151,-0.08568304032087326,0.05762074515223503,0.0023606051690876484,-0.0008137139957398176,-4,6,-1001,58,3,-1,-1,-43,-149,148196.0
06:22:12.650,AUTO,-35.3632613,149.1652434,6756,-0.03709496557712555,-0.01028863899409771,-0.08689271658658981,0.06067659333348274,0.007732687052339315,0.0009440000867471099,-6,10,-1001,61,8,0,0,-52,-149,148196.0
06:22:12.853,AUTO,-35.3632613,149.1652419,7140,-0.02143041230738163,-0.007709756959229708,-0.08727820962667465,0.06427042931318283,0.012052436359226704,0.0020688099320977926,-7,12,-1002,65,12,1,0,-57,-149,148196.0
06:22:13.058,AUTO,-35.3632613,149.1652403,7526,-0.005359979346394539,-0.004306250251829624,-0.08712095022201538,0.06524243950843811,0.014513259753584862,0.0031975642777979374,-8,13,-1003,65,15,2,0,-58,-150,3735.0
06:22:13.262,AUTO,-35.3632613,149.1652403,7526,-0.005359979346394539,-0.004306250251829624,-0.08712095022201538,0.06524243950843811,0.014513259753584862,0.0031975642777979374,-8,13,-1003,65,15,2,0,-58,-150,3735.0
06:22:13.464,AUTO,-35.3632614,149.1652387,7914,0.010811816900968552,-0.0006026423070579767,-0.08655191957950592,0.06530282646417618,0.014766638167202473,0.003774452954530716,-7,11,-1003,66,15,3,0,-55,-151,3735.0
06:22:13.666,AUTO,-35.3632614,149.1652387,7914,0.010811816900968552,-0.0006026423070579767,-0.08655191957950592,0.06530282646417618,0.014766638167202473,0.003774452954530716,-7,11,-1003,66,15,3,0,-55,-151,3735.0
06:22:13.868,AUTO,-35.3632614,149.1652387,7914,0.010811816900968552,-0.0006026423070579767,-0.08655191957950592,0.06530282646417618,0.014766638167202473,0.003774452954530716,-7,11,-1003,66,15,3,0,-55,-151,3735.0
06:22:14.070,AUTO,-35.3632616,149.165235,9089,0.05769548565149307,0.007843798026442528,-0.08345605432987213,0.05505076050758362,0.008098069578409195,-0.0029571917839348316,-3,5,-1001,55,8,-3,-4,-25,-153,3735.0
06:22:14.272,AUTO,-35.3632616,149.165235,9089,0.05769548565149307,0.007843798026442528,-0.08345605432987213,0.05505076050758362,0.008098069578409195,-0.0029571917839348316,-3,5,-1001,55,8,-3,-4,-25,-153,3735.0
06:22:14.473,AUTO,-35.3632617,149.1652344,9481,0.06323374062776566,0.013506853953003883,-0.08650420606136322,-0.017434556037187576,0.019078325480222702,-0.008876916952431202,-1,3,-994,-16,19,-9,-5,-9,-152,3735.0
06:22:14.676,AUTO,-35.3632618,149.1652343,9870,0.05033845454454422,0.012841667048633099,-0.08681898564100266,-0.070729099214077,-0.017536917701363564,0.004663979168981314,0,1,-994,-70,-16,4,-7,4,-150,3735.0
06:22:14.878,AUTO,-35.363262,149.1652345,10255,0.031238436698913574,0.006752714980393648,-0.0852549746632576,-0.07522401958703995,-0.025731075555086136,0.007971287705004215,2,0,-998,-74,-24,7,-8,13,-149,3735.0
06:22:15.080,AUTO,-35.3632622,149.1652348,10643,0.014000163413584232,0.0010435726726427674,-0.0843721330165863,-0.06027917563915253,-0.01785385236144066,0.0020068895537406206,3,-1,-1001,-59,-16,1,-7,17,-149,3735.0
06:22:15.282,AUTO,-35.3632622,149.1652348,10643,0.014000163413584232,0.0010435726726427674,-0.0843721330165863,-0.06027917563915253,-0.01785385236144066,0.0020068895537406206,3,-1,-1001,-59,-16,1,-7,17,-149,3735.0
06:22:15.485,AUTO,-35.3632623,149.1652352,11026,0.0013449692633002996,-0.0026693493127822876,-0.0850476548075676,-0.04232924059033394,-0.011914332397282124,-0.004247231874614954,3,-2,-1002,-41,-11,-4,-5,18,-149,3735.0
06:22:15.686,AUTO,-35.3632623,149.1652352,11026,0.0013449692633002996,-0.0026693493127822876,-0.0850476548075676,-0.04232924059033394,-0.011914332397282124,-0.004247231874614954,3,-2,-1002,-41,-11,-4,-5,18,-149,3735.0
06:22:15.889,AUTO,-35.3632623,149.1652352,11026,0.0013449692633002996,-0.0026693493127822876,-0.0850476548075676,-0.04232924059033394,-0.011914332397282124,-0.004247231874614954,3,-2,-1002,-41,-11,-4,-5,18,-149,3735.0
06:22:16.091,AUTO,-35.3632625,149.1652362,12181,-0.012163596227765083,-0.0055061993189156055,-0.09706290811300278,2.6071211323142052e-05,0.0017398444470018148,-0.021390696987509727,1,-1,-1001,0,2,-21,0,7,-151,3735.0
06:22:16.293,AUTO,-35.3632625,149.1652362,12181,-0.012163596227765083,-0.0055061993189156055,-0.09706290811300278,2.6071211323142052e-05,0.0017398444470018148,-0.021390696987509727,1,-1,-1001,0,2,-21,0,7,-151,3735.0
06:22:16.510,AUTO,-35.3632625,149.1652364,12570,-0.011137807741761208,-0.004929798189550638,-0.10293909162282944,0.0097142169252038,0.002628348534926772,-0.022132065147161484,0,-1,-1001,10,3,-22,1,3,-151,3735.0
06:22:16.722,AUTO,-35.3632625,149.1652364,12959,-0.008572055958211422,-0.003969574347138405,-0.10914832353591919,0.012292052619159222,0.0051182848401367664,-0.024640679359436035,0,0,-1001,12,5,-24,2,0,-151,3735.0
06:22:16.986,AUTO,-35.3632624,149.1652363,13348,-0.0054016681388020515,-0.0024046082980930805,-0.11555463075637817,0.013529540970921516,0.007085607852786779,-0.025985712185502052,-1,0,-1000,14,8,-26,3,-2,-152,3735.0
06:22:17.289,AUTO,-35.3632623,149.1652363,13738,-0.001973074162378907,-0.0008076229132711887,-0.12161741405725479,0.012671118602156639,0.00628158263862133,-0.020943589508533478,-1,0,-1000,13,6,-21,4,-4,-152,3735.0
06:22:17.543,AUTO,-35.3632622,149.1652362,14128,0.0011858065845444798,0.0007192494813352823,-0.12736964225769043,0.011427676305174828,0.006776839029043913,-0.021138155832886696,-2,0,-1000,12,7,-21,4,-4,-152,3735.0
06:22:17.746,AUTO,-35.3632622,149.1652362,14128,0.0011858065845444798,0.0007192494813352823,-0.12736964225769043,0.011427676305174828,0.006776839029043913,-0.021138155832886696,-2,0,-1000,12,7,-21,4,-4,-152,3735.0
06:22:17.949,AUTO,-35.3632622,149.1652362,14128,0.0011858065845444798,0.0007192494813352823,-0.12736964225769043,0.011427676305174828,0.006776839029043913,-0.021138155832886696,-2,0,-1000,12,7,-21,4,-4,-152,3735.0
06:22:18.152,AUTO,-35.3632619,149.1652357,15297,0.007763035129755735,0.00503539340570569,-0.14272381365299225,0.004656572360545397,0.0044159055687487125,-0.016136610880494118,-2,0,-1000,5,5,-16,2,-2,-152,3735.0
06:22:18.355,AUTO,-35.3632618,149.1652356,15687,0.00856050755828619,0.006041301880031824,-0.14716538786888123,0.003904046956449747,0.002698549535125494,-0.01447050180286169,-1,0,-1000,4,3,-14,1,-1,-152,17889.0
06:22:18.556,AUTO,-35.3632617,149.1652355,16076,0.00896401610225439,0.006450834218412638,-0.15118376910686493,0.0009439215064048767,0.0023892000317573547,-0.016223670914769173,-1,0,-1000,1,3,-16,0,0,-152,17889.0
06:22:18.758,AUTO,-35.3632617,149.1652355,16076,0.00896401610225439,0.006450834218412638,-0.15118376910686493,0.0009439215064048767,0.0023892000317573547,-0.016223670914769173,-1,0,-1000,1,3,-16,0,0,-152,17889.0
06:22:18.959,AUTO,-35.3632617,149.1652355,16465,0.008917082101106644,0.006850368808954954,-0.1550559252500534,-0.0007875183364376426,0.0006924656336195767,-0.012218606658279896,0,0,-999,0,1,-12,0,1,-152,17889.0
06:22:19.161,AUTO,-35.3632617,149.1652355,16855,0.008388062007725239,0.006547929719090462,-0.15840227901935577,-0.0027004466392099857,-0.0020440102089196444,-0.010686867870390415,0,0,-999,-1,-1,-11,0,2,-152,17889.0
06:22:19.363,AUTO,-35.3632616,149.1652355,17244,0.007538630161434412,0.006083667743951082,-0.1616874784231186,-0.002538063330575824,-0.001624156255275011,-0.013169409707188606,0,0,-1000,-1,-1,-13,-1,4,-152,17889.0
06:22:19.565,AUTO,-35.3632616,149.1652355,17244,0.007538630161434412,0.006083667743951082,-0.1616874784231186,-0.002538063330575824,-0.001624156255275011,-0.013169409707188606,0,0,-1000,-1,-1,-13,-1,4,-152,17889.0
06:22:19.767,AUTO,-35.3632616,149.1652355,17244,0.007538630161434412,0.006083667743951082,-0.1616874784231186,-0.002538063330575824,-0.001624156255275011,-0.013169409707188606,0,0,-1000,-1,-1,-13,-1,4,-152,17889.0
06:22:19.969,AUTO,-35.3632616,149.1652355,17244,0.007538630161434412,0.006083667743951082,-0.1616874784231186,-0.002538063330575824,-0.001624156255275011,-0.013169409707188606,0,0,-1000,-1,-1,-13,-1,4,-152,17889.0
06:22:20.171,AUTO,-35.3632616,149.1652356,18412,0.004626531153917313,0.005085096228867769,-0.17247076332569122,-0.01968199573457241,5.70194679312408e-05,-0.01607499271631241,0,-1,-997,-18,0,-16,-2,5,-152,17889.0
06:22:20.374,AUTO,-35.3632616,149.1652357,18799,-0.010317893698811531,0.004850416444242001,-0.17669086158275604,-0.08262955397367477,-0.0001124946866184473,-0.018333423882722855,0,-1,-995,-81,0,-18,-3,4,-151,17889.0
06:22:20.575,AUTO,-35.3632616,149.1652357,19185,-0.033653002232313156,0.0045241136103868484,-0.18127372860908508,-0.10273066908121109,-0.0026944095734506845,-0.01687053218483925,0,0,-996,-101,-1,-17,-4,-1,-150,17889.0
06:22:20.777,AUTO,-35.3632616,149.1652357,19185,-0.033653002232313156,0.0045241136103868484,-0.18127372860908508,-0.10273066908121109,-0.0026944095734506845,-0.01687053218483925,0,0,-996,-101,-1,-17,-4,-1,-150,17889.0
06:22:20.979,AUTO,-35.3632617,149.1652355,19565,-0.05002462863922119,0.014593830332159996,-0.165216326713562,-0.02618270181119442,0.08310605585575104,0.16615456342697144,0,1,-982,-25,84,166,-7,-12,-147,17889.0
06:22:21.182,AUTO,-35.3632619,149.165235,19938,-0.05022188276052475,0.043388016521930695,-0.08729810267686844,-0.00829633790999651,0.09682406485080719,0.43424317240715027,-1,3,-982,-7,97,433,-15,-23,-142,17889.0
06:22:21.384,AUTO,-35.3632623,149.1652341,20292,-0.035769056528806686,0.04818612337112427,0.016978241503238678,0.10374294221401215,-0.10663685947656631,0.32484790682792664,1,8,-955,104,-105,324,-27,-33,-133,17889.0
06:22:21.586,AUTO,-35.3632623,149.1652341,20292,-0.035769056528806686,0.04818612337112427,0.016978241503238678,0.10374294221401215,-0.10663685947656631,0.32484790682792664,1,8,-955,104,-105,324,-27,-33,-133,17889.0
06:22:21.789,AUTO,-35.3632623,149.1652341,20292,-0.035769056528806686,0.04818612337112427,0.016978241503238678,0.10374294221401215,-0.10663685947656631,0.32484790682792664,1,8,-955,104,-105,324,-27,-33,-133,17889.0
06:22:21.992,AUTO,-35.3632623,149.1652341,20292,-0.035769056528806686,0.04818612337112427,0.016978241503238678,0.10374294221401215,-0.10663685947656631,0.32484790682792664,1,8,-955,104,-105,324,-27,-33,-133,17889.0
06:22:22.195,AUTO,-35.3632641,149.1652314,21187,0.05095528066158295,-0.03728355094790459,0.07457372546195984,0.062416430562734604,-0.030502192676067352,-0.04516144096851349,1,8,-961,63,-29,-45,-22,-18,-101,17889.0
06:22:22.432,AUTO,-35.3632644,149.165231,21434,0.05956372246146202,-0.03953111171722412,0.06386692821979523,0.011322836391627789,0.003084694966673851,-0.04121647775173187,1,4,-964,12,4,-41,-12,-3,-91,17889.0
06:22:22.803,AUTO,-35.3632645,149.1652313,21857,0.05172782018780708,-0.029233356937766075,0.052262574434280396,-0.02986718900501728,0.029328245669603348,-0.009610185399651527,1,0,-968,-18,19,-24,4,22,-74,17889.0
06:22:23.193,AUTO,-35.3632644,149.1652319,22039,0.042081475257873535,-0.021279556676745415,0.050776157528162,-0.04277508705854416,0.03388148918747902,-0.00257354648783803,0,-6,-974,-41,34,-2,10,31,-67,17889.0
06:22:23.401,AUTO,-35.3632642,149.1652328,22204,0.031125487759709358,-0.012659084983170033,0.050214365124702454,-0.050526365637779236,0.03340904414653778,0.0012701412197202444,0,-8,-976,-49,34,1,14,37,-61,17889.0
06:22:23.605,AUTO,-35.3632642,149.1652328,22204,0.031125487759709358,-0.012659084983170033,0.050214365124702454,-0.050526365637779236,0.03340904414653778,0.0012701412197202444,0,-8,-976,-49,34,1,14,37,-61,17889.0
06:22:23.809,AUTO,-35.3632642,149.1652328,22204,0.031125487759709358,-0.012659084983170033,0.050214365124702454,-0.050526365637779236,0.03340904414653778,0.0012701412197202444,0,-8,-976,-49,34,1,14,37,-61,17889.0
06:22:24.012,AUTO,-35.3632642,149.1652328,22204,0.031125487759709358,-0.012659084983170033,0.050214365124702454,-0.050526365637779236,0.03340904414653778,0.0012701412197202444,0,-8,-976,-49,34,1,14,37,-61,17889.0
06:22:24.216,AUTO,-35.3632629,149.1652359,22607,0.0020117817912250757,0.008028765209019184,0.04854430630803108,-0.03912632167339325,0.018740452826023102,0.0012202697107568383,0,-11,-977,-38,19,1,17,38,-44,70002.0
06:22:24.418,AUTO,-35.3632625,149.1652368,22711,-0.003508671186864376,0.0122061837464571,0.04772919788956642,0.006922175642102957,0.013387354090809822,0.001671339268796146,0,-7,-977,7,14,1,15,35,-38,70002.0
06:22:24.620,AUTO,-35.3632621,149.1652377,22800,-0.00843538623303175,0.014535728842020035,0.04715484380722046,-0.023385779932141304,0.005262445658445358,-0.00012644204252865165,0,-9,-976,-22,6,0,13,30,-32,70002.0
06:22:24.822,AUTO,-35.3632618,149.1652385,22874,-0.011685965582728386,0.01512334868311882,0.04644212871789932,-0.0474272221326828,0.0013658497482538223,-0.0011209022486582398,0,-8,-975,-46,2,-1,10,25,-26,70002.0
06:22:25.024,AUTO,-35.3632618,149.1652385,22874,-0.011685965582728386,0.01512334868311882,0.04644212871789932,-0.0474272221326828,0.0013658497482538223,-0.0011209022486582398,0,-8,-975,-46,2,-1,10,25,-26,70002.0
06:22:25.225,AUTO,-35.3632616,149.1652391,22932,-0.01247200183570385,0.014915679581463337,0.04573610797524452,0.04127625375986099,7.884262595325708e-05,-0.002551922108978033,0,-1,-974,42,0,-2,8,21,-20,70002.0
06:22:25.427,AUTO,-35.3632614,149.1652396,22973,-0.012167216278612614,0.014091065153479576,0.04502218961715698,0.020076703280210495,-0.004267045296728611,-0.004858053755015135,0,-6,-970,20,-3,-5,5,16,-13,70002.0
06:22:25.630,AUTO,-35.3632614,149.1652396,22973,-0.012167216278612614,0.014091065153479576,0.04502218961715698,0.020076703280210495,-0.004267045296728611,-0.004858053755015135,0,-6,-970,20,-3,-5,5,16,-13,70002.0
06:22:25.832,AUTO,-35.3632614,149.1652396,22973,-0.012167216278612614,0.014091065153479576,0.04502218961715698,0.020076703280210495,-0.004267045296728611,-0.004858053755015135,0,-6,-970,20,-3,-5,5,16,-13,70002.0
06:22:26.034,AUTO,-35.3632614,149.1652396,22973,-0.012167216278612614,0.014091065153479576,0.04502218961715698,0.020076703280210495,-0.004267045296728611,-0.004858053755015135,0,-6,-970,20,-3,-5,5,16,-13,70002.0
06:22:26.236,AUTO,-35.3632612,149.1652401,22947,-0.024723798036575317,0.016393538564443588,0.041629236191511154,0.7786363959312439,-0.0774068683385849,0.0020659680012613535,0,22,-970,779,-76,1,-4,-5,21,70002.0
06:22:26.438,AUTO,-35.3632612,149.1652399,22887,-0.005288040731102228,-0.007102250121533871,0.041279394179582596,0.21588650345802307,-0.09693790227174759,0.006095495540648699,-1,-11,-1014,215,-95,6,-5,-11,22,70002.0
06:22:26.640,AUTO,-35.3632612,149.1652396,22835,0.010128061287105083,-0.027165517210960388,0.04068430885672569,-0.5992860794067383,-0.07214042544364929,-0.0008752340218052268,0,-34,-1020,-599,-71,-1,0,-10,16,70002.0
06:22:26.841,AUTO,-35.3632612,149.1652393,22795,0.02397131733596325,-0.04081620275974274,0.03966628387570381,-0.41776490211486816,-0.04367484897375107,-0.007588427513837814,-2,-7,-1022,-416,-42,-7,7,-4,11,70002.0
06:22:27.043,AUTO,-35.3632612,149.1652393,22795,0.02397131733596325,-0.04081620275974274,0.03966628387570381,-0.41776490211486816,-0.04367484897375107,-0.007588427513837814,-2,-7,-1022,-416,-42,-7,7,-4,11,70002.0
06:22:27.245,AUTO,-35.3632609,149.1652393,22767,0.04951465129852295,-0.051361192017793655,0.03752032667398453,0.5128225088119507,-0.036789946258068085,-0.011057613417506218,-3,32,-1018,515,-35,-11,18,5,6,70002.0
06:22:27.447,AUTO,-35.3632603,149.1652394,22747,0.06504256278276443,-0.060617197304964066,0.035385213792324066,0.7070083618164062,-0.036327630281448364,-0.0016237706877291203,-4,15,-1010,708,-35,-1,31,16,4,70002.0
06:22:27.649,AUTO,-35.3632603,149.1652394,22747,0.06504256278276443,-0.060617197304964066,0.035385213792324066,0.7070083618164062,-0.036327630281448364,-0.0016237706877291203,-4,15,-1010,708,-35,-1,31,16,4,70002.0
06:22:27.851,AUTO,-35.3632603,149.1652394,22747,0.06504256278276443,-0.060617197304964066,0.035385213792324066,0.7070083618164062,-0.036327630281448364,-0.0016237706877291203,-4,15,-1010,708,-35,-1,31,16,4,70002.0
06:22:28.053,AUTO,-35.3632603,149.1652394,22747,0.06504256278276443,-0.060617197304964066,0.035385213792324066,0.7070083618164062,-0.036327630281448364,-0.0016237706877291203,-4,15,-1010,708,-35,-1,31,16,4,70002.0
06:22:28.264,AUTO,-35.3632567,149.1652423,22715,0.04692864045500755,-0.10453241318464279,0.40270766615867615,0.2954672574996948,-0.02792181260883808,0.8603156805038452,-16,4,-1010,297,-26,859,78,57,0,70002.0
06:22:28.540,AUTO,-35.3632548,149.1652441,22708,0.03511778265237808,-0.12236499786376953,0.6207944750785828,0.43787896633148193,-0.02462424337863922,0.8155608773231506,-20,-7,-1003,438,-23,815,96,73,0,70002.0
06:22:28.821,AUTO,-35.3632496,149.1652489,22692,0.006876122672110796,-0.14345914125442505,0.7996535897254944,-0.4672985374927521,-0.035107873380184174,0.016807086765766144,-36,-32,-1004,-466,-34,16,134,106,1,70002.0
06:22:29.060,AUTO,-35.3632496,149.1652489,22692,0.010208156891167164,-0.15631845593452454,0.7816805839538574,-0.02187124826014042,-0.05658262223005295,-0.1207132339477539,-36,-32,-1004,-466,-34,16,134,106,1,70002.0
06:22:29.283,AUTO,-35.3632463,149.165252,22681,0.010208156891167164,-0.15631845593452454,0.7816805839538574,-0.02187124826014042,-0.05658262223005295,-0.1207132339477539,-41,-1,-1004,-20,-55,-120,154,124,2,70002.0
06:22:29.486,AUTO,-35.3632427,149.1652556,22666,0.02455754391849041,-0.17023253440856934,0.7534102201461792,0.4595700800418854,-0.048437416553497314,-0.10941508412361145,-44,-1,-1008,460,-47,-109,177,143,4,70002.0
06:22:29.689,AUTO,-35.3632427,149.1652556,22666,0.02455754391849041,-0.17023253440856934,0.7534102201461792,0.4595700800418854,-0.048437416553497314,-0.10941508412361145,-44,-1,-1008,460,-47,-109,177,143,4,70002.0
06:22:29.894,AUTO,-35.3632427,149.1652556,22666,0.02455754391849041,-0.17023253440856934,0.7534102201461792,0.4595700800418854,-0.048437416553497314,-0.10941508412361145,-44,-1,-1008,460,-47,-109,177,143,4,70002.0
06:22:30.097,AUTO,-35.3632286,149.1652699,22618,0.02591778337955475,-0.18540942668914795,0.7257079482078552,0.15325318276882172,0.0025182540994137526,-0.019950101152062416,-64,-27,-1006,154,3,-20,249,201,4,86071.0
06:22:30.299,AUTO,-35.3632286,149.1652699,22618,0.02591778337955475,-0.18540942668914795,0.7257079482078552,0.15325318276882172,0.0025182540994137526,-0.019950101152062416,-64,-27,-1006,154,3,-20,249,201,4,86071.0
06:22:30.501,AUTO,-35.3632229,149.1652757,22601,0.032150473445653915,-0.18566849827766418,0.727069616317749,0.2841010093688965,0.003935700748115778,-0.010311479680240154,-63,-39,-1003,284,4,-10,273,218,5,86071.0
06:22:30.703,AUTO,-35.3632168,149.1652821,22585,0.028356684371829033,-0.18772630393505096,0.7288514375686646,-0.2327226847410202,-0.02802298590540886,-0.00456160306930542,-70,-60,-999,-231,-27,-4,295,235,5,86071.0
06:22:30.905,AUTO,-35.3632102,149.165289,22567,0.026828359812498093,-0.19272704422473907,0.7298909425735474,-0.052927326411008835,-0.016332175582647324,-0.016841793432831764,-84,-37,-1000,-51,-15,-17,317,252,6,86071.0
06:22:31.107,AUTO,-35.363203,149.1652964,22546,0.032515157014131546,-0.19606058299541473,0.7284276485443115,0.18322113156318665,-0.02282923460006714,-0.030737625434994698,-80,-47,-998,184,-21,-31,340,268,7,86071.0
06:22:31.309,AUTO,-35.363203,149.1652964,22546,0.032515157014131546,-0.19606058299541473,0.7284276485443115,0.18322113156318665,-0.02282923460006714,-0.030737625434994698,-80,-47,-998,184,-21,-31,340,268,7,86071.0
06:22:31.512,AUTO,-35.3631952,149.1653044,22523,0.03270988538861275,-0.2013784795999527,0.7265388369560242,-0.09291587769985199,-0.029871897771954536,-0.01991354301571846,-98,-53,-997,-91,-28,-20,362,283,8,86071.0
06:22:31.714,AUTO,-35.3631952,149.1653044,22523,0.03270988538861275,-0.2013784795999527,0.7265388369560242,-0.09291587769985199,-0.029871897771954536,-0.01991354301571846,-98,-53,-997,-91,-28,-20,362,283,8,86071.0
06:22:31.917,AUTO,-35.3631952,149.1653044,22523,0.03270988538861275,-0.2013784795999527,0.7265388369560242,-0.09291587769985199,-0.029871897771954536,-0.01991354301571846,-98,-53,-997,-91,-28,-20,362,283,8,86071.0
06:22:32.119,AUTO,-35.3631694,149.1653306,22445,0.046725861728191376,-0.2096208781003952,0.7213297486305237,0.015509350225329399,0.017001692205667496,-0.016871163621544838,-107,-66,-1003,16,17,-16,428,331,10,86071.0
06:22:32.321,AUTO,-35.3631599,149.1653402,22420,0.047601450234651566,-0.19894346594810486,0.7203495502471924,0.022732911631464958,0.03700033575296402,-0.019230583682656288,-104,-71,-1006,23,37,-19,448,347,8,86071.0
06:22:32.525,AUTO,-35.3631599,149.1653402,22420,0.047601450234651566,-0.19894346594810486,0.7203495502471924,0.022732911631464958,0.03700033575296402,-0.019230583682656288,-104,-71,-1006,23,37,-19,448,347,8,86071.0
06:22:32.726,AUTO,-35.3631499,149.1653502,22402,0.05468817800283432,-0.19119296967983246,0.7189760208129883,-0.0020711072720587254,0.01715768128633499,-0.014656398445367813,-122,-65,-1001,-1,17,-15,464,359,5,86071.0
06:22:32.930,AUTO,-35.3631395,149.1653606,22388,0.05755256861448288,-0.18606580793857574,0.7173812985420227,-0.019881537184119225,0.00614169891923666,-0.008418736048042774,-114,-74,-995,-19,6,-8,477,370,4,86071.0
06:22:33.134,AUTO,-35.3631288,149.1653712,22373,0.06093093380331993,-0.18154805898666382,0.7162148356437683,0.03632327914237976,0.04739636182785034,-0.012122935615479946,-119,-70,-994,37,48,-12,491,381,5,86071.0
06:22:33.336,AUTO,-35.3631178,149.1653821,22360,0.06322450190782547,-0.1735028773546219,0.7145023345947266,-0.005476311780512333,0.046732984483242035,-0.007393330335617065,-116,-65,-988,-4,47,-7,501,390,4,86071.0
06:22:33.538,AUTO,-35.3631178,149.1653821,22360,0.06322450190782547,-0.1735028773546219,0.7145023345947266,-0.005476311780512333,0.046732984483242035,-0.007393330335617065,-116,-65,-988,-4,47,-7,501,390,4,86071.0
06:22:33.740,AUTO,-35.3631178,149.1653821,22360,0.06322450190782547,-0.1735028773546219,0.7145023345947266,-0.005476311780512333,0.046732984483242035,-0.007393330335617065,-116,-65,-988,-4,47,-7,501,390,4,86071.0
06:22:33.942,AUTO,-35.3631178,149.1653821,22360,0.06322450190782547,-0.1735028773546219,0.7145023345947266,-0.005476311780512333,0.046732984483242035,-0.007393330335617065,-116,-65,-988,-4,47,-7,501,390,4,86071.0
06:22:34.225,AUTO,-35.3630836,149.1654162,22317,0.07565341889858246,-0.1589488536119461,0.7116256356239319,0.07600431889295578,0.040475472807884216,-0.006826527416706085,-125,-83,-991,76,41,-6,525,411,5,86071.0
06:22:34.467,AUTO,-35.3630716,149.1654282,22301,0.0734558179974556,-0.15015287697315216,0.7108626365661621,-0.061766672879457474,-0.0017075089272111654,-0.005128352902829647,-128,-76,-989,-61,0,-5,528,418,4,86071.0
06:22:34.818,AUTO,-35.363048,149.165452,22270,0.07745903730392456,-0.14158430695533752,0.7093779444694519,0.011667455546557903,0.0413360632956028,0.0006742694531567395,-129,-85,-987,1,3,6,534,424,5,86071.0
06:22:35.040,AUTO,-35.363048,149.165452,22270,0.07745903730392456,-0.14158430695533752,0.7093779444694519,0.011667455546557903,0.0413360632956028,0.0006742694531567395,-124,-74,-977,12,42,0,534,424,5,86071.0
06:22:35.242,AUTO,-35.363036,149.165464,22253,0.0794096514582634,-0.1285952776670456,0.7096323370933533,-0.027480177581310272,0.06354784965515137,0.01937456801533699,-119,-74,-981,-26,64,19,537,426,6,86071.0
06:22:35.444,AUTO,-35.3630239,149.1654761,22237,0.08082492649555206,-0.11575351655483246,0.7087786197662354,0.02069023624062538,0.036584075540304184,-0.002398837124928832,-135,-74,-990,21,37,-2,536,426,4,86071.0
06:22:35.647,AUTO,-35.3630239,149.1654761,22237,0.08082492649555206,-0.11575351655483246,0.7087786197662354,0.02069023624062538,0.036584075540304184,-0.002398837124928832,-135,-74,-990,21,37,-2,536,426,4,86071.0
06:22:35.851,AUTO,-35.3630239,149.1654761,22237,0.08082492649555206,-0.11575351655483246,0.7087786197662354,0.02069023624062538,0.036584075540304184,-0.002398837124928832,-135,-74,-990,21,37,-2,536,426,4,7798.0
06:22:36.053,AUTO,-35.3630239,149.1654761,22237,0.08082492649555206,-0.11575351655483246,0.7087786197662354,0.02069023624062538,0.036584075540304184,-0.002398837124928832,-135,-74,-990,21,37,-2,536,426,4,7798.0
06:22:36.255,AUTO,-35.3629883,149.1655121,22176,0.07775961607694626,-0.1272331029176712,0.7061100006103516,-0.0015271147713065147,-0.03359607234597206,0.010917277075350285,-140,-78,-981,0,-32,11,527,422,12,7798.0
06:22:36.457,AUTO,-35.3629765,149.165524,22140,0.07761386781930923,-0.13187317550182343,0.7060548663139343,0.0377773642539978,-0.02815004624426365,0.001719332067295909,-131,-80,-985,38,-27,1,528,423,15,7798.0
06:22:36.659,AUTO,-35.3629647,149.165536,22102,0.07956315577030182,-0.13373862206935883,0.7059188485145569,-0.012548359110951424,-0.005664370022714138,0.009187973104417324,-133,-82,-985,-11,-4,9,530,423,15,7798.0
06:22:36.861,AUTO,-35.3629529,149.1655479,22062,0.07855626195669174,-0.13662803173065186,0.7049063444137573,-0.04213964194059372,-0.011407009325921535,0.012174706906080246,-132,-70,-986,-41,-10,12,530,426,16,7798.0
06:22:37.063,AUTO,-35.3629411,149.1655598,22020,0.07591109722852707,-0.13723301887512207,0.7049849629402161,0.044536300003528595,0.017415929585695267,0.002364043379202485,-133,-79,-993,44,17,2,532,428,15,7798.0
06:22:37.265,AUTO,-35.3629411,149.1655598,22020,0.07591109722852707,-0.13723301887512207,0.7049849629402161,0.044536300003528595,0.017415929585695267,0.002364043379202485,-133,-79,-993,44,17,2,532,428,15,7798.0
06:22:37.467,AUTO,-35.362929,149.165572,21982,0.07277572154998779,-0.13456103205680847,0.7054786086082458,-0.017868338152766228,-0.014025709591805935,0.009758814238011837,-138,-82,-991,-17,-13,10,533,429,14,7798.0
06:22:37.673,AUTO,-35.362929,149.165572,21982,0.07277572154998779,-0.13456103205680847,0.7054786086082458,-0.017868338152766228,-0.014025709591805935,0.009758814238011837,-138,-82,-991,-17,-13,10,533,429,14,7798.0
06:22:37.875,AUTO,-35.362929,149.165572,21982,0.07277572154998779,-0.13456103205680847,0.7054786086082458,-0.017868338152766228,-0.014025709591805935,0.009758814238011837,-138,-82,-991,-17,-13,10,533,429,14,7798.0
06:22:38.077,AUTO,-35.3628932,149.1656079,21887,0.075249083340168,-0.13220258057117462,0.7056333422660828,0.001959677319973707,0.020437687635421753,0.0029173986986279488,-140,-89,-997,2,21,3,535,431,12,7798.0
06:22:38.279,AUTO,-35.3628932,149.1656079,21887,0.075249083340168,-0.13220258057117462,0.7056333422660828,0.001959677319973707,0.020437687635421753,0.0029173986986279488,-140,-89,-997,2,21,3,535,431,12,7798.0
06:22:38.481,AUTO,-35.362881,149.16562,21859,0.0771457776427269,-0.12558038532733917,0.7055950164794922,0.007903581485152245,0.029337022453546524,-0.006364625878632069,-123,-85,-993,8,30,-6,536,432,10,7798.0
06:22:38.682,AUTO,-35.3628689,149.165632,21837,0.08297223597764969,-0.12106099724769592,0.704521656036377,0.010671121999621391,-0.014579989947378635,-0.0075483438558876514,-145,-78,-990,11,-13,-7,535,431,8,7798.0
06:22:38.903,AUTO,-35.3628568,149.1656439,21817,0.08516249805688858,-0.123794324696064,0.7037264108657837,0.0260000042617321,-0.015098713338375092,-0.0014490842586383224,-131,-74,-979,26,-14,-1,533,431,9,7798.0
06:22:39.159,AUTO,-35.3628448,149.1656558,21794,0.0835767462849617,-0.13120155036449432,0.7035074830055237,-0.025956230238080025,-0.010778279043734074,0.002009574556723237,-140,-88,-981,-25,-9,2,532,431,11,7798.0
06:22:39.521,AUTO,-35.3628327,149.1656677,21767,0.08774369955062866,-0.1288193166255951,0.7036737203598022,0.07146096974611282,0.018476922065019608,-0.007966181263327599,-142,-91,-995,72,19,-7,531,432,12,7798.0
06:22:39.782,AUTO,-35.3628327,149.1656677,21767,0.08774369955062866,-0.1288193166255951,0.7036737203598022,0.07146096974611282,0.018476922065019608,-0.007966181263327599,-142,-91,-995,72,19,-7,531,432,12,7798.0
06:22:40.024,AUTO,-35.3628327,149.1656677,21767,0.08774369955062866,-0.1288193166255951,0.7036737203598022,0.07146096974611282,0.018476922065019608,-0.007966181263327599,-142,-91,-995,72,19,-7,531,432,12,7798.0
06:22:40.226,AUTO,-35.3627967,149.1657036,21690,0.08504825085401535,-0.1291320025920868,0.7024478912353516,0.005621640477329493,0.042146410793066025,-0.006286551244556904,-130,-90,-989,6,43,-5,528,433,13,7798.0
06:22:40.429,AUTO,-35.3627845,149.1657157,21663,0.0889265388250351,-0.11936861276626587,0.7015237212181091,-0.029968472197651863,0.027423454448580742,-0.001974316779524088,-132,-76,-995,-29,28,-1,528,435,11,7798.0
06:22:40.632,AUTO,-35.3627724,149.1657277,21640,0.08730962127447128,-0.12008121609687805,0.7020347714424133,0.017024051398038864,-0.013795139268040657,-0.0014378881314769387,-133,-76,-979,17,-12,-1,526,434,11,7798.0
06:22:40.834,AUTO,-35.3627605,149.1657397,21615,0.08651843667030334,-0.12248867005109787,0.7019263505935669,-0.0018841917626559734,-0.012776300311088562,0.0021583526395261288,-133,-77,-981,-1,-11,2,524,433,12,72838.0
06:22:41.036,AUTO,-35.3627605,149.1657397,21615,0.08651843667030334,-0.12248867005109787,0.7019263505935669,-0.0018841917626559734,-0.012776300311088562,0.0021583526395261288,-133,-77,-981,-1,-11,2,524,433,12,72838.0
06:22:41.238,AUTO,-35.3627487,149.1657515,21587,0.08637179434299469,-0.12706412374973297,0.7010241150856018,-0.01445773709565401,-0.02846323885023594,-0.003355724038556218,-150,-68,-986,-14,-27,-3,522,433,13,72838.0
06:22:41.440,AUTO,-35.3627368,149.1657634,21557,0.08443723618984222,-0.1320091336965561,0.7005323171615601,-0.00832964014261961,0.015097065828740597,-0.0020750672556459904,-124,-89,-984,-7,16,-2,522,433,15,72838.0
06:22:41.642,AUTO,-35.3627368,149.1657634,21557,0.08443723618984222,-0.1320091336965561,0.7005323171615601,-0.00832964014261961,0.015097065828740597,-0.0020750672556459904,-124,-89,-984,-7,16,-2,522,433,15,72838.0
06:22:41.844,AUTO,-35.3627368,149.1657634,21557,0.08443723618984222,-0.1320091336965561,0.7005323171615601,-0.00832964014261961,0.015097065828740597,-0.0020750672556459904,-124,-89,-984,-7,16,-2,522,433,15,72838.0
06:22:42.046,AUTO,-35.3627368,149.1657634,21557,0.08443723618984222,-0.1320091336965561,0.7005323171615601,-0.00832964014261961,0.015097065828740597,-0.0020750672556459904,-124,-89,-984,-7,16,-2,522,433,15,72838.0
06:22:42.248,AUTO,-35.3627013,149.165799,21468,0.08639270812273026,-0.12907908856868744,0.6998652815818787,-0.04010654240846634,-0.012350662611424923,0.003337996546179056,-143,-72,-984,-39,-11,3,521,433,13,72838.0
06:22:42.450,AUTO,-35.3626895,149.1658109,21438,0.08498140424489975,-0.12887011468410492,0.6996335983276367,-0.005302608013153076,0.0254574753344059,-0.008157334290444851,-144,-71,-993,-4,26,-8,521,434,14,72838.0
06:22:42.652,AUTO,-35.3626776,149.1658229,21409,0.08356206864118576,-0.12675517797470093,0.6994961500167847,0.033737726509571075,0.0037104724906384945,-0.006065483205020428,-137,-86,-991,34,4,-5,521,434,12,72838.0
06:22:42.854,AUTO,-35.3626657,149.1658348,21381,0.08361515402793884,-0.12746486067771912,0.6981916427612305,0.010670248419046402,-0.0003506318898871541,-0.004856203217059374,-132,-81,-988,11,0,-4,521,434,13,72838.0
06:22:43.056,AUTO,-35.3626657,149.1658348,21381,0.08361515402793884,-0.12746486067771912,0.6981916427612305,0.010670248419046402,-0.0003506318898871541,-0.004856203217059374,-132,-81,-988,11,0,-4,521,434,13,72838.0
06:22:43.258,AUTO,-35.3626539,149.1658467,21353,0.0857027918100357,-0.12611357867717743,0.6978182792663574,-0.017169293016195297,-0.008373929187655449,0.0005108784534968436,-127,-79,-979,-16,-7,0,521,433,12,72838.0
06:22:43.460,AUTO,-35.3626418,149.1658587,21325,0.09131212532520294,-0.12553295493125916,0.6972112655639648,0.04595271870493889,0.02188737317919731,-0.0065878103487193584,-126,-92,-989,46,23,-6,523,432,12,72838.0
06:22:43.662,AUTO,-35.3626418,149.1658587,21325,0.09131212532520294,-0.12553295493125916,0.6972112655639648,0.04595271870493889,0.02188737317919731,-0.0065878103487193584,-126,-92,-989,46,23,-6,523,432,12,72838.0
06:22:43.876,AUTO,-35.3626418,149.1658587,21325,0.09131212532520294,-0.12553295493125916,0.6972112655639648,0.04595271870493889,0.02188737317919731,-0.0065878103487193584,-126,-92,-989,46,23,-6,523,432,12,72838.0
06:22:44.078,AUTO,-35.3626418,149.1658587,21325,0.09131212532520294,-0.12553295493125916,0.6972112655639648,0.04595271870493889,0.02188737317919731,-0.0065878103487193584,-126,-92,-989,46,23,-6,523,432,12,72838.0
06:22:44.294,AUTO,-35.3626017,149.1658992,21231,0.08752676099538803,-0.1240076795220375,0.6969812512397766,-0.05568656697869301,-0.0005586036131717265,0.002211619634181261,-116,-77,-975,-55,0,2,521,432,13,72838.0
06:22:44.512,AUTO,-35.36259,149.1659111,21201,0.08421147614717484,-0.12598519027233124,0.6966556310653687,0.018179524689912796,-0.01162824034690857,-0.003195779398083687,-136,-83,-986,19,-10,-3,521,431,12,72838.0
06:22:44.828,AUTO,-35.3625783,149.165923,21171,0.08127305656671524,-0.12328461557626724,0.6972696781158447,0.008674132637679577,0.05316627770662308,0.004375334829092026,-137,-64,-992,9,54,4,519,433,13,72838.0
06:22:45.146,AUTO,-35.3625666,149.1659349,21144,0.07818667590618134,-0.10650045424699783,0.6982738375663757,0.014594127424061298,0.08314673602581024,-0.00933285616338253,-133,-82,-1006,15,84,-9,519,430,9,72838.0
06:22:45.484,AUTO,-35.3625434,149.1659583,21117,0.08258498460054398,-0.07631682604551315,0.6966423988342285,0.013724311254918575,0.06106073781847954,-0.007992228493094444,-128,-80,-997,14,61,-7,508,419,5,72838.0
06:22:45.687,AUTO,-35.3625434,149.1659583,21117,0.08258498460054398,-0.07631682604551315,0.6966423988342285,0.013724311254918575,0.06106073781847954,-0.007992228493094444,-128,-80,-997,14,61,-7,508,419,5,72838.0
06:22:45.891,AUTO,-35.3625434,149.1659583,21117,0.08258498460054398,-0.07631682604551315,0.6966423988342285,0.013724311254918575,0.06106073781847954,-0.007992228493094444,-128,-80,-997,14,61,-7,508,419,5,72838.0
06:22:46.095,AUTO,-35.3625434,149.1659583,21117,0.08258498460054398,-0.07631682604551315,0.6966423988342285,0.013724311254918575,0.06106073781847954,-0.007992228493094444,-128,-80,-997,14,61,-7,508,419,5,31378.0
06:22:46.298,AUTO,-35.3625101,149.1659918,21091,0.0826965942978859,-0.04406692460179329,0.697966992855072,0.06954808533191681,0.041940126568078995,-0.004272127524018288,-124,-72,-989,70,43,-3,474,389,6,31378.0
06:22:46.500,AUTO,-35.3624996,149.1660024,21078,0.0824371948838234,-0.03602273017168045,0.6977878212928772,0.03915849328041077,0.029643496498465538,-0.002014900790527463,-119,-80,-986,39,31,-1,458,378,7,31378.0
06:22:46.702,AUTO,-35.3624895,149.1660127,21060,0.07828713953495026,-0.02344510518014431,0.6976302862167358,-0.17544734477996826,0.06920715421438217,0.001634692307561636,-105,-82,-990,-174,70,1,444,366,9,31378.0
