time_stamp,roll,pitch,yaw,rollspeed,pitchspeed,yawspeed,lat,lon,relative_alt,vx,vy,vz,xacc,yacc,zacc,xgyro,ygyro,zgyro,RTL_ALT,MODE
17:09:26,7.251199713209644e-05,0.0016091741854324937,0.028599318116903305,0.00026488787261769176,0.00034041007165797055,0.002512360457330942,-35.3632621,149.1652374,5.0,-1.0,1.0,0.0,0.0,1.0,-1000.0,0.0,0.0,0.0,9727.0,STABILIZE
17:09:40,-0.000512380269356072,0.0010222419223282486,0.023114392533898354,0.00028819753788411617,0.00031902777845971286,0.001613814034499228,-35.36326215,149.1652375,15.0,-0.5,0.5,-2.5,0.0,2.0,-1000.0,0.0,0.0,0.0,9727.0,AUTO
17:09:42,0.000262085632130038,0.0014883368276059628,0.022348007187247276,0.0003791058552451432,0.00030475217499770224,0.0014781564241275191,-35.3632621,149.1652375,17.5,0.0,0.0,-1.0,0.0,1.5,-1000.0,0.0,0.0,0.0,9727.0,AUTO
17:09:43,0.001900843475596048,0.0006035577680449933,0.021972067654132843,0.0022072706051403657,-0.0008491307380609214,0.0018468786147423089,-35.3632621,149.1652375,85.25,0.0,0.0,-32.0,0.0,0.5,-1094.5,2.5,-0.75,0.75,209998.0,AUTO
17:09:44,0.013887692941352725,-4.5468390453606844e-05,0.021765821613371372,0.023090549424523488,-0.0024691970320418477,0.002020759042352438,-35.3632621,149.1652375,945.0,0.0,3.0,-125.0,0.0,0.0,-1061.5,23.5,-2.0,1.0,209998.0,AUTO
17:09:46,0.0012204032391309738,0.010635362705215812,-0.04982925206422806,-0.11032108031213284,0.03361348528414965,-0.06590945832431316,-35.36326115,149.1652432,3899.5,6.0,45.5,-146.5,4.0,-10.0,-997.0,-109.5,34.0,-66.0,209998.0,AUTO
17:09:48,-0.02970100659877062,0.005309344385750592,-0.10617060214281082,0.06339068710803986,0.007554704905487597,-0.007628159131854773,-35.3632611,149.1652422,6953.0,-9.0,-53.5,-149.0,-4.5,11.5,-1001.5,63.0,7.5,-7.5,209998.0,AUTO
17:09:49,0.03687149053439498,0.013030316913500428,-0.10732373595237732,0.06661579199135303,0.003735354694072157,0.0023253609106177464,-35.363262375,149.165236075,8501.75,-20.0,-42.25,-152.0,-3.0,11.75,-1003.25,66.5,4.0,1.75,91426.0,AUTO
17:09:50,0.05492476373910904,-0.02997218258678913,-0.06565603613853455,-0.05643133226840291,-0.03841262590140104,0.050877200439572334,-35.36326415,149.1652344,10060.0,-9.0,13.5,-150.0,2.5,-0.5,-994.0,-56.0,-37.5,50.0,91426.0,AUTO
17:09:52,-0.019439398776739836,0.020274040289223194,-0.1469845473766327,0.03142413031309843,0.023590330500155687,-0.05546101927757263,-35.363260499999996,149.1652372,13134.5,20.5,-10.0,-152.0,-5.0,-3.0,-1002.5,31.5,23.5,-55.5,91426.0,AUTO
17:09:54,0.012987877009436488,0.009244615095667541,-0.1673790067434311,-0.009838572703301907,-0.014233218040317297,0.0037753134965896606,-35.36326045,149.16523515,16337.5,-15.0,5.5,-151.0,2.0,1.5,-999.0,-8.5,-13.5,3.5,91426.0,AUTO
17:09:55,0.001514477757154964,-0.0023851575188018614,-0.1716414839029312,-0.007257061428390443,-0.004754904308356345,-0.015167186502367258,-35.36326165,149.165235825,17965.25,-11.0,9.25,-151.75,2.5,0.0,-1000.0,-6.0,-3.5,-15.25,108473.0,AUTO
17:09:56,-0.00022259220713749528,-0.00263893895316869,-0.19478179514408112,0.0016026028897613287,0.0035874060122296214,-0.026919868774712086,-35.36326215,149.16523635,19522.0,-4.0,4.0,-152.0,0.5,0.0,-1000.0,2.0,3.5,-27.0,108473.0,AUTO
17:09:58,0.004761749180033803,0.0033562942408025265,-0.24571335315704346,0.0009041615994647145,0.0018435271922498941,-0.020308698527514935,-35.3632622,149.1652364,22639.0,0.0,2.0,-152.0,0.0,0.0,-1000.0,1.0,2.0,-20.0,108473.0,AUTO
17:10:00,-0.0011459290981292725,0.004336845362558961,-0.2720276266336441,-0.010192561894655228,0.0008061837870627642,0.009092927910387516,-35.36326215,149.16523665,25754.5,-3.5,1.0,-152.0,0.0,0.5,-1000.0,-9.5,1.5,8.5,54995.0,AUTO
17:10:02,0.005004006321541965,0.0018630688427947462,-0.22906942665576935,-0.008632820332422853,-0.0015877714031375945,0.02130240388214588,-35.3632624,149.1652371,28864.5,-1.5,8.5,-152.0,0.5,-0.5,-1000.0,-7.0,-0.5,20.5,1517.0,AUTO
17:10:04,3.864086465910077e-05,0.0007733534148428589,-0.1918463408946991,0.0009358141105622053,-0.0007186015718616545,0.016969786025583744,-35.3632624,149.1652381,31964.5,0.0,2.5,-152.0,0.0,0.0,-1000.5,1.5,0.0,16.0,1517.0,AUTO
17:10:05,0.0013746085751336068,0.0006926386995473877,-0.17675677314400673,0.0016412277036579326,-0.00018281939264852554,0.01464824564754963,-35.363262375000005,149.1652381,33518.25,0.0,0.25,-152.0,0.0,0.0,-1000.0,2.0,0.25,14.0,25077.0,AUTO
17:10:06,0.0021094370167702436,0.0007524272368755192,-0.1640123501420021,0.0008557072142139077,-0.0008827513665892184,0.011336973868310452,-35.3632623,149.16523805,35071.5,0.0,0.0,-152.0,0.0,0.0,-1000.5,1.5,0.0,10.5,25077.0,AUTO
17:10:08,-0.025606566108763218,0.018909346777945757,0.05525469034910202,0.003634978085756302,-0.03969991207122803,0.23714320361614227,-35.3632628,149.16523695,38084.5,-18.0,-19.0,-126.0,1.5,4.0,-957.0,5.0,-39.0,237.0,25077.0,AUTO
17:10:10,0.034180969931185246,-0.02672453038394451,0.1884971335530281,0.03328346146736294,0.038465019315481186,-0.02659658994525671,-35.3632645,149.16523335,39805.5,15.0,15.0,-50.5,-1.5,-1.0,-977.0,34.0,39.0,-26.0,25077.0,AUTO
17:10:11,0.009942774544470012,0.0066193920793011785,0.1646725870668888,0.10452935565263033,0.022213876945897937,-0.01718187448568642,-35.363262625,149.165235725,40209.25,19.75,28.0,-27.75,-1.5,-1.0,-976.75,106.0,22.75,-16.75,20835.0,AUTO
17:10:12,-0.019314396660774946,0.02876746468245983,0.14526673406362534,-0.03155718743801117,-0.027735508512705564,-0.020724043250083923,-35.3632612,149.16523825000002,40338.5,7.0,14.5,1.5,1.0,-3.0,-974.0,-30.5,-27.0,-20.0,20835.0,AUTO
17:10:14,0.04284955933690071,-0.0862954892218113,0.26671863347291946,0.032365769147872925,-0.028939262963831425,0.4153247429057956,-35.3632592,149.16524035,40107.0,47.5,35.0,11.0,-9.0,-9.5,-1003.0,33.5,-27.5,415.5,20835.0,AUTO
17:10:16,0.005997655913233757,-0.15943295508623123,0.8452534079551697,0.03690091520547867,0.010018756613135338,-0.08596381731331348,-35.36323815,149.16526115,39593.5,201.5,160.5,36.5,-55.5,-30.0,-985.0,38.0,10.5,-85.0,81112.5,AUTO
17:10:18,0.03630923479795456,-0.09712448343634605,0.794108510017395,-0.037661731243133545,0.02323313243687153,-0.005664348136633635,-35.36319305,149.16530755,38569.0,292.5,226.5,57.0,-86.0,-45.5,-994.0,-37.0,23.5,-5.5,141390.0,AUTO
17:10:20,0.03463511448353529,-0.05642223171889782,0.7771378755569458,-0.5625408440828323,0.01795840635895729,0.045038266107439995,-35.3631405,149.16536195,37331.5,296.5,228.5,58.0,-83.5,-83.0,-987.0,-562.0,18.5,45.0,141390.0,AUTO
17:10:21,0.034538484644144773,-0.019163111079251394,0.7723290175199509,0.28527240455150604,0.051589686423540115,-0.029969634022563696,-35.36311515,149.165388275,36746.75,274.25,212.25,52.75,-77.25,-7.5,-1005.5,287.25,52.0,-29.0,280046.0,AUTO
17:10:22,0.047935476526618004,0.029005173593759537,0.7694108188152313,0.17128637433052063,0.060818176716566086,0.0031713503412902355,-35.36309275,149.1654107,36250.5,223.5,171.0,44.5,-64.5,-40.5,-1008.5,171.0,61.0,4.0,280046.0,AUTO
17:10:24,0.02104741451330483,0.06999202072620392,0.7610703110694885,0.17514657974243164,-0.032649717293679714,-0.008520683273673058,-35.36306625,149.1654374,35649.0,66.0,57.5,14.5,-17.0,-4.5,-1021.5,176.0,-31.0,-8.0,280046.0,AUTO
17:10:26,0.0008070217445492744,0.019253951497375965,0.7528523802757263,-0.038439035415649414,-0.02237704675644636,-0.004503248259425163,-35.36306105,149.165443,35568.0,5.5,1.5,-0.5,-1.0,-0.5,-1002.0,-38.0,-21.0,-3.5,280046.0,AUTO
17:10:27,0.009954756940715015,7.57891102693975e-05,0.7483024597167969,0.17252635210752487,-0.012148609210271388,-0.003372104838490486,-35.3630604,149.16544274999998,35593.75,0.75,-0.75,-1.5,-1.75,4.25,-997.0,172.75,-10.5,-2.5,8499.0,AUTO
17:10:28,0.014001794159412384,0.002048457507044077,0.7440870106220245,-0.009840190410614014,-0.0059815626591444016,-0.0001242949510924518,-35.363059500000006,149.1654427,35608.0,4.0,7.5,-0.5,-3.0,-9.5,-1009.0,-9.0,-5.0,0.5,8499.0,RTL
17:10:30,0.013659733347594738,0.012608327437192202,0.7367033660411835,0.1891334429383278,-0.005485308851348236,0.00030813110060989857,-35.36305805000001,149.1654434,36077.5,-8.0,5.5,-62.0,0.0,2.0,-1054.0,189.0,-4.0,0.5,8499.0,RTL
17:10:32,0.021902497624978423,0.004384709463920444,0.7319500148296356,0.036307090893387794,-0.007666918565519154,0.00011626130435615778,-35.36305845,149.1654436,38301.0,-12.5,9.5,-144.0,0.5,-0.5,-1020.0,37.0,-6.0,1.0,8499.0,RTL
17:10:33,0.04694282682612538,0.004762291668157559,0.7193935066461563,-0.03733288776129484,0.032176225213333964,-0.04769799375208095,-35.36305955,149.16544545,39819.25,-25.75,37.0,-147.5,1.75,-7.5,-995.75,-36.25,33.25,-46.5,162722.0,RTL
17:10:34,-0.04950654320418835,0.020052434876561165,0.6608740389347076,-0.08231327356770635,-0.014792387373745441,-0.04352949932217598,-35.3630616,149.1654491,41335.0,-19.5,21.0,-147.0,3.5,-6.0,-1004.0,-81.0,-13.0,-42.0,162722.0,RTL
17:10:36,0.009671556297689676,0.011149626690894365,0.6348512470722198,0.06478609889745712,0.007402568124234676,-0.0002551815123297274,-35.36305915,149.1654439,44421.5,21.0,-44.0,-151.5,-5.0,10.0,-1002.5,65.5,8.0,0.5,162722.0,RTL
17:10:38,0.00834290569764562,-0.016067966353148222,0.6692698299884796,-0.0627598688006401,0.04172058030962944,-0.03157359920442104,-35.3630582,149.16544015,47146.5,-6.5,17.0,-149.0,0.5,-3.0,-1000.5,-61.0,42.5,-30.0,162722.0,RTL
17:10:39,-0.011354419286362827,0.011324929655529559,0.6181847006082535,0.00839487707708031,0.012076332932338119,-0.039567976258695126,-35.363057875,149.1654419,48853.25,6.0,9.0,-151.75,-1.75,-2.0,-1001.25,9.5,12.75,-38.25,248788.0,RTL
17:10:40,-0.0008008207660168409,0.016941308975219727,0.5933901965618134,0.016584210097789764,0.004141327110119164,-0.023585456423461437,-35.36305725,149.1654423,50026.0,5.0,-0.5,-152.0,-2.0,0.0,-1000.0,17.5,5.0,-22.0,248788.0,RTL
17:10:42,0.004210308659821749,0.010516965761780739,0.565200686454773,-0.004411468980833888,-0.005125146824866533,-0.014262352138757706,-35.3630573,149.1654422,53144.5,-9.5,0.5,-152.0,1.0,0.0,-1000.0,-2.0,-3.0,-12.5,248788.0,RTL
17:10:44,-0.000296877660730388,0.00646761292591691,0.5240079760551453,0.0013701144489459693,0.00027583714108914137,-0.023844048380851746,-35.36305835,149.16544245,56265.5,-4.5,1.0,-152.5,0.0,0.0,-1000.0,2.5,1.5,-22.0,248788.0,RTL
17:10:45,0.0007562923638033681,0.00848083384335041,0.49279654026031494,0.002041503496002406,0.001487039087805897,-0.023881494533270597,-35.363058550000005,149.16544267499998,58211.0,-3.0,1.0,-153.0,0.0,0.0,-1000.0,3.0,2.5,-22.25,104491.0,RTL
17:10:46,0.0011470182798802853,0.009050151333212852,0.47531263530254364,7.312104571610689e-06,0.00029952876502647996,-0.02103229518979788,-35.36305865,149.1654428,59383.5,-3.0,1.0,-153.0,0.0,0.0,-1000.0,1.0,1.5,-19.5,104491.0,RTL
17:10:48,0.0017123701400123537,0.010093256831169128,0.43820010125637054,0.004338794853538275,0.004353146068751812,0.0013089976273477077,-35.36305885,149.165443,62493.0,-3.5,1.0,-152.0,0.0,0.0,-999.5,5.5,5.0,2.5,104491.0,RTL
17:10:50,-0.00012729211539408425,0.007662260206416249,0.4793985188007355,0.0006513915141113102,-0.0013135488261468709,0.025380863808095455,-35.36305955,149.1654434,65597.0,-5.5,1.5,-152.0,0.0,0.0,-1000.5,1.5,0.0,26.5,104491.0,RTL
17:10:51,-0.0007305707549676299,0.006691456073895097,0.5053416937589645,0.0006730419117957354,0.0005541065183933824,0.019095873460173607,-35.363059750000005,149.1654435,67539.5,-2.25,0.5,-152.0,0.0,0.0,-1000.25,2.25,1.75,20.0,244686.0,RTL
17:10:52,-0.00026955951398122124,0.006882173009216785,0.5186049342155457,0.0009149900870397687,-0.000460321141872555,0.017142794094979763,-35.363059750000005,149.1654435,68705.0,-1.0,0.0,-152.0,0.0,0.0,-1000.0,2.5,1.0,17.5,244686.0,RTL
17:10:54,0.002549402415752411,0.007394785992801189,0.5475464761257172,-0.00046972499694675207,0.0007774920086376369,0.012936265673488379,-35.36305955,149.1654434,71811.5,0.0,0.0,-152.0,0.0,0.0,-999.5,0.5,2.0,13.5,244686.0,RTL
17:10:56,0.002081763232126832,0.007713607046753168,0.5694163739681244,-0.000721049727872014,-0.0006343776476569474,0.011166952550411224,-35.3630593,149.1654433,74924.5,-2.0,1.0,-152.0,0.0,0.0,-999.5,1.0,0.5,12.5,244686.0,RTL
17:10:57,0.0018171219853684306,0.007791029522195458,0.5807868987321854,-0.0003042427997570485,-0.0004886837268713862,0.008065021364018321,-35.3630592,149.1654433,76857.25,-2.0,1.0,-152.0,0.0,0.0,-1000.0,1.0,1.0,8.75,159758.0,RTL
17:10:58,0.001862530189100653,0.007729777367785573,0.5864822566509247,-0.0008225395577028394,0.0010877971071749926,0.007194702513515949,-35.3630592,149.1654433,78026.0,-2.0,1.0,-152.0,0.0,0.0,-1000.0,1.0,2.0,8.0,159758.0,RTL
17:11:00,-0.0029719286831095815,0.05309052765369415,0.5991978943347931,-0.006934922654181719,0.03920802101492882,0.006715592462569475,-35.363059500000006,149.16544290000002,81122.5,-18.0,-11.0,-150.5,2.0,2.0,-999.5,-4.5,40.5,8.0,159758.0,RTL
17:11:02,-0.03721215669065714,0.15150267630815506,0.6669783890247345,-0.10938913002610207,0.15261588990688324,0.2925255298614502,-35.363070300000004,149.16543230000002,84063.0,-119.0,-96.0,-125.5,26.0,14.5,-954.0,-107.0,153.5,293.5,92187.5,RTL
17:11:04,0.04320481978356838,0.08581626415252686,1.041279137134552,-0.02444109704811126,0.01994270645081997,-0.04199712350964546,-35.36310365,149.16539265,85394.5,-245.5,-194.5,-7.0,73.0,10.0,-944.0,-23.0,21.0,-40.0,24617.0,RTL
17:11:06,-0.03648871183395386,0.11608531326055527,0.9635135233402252,-0.45933493971824646,-0.023669736459851265,-0.04171620216220617,-35.363153600000004,149.16534915,85021.5,-298.5,-212.5,10.0,85.0,3.5,-1013.0,-457.0,-21.5,-40.0,24617.0,RTL
17:11:07,-0.04645173717290163,0.09399424120783806,0.9277168661355972,-0.15362921310588717,-0.022787376306951046,-0.03741212422028184,-35.36318695,149.165318125,84948.0,-291.25,-234.5,-2.25,82.75,19.25,-1001.0,-151.75,-20.75,-35.25,184341.0,RTL
17:11:08,-0.05339118093252182,0.05600426718592644,0.9102007150650024,0.14055153727531433,-0.056864164769649506,-0.04041160736232996,-35.36320655,149.16529915,84953.0,-274.0,-234.5,-6.0,83.0,24.0,-999.0,141.5,-54.5,-38.5,184341.0,RTL
17:11:10,-0.06958305463194847,-0.04816295951604843,0.8775562942028046,-0.32850205479189754,-0.050944650545716286,-0.028250117786228657,-35.363248,149.16525685,84975.0,-149.0,-157.0,-1.5,45.5,20.5,-1004.5,-326.0,-48.5,-27.0,184341.0,RTL
17:11:12,-0.011672433000057936,-0.029041792266070843,0.8444100022315979,0.5731268227100372,0.02013047132641077,-0.024077175185084343,-35.3632633,149.16523899999999,84942.5,-14.0,-49.0,-1.5,7.5,27.5,-1006.0,574.0,21.5,-23.0,184341.0,RTL
17:11:13,-0.013225084752775729,-0.00763864937107428,0.825384795665741,0.15076804906129837,0.021058008540421724,-0.01506329677067697,-35.36326495,149.1652368,84944.5,7.75,-21.25,-2.75,2.0,10.0,-1008.0,151.75,22.5,-14.25,83429.0,RTL
17:11:14,-0.019168106839060783,0.009683822048828006,0.8151005208492279,-0.49056069552898407,0.02371883112937212,-0.010157110635191202,-35.363265150000004,149.1652368,84954.0,12.0,-16.5,-3.5,0.0,-28.0,-996.0,-489.5,25.0,-9.0,83429.0,RTL
17:11:16,0.0023029190488159657,-0.006793799344450235,0.7977399230003357,0.49000583589076996,0.0003418385749682784,-0.003171870019286871,-35.3632651,149.16523610000002,84976.0,13.5,-10.5,-0.5,-2.5,17.0,-999.0,490.0,1.5,-2.0,83429.0,RTL
17:11:18,0.008032381534576416,0.0023005360271781683,0.7861295938491821,-0.5694132596254349,0.0015945654595270753,-0.0035650853533297777,-35.3632626,149.16523525000002,84979.0,3.5,5.0,-0.5,-4.5,-14.0,-1002.5,-568.5,3.0,-2.0,83429.0,RTL
17:11:19,0.02613520948216319,0.0038620669511146843,0.7792798429727554,-0.17538676038384438,0.002217268804088235,-0.006278608343563974,-35.3632611,149.1652347,84978.5,-7.5,13.0,1.75,-3.0,-10.25,-988.75,-174.25,3.75,-5.0,161387.0,RTL
17:11:20,0.03515719436109066,0.006283929338678718,0.775476723909378,0.8949146270751953,0.0013634698698297143,-0.0090726506896317,-35.36326055,149.1652346,84887.0,-15.0,18.0,34.5,-0.5,49.5,-942.0,896.5,2.5,-8.0,161387.0,RTL
17:11:22,0.032797401770949364,0.0091801299713552,0.7648564279079437,1.2458332180976868,0.000563290435820818,-0.0027100936276838183,-35.36326045,149.16523554999998,83063.5,-20.0,19.5,112.0,2.5,40.5,-1076.5,1246.5,2.5,-1.0,161387.0,RTL
17:11:24,0.012543628690764308,0.008295228471979499,0.7545364201068878,1.19106787443161,-0.0024412961211055517,0.001813076960388571,-35.3632616,149.16523705,80955.0,-11.0,7.5,99.5,3.0,34.0,-1022.0,1192.0,-0.5,2.5,161387.0,RTL
17:11:25,0.016670386539772153,0.004879639251157641,0.7504729479551315,1.1670245230197906,-0.001397137006279081,0.0004359665035735816,-35.363262225,149.165237525,79687.5,-4.25,2.0,100.5,1.25,26.75,-996.25,1167.5,0.25,1.5,293270.0,RTL
17:11:26,0.014455805998295546,0.002997754723764956,0.7478713095188141,1.2105678915977478,-0.00433129130396992,0.0003030009102076292,-35.3632624,149.16523765,78914.0,-1.5,0.5,100.5,0.0,34.5,-1016.0,1211.0,-2.0,1.5,293270.0,RTL
17:11:28,0.030097397044301033,5.6121061788871884e-05,0.740475058555603,0.5849651396274567,0.002966321771964431,0.0051250390242785215,-35.3632619,149.16523660000001,76888.0,-0.5,2.5,100.0,-1.5,-8.5,-1000.0,584.5,4.5,6.0,293270.0,RTL
17:11:30,0.013676146510988474,0.00841256557032466,0.7346846163272858,-0.6206851005554199,0.004236125503666699,-0.008297264808788896,-35.36326115,149.16523619999998,74853.0,-8.0,11.0,102.0,2.0,-67.0,-977.5,-620.5,6.5,-6.5,293270.0,RTL
17:11:31,-0.03185892244800925,0.010574792511761189,0.7325609475374222,-1.3490257859230042,-0.005552346119657159,-0.0026658285059966147,-35.3632621,149.16523790000002,73472.5,-5.0,4.25,99.0,1.75,-56.0,-1002.0,-1346.5,-3.25,-0.75,277829.0,RTL
17:11:32,-0.03284521773457527,0.006668926449492574,0.7297832071781158,-1.417440116405487,-0.008395837969146669,-0.0016091271536424756,-35.36326255,149.1652385,72708.0,0.0,-3.0,101.5,0.5,-44.0,-1024.5,-1414.5,-6.0,0.0,277829.0,RTL
17:11:34,-0.026189175434410572,0.0036373568000271916,0.7262990474700928,-0.3976287320256233,-0.005171885713934898,-0.0038406868698075414,-35.363263,149.1652385,70650.0,3.5,-4.5,104.0,0.0,24.0,-1005.5,-393.5,-2.5,-1.5,277829.0,RTL
17:11:36,-0.014929573982954025,0.0032823204528540373,0.7222913503646851,-0.7512654811143875,0.0014037893852218986,-0.004128658853005618,-35.363262649999996,149.16523795,68601.0,4.5,-5.0,99.0,-2.0,2.0,-1008.0,-747.5,3.0,-2.0,277829.0,RTL
17:11:37,-0.0011178625281900167,0.001381762296659872,0.7192928344011307,-0.5437943004071712,0.0026155211962759495,-0.007155384868383408,-35.363261825,149.16523692500002,67343.0,-0.5,-1.0,101.75,-5.25,13.25,-994.0,-539.75,4.25,-4.75,35682.0,RTL
17:11:38,0.01756724901497364,0.0008295653096865863,0.7181038558483124,-0.11966857314109802,0.003891804488375783,-7.821572944521904e-05,-35.36326105,149.16523585,66582.5,-6.5,5.5,98.5,-5.0,55.0,-980.0,-115.5,5.5,1.5,35682.0,RTL
17:11:40,0.03164681792259216,0.0032661102013662457,0.7151077091693878,0.020221441984176636,0.001968344207853079,0.004880703520029783,-35.3632589,149.16523315,64539.0,-26.0,28.5,103.0,-2.0,37.5,-1022.0,25.5,3.5,6.5,35682.0,RTL
17:11:42,0.0022497917525470257,0.014764625113457441,0.7148677706718445,-0.22211810946464539,0.016746322624385357,0.015388624276965857,-35.3632592,149.16523425,62488.0,-32.5,36.5,100.0,6.0,17.5,-1022.5,-216.0,18.5,17.0,85668.0,RTL
17:11:44,-0.05688939429819584,0.013610456138849258,0.7118483185768127,0.35240338742733,-0.004247988690622151,0.016870557330548763,-35.36326345,149.16524035,60439.0,-2.5,-3.0,99.0,6.0,47.5,-982.0,357.5,-1.5,18.5,135654.0,RTL
17:11:46,-0.006014194572344422,-0.003139959299005568,0.709492027759552,1.22247314453125,-6.012246012687683e-05,0.013899346813559532,-35.36326495,149.16524055,58398.5,22.5,-28.0,99.0,-2.5,74.5,-1024.0,1226.0,2.0,15.5,135654.0,RTL
17:11:47,0.015113382134586573,-0.005576531286351383,0.7087391018867493,1.257463961839676,0.00436378427548334,0.003916423476766795,-35.363263675,149.165238375,57135.0,17.25,-17.0,100.0,-7.0,80.75,-994.25,1261.25,6.0,5.25,54358.0,RTL
17:11:48,0.040479427203536034,-0.005216218065470457,0.7072857916355133,1.3753074407577515,0.0011396449990570545,-0.007293462986126542,-35.36326235,149.16523660000001,56374.0,9.0,-6.0,100.5,-9.0,76.0,-1017.5,1379.0,3.0,-4.5,54358.0,RTL
17:11:50,0.07774072885513306,0.0009340139804407954,0.7077520787715912,1.3056853413581848,0.004076032200828195,0.00409142451826483,-35.3632585,149.1652321,54332.5,-25.0,32.0,100.5,-4.5,59.0,-1047.5,1309.0,6.0,6.0,54358.0,RTL
17:11:52,0.07654860988259315,0.008127379696816206,0.7079097628593445,0.9020794034004211,0.0028966936515644193,-3.7063611671328545e-05,-35.3632572,149.16523115,52337.5,-45.0,51.0,108.0,0.0,-1.5,-981.0,905.5,4.0,2.5,54358.0,RTL
17:11:53,0.05746766459196806,0.008996205171570182,0.7073195725679398,0.3948216363787651,0.0017329459660686553,-0.0033870711049530655,-35.36325755,149.16523180000002,51062.5,-48.0,51.75,104.5,1.0,-19.0,-1007.25,398.5,3.5,-1.0,1780.0,RTL
17:11:54,0.04683944024145603,0.009188364259898663,0.7065520584583282,-0.15422532707452774,0.0018053323728963733,-0.006809241138398647,-35.36325785,149.16523225,50294.5,-45.5,48.0,104.0,2.0,-45.5,-984.5,-150.0,3.5,-4.0,1780.0,RTL
17:11:56,0.007781461579725146,0.012352881487458944,0.7052958607673645,-0.9641759693622589,-0.0029515756759792566,-0.013452551327645779,-35.3632597,149.1652348,48240.0,-32.5,34.0,103.5,7.5,-82.5,-964.5,-959.0,-1.0,-10.5,1780.0,RTL
17:11:58,-0.055812304839491844,0.016803224571049213,0.705143392086029,-1.3200759887695312,-0.00018316227942705154,-0.01812536036595702,-35.3632638,149.16524055000002,46178.5,1.0,-4.0,102.0,9.5,-87.5,-1010.5,-1314.0,2.0,-15.5,1780.0,RTL
17:11:59,-0.0938023217022419,0.01009532401803881,0.7046786397695541,-1.346748411655426,-0.012213047593832016,-0.003643639211077243,-35.363266675,149.1652443,44923.0,28.5,-38.5,100.75,6.0,-64.75,-990.5,-1340.75,-9.75,-1.5,37156.0,RTL
17:12:00,-0.09117559343576431,0.004495646804571152,0.7043577134609222,-1.3315516710281372,-0.010112908203154802,0.004842129303142428,-35.3632678,149.16524535000002,44169.0,43.0,-55.0,105.5,4.0,-50.0,-1012.0,-1325.5,-7.5,7.0,37156.0,RTL
17:12:02,-0.06636657379567623,-0.0016288948245346546,0.7043743133544922,-0.9683074057102203,-0.002702263882383704,0.000960781704634428,-35.3632677,149.16524445,42146.0,55.5,-64.0,106.0,-3.5,-6.0,-1019.0,-963.0,-0.5,3.0,37156.0,RTL
17:12:04,-0.02744943555444479,0.0028955162269994617,0.7040517032146454,0.5756286680698395,0.0015467422781512141,-0.001352224382571876,-35.3632656,149.165242,40087.0,41.0,-44.0,101.5,-2.5,60.0,-999.5,580.5,4.0,1.0,30537.0,RTL
17:12:06,-0.01505446108058095,0.00479865656234324,0.703278511762619,1.0001375079154968,0.0016637775115668774,0.006236531655304134,-35.36326405,149.16524065,38012.5,24.5,-31.5,100.0,-1.5,73.0,-1010.0,1003.5,3.0,8.0,23918.0,RTL
17:12:08,-0.01925240457057953,0.00902246730402112,0.7027551233768463,1.374952793121338,-0.0003672438906505704,0.0074036227306351066,-35.363263950000004,149.16524084999998,35951.0,18.0,-25.5,97.0,0.0,77.5,-995.0,1377.0,1.5,9.0,23918.0,RTL
17:12:10,-0.0256990073248744,0.00566097442060709,0.7030535042285919,0.9454944133758545,0.0018885585013777018,0.008929804433137178,-35.363264349999994,149.1652413,33910.0,22.0,-32.0,96.5,0.5,72.5,-991.5,947.0,4.0,11.0,153307.0,RTL
17:12:12,-0.0005460510328703094,0.00035801701233140193,0.70186448097229,1.3083089590072632,-0.008189954794943333,0.00037858192808926105,-35.3632643,149.16524065,31873.0,23.0,-32.0,99.5,-3.5,41.0,-1023.5,1307.5,-5.5,2.5,153307.0,RTL
17:12:14,0.023740265518426895,0.0038526320131495595,0.7019221484661102,0.9890322983264923,0.004329116898588836,-0.0009993966668844223,-35.36326255,149.16523805,29838.0,11.0,-13.0,100.0,-0.5,6.0,-1008.5,987.0,6.5,1.5,155763.0,RTL
17:12:16,0.00821666605770588,0.009555801283568144,0.7027903199195862,1.1334986090660095,-0.002935663564130664,-0.0022011930122971535,-35.36326245,149.16523875000001,27791.5,4.0,-8.5,102.0,1.0,13.5,-1011.0,1131.5,0.0,0.5,158219.0,RTL
17:12:18,0.018467347137629986,0.0005257778102532029,0.7014135420322418,0.29228060878813267,-0.009649407118558884,0.004136534058488905,-35.36326235,149.16523815,25768.5,3.5,-11.5,99.0,-4.0,-24.5,-1004.0,289.5,-6.5,6.5,158219.0,RTL
17:12:19,0.035687632858753204,-0.0008328302938025445,0.7008910924196243,-0.18668054789304733,-0.000645697582513094,-0.0006190674030221999,-35.36326115,149.165236,24494.0,-3.75,0.75,99.75,-3.0,-37.25,-994.5,-189.0,1.75,1.75,99850.0,RTL
17:12:20,0.039028435945510864,0.000669241780997254,0.7010212242603302,-0.6181711405515671,0.0008548267651349306,-0.005034638335928321,-35.3632603,149.16523475,23729.0,-10.5,10.0,102.5,-2.0,-63.5,-984.5,-619.5,2.5,-1.5,99850.0,RTL
17:12:22,0.02655614074319601,0.008164725732058287,0.7037558555603027,-1.0463578701019287,0.008182222372852266,0.007903479097876698,-35.3632593,149.16523395000002,21681.0,-24.5,27.5,99.0,0.5,-71.0,-995.5,-1047.0,10.5,10.0,99850.0,RTL
17:12:24,-0.0067166173830628395,0.0071255958173424006,0.7004724740982056,-1.185469388961792,-0.003469254996161908,-0.0010045948438346386,-35.3632602,149.1652354,19632.5,-23.0,20.0,102.5,-2.0,-28.0,-1024.0,-1183.5,-1.0,2.0,99850.0,RTL
17:12:25,0.016519591212272644,0.0012558511904596041,0.7012272675832113,-0.3087175488471985,-0.005829823901876807,-0.0016373968683183193,-35.36326,149.1652346666667,18367.666666666668,-22.666666666666668,20.666666666666668,99.0,-2.0,22.333333333333332,-1014.6666666666666,-305.0,-3.3333333333333335,1.0,79614.0,RTL
17:12:26,0.031037202725807827,-0.0001703640834117929,0.7019955118497213,0.2514517803986867,-0.00019887244949738184,0.0003001512959599495,-35.36325956666667,149.16523363333332,17606.333333333332,-24.666666666666668,26.0,98.0,-1.0,55.0,-984.6666666666666,255.0,2.0,3.3333333333333335,79614.0,RTL
17:12:28,0.02934135931233565,0.00804427700738112,0.70201309521993,1.0143721302350361,0.0036493855683753886,0.0016900468617677689,-35.363259633333335,149.16523393333333,15549.333333333334,-27.666666666666668,34.333333333333336,95.66666666666667,2.0,63.666666666666664,-1006.0,1018.0,6.0,4.333333333333333,79614.0,RTL
17:12:30,-0.01627702886859576,0.010027713142335415,0.7021690805753072,0.043372670809427895,-0.0006460153963416815,0.0023051529036213956,-35.36326143333333,149.16523686666665,13501.666666666666,-15.333333333333334,16.0,96.33333333333333,2.6666666666666665,33.666666666666664,-1009.3333333333334,48.0,2.0,4.666666666666667,79614.0,RTL
17:12:31,-0.025816453620791435,0.006572152953594923,0.7022891044616699,-0.36470661063989,0.0008998662233352661,-0.0027986650820821524,-35.363262600000006,149.16523826666665,12231.0,-4.333333333333333,2.6666666666666665,95.66666666666667,2.3333333333333335,18.333333333333332,-994.6666666666666,-359.6666666666667,3.0,0.0,6716.0,RTL
17:12:32,-0.018853216121594112,0.006079795304685831,0.7014569838841757,0.3016103332241376,-0.0012870605569332838,0.006790148559957743,-35.36326316666666,149.1652389666667,11580.333333333334,1.6666666666666667,-3.3333333333333335,61.333333333333336,2.6666666666666665,35.666666666666664,-1082.0,305.3333333333333,1.3333333333333333,9.0,6716.0,RTL
17:12:34,-0.0149318960805734,0.005855975517382224,0.7014166712760925,0.6469562550385793,-0.0045380424708127975,-0.0012789672085394461,-35.36326396666667,149.16524006666668,10962.666666666666,13.333333333333334,-17.333333333333332,26.333333333333332,0.0,30.0,-1001.0,649.3333333333334,-1.3333333333333333,1.3333333333333333,6716.0,RTL
17:12:36,-0.011395185099293789,0.0049806203072269755,0.7013617753982544,0.5508265097935995,0.0005355644971132278,0.002616210918252667,-35.36326373333333,149.16523973333335,10314.666666666666,14.0,-18.0,31.666666666666668,0.0,33.333333333333336,-994.0,553.0,2.6666666666666665,5.0,6716.0,RTL
17:12:37,-0.025379952664176624,0.004782592722525199,0.7013425827026367,-0.8197517593701681,-0.0012708894597987335,0.0015562920210262139,-35.36326366666666,149.1652397,9885.0,14.333333333333334,-19.0,32.666666666666664,-1.3333333333333333,-37.0,-1003.0,-817.6666666666666,1.3333333333333333,4.0,99366.0,RTL
17:12:38,-0.008448335051070899,0.0032505903703471026,0.7011042237281799,0.4648065119981766,-0.0012923653703182936,0.0036517987803866467,-35.363263466666666,149.1652394,9631.333333333334,13.333333333333334,-17.333333333333332,32.333333333333336,-1.0,32.666666666666664,-1009.6666666666666,467.0,1.3333333333333333,6.333333333333333,99366.0,RTL
17:12:40,-0.006839867526044448,0.004208270615587632,0.7010006904602051,0.3607008755207062,0.0012047492588559787,0.004817793068165581,-35.36326296666667,149.1652387,8951.0,8.333333333333334,-11.666666666666666,30.666666666666668,-1.0,33.333333333333336,-1011.0,362.6666666666667,3.3333333333333335,7.333333333333333,99366.0,RTL
17:12:42,0.004623338812962174,0.004678723247100909,0.7008086641629537,-0.1313806176185608,0.00021344031362483898,-0.0008117031926910082,-35.363262166666665,149.16523776666668,8844.0,2.6666666666666665,-5.666666666666667,-7.0,-0.6666666666666666,-8.666666666666666,-993.3333333333334,-130.33333333333334,3.0,2.0,99366.0,RTL
17:12:43,0.00014297330441574255,0.004519440544148286,0.7003181378046671,-0.49492894609769184,-0.0022709013428539038,0.00143431278411299,-35.3632618,149.16523736666667,8857.666666666666,-1.0,-1.0,13.0,-0.3333333333333333,-30.333333333333332,-955.3333333333334,-494.6666666666667,0.6666666666666666,4.0,207963.0,RTL
17:12:44,0.008309852021435896,0.0032735824740181365,0.7007930278778076,0.04600179692109426,-0.0005715431179851294,0.0019938438975562653,-35.363261566666665,149.16523693333332,8719.666666666666,-3.0,0.6666666666666666,10.666666666666666,-1.6666666666666667,12.0,-1038.0,48.0,1.6666666666666667,4.666666666666667,207963.0,RTL
17:12:46,0.01451121581097444,0.004941687608758609,0.7010135253270467,-0.3368997673193614,0.002140872490902742,0.0007225617300719023,-35.363260833333335,149.16523586666668,8729.333333333334,-10.333333333333334,10.0,-0.3333333333333333,-0.3333333333333333,-19.0,-997.6666666666666,-335.6666666666667,4.666666666666667,3.3333333333333335,207963.0,RTL
17:12:48,0.018076952857275803,0.005391014429430167,0.7017697095870972,0.35675813754399616,0.0006729289113233486,0.0004958406401177248,-35.3632607,149.16523573333333,8745.0,-14.333333333333334,14.333333333333334,0.6666666666666666,0.3333333333333333,13.333333333333334,-1003.3333333333334,358.3333333333333,3.0,3.0,207963.0,RTL
17:12:49,0.0047553149828066426,0.008262725546956062,0.7013636628786722,0.25292574365933734,0.0029999512092520795,0.0022489347805579505,-35.36326113333334,149.16523643333335,8745.666666666666,-12.666666666666666,13.0,0.3333333333333333,1.0,15.666666666666666,-1001.3333333333334,255.33333333333334,5.333333333333333,5.0,43703.0,RTL
17:12:50,-0.006296365754678845,0.008158379855255285,0.7013166348139445,-0.3332035268346469,0.000747024780139327,-0.0009966469757879774,-35.363261566666665,149.16523709999998,8744.666666666666,-9.0,7.333333333333333,0.6666666666666666,1.6666666666666667,-23.666666666666668,-995.0,-331.3333333333333,3.3333333333333335,2.0,43703.0,RTL
17:12:52,-0.01528073474764824,0.004544280158976714,0.7015689810117086,-0.6716560622056326,-0.0028529321619619927,-0.0020156916386137405,-35.363262533333334,149.16523816666665,8233.0,0.3333333333333333,-3.6666666666666665,40.333333333333336,0.3333333333333333,-27.333333333333332,-1009.0,-669.0,0.3333333333333333,1.0,43703.0,RTL
17:12:54,-0.017871861656506855,0.005562853223333756,0.7013161778450012,-0.6769940157731374,0.002102773947020372,-0.0020903970192496977,-35.363262966666674,149.1652387,7505.666666666667,5.666666666666667,-8.666666666666666,35.0,-0.3333333333333333,-28.333333333333332,-991.6666666666666,-674.3333333333334,4.666666666666667,1.0,126660.5,RTL
17:12:56,-0.01488407887518406,0.004260946220407884,0.7012085318565369,-0.7143236299355825,0.0008026314899325371,-0.0013245332520455122,-35.363262866666666,149.16523856666666,6815.666666666667,6.666666666666667,-10.0,34.666666666666664,-0.3333333333333333,-24.333333333333332,-1005.6666666666666,-712.0,3.3333333333333335,1.6666666666666667,209618.0,RTL
17:12:58,-0.018334437472124893,0.008431312007208666,0.7017320791880289,-0.5802893290917078,0.0036073661564538875,0.002532365576674541,-35.3632628,149.16523883333335,6140.0,5.666666666666667,-8.666666666666666,33.333333333333336,1.3333333333333333,-33.0,-1000.0,-578.3333333333334,6.333333333333333,5.333333333333333,209618.0,RTL
17:12:59,-0.013442093506455421,0.009325863483051458,0.7014386455217997,0.6352489590644836,-0.00015105563215911388,0.0001900580246001482,-35.36326346666667,149.16524,5710.666666666667,9.333333333333334,-15.0,35.0,2.0,6.0,-1013.0,635.6666666666666,2.3333333333333335,2.6666666666666665,115004.0,RTL
17:13:00,-0.0318166712919871,0.006614417303353548,0.7008465727170309,-0.620272676150004,-0.004191200714558363,-0.00023511843755841255,-35.363263866666664,149.16524043333334,5457.0,13.0,-20.666666666666668,33.333333333333336,0.3333333333333333,-35.0,-992.6666666666666,-619.3333333333334,-0.6666666666666666,2.6666666666666665,115004.0,RTL
17:13:02,-0.004302333574742079,-0.0015562608605250716,0.7007416685422262,-0.6935621996720632,-0.0013051026035100222,0.0011357557959854603,-35.36326316666666,149.16523866666668,4773.0,12.666666666666666,-18.333333333333332,33.333333333333336,-3.6666666666666665,-25.333333333333332,-1006.3333333333334,-693.0,1.6666666666666667,3.6666666666666665,115004.0,RTL
17:13:04,0.03142139067252477,0.0035349471339335046,0.7020052870114645,0.3504737317562103,0.001841088446478049,7.752034192283948e-05,-35.36326113333333,149.16523596666664,4075.3333333333335,-4.0,6.0,33.0,-1.0,-3.0,-985.0,350.3333333333333,4.666666666666667,3.0,115004.0,RTL
17:13:05,0.00565458953497,0.006468698227157195,0.7012818257013956,-0.18509176870187125,0.0007843530426422755,0.0014714858649919431,-35.3632608,149.16523593333332,3654.0,-10.0,11.0,34.0,-0.3333333333333333,11.333333333333334,-990.0,-183.0,3.3333333333333335,4.333333333333333,68804.0,RTL
17:13:06,0.02047795181473096,0.006293466004232566,0.7013731598854065,0.5277005036671957,-0.001337128458544612,-0.0014682616262386243,-35.3632608,149.16523603333334,3407.0,-11.333333333333334,11.333333333333334,32.333333333333336,0.3333333333333333,6.666666666666667,-1005.0,527.6666666666666,1.6666666666666667,1.6666666666666667,68804.0,RTL
17:13:08,0.008265859990691146,0.007447951318075259,0.7010406057039896,-0.07648345331350963,-0.002050685075422128,-3.379560075700283e-05,-35.3632611,149.1652367,2731.3333333333335,-11.0,7.666666666666667,35.0,0.0,-22.333333333333332,-976.0,-76.66666666666667,1.3333333333333333,2.6666666666666665,68804.0,RTL
17:13:10,0.025154589985807736,0.003085870140542587,0.7014750440915426,0.5039910823106766,0.001103232769916455,-0.0006749053330471119,-35.3632609,149.16523600000002,2041.3333333333333,-12.0,10.333333333333334,31.666666666666668,0.0,13.333333333333334,-998.3333333333334,505.0,4.0,2.6666666666666665,68804.0,RTL
17:13:11,0.00777073724505802,0.005348237231373787,0.7017518877983093,0.10351023574670155,0.0004425385656456153,0.0028904310117165246,-35.3632608,149.1652357,1610.6666666666667,-14.333333333333334,14.666666666666666,32.0,0.3333333333333333,27.333333333333332,-1003.3333333333334,106.33333333333333,3.3333333333333335,5.666666666666667,170021.0,RTL
17:13:12,0.025742261360088985,0.005724169624348481,0.7016824086507162,0.451932430267334,0.005356762713442246,0.007296125482146938,-35.36326076666666,149.16523573333336,1351.3333333333333,-13.666666666666666,13.666666666666666,32.0,0.3333333333333333,2.3333333333333335,-1012.0,453.0,8.0,10.0,170021.0,RTL
17:13:14,0.01556320566063126,0.0064822159086664515,0.7013222972551981,0.11912988871335983,0.001476695838694771,0.00180045065159599,-35.36326103333334,149.16523613333334,673.0,-12.666666666666666,13.0,32.666666666666664,0.6666666666666666,-15.666666666666666,-996.0,120.33333333333333,4.333333333333333,5.0,170021.0,RTL
17:13:16,0.017325832198063534,0.0065011088736355305,0.7037346363067627,0.2855811705812812,0.019573100221653778,0.029729944420978427,-35.36326103333334,149.16523603333334,86.66666666666667,2.0,-5.333333333333333,-3.0,-28.666666666666668,18.0,-1108.3333333333333,288.0,22.666666666666668,32.666666666666664,170021.0,RTL
17:13:17,0.01759447219471137,0.006864975982656081,0.7018905878067017,0.00139146422346433,0.0006147053403158983,0.00047108895766238373,-35.363260966666665,149.16523586666665,84.33333333333333,-9.0,6.0,-2.3333333333333335,0.0,0.0,-1000.0,3.6666666666666665,3.3333333333333335,3.6666666666666665,73297.0,RTL
17:13:18,0.016909961278239887,0.006941905710846186,0.7013047138849894,0.0012706965984155734,0.000582078859830896,0.0004905454503993193,-35.3632611,149.16523603333334,80.33333333333333,-14.0,11.0,-2.0,0.0,0.0,-1000.0,4.0,3.0,3.3333333333333335,73297.0,RTL
17:13:20,0.012237356354792913,0.006745225594689448,0.7013226946194967,0.0009055164021750292,0.0006201503177483877,0.0005658163378636042,-35.3632614,149.1652364,48.0,-16.333333333333332,12.666666666666666,-0.3333333333333333,0.0,0.0,-1000.0,3.3333333333333335,3.6666666666666665,3.6666666666666665,73297.0,RTL
17:13:22,0.005660415277816355,0.006099653663113713,0.7018164396286011,0.000753852364141494,0.0004954772884957492,0.0005304926889948547,-35.363261249999994,149.16523615,14.5,-8.5,5.5,0.0,0.0,0.0,-1000.0,3.75,3.25,3.75,73297.0,RTL
