time_stamp,MODE,lat,lon,relative_alt,roll,pitch,yaw,rollspeed,pitchspeed,yawspeed,xacc,yacc,zacc,xgyro,ygyro,zgyro,vx,vy,vz,RTL_ALT,LAND_SPEED
17:26:34.033,GUIDED,-35.3632621,149.1652374,0,0.00017734614084474742,0.0015428327023983002,0.026004189625382423,0.0002809988509397954,0.00034515897277742624,0.002360425889492035,0,1,-1000,0,0,0,-1,2,2,1500.0,30.0
17:26:34.234,GUIDED,-35.3632621,149.1652374,0,0.00015953794354572892,0.0015609347028657794,0.02581939473748207,0.00024099703296087682,0.00032203769660554826,0.0023283343762159348,0,1,-1000,0,0,0,-1,2,2,1500.0,30.0
17:26:34.436,GUIDED,-35.3632621,149.1652374,0,0.00015953794354572892,0.0015609347028657794,0.02581939473748207,0.00024099703296087682,0.00032203769660554826,0.0023283343762159348,0,1,-1000,0,0,0,-1,2,2,1500.0,30.0
17:26:34.642,GUIDED,-35.3632621,149.1652374,0,0.00015953794354572892,0.0015609347028657794,0.02581939473748207,0.00024099703296087682,0.00032203769660554826,0.0023283343762159348,0,1,-1000,0,0,0,-1,2,2,1500.0,30.0
17:26:34.845,GUIDED,-35.3632621,149.1652374,0,0.00015953794354572892,0.0015609347028657794,0.02581939473748207,0.00024099703296087682,0.00032203769660554826,0.0023283343762159348,0,1,-1000,0,0,0,-1,2,2,1500.0,30.0
17:26:35.047,GUIDED,-35.3632621,149.1652374,0,0.00015953794354572892,0.0015609347028657794,0.02581939473748207,0.00024099703296087682,0.00032203769660554826,0.0023283343762159348,0,1,-1000,0,0,0,-1,2,2,1500.0,30.0
17:26:35.250,GUIDED,-35.3632621,149.1652374,0,0.00015953794354572892,0.0015609347028657794,0.02581939473748207,0.00024099703296087682,0.00032203769660554826,0.0023283343762159348,0,1,-1000,0,0,0,-1,2,2,1500.0,30.0
17:26:35.452,GUIDED,-35.3632621,149.1652374,0,0.00015953794354572892,0.0015609347028657794,0.02581939473748207,0.00024099703296087682,0.00032203769660554826,0.0023283343762159348,0,1,-1000,0,0,0,-1,2,2,1500.0,30.0
17:26:35.655,GUIDED,-35.3632621,149.1652374,0,0.00015953794354572892,0.0015609347028657794,0.02581939473748207,0.00024099703296087682,0.00032203769660554826,0.0023283343762159348,0,1,-1000,0,0,0,-1,2,2,1500.0,30.0
17:26:35.856,GUIDED,-35.3632621,149.1652375,0,-4.7657529648859054e-05,0.0015330860624089837,0.025173569098114967,0.0002166966733057052,0.00033302497467957437,0.0021617221646010876,0,2,-1000,0,0,0,-1,2,1,1500.0,30.0
17:26:36.059,GUIDED,-35.3632622,149.1652375,0,-0.00029267725767567754,0.0014042712282389402,0.02474002167582512,0.00025648940936662257,0.00024857791140675545,0.0021310709416866302,0,2,-1000,0,0,0,-2,2,1,1500.0,30.0
17:26:36.260,GUIDED,-35.3632622,149.1652375,8,-0.0003781381528824568,0.001356301479972899,0.024650294333696365,0.00042550015496090055,0.00022998885833658278,0.0020903758704662323,0,1,-1000,0,0,0,-2,2,1,1500.0,30.0
17:26:36.462,GUIDED,-35.3632622,149.1652375,8,-0.0003781381528824568,0.001356301479972899,0.024650294333696365,0.00042550015496090055,0.00022998885833658278,0.0020903758704662323,0,1,-1000,0,0,0,-2,2,1,1500.0,30.0
17:26:36.665,GUIDED,-35.3632622,149.1652375,8,-0.0003781381528824568,0.001356301479972899,0.024650294333696365,0.00042550015496090055,0.00022998885833658278,0.0020903758704662323,0,1,-1000,0,0,0,-2,2,1,1500.0,30.0
17:26:36.866,GUIDED,-35.3632622,149.1652375,8,-0.0003781381528824568,0.001356301479972899,0.024650294333696365,0.00042550015496090055,0.00022998885833658278,0.0020903758704662323,0,1,-1000,0,0,0,-2,2,1,1500.0,30.0
17:26:37.067,GUIDED,-35.3632622,149.1652375,8,-0.0003781381528824568,0.001356301479972899,0.024650294333696365,0.00042550015496090055,0.00022998885833658278,0.0020903758704662323,0,1,-1000,0,0,0,-2,2,1,1500.0,30.0
17:26:37.269,GUIDED,-35.3632622,149.1652375,8,-0.0003781381528824568,0.001356301479972899,0.024650294333696365,0.00042550015496090055,0.00022998885833658278,0.0020903758704662323,0,1,-1000,0,0,0,-2,2,1,1500.0,30.0
17:26:37.471,GUIDED,-35.3632622,149.1652375,8,-0.0003781381528824568,0.001356301479972899,0.024650294333696365,0.00042550015496090055,0.00022998885833658278,0.0020903758704662323,0,1,-1000,0,0,0,-2,2,1,1500.0,30.0
17:26:37.674,GUIDED,-35.3632622,149.1652375,8,-0.0003781381528824568,0.001356301479972899,0.024650294333696365,0.00042550015496090055,0.00022998885833658278,0.0020903758704662323,0,1,-1000,0,0,0,-2,2,1,1500.0,30.0
17:26:37.876,GUIDED,-35.3632622,149.1652375,8,-0.0003781381528824568,0.001356301479972899,0.024650294333696365,0.00042550015496090055,0.00022998885833658278,0.0020903758704662323,0,1,-1000,0,0,0,-2,2,1,1500.0,30.0
17:26:38.079,GUIDED,-35.3632621,149.1652375,5,-0.0005490263574756682,0.0013939295895397663,0.023841561749577522,0.00022185451234690845,0.00030660536140203476,0.001965645933523774,0,1,-1000,0,0,0,0,0,0,1500.0,30.0
17:26:38.280,GUIDED,-35.3632621,149.1652375,5,-0.0005018369411118329,0.0014515750808641315,0.02373490110039711,0.00028907915111631155,0.00026813524891622365,0.0019303008448332548,0,1,-1000,0,0,0,0,0,0,1500.0,30.0
17:26:38.484,GUIDED,-35.3632621,149.1652375,5,-0.0005018369411118329,0.0014515750808641315,0.02373490110039711,0.00028907915111631155,0.00026813524891622365,0.0019303008448332548,0,1,-1000,0,0,0,0,0,0,1500.0,30.0
17:26:38.686,GUIDED,-35.3632621,149.1652375,5,-0.0005018369411118329,0.0014515750808641315,0.02373490110039711,0.00028907915111631155,0.00026813524891622365,0.0019303008448332548,0,1,-1000,0,0,0,0,0,0,1500.0,30.0
17:26:38.889,GUIDED,-35.3632621,149.1652375,5,-0.0005018369411118329,0.0014515750808641315,0.02373490110039711,0.00028907915111631155,0.00026813524891622365,0.0019303008448332548,0,1,-1000,0,0,0,0,0,0,1500.0,30.0
17:26:39.092,GUIDED,-35.3632621,149.1652375,5,-0.0005018369411118329,0.0014515750808641315,0.02373490110039711,0.00028907915111631155,0.00026813524891622365,0.0019303008448332548,0,1,-1000,0,0,0,0,0,0,1500.0,30.0
17:26:39.294,GUIDED,-35.3632621,149.1652375,5,-0.0005018369411118329,0.0014515750808641315,0.02373490110039711,0.00028907915111631155,0.00026813524891622365,0.0019303008448332548,0,1,-1000,0,0,0,0,0,0,1500.0,30.0
17:26:39.495,GUIDED,-35.3632621,149.1652375,5,-0.0005018369411118329,0.0014515750808641315,0.02373490110039711,0.00028907915111631155,0.00026813524891622365,0.0019303008448332548,0,1,-1000,0,0,0,0,0,0,1500.0,30.0
17:26:39.698,GUIDED,-35.3632621,149.1652375,5,-0.0005018369411118329,0.0014515750808641315,0.02373490110039711,0.00028907915111631155,0.00026813524891622365,0.0019303008448332548,0,1,-1000,0,0,0,0,0,0,1500.0,30.0
17:26:39.899,GUIDED,-35.3632621,149.1652375,5,-0.0003523353370837867,0.0016527906991541386,0.023402387276291847,0.00025851037935353816,0.00028792585362680256,0.0018898285925388336,0,1,-1000,0,0,0,0,0,0,1500.0,30.0
17:26:40.103,GUIDED,-35.3632621,149.1652374,7,0.0006942026084288955,0.0015519034350290895,0.022966280579566956,0.017957717180252075,-0.011596288532018661,0.003308054991066456,0,0,-1053,18,-11,2,0,0,-2,1500.0,30.0
17:26:40.305,GUIDED,-35.3632621,149.1652374,54,0.0034931180998682976,-0.00035796003066934645,0.023093197494745255,-0.0052376072853803635,-0.002145912032574415,0.0026628058403730392,0,0,-1139,-4,-1,2,0,0,-34,1500.0,30.0
17:26:40.508,GUIDED,-35.3632621,149.1652374,54,0.0034931180998682976,-0.00035796003066934645,0.023093197494745255,-0.0052376072853803635,-0.002145912032574415,0.0026628058403730392,0,0,-1139,-4,-1,2,0,0,-34,1500.0,30.0
17:26:40.711,GUIDED,-35.3632621,149.1652374,54,0.0034931180998682976,-0.00035796003066934645,0.023093197494745255,-0.0052376072853803635,-0.002145912032574415,0.0026628058403730392,0,0,-1139,-4,-1,2,0,0,-34,1500.0,30.0
17:26:40.913,GUIDED,-35.3632621,149.1652374,54,0.0034931180998682976,-0.00035796003066934645,0.023093197494745255,-0.0052376072853803635,-0.002145912032574415,0.0026628058403730392,0,0,-1139,-4,-1,2,0,0,-34,1500.0,30.0
17:26:41.115,GUIDED,-35.3632621,149.1652374,54,0.0034931180998682976,-0.00035796003066934645,0.023093197494745255,-0.0052376072853803635,-0.002145912032574415,0.0026628058403730392,0,0,-1139,-4,-1,2,0,0,-34,1500.0,30.0
17:26:41.318,GUIDED,-35.3632621,149.1652374,54,0.0034931180998682976,-0.00035796003066934645,0.023093197494745255,-0.0052376072853803635,-0.002145912032574415,0.0026628058403730392,0,0,-1139,-4,-1,2,0,0,-34,1500.0,30.0
17:26:41.521,GUIDED,-35.3632621,149.1652374,54,0.0034931180998682976,-0.00035796003066934645,0.023093197494745255,-0.0052376072853803635,-0.002145912032574415,0.0026628058403730392,0,0,-1139,-4,-1,2,0,0,-34,1500.0,30.0
17:26:41.724,GUIDED,-35.3632621,149.1652374,54,0.0034931180998682976,-0.00035796003066934645,0.023093197494745255,-0.0052376072853803635,-0.002145912032574415,0.0026628058403730392,0,0,-1139,-4,-1,2,0,0,-34,1500.0,30.0
17:26:41.925,GUIDED,-35.3632621,149.1652374,54,0.0034931180998682976,-0.00035796003066934645,0.023093197494745255,-0.0052376072853803635,-0.002145912032574415,0.0026628058403730392,0,0,-1139,-4,-1,2,0,0,-34,1500.0,30.0
17:26:42.128,GUIDED,-35.3632619,149.165238,2130,0.04322366043925285,-0.004621665924787521,0.022739974781870842,0.04279500991106033,-0.00907069630920887,0.003624443896114826,0,-2,-1003,43,-8,2,3,18,-148,1500.0,30.0
17:26:42.332,GUIDED,-35.3632618,149.1652386,2519,0.05358531326055527,-0.007224145345389843,0.02295514941215515,0.04007648304104805,-0.010814933106303215,0.004206741228699684,1,-4,-1000,40,-10,3,5,29,-148,1500.0,30.0
17:26:42.534,GUIDED,-35.3632618,149.1652386,2519,0.05358531326055527,-0.007224145345389843,0.02295514941215515,0.04007648304104805,-0.010814933106303215,0.004206741228699684,1,-4,-1000,40,-10,3,5,29,-148,1500.0,30.0
17:26:42.735,GUIDED,-35.3632618,149.1652386,2519,0.05358531326055527,-0.007224145345389843,0.02295514941215515,0.04007648304104805,-0.010814933106303215,0.004206741228699684,1,-4,-1000,40,-10,3,5,29,-148,1500.0,30.0
17:26:42.938,GUIDED,-35.3632618,149.1652386,2519,0.05358531326055527,-0.007224145345389843,0.02295514941215515,0.04007648304104805,-0.010814933106303215,0.004206741228699684,1,-4,-1000,40,-10,3,5,29,-148,1500.0,30.0
17:26:43.139,GUIDED,-35.3632618,149.1652386,2519,0.05358531326055527,-0.007224145345389843,0.02295514941215515,0.04007648304104805,-0.010814933106303215,0.004206741228699684,1,-4,-1000,40,-10,3,5,29,-148,1500.0,30.0
17:26:43.342,GUIDED,-35.3632618,149.1652386,2519,0.05358531326055527,-0.007224145345389843,0.02295514941215515,0.04007648304104805,-0.010814933106303215,0.004206741228699684,1,-4,-1000,40,-10,3,5,29,-148,1500.0,30.0
17:26:43.546,GUIDED,-35.3632618,149.1652386,2519,0.05358531326055527,-0.007224145345389843,0.02295514941215515,0.04007648304104805,-0.010814933106303215,0.004206741228699684,1,-4,-1000,40,-10,3,5,29,-148,1500.0,30.0
17:26:43.748,GUIDED,-35.3632618,149.1652386,2519,0.05358531326055527,-0.007224145345389843,0.02295514941215515,0.04007648304104805,-0.010814933106303215,0.004206741228699684,1,-4,-1000,40,-10,3,5,29,-148,1500.0,30.0
17:26:43.950,GUIDED,-35.3632618,149.1652386,2519,0.05358531326055527,-0.007224145345389843,0.02295514941215515,0.04007648304104805,-0.010814933106303215,0.004206741228699684,1,-4,-1000,40,-10,3,5,29,-148,1500.0,30.0
17:26:44.152,GUIDED,-35.363261,149.1652463,5194,-0.05629003047943115,0.004943678621202707,-0.0933367982506752,-0.06994378566741943,-0.07065480202436447,0.01727605052292347,4,-3,-999,-69,-70,16,-8,14,-149,1500.0,30.0
17:26:44.354,GUIDED,-35.3632612,149.1652464,5579,-0.07353176176548004,-0.012886451557278633,-0.08473802357912064,-0.04087110981345177,-0.056557025760412216,0.0197044238448143,2,0,-1003,-40,-56,18,-7,-2,-149,1500.0,30.0
17:26:44.556,GUIDED,-35.3632612,149.1652464,5579,-0.07353176176548004,-0.012886451557278633,-0.08473802357912064,-0.04087110981345177,-0.056557025760412216,0.0197044238448143,2,0,-1003,-40,-56,18,-7,-2,-149,1500.0,30.0
17:26:44.759,GUIDED,-35.3632612,149.1652464,5579,-0.07353176176548004,-0.012886451557278633,-0.08473802357912064,-0.04087110981345177,-0.056557025760412216,0.0197044238448143,2,0,-1003,-40,-56,18,-7,-2,-149,1500.0,30.0
17:26:44.963,GUIDED,-35.3632612,149.1652464,5579,-0.07353176176548004,-0.012886451557278633,-0.08473802357912064,-0.04087110981345177,-0.056557025760412216,0.0197044238448143,2,0,-1003,-40,-56,18,-7,-2,-149,1500.0,30.0
17:26:45.166,GUIDED,-35.3632612,149.1652464,5579,-0.07353176176548004,-0.012886451557278633,-0.08473802357912064,-0.04087110981345177,-0.056557025760412216,0.0197044238448143,2,0,-1003,-40,-56,18,-7,-2,-149,1500.0,30.0
17:26:45.368,GUIDED,-35.3632612,149.1652464,5579,-0.07353176176548004,-0.012886451557278633,-0.08473802357912064,-0.04087110981345177,-0.056557025760412216,0.0197044238448143,2,0,-1003,-40,-56,18,-7,-2,-149,1500.0,30.0
17:26:45.572,GUIDED,-35.3632612,149.1652464,5579,-0.07353176176548004,-0.012886451557278633,-0.08473802357912064,-0.04087110981345177,-0.056557025760412216,0.0197044238448143,2,0,-1003,-40,-56,18,-7,-2,-149,1500.0,30.0
17:26:45.774,GUIDED,-35.3632615,149.1652434,6968,-0.036151543259620667,-0.014651874080300331,-0.0833815485239029,0.06195678561925888,0.009229013696312904,0.00527701061218977,-4,6,-1001,58,3,4,1,-54,-149,1500.0,30.0
17:26:45.976,GUIDED,-35.3632614,149.1652385,8130,0.011697025038301945,-0.0032517756335437298,-0.08145780116319656,0.0646795853972435,0.017682673409581184,0.005572278052568436,-8,11,-1004,65,17,4,3,-57,-152,1500.0,30.0
17:26:46.178,GUIDED,-35.3632613,149.1652369,8522,0.02767186239361763,0.0010232510976493359,-0.08039180934429169,0.06409323215484619,0.01651858165860176,0.005444366484880447,-8,10,-1003,64,17,4,2,-50,-152,1500.0,30.0
17:26:46.379,GUIDED,-35.3632613,149.1652369,8522,0.02767186239361763,0.0010232510976493359,-0.08039180934429169,0.06409323215484619,0.01651858165860176,0.005444366484880447,-8,10,-1003,64,17,4,2,-50,-152,1500.0,30.0
17:26:46.581,GUIDED,-35.3632613,149.1652369,8522,0.02767186239361763,0.0010232510976493359,-0.08039180934429169,0.06409323215484619,0.01651858165860176,0.005444366484880447,-8,10,-1003,64,17,4,2,-50,-152,1500.0,30.0
17:26:46.785,GUIDED,-35.3632613,149.1652369,8522,0.02767186239361763,0.0010232510976493359,-0.08039180934429169,0.06409323215484619,0.01651858165860176,0.005444366484880447,-8,10,-1003,64,17,4,2,-50,-152,1500.0,30.0
17:26:46.988,GUIDED,-35.3632613,149.1652369,8522,0.02767186239361763,0.0010232510976493359,-0.08039180934429169,0.06409323215484619,0.01651858165860176,0.005444366484880447,-8,10,-1003,64,17,4,2,-50,-152,1500.0,30.0
17:26:47.190,GUIDED,-35.3632613,149.1652369,8522,0.02767186239361763,0.0010232510976493359,-0.08039180934429169,0.06409323215484619,0.01651858165860176,0.005444366484880447,-8,10,-1003,64,17,4,2,-50,-152,1500.0,30.0
17:26:47.392,GUIDED,-35.3632613,149.1652369,8522,0.02767186239361763,0.0010232510976493359,-0.08039180934429169,0.06409323215484619,0.01651858165860176,0.005444366484880447,-8,10,-1003,64,17,4,2,-50,-152,1500.0,30.0
17:26:47.595,GUIDED,-35.3632613,149.1652369,8522,0.02767186239361763,0.0010232510976493359,-0.08039180934429169,0.06409323215484619,0.01651858165860176,0.005444366484880447,-8,10,-1003,64,17,4,2,-50,-152,1500.0,30.0
17:26:47.797,GUIDED,-35.3632613,149.1652369,8522,0.02767186239361763,0.0010232510976493359,-0.08039180934429169,0.06409323215484619,0.01651858165860176,0.005444366484880447,-8,10,-1003,64,17,4,2,-50,-152,1500.0,30.0
17:26:47.999,GUIDED,-35.3632618,149.1652345,10869,0.022244935855269432,0.011333711445331573,-0.09644877910614014,-0.07747476547956467,-0.046362411230802536,0.016875341534614563,4,-2,-999,-76,-45,16,-13,22,-149,1500.0,30.0
17:26:48.201,GUIDED,-35.3632623,149.1652357,11637,-0.00704146409407258,-0.004156503360718489,-0.09313046187162399,-0.03916363790631294,-0.018825381994247437,-0.0004627614398486912,5,-2,-1003,-38,-18,-1,-11,22,-150,1500.0,30.0
17:26:48.402,GUIDED,-35.3632623,149.1652357,11637,-0.00704146409407258,-0.004156503360718489,-0.09313046187162399,-0.03916363790631294,-0.018825381994247437,-0.0004627614398486912,5,-2,-1003,-38,-18,-1,-11,22,-150,1500.0,30.0
17:26:48.603,GUIDED,-35.3632623,149.1652357,11637,-0.00704146409407258,-0.004156503360718489,-0.09313046187162399,-0.03916363790631294,-0.018825381994247437,-0.0004627614398486912,5,-2,-1003,-38,-18,-1,-11,22,-150,1500.0,30.0
17:26:48.805,GUIDED,-35.3632623,149.1652357,11637,-0.00704146409407258,-0.004156503360718489,-0.09313046187162399,-0.03916363790631294,-0.018825381994247437,-0.0004627614398486912,5,-2,-1003,-38,-18,-1,-11,22,-150,1500.0,30.0
17:26:49.006,GUIDED,-35.3632623,149.1652357,11637,-0.00704146409407258,-0.004156503360718489,-0.09313046187162399,-0.03916363790631294,-0.018825381994247437,-0.0004627614398486912,5,-2,-1003,-38,-18,-1,-11,22,-150,1500.0,30.0
17:26:49.208,GUIDED,-35.3632623,149.1652357,11637,-0.00704146409407258,-0.004156503360718489,-0.09313046187162399,-0.03916363790631294,-0.018825381994247437,-0.0004627614398486912,5,-2,-1003,-38,-18,-1,-11,22,-150,1500.0,30.0
17:26:49.413,GUIDED,-35.3632623,149.1652357,11637,-0.00704146409407258,-0.004156503360718489,-0.09313046187162399,-0.03916363790631294,-0.018825381994247437,-0.0004627614398486912,5,-2,-1003,-38,-18,-1,-11,22,-150,1500.0,30.0
17:26:49.616,GUIDED,-35.3632623,149.1652357,11637,-0.00704146409407258,-0.004156503360718489,-0.09313046187162399,-0.03916363790631294,-0.018825381994247437,-0.0004627614398486912,5,-2,-1003,-38,-18,-1,-11,22,-150,1500.0,30.0
17:26:49.820,GUIDED,-35.3632627,149.1652369,12799,-0.016503356397151947,-0.00955723412334919,-0.10270695388317108,0.0038568847812712193,-2.475758083164692e-05,-0.019428228959441185,5,-2,-1003,-38,-18,-1,-2,7,-152,1500.0,30.0
17:26:50.021,GUIDED,-35.3632626,149.1652368,14362,-0.0025369504000991583,-0.003257076721638441,-0.12839385867118835,0.016206707805395126,0.008214510045945644,-0.026113202795386314,-1,0,-1000,16,8,-26,5,-6,-153,1500.0,30.0
17:26:50.223,GUIDED,-35.3632624,149.1652366,14758,0.0013730681966990232,-0.000764188589528203,-0.13489015400409698,0.014866882003843784,0.01121527235955,-0.025239771232008934,-2,0,-1000,15,11,-26,5,-7,-153,1500.0,30.0
17:26:50.424,GUIDED,-35.3632624,149.1652366,14758,0.0013730681966990232,-0.000764188589528203,-0.13489015400409698,0.014866882003843784,0.01121527235955,-0.025239771232008934,-2,0,-1000,15,11,-26,5,-7,-153,1500.0,30.0
17:26:50.626,GUIDED,-35.3632624,149.1652366,14758,0.0013730681966990232,-0.000764188589528203,-0.13489015400409698,0.014866882003843784,0.01121527235955,-0.025239771232008934,-2,0,-1000,15,11,-26,5,-7,-153,1500.0,30.0
17:26:50.830,GUIDED,-35.3632624,149.1652366,14758,0.0013730681966990232,-0.000764188589528203,-0.13489015400409698,0.014866882003843784,0.01121527235955,-0.025239771232008934,-2,0,-1000,15,11,-26,5,-7,-153,1500.0,30.0
17:26:51.035,GUIDED,-35.3632624,149.1652366,14758,0.0013730681966990232,-0.000764188589528203,-0.13489015400409698,0.014866882003843784,0.01121527235955,-0.025239771232008934,-2,0,-1000,15,11,-26,5,-7,-153,1500.0,30.0
17:26:51.237,GUIDED,-35.3632624,149.1652366,14758,0.0013730681966990232,-0.000764188589528203,-0.13489015400409698,0.014866882003843784,0.01121527235955,-0.025239771232008934,-2,0,-1000,15,11,-26,5,-7,-153,1500.0,30.0
17:26:51.440,GUIDED,-35.3632624,149.1652366,14758,0.0013730681966990232,-0.000764188589528203,-0.13489015400409698,0.014866882003843784,0.01121527235955,-0.025239771232008934,-2,0,-1000,15,11,-26,5,-7,-153,1500.0,30.0
17:26:51.644,GUIDED,-35.3632624,149.1652366,14758,0.0013730681966990232,-0.000764188589528203,-0.13489015400409698,0.014866882003843784,0.01121527235955,-0.025239771232008934,-2,0,-1000,15,11,-26,5,-7,-153,1500.0,30.0
17:26:51.846,GUIDED,-35.3632624,149.1652366,14758,0.0013730681966990232,-0.000764188589528203,-0.13489015400409698,0.014866882003843784,0.01121527235955,-0.025239771232008934,-2,0,-1000,15,11,-26,5,-7,-153,1500.0,30.0
17:26:52.048,GUIDED,-35.3632616,149.1652355,17492,0.0092377420514822,0.007516368292272091,-0.1666463017463684,-0.0025206157006323338,0.00048051163321360946,-0.013559809885919094,0,0,-1000,-1,1,-14,0,2,-153,1500.0,30.0
17:26:52.250,GUIDED,-35.3632616,149.1652355,17883,0.008058208040893078,0.007445052731782198,-0.17001456022262573,-0.004712356254458427,-0.0008044146816246212,-0.012870928272604942,0,0,-1000,-4,0,-13,0,3,-153,1500.0,30.0
17:26:52.452,GUIDED,-35.3632616,149.1652355,17883,0.008058208040893078,0.007445052731782198,-0.17001456022262573,-0.004712356254458427,-0.0008044146816246212,-0.012870928272604942,0,0,-1000,-4,0,-13,0,3,-153,1500.0,30.0
17:26:52.655,GUIDED,-35.3632616,149.1652355,17883,0.008058208040893078,0.007445052731782198,-0.17001456022262573,-0.004712356254458427,-0.0008044146816246212,-0.012870928272604942,0,0,-1000,-4,0,-13,0,3,-153,1500.0,30.0
17:26:52.857,GUIDED,-35.3632616,149.1652355,17883,0.008058208040893078,0.007445052731782198,-0.17001456022262573,-0.004712356254458427,-0.0008044146816246212,-0.012870928272604942,0,0,-1000,-4,0,-13,0,3,-153,1500.0,30.0
17:26:53.059,GUIDED,-35.3632616,149.1652355,17883,0.008058208040893078,0.007445052731782198,-0.17001456022262573,-0.004712356254458427,-0.0008044146816246212,-0.012870928272604942,0,0,-1000,-4,0,-13,0,3,-153,1500.0,30.0
17:26:53.261,GUIDED,-35.3632616,149.1652355,17883,0.008058208040893078,0.007445052731782198,-0.17001456022262573,-0.004712356254458427,-0.0008044146816246212,-0.012870928272604942,0,0,-1000,-4,0,-13,0,3,-153,1500.0,30.0
17:26:53.473,GUIDED,-35.3632616,149.1652355,17883,0.008058208040893078,0.007445052731782198,-0.17001456022262573,-0.004712356254458427,-0.0008044146816246212,-0.012870928272604942,0,0,-1000,-4,0,-13,0,3,-153,1500.0,30.0
17:26:53.677,GUIDED,-35.3632616,149.1652355,17883,0.008058208040893078,0.007445052731782198,-0.17001456022262573,-0.004712356254458427,-0.0008044146816246212,-0.012870928272604942,0,0,-1000,-4,0,-13,0,3,-153,1500.0,30.0
17:26:53.879,GUIDED,-35.3632616,149.1652355,17883,0.008058208040893078,0.007445052731782198,-0.17001456022262573,-0.004712356254458427,-0.0008044146816246212,-0.012870928272604942,0,0,-1000,-4,0,-13,0,3,-153,1500.0,30.0
17:26:54.082,GUIDED,-35.3632616,149.1652361,20622,0.002437005750834942,0.0038029272109270096,-0.19480177760124207,0.00071911042323336,0.0007846084772609174,-0.017085496336221695,0,0,-1000,-1,0,-17,-3,5,-153,1500.0,30.0
17:26:54.285,GUIDED,-35.3632616,149.1652362,21012,0.0019753603264689445,0.0035228561609983444,-0.19921043515205383,-0.0008896267972886562,-0.0012082853354513645,-0.02037878893315792,0,0,-1000,0,0,-21,-3,5,-153,1500.0,30.0
17:26:54.486,GUIDED,-35.3632616,149.1652362,21012,0.0019753603264689445,0.0035228561609983444,-0.19921043515205383,-0.0008896267972886562,-0.0012082853354513645,-0.02037878893315792,0,0,-1000,0,0,-21,-3,5,-153,1500.0,30.0
17:26:54.689,GUIDED,-35.3632616,149.1652362,21012,0.0019753603264689445,0.0035228561609983444,-0.19921043515205383,-0.0008896267972886562,-0.0012082853354513645,-0.02037878893315792,0,0,-1000,0,0,-21,-3,5,-153,1500.0,30.0
17:26:54.891,GUIDED,-35.3632616,149.1652362,21012,0.0019753603264689445,0.0035228561609983444,-0.19921043515205383,-0.0008896267972886562,-0.0012082853354513645,-0.02037878893315792,0,0,-1000,0,0,-21,-3,5,-153,1500.0,30.0
17:26:55.095,GUIDED,-35.3632616,149.1652362,21012,0.0019753603264689445,0.0035228561609983444,-0.19921043515205383,-0.0008896267972886562,-0.0012082853354513645,-0.02037878893315792,0,0,-1000,0,0,-21,-3,5,-153,1500.0,30.0
17:26:55.297,GUIDED,-35.3632616,149.1652362,21012,0.0019753603264689445,0.0035228561609983444,-0.19921043515205383,-0.0008896267972886562,-0.0012082853354513645,-0.02037878893315792,0,0,-1000,0,0,-21,-3,5,-153,1500.0,30.0
17:26:55.500,GUIDED,-35.3632616,149.1652362,21012,0.0019753603264689445,0.0035228561609983444,-0.19921043515205383,-0.0008896267972886562,-0.0012082853354513645,-0.02037878893315792,0,0,-1000,0,0,-21,-3,5,-153,1500.0,30.0
17:26:55.703,GUIDED,-35.3632616,149.1652362,21012,0.0019753603264689445,0.0035228561609983444,-0.19921043515205383,-0.0008896267972886562,-0.0012082853354513645,-0.02037878893315792,0,0,-1000,0,0,-21,-3,5,-153,1500.0,30.0
17:26:55.906,GUIDED,-35.3632617,149.1652364,22181,0.0016623397823423147,0.0033806473948061466,-0.21351179480552673,-0.00017242017202079296,0.0007957029738463461,-0.020459728315472603,0,0,-1000,0,1,-21,-2,4,-153,1500.0,30.0
17:26:56.108,GUIDED,-35.3632617,149.1652366,23749,0.0019125795224681497,0.002983999904245138,-0.23318548500537872,0.00015540147433057427,-0.0011158173438161612,-0.018299242481589317,0,0,-1000,1,0,-18,-2,3,-153,1500.0,30.0
17:26:56.310,GUIDED,-35.3632618,149.1652366,24139,0.0019528986886143684,0.0028018257580697536,-0.23791871964931488,-0.0011611782247200608,0.0006970693939365447,-0.019919874146580696,0,0,-1000,0,1,-20,-2,3,-153,1500.0,30.0
17:26:56.514,GUIDED,-35.3632618,149.1652366,24139,0.0019528986886143684,0.0028018257580697536,-0.23791871964931488,-0.0011611782247200608,0.0006970693939365447,-0.019919874146580696,0,0,-1000,0,1,-20,-2,3,-153,1500.0,30.0
17:26:56.718,GUIDED,-35.3632618,149.1652366,24139,0.0019528986886143684,0.0028018257580697536,-0.23791871964931488,-0.0011611782247200608,0.0006970693939365447,-0.019919874146580696,0,0,-1000,0,1,-20,-2,3,-153,1500.0,30.0
17:26:56.920,GUIDED,-35.3632618,149.1652366,24139,0.0019528986886143684,0.0028018257580697536,-0.23791871964931488,-0.0011611782247200608,0.0006970693939365447,-0.019919874146580696,0,0,-1000,0,1,-20,-2,3,-153,1500.0,30.0
17:26:57.122,GUIDED,-35.3632618,149.1652366,24139,0.0019528986886143684,0.0028018257580697536,-0.23791871964931488,-0.0011611782247200608,0.0006970693939365447,-0.019919874146580696,0,0,-1000,0,1,-20,-2,3,-153,1500.0,30.0
17:26:57.327,GUIDED,-35.3632618,149.1652366,24139,0.0019528986886143684,0.0028018257580697536,-0.23791871964931488,-0.0011611782247200608,0.0006970693939365447,-0.019919874146580696,0,0,-1000,0,1,-20,-2,3,-153,1500.0,30.0
17:26:57.528,GUIDED,-35.3632618,149.1652366,24139,0.0019528986886143684,0.0028018257580697536,-0.23791871964931488,-0.0011611782247200608,0.0006970693939365447,-0.019919874146580696,0,0,-1000,0,1,-20,-2,3,-153,1500.0,30.0
17:26:57.730,GUIDED,-35.3632618,149.1652366,24139,0.0019528986886143684,0.0028018257580697536,-0.23791871964931488,-0.0011611782247200608,0.0006970693939365447,-0.019919874146580696,0,0,-1000,0,1,-20,-2,3,-153,1500.0,30.0
17:26:57.932,GUIDED,-35.3632618,149.1652366,24139,0.0019528986886143684,0.0028018257580697536,-0.23791871964931488,-0.0011611782247200608,0.0006970693939365447,-0.019919874146580696,0,0,-1000,0,1,-20,-2,3,-153,1500.0,30.0
17:26:58.135,GUIDED,-35.3632621,149.1652365,26867,0.010293187573552132,0.0036442650016397238,-0.23913729190826416,0.015229959972202778,-0.004138122778385878,0.025501884520053864,0,1,-1000,26,-2,20,-5,0,-153,1500.0,30.0
17:26:58.337,GUIDED,-35.3632622,149.1652364,27256,0.012221970595419407,0.0024073689710348845,-0.23287269473075867,0.004800588358193636,-0.0014783715596422553,0.02493692934513092,0,0,-999,5,0,24,-5,2,-153,1500.0,30.0
17:26:58.539,GUIDED,-35.3632622,149.1652364,27256,0.012221970595419407,0.0024073689710348845,-0.23287269473075867,0.004800588358193636,-0.0014783715596422553,0.02493692934513092,0,0,-999,5,0,24,-5,2,-153,1500.0,30.0
17:26:58.743,GUIDED,-35.3632622,149.1652364,27256,0.012221970595419407,0.0024073689710348845,-0.23287269473075867,0.004800588358193636,-0.0014783715596422553,0.02493692934513092,0,0,-999,5,0,24,-5,2,-153,1500.0,30.0
17:26:58.945,GUIDED,-35.3632622,149.1652364,27256,0.012221970595419407,0.0024073689710348845,-0.23287269473075867,0.004800588358193636,-0.0014783715596422553,0.02493692934513092,0,0,-999,5,0,24,-5,2,-153,1500.0,30.0
17:26:59.146,GUIDED,-35.3632622,149.1652364,27256,0.012221970595419407,0.0024073689710348845,-0.23287269473075867,0.004800588358193636,-0.0014783715596422553,0.02493692934513092,0,0,-999,5,0,24,-5,2,-153,1500.0,30.0
17:26:59.348,GUIDED,-35.3632622,149.1652364,27256,0.012221970595419407,0.0024073689710348845,-0.23287269473075867,0.004800588358193636,-0.0014783715596422553,0.02493692934513092,0,0,-999,5,0,24,-5,2,-153,1500.0,30.0
17:26:59.550,GUIDED,-35.3632622,149.1652364,27256,0.012221970595419407,0.0024073689710348845,-0.23287269473075867,0.004800588358193636,-0.0014783715596422553,0.02493692934513092,0,0,-999,5,0,24,-5,2,-153,1500.0,30.0
17:26:59.753,GUIDED,-35.3632622,149.1652364,27256,0.012221970595419407,0.0024073689710348845,-0.23287269473075867,0.004800588358193636,-0.0014783715596422553,0.02493692934513092,0,0,-999,5,0,24,-5,2,-153,1500.0,30.0
17:26:59.955,GUIDED,-35.3632622,149.1652364,27256,0.012221970595419407,0.0024073689710348845,-0.23287269473075867,0.004800588358193636,-0.0014783715596422553,0.02493692934513092,0,0,-999,5,0,24,-5,2,-153,1500.0,30.0
17:27:00.156,GUIDED,-35.3632623,149.1652374,29984,0.0010061105713248253,0.0017779060872271657,-0.19388510286808014,-0.006968462839722633,-0.0006823973963037133,0.019725622609257698,0,-1,-1000,-6,0,19,0,8,-153,1500.0,30.0
17:27:00.358,GUIDED,-35.3632623,149.1652376,30373,-0.0001444872614229098,0.001789492554962635,-0.1890978217124939,-0.0047066230326890945,-0.0007986384443938732,0.020981023088097572,0,-1,-1000,-4,0,20,0,7,-153,1500.0,30.0
17:27:00.561,GUIDED,-35.3632623,149.1652376,30373,-0.0001444872614229098,0.001789492554962635,-0.1890978217124939,-0.0047066230326890945,-0.0007986384443938732,0.020981023088097572,0,-1,-1000,-4,0,20,0,7,-153,1500.0,30.0
17:27:00.765,GUIDED,-35.3632623,149.1652376,30373,-0.0001444872614229098,0.001789492554962635,-0.1890978217124939,-0.0047066230326890945,-0.0007986384443938732,0.020981023088097572,0,-1,-1000,-4,0,20,0,7,-153,1500.0,30.0
17:27:00.967,GUIDED,-35.3632623,149.1652376,30373,-0.0001444872614229098,0.001789492554962635,-0.1890978217124939,-0.0047066230326890945,-0.0007986384443938732,0.020981023088097572,0,-1,-1000,-4,0,20,0,7,-153,1500.0,30.0
17:27:01.169,GUIDED,-35.3632623,149.1652376,30373,-0.0001444872614229098,0.001789492554962635,-0.1890978217124939,-0.0047066230326890945,-0.0007986384443938732,0.020981023088097572,0,-1,-1000,-4,0,20,0,7,-153,1500.0,30.0
17:27:01.371,GUIDED,-35.3632623,149.1652376,30373,-0.0001444872614229098,0.001789492554962635,-0.1890978217124939,-0.0047066230326890945,-0.0007986384443938732,0.020981023088097572,0,-1,-1000,-4,0,20,0,7,-153,1500.0,30.0
17:27:01.574,GUIDED,-35.3632623,149.1652376,30373,-0.0001444872614229098,0.001789492554962635,-0.1890978217124939,-0.0047066230326890945,-0.0007986384443938732,0.020981023088097572,0,-1,-1000,-4,0,20,0,7,-153,1500.0,30.0
17:27:01.776,GUIDED,-35.3632623,149.1652376,30373,-0.0001444872614229098,0.001789492554962635,-0.1890978217124939,-0.0047066230326890945,-0.0007986384443938732,0.020981023088097572,0,-1,-1000,-4,0,20,0,7,-153,1500.0,30.0
17:27:01.980,GUIDED,-35.3632623,149.165238,32709,-0.0001795981515897438,0.0013002933701500297,-0.16407129168510437,0.005243777297437191,0.0012919874861836433,0.016912106424570084,0,0,-1000,6,2,16,0,2,-153,1500.0,30.0
17:27:02.182,GUIDED,-35.3632623,149.165238,33098,9.927192877512425e-05,0.0014266095822677016,-0.16036508977413177,-0.001708531053736806,9.180791676044464e-05,0.015486628748476505,0,0,-1000,0,0,15,0,1,-153,1500.0,30.0
17:27:02.383,GUIDED,-35.3632623,149.165238,33488,0.0005306538660079241,0.0015079290606081486,-0.1568579077720642,0.0021231574937701225,5.934119690209627e-05,0.013680077157914639,0,0,-1001,2,0,13,0,0,-153,1500.0,30.0
17:27:02.585,GUIDED,-35.3632623,149.165238,33488,0.0005306538660079241,0.0015079290606081486,-0.1568579077720642,0.0021231574937701225,5.934119690209627e-05,0.013680077157914639,0,0,-1001,2,0,13,0,0,-153,1500.0,30.0
17:27:02.788,GUIDED,-35.3632623,149.165238,33488,0.0005306538660079241,0.0015079290606081486,-0.1568579077720642,0.0021231574937701225,5.934119690209627e-05,0.013680077157914639,0,0,-1001,2,0,13,0,0,-153,1500.0,30.0
17:27:02.990,GUIDED,-35.3632623,149.165238,33488,0.0005306538660079241,0.0015079290606081486,-0.1568579077720642,0.0021231574937701225,5.934119690209627e-05,0.013680077157914639,0,0,-1001,2,0,13,0,0,-153,1500.0,30.0
17:27:03.191,GUIDED,-35.3632623,149.165238,33488,0.0005306538660079241,0.0015079290606081486,-0.1568579077720642,0.0021231574937701225,5.934119690209627e-05,0.013680077157914639,0,0,-1001,2,0,13,0,0,-153,1500.0,30.0
17:27:03.397,GUIDED,-35.3632623,149.165238,33488,0.0005306538660079241,0.0015079290606081486,-0.1568579077720642,0.0021231574937701225,5.934119690209627e-05,0.013680077157914639,0,0,-1001,2,0,13,0,0,-153,1500.0,30.0
17:27:03.600,GUIDED,-35.3632623,149.165238,33488,0.0005306538660079241,0.0015079290606081486,-0.1568579077720642,0.0021231574937701225,5.934119690209627e-05,0.013680077157914639,0,0,-1001,2,0,13,0,0,-153,1500.0,30.0
17:27:03.802,GUIDED,-35.3632623,149.165238,33488,0.0005306538660079241,0.0015079290606081486,-0.1568579077720642,0.0021231574937701225,5.934119690209627e-05,0.013680077157914639,0,0,-1001,2,0,13,0,0,-153,1500.0,30.0
17:27:04.004,GUIDED,-35.3632622,149.1652379,35674,0.0015585727524012327,0.0009654962923377752,-0.13936683535575867,0.0037191747687757015,-0.0002619595034047961,0.013610110618174076,0,0,-1001,4,0,13,0,0,-153,1500.0,30.0
17:27:04.206,GUIDED,-35.3632622,149.1652378,36453,0.0016712810611352324,0.0013624690473079681,-0.1338394284248352,0.000946091371588409,0.003026822581887245,0.013221974484622478,0,0,-1000,1,3,12,0,0,-153,1500.0,30.0
17:27:04.408,GUIDED,-35.3632622,149.1652378,36453,0.0016712810611352324,0.0013624690473079681,-0.1338394284248352,0.000946091371588409,0.003026822581887245,0.013221974484622478,0,0,-1000,1,3,12,0,0,-153,1500.0,30.0
17:27:04.610,GUIDED,-35.3632622,149.1652378,36453,0.0016712810611352324,0.0013624690473079681,-0.1338394284248352,0.000946091371588409,0.003026822581887245,0.013221974484622478,0,0,-1000,1,3,12,0,0,-153,1500.0,30.0
17:27:04.813,GUIDED,-35.3632622,149.1652378,36453,0.0016712810611352324,0.0013624690473079681,-0.1338394284248352,0.000946091371588409,0.003026822581887245,0.013221974484622478,0,0,-1000,1,3,12,0,0,-153,1500.0,30.0
17:27:05.016,GUIDED,-35.3632622,149.1652378,36453,0.0016712810611352324,0.0013624690473079681,-0.1338394284248352,0.000946091371588409,0.003026822581887245,0.013221974484622478,0,0,-1000,1,3,12,0,0,-153,1500.0,30.0
17:27:05.220,GUIDED,-35.3632622,149.1652378,36453,0.0016712810611352324,0.0013624690473079681,-0.1338394284248352,0.000946091371588409,0.003026822581887245,0.013221974484622478,0,0,-1000,1,3,12,0,0,-153,1500.0,30.0
17:27:05.423,GUIDED,-35.3632622,149.1652378,36453,0.0016712810611352324,0.0013624690473079681,-0.1338394284248352,0.000946091371588409,0.003026822581887245,0.013221974484622478,0,0,-1000,1,3,12,0,0,-153,1500.0,30.0
17:27:05.627,GUIDED,-35.3632622,149.1652378,36453,0.0016712810611352324,0.0013624690473079681,-0.1338394284248352,0.000946091371588409,0.003026822581887245,0.013221974484622478,0,0,-1000,1,3,12,0,0,-153,1500.0,30.0
17:27:05.830,GUIDED,-35.3632622,149.1652378,36453,0.0016712810611352324,0.0013624690473079681,-0.1338394284248352,0.000946091371588409,0.003026822581887245,0.013221974484622478,0,0,-1000,1,3,12,0,0,-153,1500.0,30.0
17:27:06.034,GUIDED,-35.3632621,149.1652376,39183,0.0024836305528879166,0.0014462544349953532,-0.11746499687433243,-0.00026507966686040163,0.0003931510727852583,0.008282147347927094,0,0,-1000,0,1,8,0,0,-153,1500.0,30.0
17:27:06.237,GUIDED,-35.3632621,149.1652375,39573,0.0025350740179419518,0.0013738134875893593,-0.11550808697938919,0.0026725633069872856,-0.00011418742360547185,0.008580252528190613,0,0,-1001,3,0,8,0,0,-153,1500.0,30.0
17:27:06.442,GUIDED,-35.3632621,149.1652375,39573,0.0025350740179419518,0.0013738134875893593,-0.11550808697938919,0.0026725633069872856,-0.00011418742360547185,0.008580252528190613,0,0,-1001,3,0,8,0,0,-153,1500.0,30.0
17:27:06.643,GUIDED,-35.3632621,149.1652375,39573,0.0025350740179419518,0.0013738134875893593,-0.11550808697938919,0.0026725633069872856,-0.00011418742360547185,0.008580252528190613,0,0,-1001,3,0,8,0,0,-153,1500.0,30.0
17:27:06.846,GUIDED,-35.3632621,149.1652375,39573,0.0025350740179419518,0.0013738134875893593,-0.11550808697938919,0.0026725633069872856,-0.00011418742360547185,0.008580252528190613,0,0,-1001,3,0,8,0,0,-153,1500.0,30.0
17:27:07.048,GUIDED,-35.3632621,149.1652375,39573,0.0025350740179419518,0.0013738134875893593,-0.11550808697938919,0.0026725633069872856,-0.00011418742360547185,0.008580252528190613,0,0,-1001,3,0,8,0,0,-153,1500.0,30.0
17:27:07.256,GUIDED,-35.3632621,149.1652375,39573,0.0025350740179419518,0.0013738134875893593,-0.11550808697938919,0.0026725633069872856,-0.00011418742360547185,0.008580252528190613,0,0,-1001,3,0,8,0,0,-153,1500.0,30.0
17:27:07.457,GUIDED,-35.3632621,149.1652375,39573,0.0025350740179419518,0.0013738134875893593,-0.11550808697938919,0.0026725633069872856,-0.00011418742360547185,0.008580252528190613,0,0,-1001,3,0,8,0,0,-153,1500.0,30.0
17:27:07.659,GUIDED,-35.3632621,149.1652375,39573,0.0025350740179419518,0.0013738134875893593,-0.11550808697938919,0.0026725633069872856,-0.00011418742360547185,0.008580252528190613,0,0,-1001,3,0,8,0,0,-153,1500.0,30.0
17:27:07.861,GUIDED,-35.3632621,149.1652375,39573,0.00227021099999547,0.0012597779277712107,-0.10979538410902023,-0.0002723467187024653,0.0038772989064455032,0.009317362681031227,0,0,-1001,3,0,8,0,0,-153,1500.0,30.0
17:27:08.063,GUIDED,-35.3632621,149.1652374,42299,0.0019469212274998426,0.0013690380146726966,-0.10313467681407928,0.003202087013050914,0.0009783247951418161,0.008615133352577686,0,0,-1000,4,1,8,-1,1,-153,1500.0,30.0
17:27:08.269,GUIDED,-35.363262,149.1652374,42689,0.0019508309196680784,0.0014716063160449266,-0.10150809586048126,-0.0022361353039741516,0.0009120277245528996,0.008069086819887161,0,0,-999,-1,1,8,-1,1,-153,1500.0,30.0
17:27:08.471,GUIDED,-35.363262,149.1652374,42689,0.0019508309196680784,0.0014716063160449266,-0.10150809586048126,-0.0022361353039741516,0.0009120277245528996,0.008069086819887161,0,0,-999,-1,1,8,-1,1,-153,1500.0,30.0
17:27:08.674,GUIDED,-35.363262,149.1652374,42689,0.0019508309196680784,0.0014716063160449266,-0.10150809586048126,-0.0022361353039741516,0.0009120277245528996,0.008069086819887161,0,0,-999,-1,1,8,-1,1,-153,1500.0,30.0
17:27:08.876,GUIDED,-35.363262,149.1652374,42689,0.0019508309196680784,0.0014716063160449266,-0.10150809586048126,-0.0022361353039741516,0.0009120277245528996,0.008069086819887161,0,0,-999,-1,1,8,-1,1,-153,1500.0,30.0
17:27:09.078,GUIDED,-35.363262,149.1652374,42689,0.0019508309196680784,0.0014716063160449266,-0.10150809586048126,-0.0022361353039741516,0.0009120277245528996,0.008069086819887161,0,0,-999,-1,1,8,-1,1,-153,1500.0,30.0
17:27:09.280,GUIDED,-35.363262,149.1652374,42689,0.0019508309196680784,0.0014716063160449266,-0.10150809586048126,-0.0022361353039741516,0.0009120277245528996,0.008069086819887161,0,0,-999,-1,1,8,-1,1,-153,1500.0,30.0
17:27:09.483,GUIDED,-35.363262,149.1652374,42689,0.0019508309196680784,0.0014716063160449266,-0.10150809586048126,-0.0022361353039741516,0.0009120277245528996,0.008069086819887161,0,0,-999,-1,1,8,-1,1,-153,1500.0,30.0
17:27:09.684,GUIDED,-35.363262,149.1652374,42689,0.0019508309196680784,0.0014716063160449266,-0.10150809586048126,-0.0022361353039741516,0.0009120277245528996,0.008069086819887161,0,0,-999,-1,1,8,-1,1,-153,1500.0,30.0
17:27:09.885,GUIDED,-35.363262,149.1652374,42689,0.0019508309196680784,0.0014716063160449266,-0.10150809586048126,-0.0022361353039741516,0.0009120277245528996,0.008069086819887161,0,0,-999,-1,1,8,-1,1,-153,1500.0,30.0
17:27:10.087,GUIDED,-35.363262,149.1652374,44243,0.0019974231254309416,0.0011001670500263572,-0.09509744495153427,0.0014673150144517422,-8.955522207543254e-05,0.0063143642619252205,0,0,-1001,2,0,6,-1,1,-153,1500.0,30.0
17:27:10.289,GUIDED,-35.363262,149.1652373,45800,0.001756059704348445,0.0011669553350657225,-0.08947828412055969,-0.0009886831976473331,-0.0005773633602075279,0.006999036762863398,0,0,-1000,0,0,7,-1,1,-153,1500.0,30.0
17:27:10.493,GUIDED,-35.363262,149.1652373,45800,0.001756059704348445,0.0011669553350657225,-0.08947828412055969,-0.0009886831976473331,-0.0005773633602075279,0.006999036762863398,0,0,-1000,0,0,7,-1,1,-153,1500.0,30.0
17:27:10.695,GUIDED,-35.363262,149.1652373,45800,0.001756059704348445,0.0011669553350657225,-0.08947828412055969,-0.0009886831976473331,-0.0005773633602075279,0.006999036762863398,0,0,-1000,0,0,7,-1,1,-153,1500.0,30.0
17:27:10.898,GUIDED,-35.363262,149.1652373,45800,0.001756059704348445,0.0011669553350657225,-0.08947828412055969,-0.0009886831976473331,-0.0005773633602075279,0.006999036762863398,0,0,-1000,0,0,7,-1,1,-153,1500.0,30.0
17:27:11.100,GUIDED,-35.363262,149.1652373,45800,0.001756059704348445,0.0011669553350657225,-0.08947828412055969,-0.0009886831976473331,-0.0005773633602075279,0.006999036762863398,0,0,-1000,0,0,7,-1,1,-153,1500.0,30.0
17:27:11.302,GUIDED,-35.363262,149.1652373,45800,0.001756059704348445,0.0011669553350657225,-0.08947828412055969,-0.0009886831976473331,-0.0005773633602075279,0.006999036762863398,0,0,-1000,0,0,7,-1,1,-153,1500.0,30.0
17:27:11.508,GUIDED,-35.363262,149.1652373,45800,0.001756059704348445,0.0011669553350657225,-0.08947828412055969,-0.0009886831976473331,-0.0005773633602075279,0.006999036762863398,0,0,-1000,0,0,7,-1,1,-153,1500.0,30.0
17:27:11.710,GUIDED,-35.363262,149.1652373,45800,0.001756059704348445,0.0011669553350657225,-0.08947828412055969,-0.0009886831976473331,-0.0005773633602075279,0.006999036762863398,0,0,-1000,0,0,7,-1,1,-153,1500.0,30.0
17:27:11.914,GUIDED,-35.363262,149.1652373,45800,0.001756059704348445,0.0011669553350657225,-0.08947828412055969,-0.0009886831976473331,-0.0005773633602075279,0.006999036762863398,0,0,-1000,0,0,7,-1,1,-153,1500.0,30.0
17:27:12.118,GUIDED,-35.363262,149.1652373,48136,0.0016112076118588448,0.0006721370737068355,-0.08122523874044418,0.001531616784632206,-0.0007270626374520361,0.008853564038872719,0,0,-1000,0,0,4,-1,1,-153,1500.0,30.0
17:27:12.323,GUIDED,-35.363262,149.1652373,48915,0.002392597496509552,0.001135037513449788,-0.07890383154153824,0.00147752754855901,0.0012484695762395859,0.004882844164967537,0,0,-1000,2,2,4,-1,1,-153,1500.0,30.0
17:27:12.526,GUIDED,-35.363262,149.1652373,48915,0.002392597496509552,0.001135037513449788,-0.07890383154153824,0.00147752754855901,0.0012484695762395859,0.004882844164967537,0,0,-1000,2,2,4,-1,1,-153,1500.0,30.0
17:27:12.729,GUIDED,-35.363262,149.1652373,48915,0.002392597496509552,0.001135037513449788,-0.07890383154153824,0.00147752754855901,0.0012484695762395859,0.004882844164967537,0,0,-1000,2,2,4,-1,1,-153,1500.0,30.0
17:27:12.930,GUIDED,-35.363262,149.1652373,48915,0.002392597496509552,0.001135037513449788,-0.07890383154153824,0.00147752754855901,0.0012484695762395859,0.004882844164967537,0,0,-1000,2,2,4,-1,1,-153,1500.0,30.0
17:27:13.132,GUIDED,-35.363262,149.1652373,48915,0.002392597496509552,0.001135037513449788,-0.07890383154153824,0.00147752754855901,0.0012484695762395859,0.004882844164967537,0,0,-1000,2,2,4,-1,1,-153,1500.0,30.0
17:27:13.336,GUIDED,-35.363262,149.1652373,48915,0.002392597496509552,0.001135037513449788,-0.07890383154153824,0.00147752754855901,0.0012484695762395859,0.004882844164967537,0,0,-1000,2,2,4,-1,1,-153,1500.0,30.0
17:27:13.537,GUIDED,-35.363262,149.1652373,48915,0.002392597496509552,0.001135037513449788,-0.07890383154153824,0.00147752754855901,0.0012484695762395859,0.004882844164967537,0,0,-1000,2,2,4,-1,1,-153,1500.0,30.0
17:27:13.740,GUIDED,-35.363262,149.1652373,48915,0.002392597496509552,0.001135037513449788,-0.07890383154153824,0.00147752754855901,0.0012484695762395859,0.004882844164967537,0,0,-1000,2,2,4,-1,1,-153,1500.0,30.0
17:27:13.942,GUIDED,-35.363262,149.1652373,50084,0.0024683421943336725,0.0008294800063595176,-0.0752163976430893,0.0006067351205274463,-0.00016302906442433596,0.006844103801995516,0,0,-1000,2,2,4,-1,1,-153,1500.0,30.0
17:27:14.145,GUIDED,-35.363262,149.1652372,51645,0.0019252733327448368,0.0010663734283298254,-0.07002569735050201,0.002460414543747902,0.0015705586411058903,0.005403571762144566,0,0,-999,3,2,5,-1,1,-153,1500.0,30.0
17:27:14.346,GUIDED,-35.363262,149.1652372,52035,0.0018405107548460364,0.001041780924424529,-0.06894207745790482,-0.003928883001208305,-0.000649878813419491,0.004453763365745544,0,0,-1000,-2,0,4,-1,1,-153,1500.0,30.0
17:27:14.551,LAND,-35.363262,149.1652372,52035,0.0018405107548460364,0.001041780924424529,-0.06894207745790482,-0.003928883001208305,-0.000649878813419491,0.004453763365745544,0,0,-1000,-2,0,4,-1,1,-153,1500.0,30.0
17:27:14.792,LAND,-35.363262,149.1652372,52035,0.0018405107548460364,0.001041780924424529,-0.06894207745790482,-0.003928883001208305,-0.000649878813419491,0.004453763365745544,0,0,-1000,-2,0,4,-1,1,-153,1500.0,30.0
17:27:14.994,LAND,-35.363262,149.1652372,52035,0.0018405107548460364,0.001041780924424529,-0.06894207745790482,-0.003928883001208305,-0.000649878813419491,0.004453763365745544,0,0,-1000,-2,0,4,-1,1,-153,1500.0,30.0
17:27:15.195,LAND,-35.363262,149.1652372,52035,0.0018405107548460364,0.001041780924424529,-0.06894207745790482,-0.003928883001208305,-0.000649878813419491,0.004453763365745544,0,0,-1000,-2,0,4,-1,1,-153,1500.0,30.0
17:27:15.402,LAND,-35.363262,149.1652372,52035,0.0018405107548460364,0.001041780924424529,-0.06894207745790482,-0.003928883001208305,-0.000649878813419491,0.004453763365745544,0,0,-1000,-2,0,4,-1,1,-153,1500.0,30.0
17:27:15.611,LAND,-35.363262,149.1652372,52035,0.0018405107548460364,0.001041780924424529,-0.06894207745790482,-0.003928883001208305,-0.000649878813419491,0.004453763365745544,0,0,-1000,-2,0,4,-1,1,-153,1500.0,30.0
17:27:15.813,LAND,-35.363262,149.1652372,52035,0.0018405107548460364,0.001041780924424529,-0.06894207745790482,-0.003928883001208305,-0.000649878813419491,0.004453763365745544,0,0,-1000,-2,0,4,-1,1,-153,1500.0,30.0
17:27:16.016,LAND,-35.363262,149.1652372,52035,0.0018405107548460364,0.001041780924424529,-0.06894207745790482,-0.003928883001208305,-0.000649878813419491,0.004453763365745544,0,0,-1000,-2,0,4,-1,1,-153,1500.0,30.0
17:27:16.220,LAND,-35.3632625,149.1652366,54647,-0.06230682134628296,0.06788499653339386,0.22582927346229553,0.06667109578847885,-0.16916631162166595,0.3732341527938843,0,0,-950,-199,171,654,-25,-25,-111,1500.0,30.0
17:27:16.423,LAND,-35.3632631,149.1652358,54905,-0.03646203875541687,0.017344482243061066,0.29672521352767944,0.10801532864570618,-0.2221089005470276,0.20191310346126556,4,8,-909,108,-221,202,-30,-37,-89,1500.0,160.0
17:27:16.626,LAND,-35.3632631,149.1652358,54905,-0.03646203875541687,0.017344482243061066,0.29672521352767944,0.10801532864570618,-0.2221089005470276,0.20191310346126556,4,8,-909,108,-221,202,-30,-37,-89,1500.0,160.0
17:27:16.832,LAND,-35.3632631,149.1652358,54905,-0.03646203875541687,0.017344482243061066,0.29672521352767944,0.10801532864570618,-0.2221089005470276,0.20191310346126556,4,8,-909,108,-221,202,-30,-37,-89,1500.0,160.0
17:27:17.036,LAND,-35.3632631,149.1652358,54905,-0.03646203875541687,0.017344482243061066,0.29672521352767944,0.10801532864570618,-0.2221089005470276,0.20191310346126556,4,8,-909,108,-221,202,-30,-37,-89,1500.0,160.0
17:27:17.238,LAND,-35.3632631,149.1652358,54905,-0.03646203875541687,0.017344482243061066,0.29672521352767944,0.10801532864570618,-0.2221089005470276,0.20191310346126556,4,8,-909,108,-221,202,-30,-37,-89,1500.0,160.0
17:27:17.439,LAND,-35.3632631,149.1652358,54905,-0.03646203875541687,0.017344482243061066,0.29672521352767944,0.10801532864570618,-0.2221089005470276,0.20191310346126556,4,8,-909,108,-221,202,-30,-37,-89,1500.0,160.0
17:27:17.643,LAND,-35.3632631,149.1652358,54905,-0.03646203875541687,0.017344482243061066,0.29672521352767944,0.10801532864570618,-0.2221089005470276,0.20191310346126556,4,8,-909,108,-221,202,-30,-37,-89,1500.0,160.0
17:27:17.844,LAND,-35.3632631,149.1652358,54905,-0.03646203875541687,0.017344482243061066,0.29672521352767944,0.10801532864570618,-0.2221089005470276,0.20191310346126556,4,8,-909,108,-221,202,-30,-37,-89,1500.0,160.0
17:27:18.048,LAND,-35.3632647,149.1652324,55411,0.028522947803139687,-0.056589074432849884,0.34053564071655273,-0.6032589673995972,0.020039355382323265,-0.03080764040350914,1,-7,-931,-92,-13,-3,0,-10,-11,1500.0,160.0
17:27:18.252,LAND,-35.3632641,149.1652327,55331,0.03439057618379593,-0.024454226717352867,0.3133854269981384,0.6518577933311462,0.04679069668054581,-0.0298636332154274,-1,47,-956,658,47,-29,17,22,26,1500.0,160.0
17:27:18.460,LAND,-35.3632637,149.1652334,55245,0.024777410551905632,-0.013306306675076485,0.30334460735321045,0.5720852017402649,0.03582458198070526,-0.04848172515630722,-3,47,-971,578,36,-47,19,28,37,1500.0,160.0
17:27:18.682,LAND,-35.3632637,149.1652334,55245,0.024777410551905632,-0.013306306675076485,0.30334460735321045,0.5720852017402649,0.03582458198070526,-0.04848172515630722,-3,47,-971,578,36,-47,19,28,37,1500.0,160.0
17:27:18.896,LAND,-35.3632637,149.1652334,55245,0.024777410551905632,-0.013306306675076485,0.30334460735321045,0.5720852017402649,0.03582458198070526,-0.04848172515630722,-3,47,-971,578,36,-47,19,28,37,1500.0,160.0
17:27:19.118,LAND,-35.3632637,149.1652334,55245,0.024777410551905632,-0.013306306675076485,0.30334460735321045,0.5720852017402649,0.03582458198070526,-0.04848172515630722,-3,47,-971,578,36,-47,19,28,37,1500.0,160.0
17:27:19.322,LAND,-35.3632637,149.1652334,55245,0.024777410551905632,-0.013306306675076485,0.30334460735321045,0.5720852017402649,0.03582458198070526,-0.04848172515630722,-3,47,-971,578,36,-47,19,28,37,1500.0,160.0
17:27:19.525,LAND,-35.3632637,149.1652334,55245,0.024777410551905632,-0.013306306675076485,0.30334460735321045,0.5720852017402649,0.03582458198070526,-0.04848172515630722,-3,47,-971,578,36,-47,19,28,37,1500.0,160.0
17:27:19.727,LAND,-35.3632637,149.1652334,55245,0.024777410551905632,-0.013306306675076485,0.30334460735321045,0.5720852017402649,0.03582458198070526,-0.04848172515630722,-3,47,-971,578,36,-47,19,28,37,1500.0,160.0
17:27:19.929,LAND,-35.3632637,149.1652334,55245,0.024777410551905632,-0.013306306675076485,0.30334460735321045,0.5720852017402649,0.03582458198070526,-0.04848172515630722,-3,47,-971,578,36,-47,19,28,37,1500.0,160.0
17:27:20.134,LAND,-35.3632615,149.1652385,54228,-0.012981647625565529,0.017507493495941162,0.25323718786239624,1.2480100393295288,-0.01224091649055481,-0.008073931559920311,2,80,-879,1257,-11,-7,10,21,104,1500.0,160.0
17:27:20.339,LAND,-35.3632612,149.1652398,53583,-0.026185957714915276,0.015606595203280449,0.23786696791648865,-1.1080082654953003,-0.0042461808770895,-0.04726645350456238,2,-23,-1147,-1102,-3,-47,5,12,123,1500.0,80.0
17:27:20.542,LAND,-35.3632612,149.1652398,53583,-0.026185957714915276,0.015606595203280449,0.23786696791648865,-1.1080082654953003,-0.0042461808770895,-0.04726645350456238,2,-23,-1147,-1102,-3,-47,5,12,123,1500.0,80.0
17:27:20.744,LAND,-35.3632612,149.1652398,53583,-0.026185957714915276,0.015606595203280449,0.23786696791648865,-1.1080082654953003,-0.0042461808770895,-0.04726645350456238,2,-23,-1147,-1102,-3,-47,5,12,123,1500.0,80.0
17:27:20.946,LAND,-35.3632612,149.1652398,53583,-0.026185957714915276,0.015606595203280449,0.23786696791648865,-1.1080082654953003,-0.0042461808770895,-0.04726645350456238,2,-23,-1147,-1102,-3,-47,5,12,123,1500.0,80.0
17:27:21.148,LAND,-35.3632612,149.1652398,53583,-0.026185957714915276,0.015606595203280449,0.23786696791648865,-1.1080082654953003,-0.0042461808770895,-0.04726645350456238,2,-23,-1147,-1102,-3,-47,5,12,123,1500.0,80.0
17:27:21.351,LAND,-35.3632612,149.1652398,53583,-0.026185957714915276,0.015606595203280449,0.23786696791648865,-1.1080082654953003,-0.0042461808770895,-0.04726645350456238,2,-23,-1147,-1102,-3,-47,5,12,123,1500.0,80.0
17:27:21.553,LAND,-35.3632612,149.1652398,53583,-0.026185957714915276,0.015606595203280449,0.23786696791648865,-1.1080082654953003,-0.0042461808770895,-0.04726645350456238,2,-23,-1147,-1102,-3,-47,5,12,123,1500.0,80.0
17:27:21.754,LAND,-35.3632612,149.1652398,53583,-0.026185957714915276,0.015606595203280449,0.23786696791648865,-1.1080082654953003,-0.0042461808770895,-0.04726645350456238,2,-23,-1147,-1102,-3,-47,5,12,123,1500.0,80.0
17:27:21.956,LAND,-35.3632612,149.1652398,53583,-0.026185957714915276,0.015606595203280449,0.23786696791648865,-1.1080082654953003,-0.0042461808770895,-0.04726645350456238,2,-23,-1147,-1102,-3,-47,5,12,123,1500.0,80.0
17:27:22.163,LAND,-35.3632615,149.165241,52622,-0.006209156475961208,6.493349064840004e-05,0.19992738962173462,1.1197919845581055,-0.009034587070345879,-0.013958283700048923,1,58,-1014,850,-4,-13,0,-9,54,1500.0,80.0
17:27:22.369,LAND,-35.3632617,149.1652408,52335,0.0009702933020889759,-0.001326568191871047,0.19038833677768707,0.9114082455635071,-0.003937660250812769,-0.010614266619086266,0,42,-1028,1036,-4,-11,0,-12,60,1500.0,80.0
17:27:22.584,LAND,-35.3632617,149.1652408,52335,0.0009702933020889759,-0.001326568191871047,0.19038833677768707,0.9114082455635071,-0.003937660250812769,-0.010614266619086266,0,26,-973,909,-2,-10,0,-12,60,1500.0,80.0
17:27:22.788,LAND,-35.3632617,149.1652408,52335,0.0009702933020889759,-0.001326568191871047,0.19038833677768707,0.9114082455635071,-0.003937660250812769,-0.010614266619086266,0,26,-973,909,-2,-10,0,-12,60,1500.0,80.0
17:27:22.994,LAND,-35.3632617,149.1652408,52335,0.0009702933020889759,-0.001326568191871047,0.19038833677768707,0.9114082455635071,-0.003937660250812769,-0.010614266619086266,0,26,-973,909,-2,-10,0,-12,60,1500.0,80.0
17:27:23.197,LAND,-35.3632617,149.1652408,52335,0.0009702933020889759,-0.001326568191871047,0.19038833677768707,0.9114082455635071,-0.003937660250812769,-0.010614266619086266,0,26,-973,909,-2,-10,0,-12,60,1500.0,80.0
17:27:23.400,LAND,-35.3632617,149.1652408,52335,0.0009702933020889759,-0.001326568191871047,0.19038833677768707,0.9114082455635071,-0.003937660250812769,-0.010614266619086266,0,26,-973,909,-2,-10,0,-12,60,1500.0,80.0
17:27:23.601,LAND,-35.3632617,149.1652408,52335,0.0009702933020889759,-0.001326568191871047,0.19038833677768707,0.9114082455635071,-0.003937660250812769,-0.010614266619086266,0,26,-973,909,-2,-10,0,-12,60,1500.0,80.0
17:27:23.804,LAND,-35.3632617,149.1652408,52335,0.0009702933020889759,-0.001326568191871047,0.19038833677768707,0.9114082455635071,-0.003937660250812769,-0.010614266619086266,0,26,-973,909,-2,-10,0,-12,60,1500.0,80.0
17:27:24.007,LAND,-35.3632621,149.16524,51631,0.008765715174376965,-0.0024691312573850155,0.17011238634586334,0.6480200290679932,-0.008609553799033165,-0.01605287566781044,1,1,-1018,644,-7,-15,3,-14,60,1500.0,80.0
17:27:24.210,LAND,-35.3632621,149.1652399,51170,-0.00521721038967371,-0.0017413076711818576,0.15977244079113007,-0.2855936884880066,0.003696116153150797,-0.013581237755715847,1,-36,-975,-71,-4,-16,4,-15,62,1500.0,80.0
17:27:24.412,LAND,-35.3632621,149.1652399,51170,-0.00521721038967371,-0.0017413076711818576,0.15977244079113007,-0.2855936884880066,0.003696116153150797,-0.013581237755715847,0,-45,-981,-291,4,-13,4,-15,62,1500.0,80.0
17:27:24.613,LAND,-35.3632621,149.1652399,51170,-0.00521721038967371,-0.0017413076711818576,0.15977244079113007,-0.2855936884880066,0.003696116153150797,-0.013581237755715847,0,-45,-981,-291,4,-13,4,-15,62,1500.0,80.0
17:27:24.816,LAND,-35.3632621,149.1652399,51170,-0.00521721038967371,-0.0017413076711818576,0.15977244079113007,-0.2855936884880066,0.003696116153150797,-0.013581237755715847,0,-45,-981,-291,4,-13,4,-15,62,1500.0,80.0
17:27:25.020,LAND,-35.3632621,149.1652399,51170,-0.00521721038967371,-0.0017413076711818576,0.15977244079113007,-0.2855936884880066,0.003696116153150797,-0.013581237755715847,0,-45,-981,-291,4,-13,4,-15,62,1500.0,80.0
17:27:25.222,LAND,-35.3632621,149.1652399,51170,-0.00521721038967371,-0.0017413076711818576,0.15977244079113007,-0.2855936884880066,0.003696116153150797,-0.013581237755715847,0,-45,-981,-291,4,-13,4,-15,62,1500.0,80.0
17:27:25.428,LAND,-35.3632621,149.1652399,51170,-0.00521721038967371,-0.0017413076711818576,0.15977244079113007,-0.2855936884880066,0.003696116153150797,-0.013581237755715847,0,-45,-981,-291,4,-13,4,-15,62,1500.0,80.0
17:27:25.634,LAND,-35.3632621,149.1652399,51170,-0.00521721038967371,-0.0017413076711818576,0.15977244079113007,-0.2855936884880066,0.003696116153150797,-0.013581237755715847,0,-45,-981,-291,4,-13,4,-15,62,1500.0,80.0
17:27:25.837,LAND,-35.3632621,149.1652399,51170,-0.00521721038967371,-0.0017413076711818576,0.15977244079113007,-0.2855936884880066,0.003696116153150797,-0.013581237755715847,0,-45,-981,-291,4,-13,4,-15,62,1500.0,80.0
17:27:26.042,LAND,-35.3632621,149.1652399,51170,-0.00521721038967371,-0.0017413076711818576,0.15977244079113007,-0.2855936884880066,0.003696116153150797,-0.013581237755715847,0,-45,-981,-291,4,-13,4,-15,62,1500.0,80.0
17:27:26.258,LAND,-35.3632625,149.1652403,50253,-0.03437045216560364,-0.0009357585804536939,0.1399558186531067,-1.0658137798309326,-0.0006368393078446388,-0.013441900722682476,2,-28,-1008,-1063,0,-13,5,-18,58,1500.0,80.0
17:27:26.465,LAND,-35.3632625,149.1652407,49941,-0.03791482746601105,-0.0024490002542734146,0.13369528949260712,-0.8496949076652527,-0.0002866923459805548,-0.01201498694717884,2,-20,-1000,-846,0,-11,6,-20,59,1500.0,80.0
17:27:26.671,LAND,-35.3632625,149.1652407,49941,-0.03791482746601105,-0.0024490002542734146,0.13369528949260712,-0.8496949076652527,-0.0002866923459805548,-0.01201498694717884,2,-20,-1000,-846,0,-11,6,-20,59,1500.0,80.0
17:27:26.874,LAND,-35.3632625,149.1652407,49941,-0.03791482746601105,-0.0024490002542734146,0.13369528949260712,-0.8496949076652527,-0.0002866923459805548,-0.01201498694717884,2,-20,-1000,-846,0,-11,6,-20,59,1500.0,80.0
17:27:27.084,LAND,-35.3632625,149.1652407,49941,-0.03791482746601105,-0.0024490002542734146,0.13369528949260712,-0.8496949076652527,-0.0002866923459805548,-0.01201498694717884,2,-20,-1000,-846,0,-11,6,-20,59,1500.0,80.0
17:27:27.289,LAND,-35.3632625,149.1652407,49941,-0.03791482746601105,-0.0024490002542734146,0.13369528949260712,-0.8496949076652527,-0.0002866923459805548,-0.01201498694717884,2,-20,-1000,-846,0,-11,6,-20,59,1500.0,80.0
17:27:27.491,LAND,-35.3632625,149.1652407,49941,-0.03791482746601105,-0.0024490002542734146,0.13369528949260712,-0.8496949076652527,-0.0002866923459805548,-0.01201498694717884,2,-20,-1000,-846,0,-11,6,-20,59,1500.0,80.0
17:27:27.694,LAND,-35.3632625,149.1652407,49941,-0.03791482746601105,-0.0024490002542734146,0.13369528949260712,-0.8496949076652527,-0.0002866923459805548,-0.01201498694717884,2,-20,-1000,-846,0,-11,6,-20,59,1500.0,80.0
17:27:27.896,LAND,-35.3632625,149.1652407,49941,-0.03791482746601105,-0.0024490002542734146,0.13369528949260712,-0.8496949076652527,-0.0002866923459805548,-0.01201498694717884,2,-20,-1000,-846,0,-11,6,-20,59,1500.0,80.0
17:27:28.101,LAND,-35.363263,149.1652414,49017,-0.006953007075935602,-0.00671806838363409,0.11692406982183456,1.0451743602752686,-0.007344603072851896,-0.009768126532435417,0,61,-1014,930,-3,-12,7,-30,57,1500.0,80.0
17:27:28.303,LAND,-35.363263,149.165241,48708,0.0011937939561903477,-0.01010036189109087,0.11135909706354141,0.6837835311889648,-0.01868257485330105,-0.006913729943335056,-1,-2,-927,678,-17,-6,7,-32,67,1500.0,180.0
17:27:28.506,LAND,-35.363263,149.165241,48708,0.0011937939561903477,-0.01010036189109087,0.11135909706354141,0.6837835311889648,-0.01868257485330105,-0.006913729943335056,-1,-2,-927,678,-17,-6,7,-32,67,1500.0,180.0
17:27:28.711,LAND,-35.363263,149.165241,48708,0.0011937939561903477,-0.01010036189109087,0.11135909706354141,0.6837835311889648,-0.01868257485330105,-0.006913729943335056,-1,-2,-927,678,-17,-6,7,-32,67,1500.0,180.0
17:27:28.916,LAND,-35.363263,149.165241,48708,0.0011937939561903477,-0.01010036189109087,0.11135909706354141,0.6837835311889648,-0.01868257485330105,-0.006913729943335056,-1,-2,-927,678,-17,-6,7,-32,67,1500.0,180.0
17:27:29.119,LAND,-35.363263,149.165241,48708,0.0011937939561903477,-0.01010036189109087,0.11135909706354141,0.6837835311889648,-0.01868257485330105,-0.006913729943335056,-1,-2,-927,678,-17,-6,7,-32,67,1500.0,180.0
17:27:29.321,LAND,-35.363263,149.165241,48708,0.0011937939561903477,-0.01010036189109087,0.11135909706354141,0.6837835311889648,-0.01868257485330105,-0.006913729943335056,-1,-2,-927,678,-17,-6,7,-32,67,1500.0,180.0
17:27:29.523,LAND,-35.363263,149.165241,48708,0.0011937939561903477,-0.01010036189109087,0.11135909706354141,0.6837835311889648,-0.01868257485330105,-0.006913729943335056,-1,-2,-927,678,-17,-6,7,-32,67,1500.0,180.0
17:27:29.725,LAND,-35.363263,149.165241,48708,0.0011937939561903477,-0.01010036189109087,0.11135909706354141,0.6837835311889648,-0.01868257485330105,-0.006913729943335056,-1,-2,-927,678,-17,-6,7,-32,67,1500.0,180.0
