time_stamp,lat,lon,relative_alt,vx,vy,vz,xacc,yacc,zacc,xgyro,ygyro,zgyro,roll,pitch,yaw,rollspeed,pitchspeed,yawspeed,RTL_ALT,MODE
18:05:05,-35.3632621,149.1652375,0.0,0.0,0.3333333333333333,2.0,0.0,1.6666666666666667,-1000.0,0.3333333333333333,0.6666666666666666,0.6666666666666666,-0.0007007925499541064,0.0011090629268437624,0.022959517935911816,0.00030443336193760234,0.00025012871871391934,0.0016160528563583891,1500.0,AUTO
18:05:06,-35.3632621,149.16523746666667,0.0,0.0,0.0,1.0,0.0,1.6666666666666667,-1000.0,0.0,0.0,0.3333333333333333,-0.00046051245105142397,0.001443842852798601,0.022632302716374397,0.0002553625381551683,0.0002499136026017368,0.0015718926830838125,64744.0,AUTO
18:05:07,-35.3632621,149.1652374,0.0,0.0,0.0,0.6666666666666666,0.0,1.3333333333333333,-1000.0,0.3333333333333333,0.0,0.3333333333333333,-0.00027193122271758813,0.0016746363835409284,0.022397686416904133,0.0003493109834380448,0.00031488394597545266,0.0014458861357222001,64744.0,AUTO
18:05:09,-35.363262033333335,149.16523759999998,1515.0,1.0,7.0,-144.0,0.0,-0.6666666666666666,-1016.6666666666666,45.666666666666664,-6.333333333333333,1.6666666666666667,0.02535095065832138,-0.0014803923841100186,0.021938070033987362,0.0458832693596681,-0.00754710736994942,0.0024928933707997203,64744.0,AUTO
18:05:10,-35.363261333333334,149.1652415,3428.3333333333335,7.666666666666667,50.666666666666664,-145.66666666666666,2.3333333333333335,-11.0,-997.3333333333334,-114.66666666666667,43.0,-79.33333333333333,0.025750137865543365,0.012092890062679848,-0.034625036331514515,-0.11607056607802708,0.04248430393636227,-0.07924371461073558,261717.0,AUTO
18:05:11,-35.363260966666665,149.16524513333331,4569.666666666667,-1.0,32.0,-149.0,4.333333333333333,-8.333333333333334,-1005.0,-31.333333333333332,-15.333333333333334,-43.333333333333336,-0.037196857233842216,0.015576596682270369,-0.07937359809875488,-0.03235313482582569,-0.016592352961500485,-0.04337158674995104,261717.0,AUTO
18:05:13,-35.363261333333334,149.16524053333333,7655.666666666667,-1.3333333333333333,-56.666666666666664,-151.0,-6.666666666666667,11.333333333333334,-1002.6666666666666,64.33333333333333,13.666666666666666,2.3333333333333335,-0.0065995557233691216,-0.004165387925847123,-0.09123239666223526,0.06447355945905049,0.01316951805104812,0.0031458865075061717,261717.0,AUTO
18:05:14,-35.36326173333333,149.1652347,9608.333333333334,-6.0,-10.666666666666666,-152.66666666666666,-1.6666666666666667,4.0,-996.6666666666666,-6.333333333333333,2.0,2.0,0.058480095118284225,0.008977461140602827,-0.08809126416842143,-0.007048534074177344,0.001564224250614643,0.002391683248182138,300000.0,AUTO
18:05:15,-35.363262166666665,149.16523493333332,10768.0,-5.666666666666667,16.333333333333332,-149.66666666666666,2.6666666666666665,-1.6666666666666667,-999.6666666666666,-61.333333333333336,-13.333333333333334,-1.3333333333333333,0.01629160065203905,0.0008031355197696636,-0.08763972421487172,-0.06254412233829498,-0.014505348789195219,-0.0010736877835976582,300000.0,AUTO
18:05:17,-35.3632622,149.16523643333332,13878.0,3.0,-4.0,-152.66666666666666,-1.0,0.0,-1000.0,13.666666666666666,6.666666666666667,-21.666666666666668,-0.0016078680055215955,-0.0001849959953688085,-0.1266655996441841,0.013480845838785172,0.006560117782404025,-0.022004916643102963,300000.0,AUTO
18:05:18,-35.363261800000004,149.1652357,15827.333333333334,0.6666666666666666,-1.3333333333333333,-153.0,-1.0,0.0,-999.6666666666666,3.3333333333333335,1.6666666666666667,-14.0,0.00844781550889214,0.005675790831446648,-0.1510396550099055,0.0029708372991687306,0.0014481016163093348,-0.014288410233954588,241137.0,AUTO
18:05:19,-35.3632617,149.1652356,16999.333333333332,-0.6666666666666666,2.0,-153.0,0.0,0.0,-999.6666666666666,-1.0,0.0,-14.0,0.008088197403897842,0.005989987713595231,-0.1618981013695399,-0.0021187327608155706,-0.0008535133674740791,-0.01381765678524971,241137.0,AUTO
18:05:21,-35.363261666666666,149.16523596666664,20107.0,-3.6666666666666665,1.0,-151.0,0.0,0.0,-993.0,-63.666666666666664,12.333333333333334,3.6666666666666665,-0.0187922006395335,0.004434059762085478,-0.19234016040960947,-0.06494995827476184,0.012044398269305626,0.0038957782089710236,241137.0,AUTO
18:05:22,-35.3632633,149.16523329999998,21889.666666666668,-31.0,-31.333333333333332,-119.33333333333333,1.3333333333333333,10.0,-956.6666666666666,111.0,-128.66666666666666,106.66666666666667,0.003328608814626932,0.0017376889009028673,0.07615915313363075,0.11074433227380116,-0.13021117448806763,0.10707319031159084,278008.0,AUTO
18:05:23,-35.36326473333333,149.16523153333333,22687.333333333332,-9.333333333333334,-1.3333333333333333,-89.66666666666667,0.6666666666666666,3.3333333333333335,-965.6666666666666,12.666666666666666,5.0,-35.333333333333336,0.053944903115431465,-0.04113297909498215,0.07181604454914729,0.01199877168983221,0.004522240410248439,-0.03539196960628033,278008.0,AUTO
18:05:25,-35.36326246666667,149.16523706666666,23935.0,15.666666666666666,32.0,-37.333333333333336,0.0,-8.666666666666666,-976.6666666666666,-16.666666666666668,13.0,-1.0,-0.003563119525400301,0.012286026030778885,0.05622046316663424,-0.017936424041787784,0.01267592174311479,-0.0009862333827186376,278008.0,AUTO
18:05:26,-35.3632612,149.16523983333335,24190.0,2.3333333333333335,8.666666666666666,-1.3333333333333333,0.0,2.0,-962.3333333333334,54.666666666666664,7.666666666666667,-5.0,-0.021644060810407,0.01861384976655245,0.05153213068842888,0.05414251626158754,0.00670949462801218,-0.005309662626435359,200.0,AUTO
18:05:27,-35.36326136666666,149.16523963333333,24089.0,-13.666666666666666,-11.333333333333334,18.0,0.3333333333333333,-16.333333333333332,-1000.0,-190.33333333333334,13.333333333333334,-6.0,-0.01245145701492826,0.03224599175155163,0.048893759648005165,-0.19100927313168845,0.01266756079470118,-0.006229794894655545,200.0,AUTO
18:05:29,-35.36327073333334,149.1652391,23897.666666666668,-108.0,29.0,0.0,25.666666666666668,12.0,-1000.3333333333334,151.66666666666666,23.0,798.3333333333334,0.07148948560158412,0.06524525582790375,0.548005074262619,0.1501082479953766,0.022607460307578247,0.7991323073705038,200.0,AUTO
18:05:30,-35.36328843333333,149.16524316666667,23836.333333333332,-217.33333333333334,71.33333333333333,5.333333333333333,17.0,-43.0,-999.3333333333334,167.66666666666666,3.3333333333333335,1224.3333333333333,0.15020530919233957,-0.05180472399418553,1.6553540229797363,0.16638588905334473,0.0019698756902168193,1.225226918856303,200.0,AUTO
18:05:31,-35.36330563333333,149.16524820000004,23761.0,-298.6666666666667,98.0,9.333333333333334,-44.333333333333336,-51.333333333333336,-1003.0,77.0,-11.0,1130.6666666666667,0.0699804766724507,-0.16765287021795908,2.5713069438934326,0.07577626407146454,-0.012513562687672675,1.1313175559043884,200.0,AUTO
18:05:33,-35.36337903333333,149.16527243333334,23453.666666666668,-508.3333333333333,146.33333333333334,12.0,-110.33333333333333,-58.333333333333336,-1009.3333333333334,45.0,57.333333333333336,-12.666666666666666,0.054468623052040734,-0.1935100108385086,2.9419362545013428,0.04373323172330856,0.056665574510892235,-0.012547514867037535,200.0,AUTO
18:05:34,-35.363441566666665,149.1652930666667,23290.666666666668,-582.0,147.66666666666666,11.0,-129.0,-73.33333333333333,-990.3333333333334,-0.3333333333333333,16.333333333333332,-0.6666666666666666,0.07672460873921712,-0.1624456246693929,2.9437286853790283,-0.0023628704560299716,0.015942787266491603,-0.0006442929152399302,33316.0,AUTO
18:05:35,-35.36348243333333,149.16530553333334,23172.666666666668,-608.3333333333334,145.66666666666666,13.333333333333334,-128.33333333333334,-77.66666666666667,-989.3333333333334,-13.333333333333334,25.333333333333332,2.3333333333333335,0.07570597032705943,-0.1472863107919693,2.9422292709350586,-0.015323558201392492,0.024695010855793953,0.0027251727879047394,33316.0,AUTO
18:05:37,-35.363594733333336,149.1653382,22815.666666666668,-614.3333333333334,143.66666666666666,18.0,-123.66666666666667,-80.0,-992.3333333333334,10.333333333333334,28.0,-2.6666666666666665,0.07341012855370839,-0.11245038857062657,2.937363942464193,0.008885224039355913,0.026757520623505116,-0.0028052016083771982,33316.0,AUTO
18:05:38,-35.3636626,149.16535773333334,22612.333333333332,-570.0,134.66666666666666,12.666666666666666,-112.33333333333333,-74.33333333333333,-990.6666666666666,22.0,45.0,-2.6666666666666665,0.07272747655709584,-0.051308845480283104,2.9359756310780845,0.0203689852108558,0.04450194165110588,-0.0030778676737099886,173934.0,AUTO
18:05:39,-35.36369976666666,149.16536813333335,22499.0,-514.6666666666666,122.33333333333333,15.0,-105.33333333333333,-72.0,-988.6666666666666,-233.0,49.333333333333336,-3.6666666666666665,0.059686449666817985,-0.014478691310311357,2.935910781224569,-0.2348804660141468,0.04869805028041204,-0.0034336067425707975,173934.0,AUTO
18:05:41,-35.3637746,149.16538943333333,22174.666666666668,-296.6666666666667,71.33333333333333,11.666666666666666,-63.666666666666664,-21.666666666666668,-1009.0,286.0,4.666666666666667,-21.333333333333332,0.04282840962211291,0.055152626087268196,2.9336270491282144,0.2840200364589691,0.0030526181993385157,-0.02157446049871699,173934.0,AUTO
18:05:42,-35.3638009,149.1653965,22056.666666666668,-163.33333333333334,36.666666666666664,5.0,-33.666666666666664,-31.0,-1017.3333333333334,-408.0,10.666666666666666,-1.3333333333333333,0.008945073932409286,0.08062134683132172,2.9311458269755044,-0.4102766315142314,0.009951929872234663,-0.0012222607620060444,96678.0,AUTO
18:05:43,-35.363809800000006,149.16539816666668,22024.666666666668,-91.0,24.0,3.0,-16.666666666666668,-16.333333333333332,-1007.0,132.66666666666666,-26.666666666666668,3.6666666666666665,-0.002401693840511143,0.06600235526760419,2.92930269241333,0.13167069355646768,-0.028171639268596966,0.0037240233893195787,96678.0,AUTO
18:05:45,-35.36381683333334,149.16539980000002,22019.333333333332,6.333333333333333,13.666666666666666,0.0,-0.6666666666666666,14.666666666666666,-999.0,206.0,-23.333333333333332,-3.3333333333333335,-0.015265893656760454,0.022217532619833946,2.9277101357777915,0.20476425687472025,-0.025272634501258533,-0.004198307986371219,96678.0,AUTO
18:05:46,-35.3638163,149.1654005,22029.333333333332,10.0,12.666666666666666,0.0,-1.6666666666666667,16.0,-1003.3333333333334,268.0,4.333333333333333,-6.666666666666667,-0.009762835844109455,-0.00835146801546216,2.926427125930786,0.26751116290688515,0.0031043831259012222,-0.00736860806743304,300000.0,RTL
18:05:47,-35.3638162,149.1654013,22035.333333333332,5.333333333333333,11.0,-2.6666666666666665,-1.6666666666666667,6.333333333333333,-1012.0,35.0,17.333333333333332,-2.3333333333333335,-0.004032864235341549,-0.00016624759882688522,2.9244826634724936,0.033765522142251335,0.01608616781110565,-0.0028321511150958636,300000.0,RTL
18:05:49,-35.3638162,149.16540283333333,22737.0,6.0,-1.6666666666666667,-78.66666666666667,-0.6666666666666666,-0.3333333333333333,-1047.3333333333333,-12.0,2.3333333333333335,0.6666666666666666,-0.00038108581308430683,0.00396783269631366,2.9199817180633545,-0.012934591621160507,0.0009683001941690842,0.000771728683806335,300000.0,RTL
18:05:50,-35.3638161,149.16540316666666,24102.666666666668,6.0,-5.333333333333333,-134.0,0.0,0.0,-1038.0,20.0,0.6666666666666666,3.0,0.0017050705840423082,0.002909058278116087,2.9184229373931885,0.01903653369906048,-0.001207847419815759,0.0028777197391415634,105148.0,RTL
18:05:51,-35.363816033333336,149.16540293333333,25203.0,2.0,-16.666666666666668,-148.33333333333334,0.3333333333333333,-0.6666666666666666,-1005.3333333333334,47.0,-8.333333333333334,3.3333333333333335,0.029134855295221012,-0.0036425945387842753,2.91816782951355,0.04651152715086937,-0.010673425160348415,0.00317761340799431,105148.0,RTL
18:05:53,-35.36381776666666,149.16539583333332,28242.666666666668,1.3333333333333333,-19.0,-149.33333333333334,3.6666666666666665,-4.0,-1006.0,-5.666666666666667,-29.666666666666668,-20.0,-0.06737629572550456,0.00585680998240908,2.8358851273854575,-0.0067050401121377945,-0.032344252026329436,-0.020978223532438278,105148.0,RTL
18:05:54,-35.3638168,149.16539823333332,30177.0,11.666666666666666,36.666666666666664,-150.33333333333334,-4.0,8.0,-1001.3333333333334,58.666666666666664,7.333333333333333,-3.6666666666666665,-0.02621184630940358,-0.009707370772957802,2.826507568359375,0.057749381909767784,0.005699509754776955,-0.004790144351621469,208353.0,RTL
18:05:55,-35.363815800000005,149.1654016,31349.0,10.666666666666666,32.0,-151.0,-4.0,8.0,-1000.0,32.0,5.666666666666667,1.0,0.010422146879136562,-0.0037952181107054153,2.8224716186523438,0.031175097761054833,0.003906772704795003,0.0005319585713247458,208353.0,RTL
18:05:57,-35.3638145,149.16540486666668,34450.333333333336,-2.0,-1.3333333333333333,-151.0,0.0,0.0,-1000.3333333333334,-7.333333333333333,2.3333333333333335,-11.666666666666666,0.002143247635103762,-0.0053126079340775805,2.817516644795736,-0.009470288331309954,0.0011163574721043308,-0.012770391690234343,208353.0,RTL
18:05:58,-35.363814633333334,149.1654048,36393.0,-5.0,-3.0,-151.33333333333334,0.0,-0.3333333333333333,-1000.0,2.3333333333333335,3.3333333333333335,-18.0,-0.0030870343713710704,-0.0026949798533072076,2.7939064502716064,0.0012297747113431494,0.0018857526980961363,-0.019721926500399906,300000.0,RTL
18:05:59,-35.363814866666665,149.16540473333333,37561.666666666664,-4.666666666666667,-3.0,-152.0,0.0,-0.3333333333333333,-1000.0,1.6666666666666667,3.3333333333333335,-20.0,-0.003192413986350099,-0.0007754145675183585,2.7773563067118325,0.0005369860834131638,0.001981033400322,-0.021326045816143353,300000.0,RTL
18:06:01,-35.3638151,149.165404,40687.0,-2.0,-5.0,-152.0,0.0,-0.3333333333333333,-1000.0,1.3333333333333333,0.0,-18.333333333333332,-0.004591380866865317,-0.0007858153452010205,2.7343149185180664,-0.00017003024307390055,-0.0015906903427094221,-0.0198731937756141,300000.0,RTL
18:06:02,-35.3638151,149.16540343333335,42636.0,-1.0,-4.0,-152.0,0.0,0.0,-1000.0,1.3333333333333333,0.6666666666666666,-19.0,-0.0053661237470805645,-0.001879701274447143,2.707688808441162,0.0005054680320123831,-0.0010639269603416324,-0.020535653457045555,200.0,RTL
18:06:03,-35.3638151,149.1654032,43805.0,-1.0,-3.0,-152.0,0.0,0.0,-1000.0,2.3333333333333335,1.0,-19.333333333333332,-0.005487201735377312,-0.0021247866097837687,2.6913259029388428,0.0010911400119463603,-4.514562897384167e-05,-0.020803566401203472,200.0,RTL
18:06:05,-35.3638151,149.16540286666668,46923.666666666664,-1.0,-2.0,-153.0,0.0,0.0,-999.6666666666666,1.6666666666666667,1.3333333333333333,-18.666666666666668,-0.004401509029169877,-0.0015751746638367574,2.648179769515991,0.000577008274073402,1.9167006636659305e-05,-0.020270407820741337,200.0,RTL
18:06:06,-35.3638151,149.16540266666667,48870.0,-0.6666666666666666,-4.0,-152.0,0.0,0.0,-1000.0,1.6666666666666667,1.0,20.333333333333332,-0.0016008665940413873,0.0012020505576704938,2.644714673360189,0.00017404404934495687,-0.00027086702175438404,0.019698667029539745,239556.0,RTL
18:06:07,-35.3638151,149.1654023,50035.333333333336,0.0,-5.666666666666667,-152.0,0.0,0.0,-1000.0,-2.0,0.0,28.333333333333332,-0.0038371381039420762,-4.320924441951017e-06,2.662667195002238,-0.0038625867649291954,-0.0021514967860033116,0.02746402534345786,239556.0,RTL
18:06:09,-35.3638151,149.16540166666667,53134.666666666664,0.0,-1.6666666666666667,-152.0,0.0,0.0,-1000.0,3.0,1.0,21.666666666666668,-0.0065847840160131454,-0.002186880291750034,2.712000290552775,0.0018894488457590342,-0.00011492229532450438,0.02099606084326903,239556.0,RTL
18:06:10,-35.3638151,149.16540163333332,55075.333333333336,0.0,0.0,-152.0,0.0,0.0,-1000.0,2.0,1.6666666666666667,17.666666666666668,-0.005544764610628287,-0.0018631895460809271,2.734430948893229,0.0008927304685736696,0.00029043232401212055,0.017227974409858387,200.0,RTL
18:06:11,-35.3638151,149.1654017666667,56238.333333333336,0.0,0.0,-152.0,0.0,0.0,-1000.0,2.3333333333333335,2.6666666666666665,18.333333333333332,-0.004857412228981654,-0.0006745235878042877,2.746298392613729,0.0013081123276303213,0.0015666609397158027,0.017568772037823994,200.0,RTL
18:06:13,-35.3638153,149.16540213333334,59348.0,0.0,-1.0,-152.0,0.0,0.0,-1000.0,1.3333333333333333,0.6666666666666666,13.333333333333334,-0.004421400837600231,-0.00013940756919813188,2.772221326828003,0.00014874114034076533,-0.000401447721136113,0.012655972192684809,200.0,RTL
18:06:14,-35.3638153,149.1654023,61285.666666666664,0.0,-1.0,-152.0,0.0,0.0,-1000.0,1.0,1.6666666666666667,11.333333333333334,-0.0043752311418453855,-0.00018777484365273267,2.784654219945272,1.8599792383611202e-05,0.0003474464950462182,0.010626891007026037,295226.0,RTL
18:06:15,-35.3638153,149.1654023,62454.333333333336,0.0,-1.6666666666666667,-152.0,0.0,0.0,-1000.0,0.6666666666666666,1.0,9.0,-0.004480873389790456,-0.0004578448715619743,2.7915040651957193,-0.0007417980038250486,-0.00032890021490554017,0.008303967925409475,295226.0,RTL
18:06:17,-35.3638154,149.1654024,65567.66666666667,0.0,-2.0,-152.0,0.0,0.0,-1000.6666666666666,3.0,1.3333333333333333,8.0,-0.004967574340601762,0.00012430117203621194,2.805939515431722,0.0018256358259047072,-0.00015261132890979448,0.0070029073394834995,295226.0,RTL
18:06:18,-35.3638154,149.1654024,67500.33333333333,0.6666666666666666,-1.6666666666666667,-152.0,0.0,0.0,-1000.0,1.6666666666666667,1.6666666666666667,8.0,-0.004814321951319774,-0.0003789060768516113,2.813701311747233,0.0005416638838748137,0.0004691596841439605,0.007235826924443245,300000.0,RTL
18:06:19,-35.3638154,149.1654024,68670.66666666667,0.0,-1.0,-152.0,0.0,0.0,-1000.0,0.6666666666666666,0.6666666666666666,7.666666666666667,-0.004908260268469651,-0.0006310040868508319,2.8182483514149985,-0.0006656713085249066,-0.0008215606600667039,0.007073843851685524,300000.0,RTL
18:06:21,-35.3638154,149.1654024,71770.0,0.0,-1.0,-152.0,0.0,0.0,-999.6666666666666,1.6666666666666667,1.0,8.666666666666666,-0.004812492833783229,-0.0008570876865026852,2.828784942626953,0.00017614522948861122,-0.00014528853353112936,0.007621134010454019,300000.0,RTL
18:06:22,-35.3638154,149.1654024,73719.33333333333,0.0,-1.0,-152.0,0.0,0.0,-1000.0,1.6666666666666667,2.0,6.666666666666667,-0.004684248783936103,-0.0006437740909556547,2.834949254989624,0.0002882470143958926,0.0004958999343216419,0.005645755988856156,200.0,RTL
18:06:23,-35.3638154,149.1654024,74883.66666666667,0.0,-1.0,-152.0,0.0,0.0,-999.6666666666666,0.3333333333333333,0.6666666666666666,6.333333333333333,-0.0046289182888964815,-0.0005891300097573549,2.838366667429606,-0.0011855746464182932,-0.0007499028773357471,0.005674163345247507,200.0,RTL
18:06:25,-35.3638154,149.1654024,77993.0,0.0,-1.0,-152.0,0.0,0.0,-1000.3333333333334,1.6666666666666667,2.0,5.666666666666667,-0.004569585590312879,-0.000754241831600666,2.8471697171529136,5.4554276478787265e-05,0.0006059928564354777,0.00459774537011981,200.0,RTL
18:06:26,-35.3638154,149.1654024,79929.33333333333,0.0,-2.0,-152.0,0.0,0.0,-1000.3333333333334,2.0,1.0,5.0,-0.004576366705199082,-0.00045607446615273756,2.8514797687530518,0.0007463267538696527,-0.0006658689041311542,0.004121251404285431,226231.0,RTL
18:06:27,-35.3638154,149.1654025,81096.66666666667,0.0,-2.0,-152.0,0.0,0.0,-999.6666666666666,1.0,1.3333333333333333,6.0,-0.004271400161087513,-0.00047833188242899877,2.854196548461914,-0.0006836617443089684,9.589339606463909e-05,0.004726652521640062,226231.0,RTL
18:06:29,-35.3638154,149.1654025,84199.66666666667,0.0,-2.0,-152.0,0.0,0.0,-1000.0,1.3333333333333333,2.3333333333333335,5.333333333333333,-0.004651317683358987,-0.0003976377095871915,2.860363562901815,-0.0009095551601300637,0.0006221990721921126,0.003969795691470305,226231.0,RTL
18:06:30,-35.3638154,149.1654025,86140.33333333333,0.0,-2.0,-152.0,0.0,0.0,-1000.0,1.3333333333333333,1.0,5.0,-0.004713210587700208,6.317014170538944e-05,2.8638435204823813,-0.0005579687810192505,-0.00044602248817682266,0.003618417113708953,4180.0,RTL
18:06:31,-35.3638154,149.1654025,87304.33333333333,0.6666666666666666,-2.0,-152.0,0.0,0.0,-999.6666666666666,2.0,1.0,5.0,-0.004753329791128635,-9.642067986230056e-05,2.8658269246419272,0.00012941216118633747,-0.00043473691524316865,0.003963001848508914,4180.0,RTL
18:06:33,-35.3638154,149.1654025,90414.66666666667,0.0,-2.0,-152.0,0.0,0.0,-1000.0,0.0,2.3333333333333335,3.3333333333333335,-0.00492635415866971,-0.00035001470435721177,2.870323896408081,-0.0017717649461701512,0.00038390234112739563,0.002059341020261248,4180.0,RTL
18:06:34,-35.3638154,149.1654025,92352.0,1.0,-1.0,-152.0,0.0,0.0,-1000.0,2.3333333333333335,1.3333333333333333,3.6666666666666665,-0.004891135419408481,-0.00038536041392944753,2.8727967739105225,0.0004968852736055851,-0.00018654992648710808,0.002629104924077789,254716.0,RTL
18:06:35,-35.3638154,149.1654025,93517.66666666667,0.6666666666666666,-1.0,-152.0,0.0,0.0,-999.6666666666666,2.6666666666666665,1.3333333333333333,4.666666666666667,-0.004665491947283347,-0.0007181437006996324,2.874299923578898,0.0008540754982580742,-0.0002286041077847282,0.0034830793738365173,254716.0,RTL
18:06:37,-35.3638154,149.1654025,96633.0,0.0,-1.3333333333333333,-152.0,0.0,0.0,-1000.0,1.0,1.3333333333333333,2.3333333333333335,-0.004648765704284112,-0.0005612679718372723,2.877869129180908,-0.0003261616996799906,-0.00017123906097064415,0.0013576175939912598,254716.0,RTL
18:06:38,-35.3638154,149.1654025,98566.33333333333,0.0,-2.0,-152.0,0.0,0.0,-1000.0,2.3333333333333335,2.0,2.3333333333333335,-0.004636489320546389,-0.000473900397385781,2.880136410395304,0.0006914531501630942,0.0004515597829595208,0.001250942936167121,247785.0,RTL
18:06:39,-35.3638154,149.1654025,99734.33333333333,0.0,-2.0,-152.0,0.0,0.0,-999.6666666666666,1.3333333333333333,2.0,2.3333333333333335,-0.0046216983658572035,-0.00034242439627026516,2.881054401397705,-0.0004031093946347634,0.0005033591296523809,0.0010759055924912293,247785.0,RTL
18:06:41,-35.3638154,149.1654025,102838.0,0.0,-2.0,-152.0,0.0,0.0,-999.6666666666666,1.6666666666666667,2.3333333333333335,4.333333333333333,-0.00416759339471658,-0.0004820185325418909,2.88452943166097,-0.0002436207141727209,0.0007735679779822627,0.0029394709272310138,247785.0,RTL
18:06:42,-35.3638154,149.1654025,104787.33333333333,0.0,-2.0,-152.0,0.0,0.0,-1000.0,2.0,2.6666666666666665,3.3333333333333335,-0.004541224489609401,0.00013964875567277582,2.886016925175985,0.0002353674111266931,0.0007415983515481154,0.002028890225725869,300000.0,RTL
18:06:43,-35.3638154,149.1654025,105951.33333333333,0.6666666666666666,-2.0,-152.0,0.0,0.0,-1000.3333333333334,3.0,2.0,1.6666666666666667,-0.004756437304119269,-3.4859785955632105e-06,2.8868372440338135,0.0011854301361987989,0.0004741558029005925,0.0003782121930271387,300000.0,RTL
18:06:45,-35.3638154,149.16540246666668,109059.33333333333,3.3333333333333335,-2.3333333333333335,-151.33333333333334,0.0,0.0,-998.3333333333334,0.6666666666666666,44.0,3.3333333333333335,-0.005275807188202937,0.012850256015857061,2.8889236450195312,-0.0015442636019239824,0.04226237287123998,0.002263605322999259,300000.0,RTL
18:06:46,-35.363813099999994,149.16540166666667,110971.0,48.333333333333336,-14.333333333333334,-148.0,7.0,3.6666666666666665,-997.0,-2.6666666666666665,33.666666666666664,3.0,-0.008939076059808334,0.06472693756222725,2.8896396160125732,-0.005663474556058645,0.03196672288080057,0.00169903125303487,101079.0,RTL
18:06:47,-35.36380843333333,149.16540013333332,112090.66666666667,93.33333333333333,-26.0,-143.66666666666666,14.666666666666666,9.0,-994.6666666666666,-6.333333333333333,16.666666666666668,1.3333333333333333,-0.01472075500835975,0.08534896125396092,2.890379031499227,-0.008795312023721635,0.014462378807365894,6.811396451666951e-05,101079.0,RTL
18:06:49,-35.36378093333334,149.16539543333332,114326.66666666667,181.0,-8.666666666666666,-47.333333333333336,38.333333333333336,13.333333333333334,-928.6666666666666,75.66666666666667,-100.0,108.0,-0.007915901175389687,-0.011655719950795174,-2.9117465019226074,0.07393378019332886,-0.10269678259889285,0.10666051382819812,101079.0,RTL
18:06:50,-35.3637641,149.1653916,114423.66666666667,127.66666666666667,-52.666666666666664,25.333333333333332,33.333333333333336,4.666666666666667,-973.0,468.6666666666667,75.33333333333333,-35.0,0.034703114380439125,0.010656547732651234,-2.8845082918802896,0.4679715173939864,0.07373366256554921,-0.03744125762023032,132719.0,RTL
18:06:51,-35.36375573333333,149.165387,114207.33333333333,131.66666666666666,-66.66666666666667,23.333333333333332,33.666666666666664,-22.666666666666668,-1014.0,-584.6666666666666,36.666666666666664,-44.666666666666664,0.005816247876888762,0.05267075325051943,-2.914283355077108,-0.5875243842601776,0.03495150742431482,-0.04726079230507215,132719.0,RTL
18:06:53,-35.36372956666667,149.16537503333333,114012.33333333333,167.66666666666666,-52.333333333333336,-0.3333333333333333,39.666666666666664,20.666666666666668,-1002.3333333333334,301.6666666666667,-9.666666666666666,-32.666666666666664,-0.009225039432446161,0.05176582684119543,-3.005748748779297,0.29946195147931576,-0.012921946433683237,-0.03517128837605318,132719.0,RTL
18:06:54,-35.363711200000004,149.1653698,114015.33333333333,171.66666666666666,-46.0,-1.3333333333333333,38.333333333333336,23.666666666666668,-999.6666666666666,277.3333333333333,-1.6666666666666667,-23.0,-0.00896276937176784,0.04164628187815348,-3.050321658452352,0.2749909454335769,-0.004023535215916733,-0.025558503965536754,71956.0,RTL
18:06:55,-35.36370016666667,149.16536676666666,114020.0,171.0,-45.0,-2.0,37.333333333333336,14.333333333333334,-999.6666666666666,-28.333333333333332,3.6666666666666665,-20.666666666666668,-0.015638830761114757,0.041942048817873,-3.074651082356771,-0.03130475928386053,0.001492098905146122,-0.023176506472130615,71956.0,RTL
18:06:57,-35.363670733333336,149.1653586,114021.33333333333,170.0,-41.666666666666664,-1.0,37.666666666666664,-2.0,-993.6666666666666,-289.0,5.333333333333333,-27.333333333333332,-0.016111380886286497,0.04144208257397016,-3.1257932980855307,-0.29180823763211566,0.0027806153520941734,-0.029626591131091118,71956.0,RTL
18:06:58,-35.363652333333334,149.165354,114023.0,170.66666666666666,-45.0,-1.6666666666666667,36.666666666666664,9.0,-1003.3333333333334,7.0,-2.6666666666666665,-23.666666666666668,-0.00691803249840935,0.04046923418839773,3.1313703854878745,0.003908005853494008,-0.005173744400963187,-0.02611026105781396,200.0,RTL
18:06:59,-35.36364123333333,149.1653514,114028.33333333333,170.33333333333334,-48.666666666666664,-1.0,35.0,30.333333333333332,-998.0,310.3333333333333,10.0,-5.333333333333333,-0.003685092437081039,0.038553470124801,3.1186233361562095,0.3073084404071172,0.00770031102001667,-0.007363897088604669,200.0,RTL
18:07:01,-35.3636118,149.1653442,114028.0,169.66666666666666,-61.333333333333336,-1.0,38.333333333333336,3.6666666666666665,-999.3333333333334,-110.0,1.6666666666666667,-21.0,-0.0005853761880037686,0.041210914651552834,3.0874532063802085,-0.1128816306591034,-0.000832433191438516,-0.02331829567750295,200.0,RTL
18:07:02,-35.363593400000006,149.16533846666667,114032.33333333333,169.33333333333334,-64.0,-0.6666666666666666,37.666666666666664,8.333333333333334,-990.3333333333334,16.0,6.0,-16.0,-0.008043119761471948,0.04419353355964025,3.073143243789673,0.013121381402015686,0.003203900841375192,-0.01809831145995607,155776.0,RTL
18:07:03,-35.363582400000006,149.1653341,114033.33333333333,170.0,-60.0,-0.3333333333333333,42.666666666666664,29.0,-1010.0,270.0,0.6666666666666666,4.0,-0.02249084785580635,0.04523243382573128,3.0666774908701577,0.26560285687446594,-0.0024973459852238498,0.001804966867590944,155776.0,RTL
18:07:05,-35.363552733333336,149.16532320000002,114030.66666666667,172.0,-39.666666666666664,0.0,39.0,-0.6666666666666666,-1003.3333333333334,-186.0,0.6666666666666666,-14.333333333333334,-0.03195216879248619,0.04154373084505399,3.050353686014811,-0.18942337234814963,-0.002319255222876867,-0.01699348942687114,155776.0,RTL
18:07:06,-35.363534066666666,149.16531696666667,114032.66666666667,171.0,-33.333333333333336,-0.3333333333333333,38.666666666666664,3.6666666666666665,-999.6666666666666,-213.0,2.0,-13.666666666666666,-0.03738550407191118,0.03989742944637934,3.0409058729807534,-0.21661624312400818,-0.0012693123426288366,-0.01601275211821,291260.0,RTL
18:07:07,-35.3635229,149.16531336666665,114033.66666666667,171.0,-29.0,-0.3333333333333333,38.333333333333336,16.666666666666668,-997.6666666666666,171.33333333333334,3.6666666666666665,-8.0,-0.032551620776454605,0.04064260795712471,3.03778076171875,0.1680017908414205,0.0005620382726192474,-0.010125260489682356,291260.0,RTL
18:07:09,-35.363493166666665,149.16530446666664,114031.33333333333,170.66666666666666,-25.333333333333332,-0.3333333333333333,34.333333333333336,16.0,-1000.0,-164.0,2.0,-2.3333333333333335,-0.037472947811086975,0.03760823359092077,3.025948921839396,-0.1678114334742228,-0.0012983162111292283,-0.004728198206673066,291260.0,RTL
18:07:10,-35.3634745,149.1652997,114035.66666666667,170.0,-28.0,0.0,34.666666666666664,23.666666666666668,-997.0,-162.66666666666666,0.6666666666666666,5.333333333333333,-0.030782080565889675,0.03711643690864245,3.019696076711019,-0.16648351152737936,-0.002426062167311708,0.0029635848477482796,29735.0,RTL
18:07:11,-35.3634634,149.165297,114034.0,169.0,-31.666666666666668,0.0,33.666666666666664,11.333333333333334,-996.6666666666666,-81.0,3.0,-6.0,-0.020276948809623718,0.03861628224452337,3.015474001566569,-0.0836578831076622,-0.00024422211572527885,-0.008260912882785002,29735.0,RTL
18:07:13,-35.3634337,149.1652888,114039.0,168.0,-40.666666666666664,0.0,36.0,24.666666666666668,-1002.6666666666666,-24.0,7.0,8.0,-0.0256476445744435,0.03816641618808111,3.0069116751352944,-0.027867624536156654,0.004115416047473748,0.0056328351298968,29735.0,RTL
18:07:14,-35.36341530000001,149.16528293333332,114040.33333333333,168.33333333333334,-41.0,0.0,35.333333333333336,11.0,-997.3333333333334,-300.3333333333333,2.0,-0.6666666666666666,-0.03673488522569338,0.0403329369922479,3.0023327668507895,-0.30398468176523846,-0.0009416445003201565,-0.002509142621420324,239793.0,RTL
18:07:15,-35.3634042,149.16527923333334,114038.66666666667,169.33333333333334,-38.0,0.0,38.0,22.333333333333332,-997.6666666666666,250.66666666666666,6.333333333333333,-5.0,-0.02840489149093628,0.03936414296428362,2.9992087682088218,0.24791955947875977,0.0030585501032570996,-0.007747496323039134,239793.0,RTL
18:07:17,-35.36337446666666,149.16526983333333,114044.66666666667,169.33333333333334,-34.0,0.0,36.333333333333336,26.0,-1000.3333333333334,-39.333333333333336,3.0,3.6666666666666665,-0.036185783644517265,0.037976641207933426,2.9924373626708984,-0.04328425725301107,0.00014368180806438127,0.0015937878439823787,239793.0,RTL
18:07:18,-35.36335586666667,149.16526413333332,114044.33333333333,170.0,-30.0,0.3333333333333333,32.0,30.666666666666668,-996.3333333333334,159.33333333333334,5.333333333333333,11.666666666666666,-0.033840142811338104,0.03580812240640322,2.9894214471181235,0.15600605805714926,0.001877802424132824,0.00942207818540434,163368.0,RTL
18:07:19,-35.363344633333334,149.16526113333336,114042.0,169.33333333333334,-30.0,0.0,34.666666666666664,11.666666666666666,-1004.0,-168.0,4.0,-3.0,-0.03096429631114006,0.034912995994091034,2.986994902292887,-0.17073907454808554,0.0010382790739337604,-0.0056541965653498965,163368.0,RTL
18:07:21,-35.36331476666667,149.1652533,114039.0,167.33333333333334,-37.666666666666664,0.3333333333333333,34.333333333333336,42.333333333333336,-999.3333333333334,551.6666666666666,5.666666666666667,11.333333333333334,-0.01451646847029527,0.034370437264442444,2.9822945594787598,0.5491553743680319,0.0020150626078248024,0.009173518357177576,163368.0,RTL
18:07:22,-35.363296,149.1652492333333,114038.0,166.0,-46.333333333333336,0.0,33.0,43.666666666666664,-1000.0,340.3333333333333,5.0,7.333333333333333,-0.004250843543559313,0.033313521494468055,2.9793588320414224,0.3369239618380864,0.001520950657625993,0.006091425350556771,200.0,RTL
18:07:23,-35.36328476666667,149.1652471,114042.33333333333,162.0,-53.666666666666664,0.0,31.0,4.333333333333333,-1001.3333333333334,-449.0,-48.333333333333336,-7.333333333333333,-0.00424435220581169,0.019032726452375453,2.976742664972941,-0.45223621527353924,-0.05224751867353916,-0.009601183662501475,200.0,RTL
18:07:25,-35.363262999999996,149.16524339999998,114054.33333333333,51.333333333333336,-47.333333333333336,0.3333333333333333,8.333333333333334,28.333333333333332,-1007.6666666666666,297.0,6.0,8.666666666666666,0.01753996576492985,-0.06646130482355754,2.9696219762166343,0.2926509976387024,0.00216888931269447,0.006551346275955439,200.0,RTL
18:07:26,-35.3632607,149.1652431,114044.0,-4.333333333333333,-40.333333333333336,1.3333333333333333,0.0,-3.6666666666666665,-981.0,-223.0,41.666666666666664,13.666666666666666,0.021496377264459927,-0.009736711120543381,2.9682774543762207,-0.227946807940801,0.038627794633309044,0.011481366430719694,245579.0,RTL
18:07:27,-35.36326093333333,149.16524249999998,114044.33333333333,-5.666666666666667,-40.333333333333336,0.0,1.6666666666666667,-22.666666666666668,-996.6666666666666,-308.3333333333333,24.0,7.666666666666667,0.0157560125614206,0.010501610270390907,2.9694949785868325,-0.3123593032360077,0.020964662233988445,0.005070546176284552,245579.0,RTL
18:07:29,-35.3632609,149.16523786666664,114037.0,2.0,-19.666666666666668,0.0,4.0,14.333333333333334,-1010.0,221.0,2.0,5.0,-0.021904150024056435,-0.0021663623241086802,2.967783530553182,0.21562124292055765,-0.0014768755839516718,0.0024325555035223565,245579.0,RTL
18:07:30,-35.36326116666667,149.16523583333333,114034.0,0.0,0.6666666666666666,-0.3333333333333333,1.3333333333333333,7.0,-998.6666666666666,80.33333333333333,7.333333333333333,5.0,-0.025242552782098453,-0.0001971424111009886,2.9659544626871743,0.07559614380200703,0.004167225134248535,0.0026674223287651935,263564.0,RTL
18:07:31,-35.363261566666665,149.16523516666666,114033.33333333333,0.0,10.0,0.0,1.0,-18.0,-1006.0,-240.0,4.0,2.3333333333333335,-0.026191025351484615,0.002006067428737879,2.9646023909250894,-0.2443152666091919,0.00041163875721395016,-0.0002124551683664322,263564.0,RTL
18:07:33,-35.363262399999996,149.1652339,114008.33333333333,4.333333333333333,24.0,13.333333333333334,0.3333333333333333,23.666666666666668,-958.3333333333334,599.3333333333334,4.333333333333333,4.333333333333333,-0.025089159607887268,0.0026079068581263223,2.962670087814331,0.5952576945225397,0.0006520220388968786,0.002088166152437528,263564.0,RTL
18:07:34,-35.363262666666664,149.1652335,113340.0,7.0,31.666666666666668,93.0,0.0,-47.0,-947.3333333333334,-254.33333333333334,1.3333333333333333,2.6666666666666665,-0.022563977787892025,0.0013773336928958695,2.961641470591227,-0.25646020472049713,-0.0018669702888776858,0.0004331397358328104,200.0,RTL
18:07:35,-35.3632627,149.16523366666667,112517.66666666667,7.0,33.0,116.33333333333333,0.0,-50.333333333333336,-960.6666666666666,-145.66666666666666,4.0,5.666666666666667,-0.014855900468925634,0.0008254979426662127,2.960817734400431,-0.147241972386837,0.000550200774644812,0.0032101677109797797,200.0,RTL
18:07:37,-35.3632628,149.16523379999998,110347.66666666667,8.0,34.666666666666664,99.33333333333333,-1.3333333333333333,-59.0,-964.3333333333334,-697.6666666666666,3.0,1.0,-0.023475535213947296,-0.0004896820610156283,2.9602534770965576,-0.6986997524897257,-0.0006943394740422567,-0.001551903667859733,200.0,RTL
18:07:38,-35.3632628,149.1652347,109059.33333333333,7.0,28.666666666666668,99.0,0.0,-69.33333333333333,-971.3333333333334,-786.3333333333334,4.0,-0.6666666666666666,-0.016164812880257767,0.0005395192129071802,2.9585213661193848,-0.7878188888231913,0.00029190707330902416,-0.003731376646707455,127334.0,RTL
18:07:39,-35.3632628,149.16523486666665,108286.33333333333,6.333333333333333,25.0,97.33333333333333,0.0,-56.333333333333336,-1017.3333333333334,-556.3333333333334,5.0,0.0,-0.018476183526217937,0.0008102138914788762,2.9580841859181723,-0.5572953820228577,0.0011170622892677784,-0.003172540105879307,127334.0,RTL
18:07:41,-35.363262866666666,149.16523463333337,106241.66666666667,6.0,24.333333333333332,97.33333333333333,1.0,-24.666666666666668,-993.6666666666666,478.3333333333333,5.333333333333333,-0.3333333333333333,-0.009461443327988187,0.0021722581780826053,2.957331975301107,0.47858402132987976,0.001900276867672801,-0.0032263676015039286,127334.0,RTL
18:07:42,-35.36326296666667,149.16523420000001,104969.0,8.0,29.0,97.66666666666667,0.0,-52.333333333333336,-977.3333333333334,-259.0,0.6666666666666666,1.3333333333333333,-0.01756272961695989,-5.907945645352205e-05,2.957148551940918,-0.2591387840608756,-0.0034151236371447644,-0.001390574499964714,215415.0,RTL
18:07:43,-35.363262866666666,149.1652346666667,104206.0,8.0,27.333333333333332,96.66666666666667,-2.3333333333333335,-50.333333333333336,-989.6666666666666,-494.0,4.666666666666667,3.6666666666666665,-0.013877583357195059,-0.0018803138906757038,2.9567387104034424,-0.4940175414085388,0.0008036877649525801,0.0010292793934543927,215415.0,RTL
18:07:45,-35.36326236666667,149.16523803333334,102154.66666666667,4.0,7.0,97.0,-1.0,-71.66666666666667,-996.0,-1250.0,7.0,3.0,-0.0008915176052444925,-0.0013060530084961404,2.954604466756185,-1.250837763150533,0.00311653238410751,0.0005962735740467906,215415.0,RTL
18:07:46,-35.3632623,149.1652386,100901.66666666667,1.0,-3.0,100.0,-0.6666666666666666,-76.66666666666667,-988.0,-1220.3333333333333,0.6666666666666666,1.6666666666666667,-0.007198663894087076,8.27238691272214e-05,2.9549988905588784,-1.221103270848592,-0.003633289442708095,-0.00028414845777054626,243414.0,RTL
18:07:47,-35.36326226666667,149.1652388,100145.33333333333,1.0,-6.333333333333333,98.66666666666667,-1.6666666666666667,-58.0,-1005.3333333333334,-1302.3333333333333,1.0,0.3333333333333333,-0.013617598141233126,-0.0018833929983278115,2.9543829758961997,-1.3034483591715496,-0.0030413498170673847,-0.0024144886216769614,243414.0,RTL
18:07:49,-35.363262,149.16524016666668,98124.66666666667,-1.3333333333333333,-20.333333333333332,104.0,-2.0,1.0,-967.6666666666666,-975.0,5.0,1.6666666666666667,-0.011821263780196508,0.0005723572539864108,2.9537199338277182,-0.978792667388916,0.0006765912597378095,-0.0013475925661623478,243414.0,RTL
18:07:50,-35.363262,149.16524066666668,96834.0,-1.0,-23.333333333333332,102.66666666666667,-2.0,15.333333333333334,-951.6666666666666,-584.3333333333334,5.666666666666667,-7.666666666666667,-0.0007885082741267979,-0.00050133951784422,2.9538211027781167,-0.5889518354088068,0.0014782299598058064,-0.010322618919114271,106539.0,RTL
18:07:51,-35.36326193333333,149.16524126666667,96064.0,-2.3333333333333335,-28.666666666666668,99.0,-0.3333333333333333,9.0,-1018.3333333333334,-628.6666666666666,6.666666666666667,4.0,0.005757687380537391,0.00024479671750062454,2.952213446299235,-0.6333122650782267,0.002840341068804264,0.0011470564641058445,106539.0,RTL
18:07:53,-35.36326210000001,149.16523973333332,94021.0,-3.6666666666666665,-27.333333333333332,100.33333333333333,4.333333333333333,8.333333333333334,-965.6666666666666,-510.6666666666667,8.0,7.0,-0.022918852046132088,0.005693360231816769,2.952376445134481,-0.5156377454598745,0.004165348752091329,0.0048159786965698,106539.0,RTL
18:07:54,-35.3632627,149.1652367,92744.66666666667,1.0,-6.0,103.0,4.333333333333333,-5.666666666666667,-998.3333333333334,-748.0,-1.6666666666666667,6.666666666666667,-0.045245811343193054,0.005842587289710839,2.9519527753194175,-0.7523188988367716,-0.006250937934964895,0.004456349493314822,300000.0,RTL
18:07:55,-35.363262866666666,149.16523533333333,91983.66666666667,4.0,5.333333333333333,100.66666666666667,0.6666666666666666,1.3333333333333333,-974.0,-762.0,0.3333333333333333,4.333333333333333,-0.0499891514579455,0.004160642856732011,2.9524181683858237,-0.7661876082420349,-0.004463586490601301,0.001592931415264805,300000.0,RTL
18:07:58,-35.36326215,149.1652392,88701.5,1.5,-4.5,100.0,-1.5,62.0,-1035.5,1345.5,9.5,4.5,0.03303410578519106,-0.001359517831588164,2.951741099357605,1.342979073524475,0.0052148448303341866,0.0023818976478651166,300000.0,RTL
18:07:59,-35.3632621,149.16523970000003,87937.25,0.0,-12.0,101.0,-0.25,22.75,-989.0,1032.0,10.0,4.5,0.03156960243359208,0.00046185106884877314,2.951621115207672,1.0308883786201477,0.005820303689688444,0.0023261397727765143,79975.0,RTL
18:08:00,-35.3632621,149.16524025,86660.0,0.0,-17.5,99.5,0.0,-18.5,-978.5,369.5,11.5,7.0,0.031021463684737682,0.001984647416975349,2.9515403509140015,0.36846502125263214,0.0074015764985233545,0.005199738428927958,79975.0,RTL
18:08:02,-35.36326205,149.16524040000002,84623.5,0.0,-23.5,98.5,-1.5,-1.5,-954.5,739.0,1.0,6.5,0.029873079620301723,-0.002958979574032128,2.9513370990753174,0.7378110289573669,-0.004002526635304093,0.004051228170283139,79975.0,RTL
18:08:03,-35.36326165,149.165241975,83851.0,-1.0,-29.0,102.0,-5.0,26.5,-1012.25,1077.75,4.5,10.0,0.05686958599835634,-0.006340340711176395,2.951821029186249,1.0757661312818527,0.00022769218776375055,0.008036112587433308,300000.0,RTL
18:08:05,-35.36326067499999,149.16524735000002,81823.75,-12.5,-69.75,100.25,-1.5,6.75,-998.5,889.75,13.25,5.5,0.08963221311569214,-0.0025304109367425554,2.950434148311615,0.8865731060504913,0.008868684992194176,0.0032829991541802883,300000.0,RTL
18:08:06,-35.3632608,149.16524785000001,80567.0,-15.0,-85.5,103.0,0.5,47.0,-986.5,1368.0,4.5,4.5,0.07188069447875023,0.0015331173199228942,2.9515548944473267,1.362399160861969,0.00039294944144785404,0.001759389415383339,300000.0,RTL
18:08:08,-35.36326135,149.16524545,78535.5,-12.5,-79.0,105.0,3.5,-27.5,-995.5,297.5,9.0,0.0,0.04035159945487976,0.005610489519312978,2.9508124589920044,0.2925667092204094,0.004865729482844472,-0.002966751577332616,300000.0,RTL
18:08:09,-35.363261525,149.1652438,77753.75,-10.25,-68.5,105.0,4.5,-16.25,-1001.75,580.5,3.5,6.0,0.033738764468580484,0.00556718313600868,2.950695753097534,0.5748576521873474,-0.0010694593656808138,0.0037420517182908952,300000.0,RTL
18:08:10,-35.3632617,149.165242,76455.5,-5.5,-47.5,100.0,3.0,-25.5,-989.0,455.5,5.5,8.0,0.030863595195114613,0.0020039157243445516,2.951028823852539,0.4492729604244232,0.000650190282613039,0.005449641961604357,300000.0,RTL
18:08:12,-35.363262250000005,149.16523845,74388.0,-3.0,-20.0,102.5,7.0,-53.0,-972.5,44.5,11.5,-0.5,-0.0009360337862744927,0.006788817001506686,2.9499441385269165,0.038005296140909195,0.006982980063185096,-0.0034085692605003715,300000.0,RTL
18:08:13,-35.363262774999995,149.1652355,73632.75,-0.5,-6.0,96.25,9.5,-70.5,-993.0,-510.25,8.0,-1.25,-0.03544482483994216,0.010676692007109523,2.9499208331108093,-0.5169498268514872,0.0034860417945310473,-0.0044242230942472816,115256.0,RTL
18:08:14,-35.36326375,149.16522974999998,72363.0,9.0,36.5,98.5,7.5,-80.0,-964.5,-850.0,3.5,-2.0,-0.08062354475259781,0.010255282279103994,2.951302409172058,-0.8558994829654694,-0.0012194914743304253,-0.004799243062734604,115256.0,RTL
18:08:16,-35.3632645,149.16522455,70367.0,21.5,92.5,102.0,3.5,-63.0,-977.5,-535.5,2.0,-12.0,-0.08772346377372742,0.004960381658747792,2.950888752937317,-0.5396630316972733,-0.0025993422605097294,-0.015474298037588596,115256.0,RTL
18:08:17,-35.363264525,149.16522377500002,69606.25,23.5,106.5,104.5,1.5,-56.0,-980.25,-388.75,5.0,0.25,-0.08694634027779102,0.0030362545512616634,2.9521886706352234,-0.39221036434173584,0.00041130039608106017,-0.00292390858521685,200.0,RTL
18:08:18,-35.3632645,149.1652232,68348.0,26.0,118.0,102.5,0.0,-64.0,-996.0,-757.5,9.0,8.0,-0.09237264096736908,-0.00012739928206428885,2.950982093811035,-0.7598350942134857,0.0041989164892584085,0.005193696008063853,200.0,RTL
18:08:20,-35.3632639,149.16522585,66290.0,22.0,110.0,101.5,-2.0,-69.5,-1012.5,-1072.0,3.5,-0.5,-0.07102787867188454,-0.005352468229830265,2.9526575803756714,-1.0728406608104706,-0.0009183997754007578,-0.003851812332868576,200.0,RTL
18:08:21,-35.363263700000005,149.16522700000002,65509.75,19.75,102.0,104.5,-3.75,-66.5,-986.5,-1264.0,1.75,2.0,-0.06886057555675507,-0.004887175164185464,2.9525715112686157,-1.2645951211452484,-0.002631885407026857,-0.0005344077944755554,147185.0,RTL
18:08:22,-35.36326335,149.16522965000001,64206.5,16.5,86.0,100.5,-4.0,-20.0,-970.5,363.0,11.5,15.0,-0.017363584134727716,-0.004716729978099465,2.952777862548828,0.3652638718485832,0.007056024624034762,0.01233929255977273,147185.0,RTL
18:08:24,-35.3632632,149.16523205,62144.5,11.5,58.0,100.0,-2.5,7.0,-972.5,906.5,9.5,8.0,-0.008213401073589921,-0.0025722531136125326,2.953086495399475,0.909438967704773,0.004961226833984256,0.004805079894140363,147185.0,RTL
18:08:25,-35.3632631,149.1652329,61387.25,11.0,51.75,99.0,-1.5,-43.0,-970.75,-193.75,4.5,5.0,-0.02054754225537181,-0.0014422798703890294,2.9520538449287415,-0.19095420837402344,-0.0003697581123560667,0.0020036923815496266,239513.0,RTL
18:08:26,-35.36326285,149.1652348,60109.5,9.5,38.0,98.5,-2.5,-41.5,-941.5,-223.5,1.0,3.5,-0.002547778422012925,-0.0031031661201268435,2.9515985250473022,-0.2201041355729103,-0.0034737931564450264,0.0008915583603084087,239513.0,RTL
18:08:28,-35.36326205,149.1652392,58064.0,2.5,4.5,95.5,-4.5,3.0,-971.0,618.0,7.5,0.5,0.03751575015485287,-0.006499011535197496,2.9517778158187866,0.6214942336082458,0.003325594821944833,-0.0026946893194690347,239513.0,RTL
18:08:29,-35.363261725,149.1652413,57309.5,-0.5,-11.0,98.25,-4.25,-31.5,-997.5,-111.0,12.5,8.0,0.045441011898219585,-0.004693246155511588,2.9520612359046936,-0.10768768191337585,0.007886239560320973,0.0055546670337207615,202871.0,RTL
18:08:30,-35.363261449999996,149.16524355,56040.5,-5.5,-35.5,99.5,0.0,-70.5,-1005.5,-1240.5,2.0,5.0,0.029409991577267647,-0.0005030300671933219,2.9518662691116333,-1.239144206047058,-0.002586988965049386,0.0021462241420522332,202871.0,RTL
18:08:32,-35.3632617,149.1652427,54004.0,-7.0,-50.5,101.5,0.0,25.5,-1028.5,997.5,0.5,-0.5,0.03360260371118784,0.002978694741614163,2.9533685445785522,0.9987549483776093,-0.004261252237483859,-0.00402650295291096,202871.0,RTL
18:08:33,-35.3632616,149.16524287500002,53258.75,-4.25,-43.75,100.0,-2.5,3.5,-996.5,711.25,1.0,-4.5,0.042170518077909946,-0.0024105474003590643,2.9531047344207764,0.7125040963292122,-0.004158154653850943,-0.008089793438557535,300000.0,RTL
18:08:34,-35.36326115,149.16524515,51982.0,-8.5,-57.5,101.0,-2.0,-2.5,-1034.0,758.5,7.5,5.0,0.07127021253108978,-0.004050739225931466,2.9503843784332275,0.7592191100120544,0.0025513761211186647,0.0021756376372650266,300000.0,RTL
18:08:36,-35.36326115,149.16524615,49941.0,-11.5,-73.0,101.0,0.5,-26.5,-974.5,121.0,3.0,2.5,0.06097211502492428,0.0025469546671956778,2.951725125312805,0.12039205431938171,-0.0015066302148625255,-0.00031956913881003857,300000.0,RTL
18:08:37,-35.363261175,149.16524615,49173.0,-11.0,-73.25,101.75,1.25,-37.25,-998.75,129.5,8.75,6.0,0.06163752917200327,0.0023178565897978842,2.9521912932395935,0.12855064123868942,0.004080829326994717,0.00287900329567492,257183.0,RTL
18:08:38,-35.3632614,149.16524485,47883.5,-10.5,-70.0,105.5,4.0,-58.0,-978.5,-96.0,3.5,6.0,0.04038774594664574,0.004243530216626823,2.9518364667892456,-0.09825957380235195,-0.0010293659288436174,0.0033172767143696547,257183.0,RTL
18:08:40,-35.36326185,149.16524199999998,45842.0,-7.0,-49.0,100.5,7.0,-72.0,-948.0,-682.0,11.5,2.5,0.017260265536606312,0.007725107716396451,2.9521278142929077,-0.6847240924835205,0.006848012795671821,-0.0006103840423747897,257183.0,RTL
18:08:41,-35.363262324999994,149.16523934999998,45076.75,-4.25,-36.5,99.75,8.0,-79.0,-991.5,-1064.25,6.75,-2.5,-0.02096516959136352,0.010387822752818465,2.951487183570862,-1.067719206213951,0.0020857700146734715,-0.005979210254736245,178885.0,RTL
18:08:42,-35.3632629,149.16523515,43807.5,3.5,-0.5,98.5,6.0,-60.0,-949.0,-344.0,-2.0,8.0,-0.027972041629254818,0.006408245302736759,2.9526374340057373,-0.3470005393028259,-0.007454782957211137,0.00456853793002665,178885.0,RTL
18:08:44,-35.36326285,149.16523404999998,41761.0,8.0,22.0,103.0,-1.5,-18.5,-981.0,463.0,-3.5,2.5,-0.0049730982282198966,-0.0010724700532591669,2.9530709981918335,0.4610084593296051,-0.008625944843515754,-0.0006237340858206153,178885.0,RTL
18:08:45,-35.363262399999996,149.1652359,41005.5,8.75,21.0,100.0,-7.25,-39.0,-995.25,-482.25,-2.75,9.5,0.004552144790068269,-0.008101640385575593,2.954591989517212,-0.48451869934797287,-0.008008727920241654,0.006567224976606667,137537.0,RTL
18:08:46,-35.3632614,149.16524155000002,39723.5,-0.5,-10.0,100.0,-6.5,-38.5,-1028.0,-250.5,14.5,9.5,0.06477786973118782,-0.009527120739221573,2.9532926082611084,-0.2534059211611748,0.0093123116530478,0.006599541753530502,137537.0,RTL
18:08:48,-35.36326165,149.16524355,37697.5,-9.5,-48.5,99.5,4.5,-78.5,-994.5,-1025.5,14.5,-5.0,0.014434979762881994,0.007601650431752205,2.953126311302185,-1.029832899570465,0.009344753809273243,-0.008353331941179931,137537.0,RTL
18:08:49,-35.363262225,149.1652411,36930.5,-7.25,-41.25,103.25,8.75,-90.75,-970.75,-1293.75,8.75,-3.25,-0.013062081532552838,0.012776434887200594,2.9524154663085938,-1.2985197007656097,0.003757388098165393,-0.006739080301485956,2012.0,RTL
18:08:50,-35.3632633,149.1652348,35649.5,2.5,-4.0,101.0,8.5,-79.5,-986.0,-1401.5,-0.5,-2.0,-0.07552405074238777,0.013416680507361889,2.953343152999878,-1.4062899351119995,-0.006376096047461033,-0.0058549545938149095,2012.0,RTL
18:08:52,-35.363263849999996,149.1652286,33646.0,15.5,59.5,102.5,4.0,-71.0,-998.0,-1046.0,0.5,-0.5,-0.07657567039132118,0.002913219970650971,2.954896926879883,-1.0488024055957794,-0.005174919264391065,-0.004809333011507988,2012.0,RTL
18:08:53,-35.363263725,149.165228025,32890.75,16.75,69.75,105.25,1.0,-64.75,-980.5,-864.75,-2.0,2.25,-0.06367890536785126,0.0001731979828036856,2.955330491065979,-0.8668259456753731,-0.007681592367589474,-0.0013288538320921361,56723.0,RTL
18:08:54,-35.36326325,149.16522965000001,31613.5,17.0,75.5,108.0,-4.5,-34.5,-991.0,35.5,6.5,1.0,-0.029266242869198322,-0.007157354382798076,2.9563610553741455,0.03488214313983917,0.0013855807483196259,-0.0022564184619113803,56723.0,RTL
18:08:56,-35.3632627,149.16523365,29557.5,6.0,41.5,105.0,-1.5,-67.5,-1014.0,-1115.0,11.5,5.5,-0.0286753810942173,-0.0004740254080388695,2.95599102973938,-1.1165142357349396,0.006610648473724723,0.002383124898187816,56723.0,RTL
18:08:57,-35.363262725000006,149.16523387499998,28781.75,6.5,38.0,103.75,-1.25,-67.75,-1004.5,-1270.75,3.75,-1.0,-0.036513238213956356,-0.0003817435062956065,2.9557674527168274,-1.2721600085496902,-0.001592409040313214,-0.004407971980981529,300000.0,RTL
18:08:58,-35.3632628,149.1652345,27500.5,6.0,31.5,105.5,-0.5,-71.0,-1029.0,-1228.5,9.0,2.5,-0.031357765197753906,0.0022422257461585104,2.9557907581329346,-1.2292118072509766,0.003580191871151328,-0.0011898879893124104,300000.0,RTL
18:09:00,-35.36326285,149.1652342,25433.5,8.0,32.5,101.5,-2.0,-76.0,-1014.5,-879.5,2.5,1.5,-0.027693302370607853,-0.0014184791943989694,2.9560325145721436,-0.8790614902973175,-0.002336706151254475,-0.0022524320520460606,300000.0,RTL
18:09:01,-35.363262750000004,149.16523502500002,24671.25,7.0,29.0,100.25,-1.0,-52.5,-981.0,-477.75,5.5,6.75,-0.010238984948955476,-0.002018856379436329,2.9550050497055054,-0.476743720471859,-0.0001333104446530342,0.003741725056897849,300000.0,RTL
18:09:02,-35.3632626,149.16523604999998,23396.0,4.5,17.0,103.0,-0.5,-10.0,-973.0,451.0,7.0,11.0,0.00377464247867465,-0.0004497571353567764,2.95548415184021,0.4527122676372528,0.002360793761909008,0.007660872535780072,300000.0,RTL
18:09:04,-35.36326215,149.16523905,21328.0,2.5,-0.5,102.5,-4.0,-6.5,-982.5,585.5,7.5,2.5,0.03162395767867565,-0.004778710892423987,2.9553534984588623,0.5867660641670227,0.0023959397803992033,-0.0009025587933138013,300000.0,RTL
18:09:05,-35.363261825,149.165240925,20567.0,0.0,-12.0,99.5,-4.5,-27.25,-994.0,171.75,7.75,6.75,0.04422249644994736,-0.005167107097804546,2.9551199078559875,0.17253640852868557,0.002621482126414776,0.0036274499725550413,275155.0,RTL
18:09:06,-35.3632615,149.16524314999998,19309.0,-5.5,-34.0,101.5,0.0,-34.0,-942.0,217.0,19.0,11.0,0.05292223393917084,0.001442292967112735,2.9546313285827637,0.2177930250763893,0.013766636606305838,0.007827572990208864,275155.0,RTL
18:09:08,-35.363262250000005,149.16524005,17262.0,-2.5,-29.5,97.5,4.0,-73.0,-999.0,-910.0,-1.0,3.5,-0.007396374247036874,0.0065840554889291525,2.9550169706344604,-0.9102196395397186,-0.006337947677820921,0.00018811924383044243,275155.0,RTL
18:09:09,-35.363262500000005,149.1652386,16492.5,-0.25,-17.75,100.0,5.25,-75.75,-1004.75,-1059.0,5.75,2.75,-0.017109102220274508,0.006716261501424015,2.9557103514671326,-1.0594363063573837,0.00044432992581278086,-0.0008069179602898657,29083.0,RTL
18:09:10,-35.3632629,149.16523560000002,15213.5,3.5,0.5,98.5,4.0,-67.0,-1011.5,-772.5,1.5,-0.5,-0.038568856194615364,0.005551681388169527,2.955350637435913,-0.7725844532251358,-0.004663911648094654,-0.004279653541743755,29083.0,RTL
18:09:12,-35.3632628,149.1652344,13192.5,8.0,24.5,98.5,-0.5,-62.0,-1034.0,-1258.0,0.0,1.0,-0.0344537440687418,-0.001382283284328878,2.956521987915039,-1.2587750554084778,-0.005185548448935151,-0.002700947690755129,29083.0,RTL
18:09:13,-35.363262549999995,149.16523535,12428.75,6.75,22.75,101.5,-3.25,-60.25,-989.25,-1240.25,1.0,2.75,-0.022487952606752515,-0.004633011820260435,2.9567511081695557,-1.2418299615383148,-0.004729577922262251,-0.00045904231956228614,118705.0,RTL
18:09:14,-35.36326205,149.16523769999998,11381.5,1.5,7.0,51.5,-3.0,23.5,-1052.5,-109.0,5.5,0.5,0.003478802042081952,-0.004911235999315977,2.956872344017029,-0.11158207058906555,0.00020229211077094078,-0.0033846116857603192,118705.0,RTL
18:09:16,-35.3632618,149.1652398,10823.0,-3.0,-13.5,31.5,0.5,28.5,-1004.5,791.0,8.5,5.0,0.02035806141793728,-0.0008915704675018787,2.9569708108901978,0.7899847626686096,0.0030115314293652773,0.0018012351356446743,118705.0,RTL
18:09:17,-35.36326185,149.165239625,10588.25,-3.75,-15.5,35.5,1.75,-29.25,-989.75,-561.75,2.25,3.5,-0.0016393226687796414,0.00020011644483020063,2.9564903378486633,-0.5631752591580153,-0.0033083109883591533,-0.00029362982604652643,230773.0,RTL
18:09:18,-35.363262,149.1652388,10159.5,-3.0,-13.5,36.0,0.5,35.0,-1010.0,887.0,7.5,3.5,0.0030779481458012015,0.0006218241760507226,2.9567288160324097,0.8854835033416748,0.002440504729747772,8.01868736743927e-07,230773.0,RTL
18:09:20,-35.363262,149.16523815,9475.5,-2.0,-5.5,34.5,1.0,34.5,-1024.0,797.5,6.5,6.0,0.008326006820425391,-0.001490193244535476,2.9562463760375977,0.7955203652381897,0.0010543486569076777,0.002322425367310643,230773.0,RTL
18:09:21,-35.363262,149.165237825,9225.0,-2.0,-4.5,35.5,1.5,-15.5,-995.5,-352.5,6.25,4.75,-0.011398725910112262,-0.00029918819745944347,2.956635057926178,-0.3545162030495703,0.000846558716148138,0.0011779529158957303,273246.0,RTL
18:09:22,-35.3632621,149.16523669999998,8791.0,-1.0,1.0,34.5,1.0,10.5,-1005.0,648.5,5.0,2.0,-0.006372853880748153,-0.000544745271326974,2.95669424533844,0.6477137506008148,-0.000357246957719326,-0.001599299255758524,273246.0,RTL
18:09:24,-35.363262,149.1652371,8740.0,-0.5,4.5,-3.0,-0.5,-6.5,-1001.5,-388.0,5.0,1.5,-0.010536561254411936,-0.00423981249332428,2.956476926803589,-0.39076146483421326,-0.0007053582230582833,-0.0018163578351959586,273246.0,RTL
18:09:25,-35.363261924999996,149.16523745,8768.5,-1.75,1.5,-0.25,-0.25,-0.5,-995.0,73.5,5.0,4.5,0.0009178410828099004,-0.003760554303880781,2.956760883331299,0.07189539819955826,-0.00019752292428165674,0.001153327350039035,190464.0,RTL
18:09:26,-35.3632618,149.16523784999998,8781.5,-3.0,-0.5,3.0,-1.5,-0.5,-988.5,216.0,7.5,5.5,0.0042985795880667865,-0.0033565860940143466,2.9568932056427,0.21500396728515625,0.0020265557104721665,0.0020057924557477236,190464.0,RTL
18:09:28,-35.36326185,149.16523825000002,8672.0,-4.0,-6.5,1.0,1.0,-9.0,-999.5,-389.5,6.0,7.5,-0.011118993628770113,-0.001328685029875487,2.9564956426620483,-0.392202652990818,0.0013624790590256453,0.0039057657122612,190464.0,RTL
18:09:29,-35.363261949999995,149.16523765,8678.5,-3.25,-4.0,1.25,0.25,1.75,-994.75,233.0,7.75,6.25,-0.006252155522815883,-0.000726088197552599,2.9566628336906433,0.2315201461315155,0.0023600056301802397,0.002832176978699863,200.0,RTL
18:09:30,-35.363262,149.1652371,8681.5,-1.5,0.5,0.5,0.0,22.0,-1010.5,422.0,2.0,3.5,-0.005089736660011113,-0.0018002059659920633,2.9568334817886353,0.4202798753976822,-0.0034689134918153286,-0.0004081306979060173,200.0,RTL
18:09:32,-35.3632619,149.16523784999998,8679.5,-2.0,-0.5,2.0,-2.0,-10.0,-1000.5,-491.5,1.0,0.5,-0.007533589145168662,-0.004753802437335253,2.9569579362869263,-0.49438004195690155,-0.004653997253626585,-0.0036239654291421175,200.0,RTL
18:09:33,-35.363261725,149.16523869999997,8677.75,-2.75,-4.5,1.0,-2.75,5.5,-1000.25,172.25,6.5,3.5,0.01291346293874085,-0.005100172478705645,2.956995964050293,0.1708318144083023,0.0011067679151892662,0.0002687050146050751,228345.0,RTL
18:09:34,-35.3632614,149.16524049999998,8571.0,-5.5,-17.0,36.5,-1.5,42.0,-952.0,980.5,5.0,1.5,0.031819062307477,-0.005225594388321042,2.9564706087112427,0.9782932698726654,1.6729114577174187e-05,-0.0017256150022149086,228345.0,RTL
18:09:36,-35.36326165,149.16524040000002,7780.5,-8.0,-27.5,38.5,2.0,37.0,-1014.5,544.0,3.0,7.5,0.007009446155279875,0.0012037178385071456,2.956938147544861,0.5403498858213425,-0.002036177320405841,0.004179444629698992,228345.0,RTL
18:09:37,-35.363261875,149.1652393,7515.0,-6.25,-21.5,35.75,2.5,-7.75,-1008.25,207.0,6.5,3.75,0.0017331612179987133,0.0027571652899496257,2.956576645374298,0.2050334606319666,0.0014189165085554123,0.00024325860431417823,26851.0,RTL
18:09:38,-35.3632622,149.16523755,7093.5,-2.0,-8.5,37.0,2.5,24.5,-1004.0,94.0,3.0,8.5,-0.016524048522114754,0.002489556558430195,2.9570308923721313,0.08973908331245184,-0.0020897637587040663,0.004610350355505943,26851.0,RTL
18:09:40,-35.3632624,149.16523610000002,6415.5,2.0,9.0,36.0,-1.0,30.5,-1005.5,254.5,3.0,2.0,-0.012206454062834382,-0.0019307158654555678,2.9573580026626587,0.25075051188468933,-0.0027295497711747885,-0.0015270444564521313,26851.0,RTL
18:09:41,-35.3632623,149.165236475,6155.0,1.25,8.25,36.5,-0.25,15.0,-1012.5,746.25,8.5,5.25,0.005429609911516309,-0.0022105317912064493,2.9572683572769165,0.7444319203495979,0.003298117429949343,0.0016485595842823386,299370.0,RTL
18:09:42,-35.3632622,149.1652369,5724.0,0.0,6.0,34.0,0.5,-37.0,-1002.0,-915.0,7.5,5.0,-0.014856262132525444,-0.0016921673086471856,2.957135796546936,-0.9180547297000885,0.0024036087561398745,0.001016306458041072,299370.0,RTL
18:09:44,-35.3632622,149.16523684999999,5047.0,0.0,4.0,34.5,0.5,-28.5,-1004.5,-765.0,-0.5,3.5,-0.020560926757752895,-0.0004051702780998312,2.956598997116089,-0.7682069540023804,-0.006266450509428978,-1.331535167992115e-05,299370.0,RTL
18:09:45,-35.3632622,149.16523669999998,4791.5,0.0,4.0,35.0,0.25,31.0,-999.5,656.25,4.25,3.75,-0.005450153301353566,-0.0010022849310189486,2.95726078748703,0.6543194204568863,-0.0005143068265169859,0.00013192958431318402,238654.0,RTL
18:09:46,-35.3632622,149.165237,4353.5,1.0,6.5,33.5,-2.0,-17.5,-1002.0,-870.5,-2.5,3.0,-0.016127878800034523,-0.002942880499176681,2.957606554031372,-0.8735712766647339,-0.008141971891745925,-0.00047456705942749977,238654.0,RTL
18:09:48,-35.3632617,149.16523965,3673.5,-2.0,-8.5,33.5,-2.0,-23.5,-1004.0,-670.5,2.5,3.5,0.01088183606043458,-0.0048616062849760056,2.956884503364563,-0.6739605963230133,-0.002660527708940208,8.488190360367298e-06,238654.0,RTL
18:09:49,-35.3632616,149.1652403,3423.5,-4.5,-17.0,34.25,-1.0,19.25,-993.5,354.5,5.75,4.5,0.022767550079151988,-0.003555087896529585,2.9571781754493713,0.3513969387859106,0.0010852932464331388,0.0012163820792920887,153099.0,RTL
18:09:50,-35.3632615,149.16524099999998,3002.5,-6.0,-25.5,35.5,-0.5,-14.5,-995.5,-748.5,1.5,3.5,0.0012529793311841786,-0.002919698366895318,2.9573185443878174,-0.7524167895317078,-0.004087406792677939,0.000164962955750525,153099.0,RTL
18:09:52,-35.3632615,149.1652412,2315.0,-7.0,-30.5,33.0,1.0,-41.0,-1005.5,-742.0,2.5,3.0,0.010066522751003504,-0.00026298651937395334,2.9570735692977905,-0.745503306388855,-0.002276171464473009,-0.0004396047443151474,153099.0,RTL
