time_stamp,MODE,lat,lon,relative_alt,roll,pitch,yaw,rollspeed,pitchspeed,yawspeed,xacc,yacc,zacc,xgyro,ygyro,zgyro,vx,vy,vz,RTL_ALT,LAND_SPEED
16:46:49.493,GUIDED,-35.3632621,149.1652374,16,-3.6659796023741364e-05,0.001548793981783092,0.027317676693201065,0.00026161051937378943,0.00033552286913618445,0.0024183981586247683,0,1,-1000,0,0,1,-1,1,-1,1500.0,190.0
16:46:49.695,GUIDED,-35.3632621,149.1652374,14,-3.0496916224365123e-05,0.0015767604345455766,0.027140559628605843,0.00019152631284669042,0.0003808826149906963,0.0023447093553841114,0,1,-1000,0,0,0,-1,1,-1,1500.0,190.0
16:46:49.898,GUIDED,-35.3632621,149.1652374,14,-3.0496916224365123e-05,0.0015767604345455766,0.027140559628605843,0.00019152631284669042,0.0003808826149906963,0.0023447093553841114,0,1,-1000,0,0,0,-1,1,-1,1500.0,190.0
16:46:50.101,GUIDED,-35.3632621,149.1652374,14,-3.0496916224365123e-05,0.0015767604345455766,0.027140559628605843,0.00019152631284669042,0.0003808826149906963,0.0023447093553841114,0,1,-1000,0,0,0,-1,1,-1,1500.0,190.0
16:46:50.303,GUIDED,-35.3632621,149.1652374,14,-3.0496916224365123e-05,0.0015767604345455766,0.027140559628605843,0.00019152631284669042,0.0003808826149906963,0.0023447093553841114,0,1,-1000,0,0,0,-1,1,-1,1500.0,190.0
16:46:50.504,GUIDED,-35.3632621,149.1652374,14,-3.0496916224365123e-05,0.0015767604345455766,0.027140559628605843,0.00019152631284669042,0.0003808826149906963,0.0023447093553841114,0,1,-1000,0,0,0,-1,1,-1,1500.0,190.0
16:46:50.706,GUIDED,-35.3632621,149.1652374,14,-3.0496916224365123e-05,0.0015767604345455766,0.027140559628605843,0.00019152631284669042,0.0003808826149906963,0.0023447093553841114,0,1,-1000,0,0,0,-1,1,-1,1500.0,190.0
16:46:50.908,GUIDED,-35.3632621,149.1652374,14,-3.0496916224365123e-05,0.0015767604345455766,0.027140559628605843,0.00019152631284669042,0.0003808826149906963,0.0023447093553841114,0,1,-1000,0,0,0,-1,1,-1,1500.0,190.0
16:46:51.111,GUIDED,-35.3632621,149.1652374,14,-3.0496916224365123e-05,0.0015767604345455766,0.027140559628605843,0.00019152631284669042,0.0003808826149906963,0.0023447093553841114,0,1,-1000,0,0,0,-1,1,-1,1500.0,190.0
16:46:51.312,GUIDED,-35.3632621,149.1652375,8,-0.00018549864762462676,0.001505510532297194,0.02630482241511345,0.00017518323147669435,0.0002844293194357306,0.002276572398841381,0,1,-1000,0,0,0,-2,2,0,1500.0,190.0
16:46:51.513,GUIDED,-35.3632622,149.1652375,7,-0.0002380111691309139,0.0013639777898788452,0.025853414088487625,0.00041257639531977475,0.0002623307518661022,0.0021340169478207827,0,2,-1000,0,0,0,-2,1,-2,1500.0,190.0
16:46:51.718,GUIDED,-35.3632622,149.1652375,7,-0.0002380111691309139,0.0013639777898788452,0.025853414088487625,0.00041257639531977475,0.0002623307518661022,0.0021340169478207827,0,0,-1002,0,0,0,-2,1,-2,1500.0,190.0
16:46:51.920,GUIDED,-35.3632622,149.1652375,7,-0.0002380111691309139,0.0013639777898788452,0.025853414088487625,0.00041257639531977475,0.0002623307518661022,0.0021340169478207827,0,0,-1002,0,0,0,-2,1,-2,1500.0,190.0
16:46:52.124,GUIDED,-35.3632622,149.1652375,7,-0.0002380111691309139,0.0013639777898788452,0.025853414088487625,0.00041257639531977475,0.0002623307518661022,0.0021340169478207827,0,0,-1002,0,0,0,-2,1,-2,1500.0,190.0
16:46:52.325,GUIDED,-35.3632622,149.1652375,7,-0.0002380111691309139,0.0013639777898788452,0.025853414088487625,0.00041257639531977475,0.0002623307518661022,0.0021340169478207827,0,0,-1002,0,0,0,-2,1,-2,1500.0,190.0
16:46:52.527,GUIDED,-35.3632622,149.1652375,7,-0.0002380111691309139,0.0013639777898788452,0.025853414088487625,0.00041257639531977475,0.0002623307518661022,0.0021340169478207827,0,0,-1002,0,0,0,-2,1,-2,1500.0,190.0
16:46:52.729,GUIDED,-35.3632622,149.1652375,7,-0.0002380111691309139,0.0013639777898788452,0.025853414088487625,0.00041257639531977475,0.0002623307518661022,0.0021340169478207827,0,0,-1002,0,0,0,-2,1,-2,1500.0,190.0
16:46:52.932,GUIDED,-35.3632622,149.1652375,7,-0.0002380111691309139,0.0013639777898788452,0.025853414088487625,0.00041257639531977475,0.0002623307518661022,0.0021340169478207827,0,0,-1002,0,0,0,-2,1,-2,1500.0,190.0
16:46:53.134,GUIDED,-35.3632622,149.1652375,7,-0.0002380111691309139,0.0013639777898788452,0.025853414088487625,0.00041257639531977475,0.0002623307518661022,0.0021340169478207827,0,0,-1002,0,0,0,-2,1,-2,1500.0,190.0
16:46:53.337,GUIDED,-35.3632621,149.1652374,17,-0.00031212609610520303,0.0012963515473529696,0.025062168017029762,0.00029604454175569117,0.00019634925411082804,0.0020336927846074104,0,1,-1000,0,0,1,0,0,-1,1500.0,190.0
16:46:53.539,GUIDED,-35.3632621,149.1652374,17,-0.00023910569143481553,0.0014019882073625922,0.02479199506342411,0.0003381473943591118,0.0002266492519993335,0.002057424746453762,0,1,-1000,0,0,1,0,0,-1,1500.0,190.0
16:46:53.741,GUIDED,-35.3632621,149.1652374,17,-0.00023910569143481553,0.0014019882073625922,0.02479199506342411,0.0003381473943591118,0.0002266492519993335,0.002057424746453762,0,1,-1000,0,0,1,0,0,-1,1500.0,190.0
16:46:53.943,GUIDED,-35.3632621,149.1652374,17,-0.00023910569143481553,0.0014019882073625922,0.02479199506342411,0.0003381473943591118,0.0002266492519993335,0.002057424746453762,0,1,-1000,0,0,1,0,0,-1,1500.0,190.0
16:46:54.148,GUIDED,-35.3632621,149.1652374,17,-0.00023910569143481553,0.0014019882073625922,0.02479199506342411,0.0003381473943591118,0.0002266492519993335,0.002057424746453762,0,1,-1000,0,0,1,0,0,-1,1500.0,190.0
16:46:54.349,GUIDED,-35.3632621,149.1652374,17,-0.00023910569143481553,0.0014019882073625922,0.02479199506342411,0.0003381473943591118,0.0002266492519993335,0.002057424746453762,0,1,-1000,0,0,1,0,0,-1,1500.0,190.0
16:46:54.551,GUIDED,-35.3632621,149.1652374,17,-0.00023910569143481553,0.0014019882073625922,0.02479199506342411,0.0003381473943591118,0.0002266492519993335,0.002057424746453762,0,1,-1000,0,0,1,0,0,-1,1500.0,190.0
16:46:54.754,GUIDED,-35.3632621,149.1652374,17,-0.00023910569143481553,0.0014019882073625922,0.02479199506342411,0.0003381473943591118,0.0002266492519993335,0.002057424746453762,0,1,-1000,0,0,1,0,0,-1,1500.0,190.0
16:46:54.957,GUIDED,-35.3632621,149.1652374,17,-0.00023910569143481553,0.0014019882073625922,0.02479199506342411,0.0003381473943591118,0.0002266492519993335,0.002057424746453762,0,1,-1000,0,0,1,0,0,-1,1500.0,190.0
16:46:55.158,GUIDED,-35.3632621,149.1652374,17,-0.00023910569143481553,0.0014019882073625922,0.02479199506342411,0.0003381473943591118,0.0002266492519993335,0.002057424746453762,0,1,-1000,0,0,1,0,0,-1,1500.0,190.0
16:46:55.361,GUIDED,-35.3632621,149.1652374,17,-8.967268513515592e-05,0.0015977767761796713,0.024370161816477776,0.00026727287331596017,0.0003233756578993052,0.0019150243606418371,0,1,-1000,0,0,1,0,0,-1,1500.0,190.0
16:46:55.562,GUIDED,-35.3632621,149.1652374,16,9.069041698239744e-05,0.0018081696471199393,0.023950785398483276,0.000295460456982255,0.0003020595177076757,0.0019125962862744927,0,1,-1000,0,0,0,0,0,0,1500.0,190.0
16:46:55.764,GUIDED,-35.3632621,149.1652374,37,0.0026234907563775778,-0.00012764045095536858,0.02381776086986065,0.0054757618345320225,-0.00808058213442564,0.0032259072177112103,0,0,-1141,6,-7,2,0,0,-24,1500.0,190.0
16:46:55.967,GUIDED,-35.3632621,149.1652374,37,0.0026234907563775778,-0.00012764045095536858,0.02381776086986065,0.0054757618345320225,-0.00808058213442564,0.0032259072177112103,0,0,-1141,6,-7,2,0,0,-24,1500.0,190.0
16:46:56.172,GUIDED,-35.3632621,149.1652374,37,0.0026234907563775778,-0.00012764045095536858,0.02381776086986065,0.0054757618345320225,-0.00808058213442564,0.0032259072177112103,0,0,-1141,6,-7,2,0,0,-24,1500.0,190.0
16:46:56.374,GUIDED,-35.3632621,149.1652374,37,0.0026234907563775778,-0.00012764045095536858,0.02381776086986065,0.0054757618345320225,-0.00808058213442564,0.0032259072177112103,0,0,-1141,6,-7,2,0,0,-24,1500.0,190.0
16:46:56.576,GUIDED,-35.3632621,149.1652374,37,0.0026234907563775778,-0.00012764045095536858,0.02381776086986065,0.0054757618345320225,-0.00808058213442564,0.0032259072177112103,0,0,-1141,6,-7,2,0,0,-24,1500.0,190.0
16:46:56.778,GUIDED,-35.3632621,149.1652374,37,0.0026234907563775778,-0.00012764045095536858,0.02381776086986065,0.0054757618345320225,-0.00808058213442564,0.0032259072177112103,0,0,-1141,6,-7,2,0,0,-24,1500.0,190.0
16:46:56.983,GUIDED,-35.3632621,149.1652374,37,0.0026234907563775778,-0.00012764045095536858,0.02381776086986065,0.0054757618345320225,-0.00808058213442564,0.0032259072177112103,0,0,-1141,6,-7,2,0,0,-24,1500.0,190.0
16:46:57.185,GUIDED,-35.3632621,149.1652374,37,0.0026234907563775778,-0.00012764045095536858,0.02381776086986065,0.0054757618345320225,-0.00808058213442564,0.0032259072177112103,0,0,-1141,6,-7,2,0,0,-24,1500.0,190.0
16:46:57.387,GUIDED,-35.3632621,149.1652374,1248,0.01903323084115982,-0.00031609818688593805,0.023188428953289986,0.04756707325577736,-0.006898175925016403,0.002237019594758749,0,0,-1024,48,-6,1,0,3,-143,1500.0,190.0
16:46:57.589,GUIDED,-35.3632619,149.1652385,2389,0.05232147127389908,-0.006626718211919069,0.023384694010019302,0.04054498299956322,-0.010352345183491707,0.003661422524601221,0,-4,-1000,40,-9,2,4,27,-148,1500.0,190.0
16:46:57.791,GUIDED,-35.3632619,149.1652385,2389,0.05232147127389908,-0.006626718211919069,0.023384694010019302,0.04054498299956322,-0.010352345183491707,0.003661422524601221,0,-4,-1000,40,-9,2,4,27,-148,1500.0,190.0
16:46:57.993,GUIDED,-35.3632619,149.1652385,2389,0.05232147127389908,-0.006626718211919069,0.023384694010019302,0.04054498299956322,-0.010352345183491707,0.003661422524601221,0,-4,-1000,40,-9,2,4,27,-148,1500.0,190.0
16:46:58.196,GUIDED,-35.3632619,149.1652385,2389,0.05232147127389908,-0.006626718211919069,0.023384694010019302,0.04054498299956322,-0.010352345183491707,0.003661422524601221,0,-4,-1000,40,-9,2,4,27,-148,1500.0,190.0
16:46:58.399,GUIDED,-35.3632619,149.1652385,2389,0.05232147127389908,-0.006626718211919069,0.023384694010019302,0.04054498299956322,-0.010352345183491707,0.003661422524601221,0,-4,-1000,40,-9,2,4,27,-148,1500.0,190.0
16:46:58.602,GUIDED,-35.3632619,149.1652385,2389,0.05232147127389908,-0.006626718211919069,0.023384694010019302,0.04054498299956322,-0.010352345183491707,0.003661422524601221,0,-4,-1000,40,-9,2,4,27,-148,1500.0,190.0
16:46:58.805,GUIDED,-35.3632619,149.1652385,2389,0.05232147127389908,-0.006626718211919069,0.023384694010019302,0.04054498299956322,-0.010352345183491707,0.003661422524601221,0,-4,-1000,40,-9,2,4,27,-148,1500.0,190.0
16:46:59.006,GUIDED,-35.3632619,149.1652385,2389,0.05232147127389908,-0.006626718211919069,0.023384694010019302,0.04054498299956322,-0.010352345183491707,0.003661422524601221,0,-4,-1000,40,-9,2,4,27,-148,1500.0,190.0
16:46:59.209,GUIDED,-35.3632619,149.1652385,2389,0.05232147127389908,-0.006626718211919069,0.023384694010019302,0.04054498299956322,-0.010352345183491707,0.003661422524601221,0,-4,-1000,40,-9,2,4,27,-148,1500.0,190.0
16:46:59.411,GUIDED,-35.3632606,149.1652462,5063,-0.07113073766231537,0.007613061461597681,-0.08109085261821747,-0.11431045830249786,0.0296891201287508,-0.06632982939481735,3,-9,-1001,-85,20,-55,4,14,-148,1500.0,190.0
16:46:59.613,GUIDED,-35.3632605,149.1652463,5446,-0.0828142985701561,0.009834890253841877,-0.09440438449382782,0.01631699874997139,-0.002690693596377969,-0.04026372358202934,0,-1,-1007,16,-2,-41,1,-7,-148,1500.0,190.0
16:46:59.815,GUIDED,-35.3632605,149.1652463,5446,-0.0828142985701561,0.009834890253841877,-0.09440438449382782,0.01631699874997139,-0.002690693596377969,-0.04026372358202934,0,-1,-1007,16,-2,-41,1,-7,-148,1500.0,190.0
16:47:00.021,GUIDED,-35.3632605,149.1652463,5446,-0.0828142985701561,0.009834890253841877,-0.09440438449382782,0.01631699874997139,-0.002690693596377969,-0.04026372358202934,0,-1,-1007,16,-2,-41,1,-7,-148,1500.0,190.0
16:47:00.223,GUIDED,-35.3632605,149.1652463,5446,-0.0828142985701561,0.009834890253841877,-0.09440438449382782,0.01631699874997139,-0.002690693596377969,-0.04026372358202934,0,-1,-1007,16,-2,-41,1,-7,-148,1500.0,190.0
16:47:00.425,GUIDED,-35.3632605,149.1652463,5446,-0.0828142985701561,0.009834890253841877,-0.09440438449382782,0.01631699874997139,-0.002690693596377969,-0.04026372358202934,0,-1,-1007,16,-2,-41,1,-7,-148,1500.0,190.0
16:47:00.628,GUIDED,-35.3632605,149.1652463,5446,-0.0828142985701561,0.009834890253841877,-0.09440438449382782,0.01631699874997139,-0.002690693596377969,-0.04026372358202934,0,-1,-1007,16,-2,-41,1,-7,-148,1500.0,190.0
16:47:00.830,GUIDED,-35.3632605,149.1652463,5446,-0.0828142985701561,0.009834890253841877,-0.09440438449382782,0.01631699874997139,-0.002690693596377969,-0.04026372358202934,0,-1,-1007,16,-2,-41,1,-7,-148,1500.0,190.0
16:47:01.031,GUIDED,-35.3632605,149.1652463,5446,-0.0828142985701561,0.009834890253841877,-0.09440438449382782,0.01631699874997139,-0.002690693596377969,-0.04026372358202934,0,-1,-1007,16,-2,-41,1,-7,-148,1500.0,190.0
16:47:01.232,GUIDED,-35.3632606,149.1652443,6437,-0.05081662908196449,0.0074818809516727924,-0.1127033680677414,0.05969719961285591,0.003654756583273411,-0.015957031399011612,0,-1,-1007,16,-2,-41,-8,-48,-148,1500.0,190.0
16:47:01.433,GUIDED,-35.363262,149.1652379,7979,0.015276575461030006,0.014393354766070843,-0.11882002651691437,0.06951789557933807,0.006053725723177195,0.00012028997298330069,-4,14,-1004,69,6,0,-22,-55,-151,1500.0,190.0
16:47:01.635,GUIDED,-35.3632625,149.1652365,8369,0.0324910432100296,0.015459076501429081,-0.11822950839996338,0.06895260512828827,0.002698940923437476,0.0013682227581739426,-4,11,-1003,69,3,0,-26,-46,-152,1500.0,190.0
16:47:01.837,GUIDED,-35.3632625,149.1652365,8369,0.0324910432100296,0.015459076501429081,-0.11822950839996338,0.06895260512828827,0.002698940923437476,0.0013682227581739426,-4,11,-1003,69,3,0,-26,-46,-152,1500.0,190.0
16:47:02.039,GUIDED,-35.3632625,149.1652365,8369,0.0324910432100296,0.015459076501429081,-0.11822950839996338,0.06895260512828827,0.002698940923437476,0.0013682227581739426,-4,11,-1003,69,3,0,-26,-46,-152,1500.0,190.0
16:47:02.243,GUIDED,-35.3632625,149.1652365,8369,0.0324910432100296,0.015459076501429081,-0.11822950839996338,0.06895260512828827,0.002698940923437476,0.0013682227581739426,-4,11,-1003,69,3,0,-26,-46,-152,1500.0,190.0
16:47:02.444,GUIDED,-35.3632625,149.1652365,8369,0.0324910432100296,0.015459076501429081,-0.11822950839996338,0.06895260512828827,0.002698940923437476,0.0013682227581739426,-4,11,-1003,69,3,0,-26,-46,-152,1500.0,190.0
16:47:02.646,GUIDED,-35.3632625,149.1652365,8369,0.0324910432100296,0.015459076501429081,-0.11822950839996338,0.06895260512828827,0.002698940923437476,0.0013682227581739426,-4,11,-1003,69,3,0,-26,-46,-152,1500.0,190.0
16:47:02.847,GUIDED,-35.3632625,149.1652365,8369,0.0324910432100296,0.015459076501429081,-0.11822950839996338,0.06895260512828827,0.002698940923437476,0.0013682227581739426,-4,11,-1003,69,3,0,-26,-46,-152,1500.0,190.0
16:47:03.048,GUIDED,-35.3632625,149.1652365,8369,0.0324910432100296,0.015459076501429081,-0.11822950839996338,0.06895260512828827,0.002698940923437476,0.0013682227581739426,-4,11,-1003,69,3,0,-26,-46,-152,1500.0,190.0
16:47:03.256,GUIDED,-35.3632649,149.1652342,9934,0.04851232096552849,-0.0416049100458622,-0.0670635923743248,-0.012932680547237396,-0.09768149256706238,0.11110901087522507,4,6,-998,-30,-107,98,-16,8,-150,1500.0,190.0
16:47:03.458,GUIDED,-35.3632645,149.1652358,11090,0.00980754941701889,-0.05791627988219261,-0.028591763228178024,-0.1175616905093193,0.11220963299274445,-0.06539683789014816,-1,-8,-997,-117,112,-66,34,30,-146,1500.0,190.0
16:47:03.659,GUIDED,-35.3632636,149.1652365,11468,-0.013424443081021309,-0.028816809877753258,-0.051379259675741196,-0.07864571362733841,0.11143629252910614,-0.10455408692359924,-3,-10,-1005,-77,111,-105,44,25,-147,1500.0,190.0
16:47:03.863,GUIDED,-35.3632636,149.1652365,11468,-0.013424443081021309,-0.028816809877753258,-0.051379259675741196,-0.07864571362733841,0.11143629252910614,-0.10455408692359924,-3,-10,-1005,-77,111,-105,44,25,-147,1500.0,190.0
16:47:04.065,GUIDED,-35.3632636,149.1652365,11468,-0.013424443081021309,-0.028816809877753258,-0.051379259675741196,-0.07864571362733841,0.11143629252910614,-0.10455408692359924,-3,-10,-1005,-77,111,-105,44,25,-147,1500.0,190.0
16:47:04.266,GUIDED,-35.3632636,149.1652365,11468,-0.013424443081021309,-0.028816809877753258,-0.051379259675741196,-0.07864571362733841,0.11143629252910614,-0.10455408692359924,-3,-10,-1005,-77,111,-105,44,25,-147,1500.0,190.0
16:47:04.468,GUIDED,-35.3632636,149.1652365,11468,-0.013424443081021309,-0.028816809877753258,-0.051379259675741196,-0.07864571362733841,0.11143629252910614,-0.10455408692359924,-3,-10,-1005,-77,111,-105,44,25,-147,1500.0,190.0
16:47:04.670,GUIDED,-35.3632636,149.1652365,11468,-0.013424443081021309,-0.028816809877753258,-0.051379259675741196,-0.07864571362733841,0.11143629252910614,-0.10455408692359924,-3,-10,-1005,-77,111,-105,44,25,-147,1500.0,190.0
16:47:04.876,GUIDED,-35.3632636,149.1652365,11468,-0.013424443081021309,-0.028816809877753258,-0.051379259675741196,-0.07864571362733841,0.11143629252910614,-0.10455408692359924,-3,-10,-1005,-77,111,-105,44,25,-147,1500.0,190.0
16:47:05.080,GUIDED,-35.3632636,149.1652365,11468,-0.013424443081021309,-0.028816809877753258,-0.051379259675741196,-0.07864571362733841,0.11143629252910614,-0.10455408692359924,-3,-10,-1005,-77,111,-105,44,25,-147,1500.0,190.0
16:47:05.283,GUIDED,-35.3632594,149.1652368,13411,-0.015659023076295853,0.03276531398296356,-0.1654643714427948,0.04407348856329918,0.01467118039727211,-0.04536052793264389,-6,-1,-1002,44,15,-46,18,-16,-153,1500.0,190.0
16:47:05.484,GUIDED,-35.3632589,149.1652358,14202,0.006209178827702999,0.036600369960069656,-0.18082669377326965,0.03815790265798569,-0.003974159248173237,-0.012870661914348602,-4,2,-999,38,-3,-13,0,-16,-153,1500.0,190.0
16:47:05.686,GUIDED,-35.3632589,149.1652354,14595,0.014165380969643593,0.032891854643821716,-0.18066075444221497,0.02850986458361149,-0.02230508252978325,0.008363853208720684,-2,3,-999,28,-21,7,-8,-12,-153,1500.0,190.0
16:47:05.888,GUIDED,-35.3632589,149.1652354,14595,0.014165380969643593,0.032891854643821716,-0.18066075444221497,0.02850986458361149,-0.02230508252978325,0.008363853208720684,-2,3,-999,28,-21,7,-8,-12,-153,1500.0,190.0
16:47:06.090,GUIDED,-35.3632589,149.1652354,14595,0.014165380969643593,0.032891854643821716,-0.18066075444221497,0.02850986458361149,-0.02230508252978325,0.008363853208720684,-2,3,-999,28,-21,7,-8,-12,-153,1500.0,190.0
16:47:06.292,GUIDED,-35.3632589,149.1652354,14595,0.014165380969643593,0.032891854643821716,-0.18066075444221497,0.02850986458361149,-0.02230508252978325,0.008363853208720684,-2,3,-999,28,-21,7,-8,-12,-153,1500.0,190.0
16:47:06.494,GUIDED,-35.3632589,149.1652354,14595,0.014165380969643593,0.032891854643821716,-0.18066075444221497,0.02850986458361149,-0.02230508252978325,0.008363853208720684,-2,3,-999,28,-21,7,-8,-12,-153,1500.0,190.0
16:47:06.696,GUIDED,-35.3632589,149.1652354,14595,0.014165380969643593,0.032891854643821716,-0.18066075444221497,0.02850986458361149,-0.02230508252978325,0.008363853208720684,-2,3,-999,28,-21,7,-8,-12,-153,1500.0,190.0
16:47:06.900,GUIDED,-35.3632589,149.1652354,14595,0.014165380969643593,0.032891854643821716,-0.18066075444221497,0.02850986458361149,-0.02230508252978325,0.008363853208720684,-2,3,-999,28,-21,7,-8,-12,-153,1500.0,190.0
16:47:07.101,GUIDED,-35.3632589,149.1652354,14595,0.014165380969643593,0.032891854643821716,-0.18066075444221497,0.02850986458361149,-0.02230508252978325,0.008363853208720684,-2,3,-999,28,-21,7,-8,-12,-153,1500.0,190.0
16:47:07.304,GUIDED,-35.3632601,149.1652349,16156,0.014228228479623795,0.009156899526715279,-0.16255322098731995,-0.013554926961660385,-0.015759630128741264,0.006608784198760986,3,1,-1000,-13,-15,5,-19,7,-151,1500.0,190.0
16:47:07.505,GUIDED,-35.3632612,149.1652356,17332,0.0030808874871581793,-0.0010011421982198954,-0.1621377170085907,-0.012191511690616608,-0.010141639038920403,-0.008277171291410923,3,0,-1001,-11,-9,-9,-16,11,-152,1500.0,190.0
16:47:07.707,GUIDED,-35.3632615,149.1652358,17721,0.0005369940190576017,-0.0031714902725070715,-0.16501230001449585,-0.005945175886154175,-0.006114567629992962,-0.01404982153326273,3,0,-1001,-5,-5,-14,-14,10,-152,1500.0,190.0
16:47:07.909,GUIDED,-35.3632615,149.1652358,17721,0.0005369940190576017,-0.0031714902725070715,-0.16501230001449585,-0.005945175886154175,-0.006114567629992962,-0.01404982153326273,3,0,-1001,-5,-5,-14,-14,10,-152,1500.0,190.0
16:47:08.110,GUIDED,-35.3632615,149.1652358,17721,0.0005369940190576017,-0.0031714902725070715,-0.16501230001449585,-0.005945175886154175,-0.006114567629992962,-0.01404982153326273,3,0,-1001,-5,-5,-14,-14,10,-152,1500.0,190.0
16:47:08.314,GUIDED,-35.3632615,149.1652358,17721,0.0005369940190576017,-0.0031714902725070715,-0.16501230001449585,-0.005945175886154175,-0.006114567629992962,-0.01404982153326273,3,0,-1001,-5,-5,-14,-14,10,-152,1500.0,190.0
16:47:08.516,GUIDED,-35.3632615,149.1652358,17721,0.0005369940190576017,-0.0031714902725070715,-0.16501230001449585,-0.005945175886154175,-0.006114567629992962,-0.01404982153326273,3,0,-1001,-5,-5,-14,-14,10,-152,1500.0,190.0
16:47:08.719,GUIDED,-35.3632615,149.1652358,17721,0.0005369940190576017,-0.0031714902725070715,-0.16501230001449585,-0.005945175886154175,-0.006114567629992962,-0.01404982153326273,3,0,-1001,-5,-5,-14,-14,10,-152,1500.0,190.0
16:47:08.920,GUIDED,-35.3632615,149.1652358,17721,0.0005369940190576017,-0.0031714902725070715,-0.16501230001449585,-0.005945175886154175,-0.006114567629992962,-0.01404982153326273,3,0,-1001,-5,-5,-14,-14,10,-152,1500.0,190.0
16:47:09.122,GUIDED,-35.3632615,149.1652358,17721,0.0005369940190576017,-0.0031714902725070715,-0.16501230001449585,-0.005945175886154175,-0.006114567629992962,-0.01404982153326273,3,0,-1001,-5,-5,-14,-14,10,-152,1500.0,190.0
16:47:09.323,GUIDED,-35.3632622,149.1652364,19275,-0.001503550331108272,-0.004261334426701069,-0.18788635730743408,0.001457140315324068,0.0026516567450016737,-0.02850317396223545,0,0,-1000,2,3,-29,-5,4,-152,1500.0,190.0
16:47:09.527,GUIDED,-35.3632623,149.1652365,20448,0.001723396242596209,-0.0009046626510098577,-0.20991083979606628,0.0037952233105897903,0.004897992126643658,-0.026970775797963142,0,0,-1000,4,5,-27,-1,1,-153,1500.0,190.0
16:47:09.728,GUIDED,-35.3632623,149.1652364,20840,0.0025638474617153406,0.0002726177917793393,-0.2171507477760315,0.004208416678011417,0.004051038529723883,-0.029009627178311348,0,0,-1000,4,4,-29,0,1,-153,1500.0,190.0
16:47:09.930,GUIDED,-35.3632623,149.1652364,20840,0.0025638474617153406,0.0002726177917793393,-0.2171507477760315,0.004208416678011417,0.004051038529723883,-0.029009627178311348,0,0,-1000,4,4,-29,0,1,-153,1500.0,190.0
16:47:10.131,GUIDED,-35.3632623,149.1652364,20840,0.0025638474617153406,0.0002726177917793393,-0.2171507477760315,0.004208416678011417,0.004051038529723883,-0.029009627178311348,0,0,-1000,4,4,-29,0,1,-153,1500.0,190.0
16:47:10.332,GUIDED,-35.3632623,149.1652364,20840,0.0025638474617153406,0.0002726177917793393,-0.2171507477760315,0.004208416678011417,0.004051038529723883,-0.029009627178311348,0,0,-1000,4,4,-29,0,1,-153,1500.0,190.0
16:47:10.534,GUIDED,-35.3632623,149.1652364,20840,0.0025638474617153406,0.0002726177917793393,-0.2171507477760315,0.004208416678011417,0.004051038529723883,-0.029009627178311348,0,0,-1000,4,4,-29,0,1,-153,1500.0,190.0
16:47:10.736,GUIDED,-35.3632623,149.1652364,20840,0.0025638474617153406,0.0002726177917793393,-0.2171507477760315,0.004208416678011417,0.004051038529723883,-0.029009627178311348,0,0,-1000,4,4,-29,0,1,-153,1500.0,190.0
16:47:10.939,GUIDED,-35.3632623,149.1652364,20840,0.0025638474617153406,0.0002726177917793393,-0.2171507477760315,0.004208416678011417,0.004051038529723883,-0.029009627178311348,0,0,-1000,4,4,-29,0,1,-153,1500.0,190.0
16:47:11.144,GUIDED,-35.3632623,149.1652364,20840,0.0025638474617153406,0.0002726177917793393,-0.2171507477760315,0.004208416678011417,0.004051038529723883,-0.029009627178311348,0,0,-1000,4,4,-29,0,1,-153,1500.0,190.0
16:47:11.345,GUIDED,-35.3632622,149.1652364,22794,0.005353850312530994,0.0040616560727357864,-0.2482021003961563,0.00237621134147048,0.0019857787992805243,-0.021091166883707047,0,0,-1000,3,2,-21,0,2,-153,1500.0,190.0
16:47:11.548,GUIDED,-35.3632622,149.1652365,23968,0.004381752107292414,0.002976400312036276,-0.2615983784198761,-0.003213712479919195,-0.0003803781874012202,-0.017132829874753952,0,0,-1000,-2,0,-17,-1,3,-153,1500.0,190.0
16:47:11.749,GUIDED,-35.3632622,149.1652365,23968,0.004381752107292414,0.002976400312036276,-0.2615983784198761,-0.003213712479919195,-0.0003803781874012202,-0.017132829874753952,0,0,-1000,-2,0,-17,-1,3,-153,1500.0,190.0
16:47:11.951,GUIDED,-35.3632622,149.1652365,23968,0.004381752107292414,0.002976400312036276,-0.2615983784198761,-0.003213712479919195,-0.0003803781874012202,-0.017132829874753952,0,0,-1000,-2,0,-17,-1,3,-153,1500.0,190.0
16:47:12.157,GUIDED,-35.3632622,149.1652365,23968,0.004381752107292414,0.002976400312036276,-0.2615983784198761,-0.003213712479919195,-0.0003803781874012202,-0.017132829874753952,0,0,-1000,-2,0,-17,-1,3,-153,1500.0,190.0
16:47:12.361,GUIDED,-35.3632622,149.1652365,23968,0.004381752107292414,0.002976400312036276,-0.2615983784198761,-0.003213712479919195,-0.0003803781874012202,-0.017132829874753952,0,0,-1000,-2,0,-17,-1,3,-153,1500.0,190.0
16:47:12.567,GUIDED,-35.3632622,149.1652365,23968,0.004381752107292414,0.002976400312036276,-0.2615983784198761,-0.003213712479919195,-0.0003803781874012202,-0.017132829874753952,0,0,-1000,-2,0,-17,-1,3,-153,1500.0,190.0
16:47:12.769,GUIDED,-35.3632622,149.1652365,23968,0.004381752107292414,0.002976400312036276,-0.2615983784198761,-0.003213712479919195,-0.0003803781874012202,-0.017132829874753952,0,0,-1000,-2,0,-17,-1,3,-153,1500.0,190.0
16:47:12.970,GUIDED,-35.3632622,149.1652365,23968,0.004381752107292414,0.002976400312036276,-0.2615983784198761,-0.003213712479919195,-0.0003803781874012202,-0.017132829874753952,0,0,-1000,-2,0,-17,-1,3,-153,1500.0,190.0
16:47:13.173,GUIDED,-35.3632622,149.1652365,23968,0.004381752107292414,0.002976400312036276,-0.2615983784198761,-0.003213712479919195,-0.0003803781874012202,-0.017132829874753952,0,0,-1000,-2,0,-17,-1,3,-153,1500.0,190.0
16:47:13.377,GUIDED,-35.3632622,149.1652365,26315,0.005511184688657522,0.005628108978271484,-0.2649350166320801,0.027255654335021973,-0.00376293552108109,0.023885076865553856,0,0,-1000,28,-3,23,-4,0,-153,1500.0,190.0
16:47:13.579,GUIDED,-35.3632623,149.1652365,27095,0.011637055315077305,0.0032411282882094383,-0.2520415782928467,0.004715628456324339,-0.002179262461140752,0.026409147307276726,0,0,-999,5,-1,25,-4,3,-153,1500.0,190.0
16:47:13.780,GUIDED,-35.3632623,149.1652365,27095,0.011637055315077305,0.0032411282882094383,-0.2520415782928467,0.004715628456324339,-0.002179262461140752,0.026409147307276726,0,0,-999,5,-1,25,-4,3,-153,1500.0,190.0
16:47:13.983,GUIDED,-35.3632623,149.1652365,27095,0.011637055315077305,0.0032411282882094383,-0.2520415782928467,0.004715628456324339,-0.002179262461140752,0.026409147307276726,0,0,-999,5,-1,25,-4,3,-153,1500.0,190.0
16:47:14.185,GUIDED,-35.3632623,149.1652365,27095,0.011637055315077305,0.0032411282882094383,-0.2520415782928467,0.004715628456324339,-0.002179262461140752,0.026409147307276726,0,0,-999,5,-1,25,-4,3,-153,1500.0,190.0
16:47:14.388,GUIDED,-35.3632623,149.1652365,27095,0.011637055315077305,0.0032411282882094383,-0.2520415782928467,0.004715628456324339,-0.002179262461140752,0.026409147307276726,0,0,-999,5,-1,25,-4,3,-153,1500.0,190.0
16:47:14.591,GUIDED,-35.3632623,149.1652365,27095,0.011637055315077305,0.0032411282882094383,-0.2520415782928467,0.004715628456324339,-0.002179262461140752,0.026409147307276726,0,0,-999,5,-1,25,-4,3,-153,1500.0,190.0
16:47:14.795,GUIDED,-35.3632623,149.1652365,27095,0.011637055315077305,0.0032411282882094383,-0.2520415782928467,0.004715628456324339,-0.002179262461140752,0.026409147307276726,0,0,-999,5,-1,25,-4,3,-153,1500.0,190.0
16:47:14.998,GUIDED,-35.3632623,149.1652365,27095,0.011637055315077305,0.0032411282882094383,-0.2520415782928467,0.004715628456324339,-0.002179262461140752,0.026409147307276726,0,0,-999,5,-1,25,-4,3,-153,1500.0,190.0
16:47:15.201,GUIDED,-35.3632623,149.1652365,27095,0.011637055315077305,0.0032411282882094383,-0.2520415782928467,0.004715628456324339,-0.002179262461140752,0.026409147307276726,0,0,-999,5,-1,25,-4,3,-153,1500.0,190.0
16:47:15.402,GUIDED,-35.3632624,149.1652373,29432,0.0021537088323384523,0.0017001242376863956,-0.2174070030450821,-0.004369145724922419,0.0009600821067579091,0.02146512269973755,1,-1,-1000,-3,1,20,0,9,-152,1500.0,190.0
16:47:15.606,GUIDED,-35.3632624,149.1652377,30210,-0.0003379130212124437,0.00158881233073771,-0.20786695182323456,-0.0018763273255899549,-0.0011254334822297096,0.01917855441570282,0,-1,-1001,-1,0,18,0,7,-152,1500.0,190.0
16:47:15.807,GUIDED,-35.3632624,149.1652377,30210,-0.0003379130212124437,0.00158881233073771,-0.20786695182323456,-0.0018763273255899549,-0.0011254334822297096,0.01917855441570282,0,-1,-1001,-1,0,18,0,7,-152,1500.0,190.0
16:47:16.009,GUIDED,-35.3632624,149.1652377,30210,-0.0003379130212124437,0.00158881233073771,-0.20786695182323456,-0.0018763273255899549,-0.0011254334822297096,0.01917855441570282,0,-1,-1001,-1,0,18,0,7,-152,1500.0,190.0
16:47:16.213,GUIDED,-35.3632624,149.1652377,30210,-0.0003379130212124437,0.00158881233073771,-0.20786695182323456,-0.0018763273255899549,-0.0011254334822297096,0.01917855441570282,0,-1,-1001,-1,0,18,0,7,-152,1500.0,190.0
16:47:16.414,GUIDED,-35.3632624,149.1652377,30210,-0.0003379130212124437,0.00158881233073771,-0.20786695182323456,-0.0018763273255899549,-0.0011254334822297096,0.01917855441570282,0,-1,-1001,-1,0,18,0,7,-152,1500.0,190.0
16:47:16.616,GUIDED,-35.3632624,149.1652377,30210,-0.0003379130212124437,0.00158881233073771,-0.20786695182323456,-0.0018763273255899549,-0.0011254334822297096,0.01917855441570282,0,-1,-1001,-1,0,18,0,7,-152,1500.0,190.0
16:47:16.820,GUIDED,-35.3632624,149.1652377,30210,-0.0003379130212124437,0.00158881233073771,-0.20786695182323456,-0.0018763273255899549,-0.0011254334822297096,0.01917855441570282,0,-1,-1001,-1,0,18,0,7,-152,1500.0,190.0
16:47:17.024,GUIDED,-35.3632624,149.1652377,30210,-0.0003379130212124437,0.00158881233073771,-0.20786695182323456,-0.0018763273255899549,-0.0011254334822297096,0.01917855441570282,0,-1,-1001,-1,0,18,0,7,-152,1500.0,190.0
16:47:17.228,GUIDED,-35.3632624,149.1652377,30210,-0.0003379130212124437,0.00158881233073771,-0.20786695182323456,-0.0018763273255899549,-0.0011254334822297096,0.01917855441570282,0,-1,-1001,-1,0,18,0,7,-152,1500.0,190.0
16:47:17.430,GUIDED,-35.3632624,149.1652381,32157,-0.0003841350262518972,0.0010903662769123912,-0.18701091408729553,0.002065374981611967,0.0021453313529491425,0.016273634508252144,0,0,-999,2,3,15,0,2,-153,1500.0,190.0
16:47:17.632,GUIDED,-35.3632623,149.1652381,33327,0.0008092262432910502,0.0008847112185321748,-0.1762261986732483,0.004160392563790083,0.0012170793488621712,0.013663822785019875,0,0,-1000,4,2,13,0,0,-153,1500.0,190.0
16:47:17.833,GUIDED,-35.3632623,149.1652381,33327,0.0008092262432910502,0.0008847112185321748,-0.1762261986732483,0.004160392563790083,0.0012170793488621712,0.013663822785019875,0,0,-1000,4,2,13,0,0,-153,1500.0,190.0
16:47:18.035,GUIDED,-35.3632623,149.1652381,33327,0.0008092262432910502,0.0008847112185321748,-0.1762261986732483,0.004160392563790083,0.0012170793488621712,0.013663822785019875,0,0,-1000,4,2,13,0,0,-153,1500.0,190.0
16:47:18.238,GUIDED,-35.3632623,149.1652381,33327,0.0008092262432910502,0.0008847112185321748,-0.1762261986732483,0.004160392563790083,0.0012170793488621712,0.013663822785019875,0,0,-1000,4,2,13,0,0,-153,1500.0,190.0
16:47:18.439,GUIDED,-35.3632623,149.1652381,33327,0.0008092262432910502,0.0008847112185321748,-0.1762261986732483,0.004160392563790083,0.0012170793488621712,0.013663822785019875,0,0,-1000,4,2,13,0,0,-153,1500.0,190.0
16:47:18.642,GUIDED,-35.3632623,149.1652381,33327,0.0008092262432910502,0.0008847112185321748,-0.1762261986732483,0.004160392563790083,0.0012170793488621712,0.013663822785019875,0,0,-1000,4,2,13,0,0,-153,1500.0,190.0
16:47:18.844,GUIDED,-35.3632623,149.1652381,33327,0.0008092262432910502,0.0008847112185321748,-0.1762261986732483,0.004160392563790083,0.0012170793488621712,0.013663822785019875,0,0,-1000,4,2,13,0,0,-153,1500.0,190.0
16:47:19.047,GUIDED,-35.3632623,149.1652381,33327,0.0008092262432910502,0.0008847112185321748,-0.1762261986732483,0.004160392563790083,0.0012170793488621712,0.013663822785019875,0,0,-1000,4,2,13,0,0,-153,1500.0,190.0
16:47:19.248,GUIDED,-35.3632623,149.1652381,33327,0.0008092262432910502,0.0008847112185321748,-0.1762261986732483,0.004160392563790083,0.0012170793488621712,0.013663822785019875,0,0,-1000,4,2,13,0,0,-153,1500.0,190.0
16:47:19.450,GUIDED,-35.3632623,149.1652381,33327,0.0008092262432910502,0.0008847112185321748,-0.1762261986732483,0.004160392563790083,0.0012170793488621712,0.013663822785019875,0,0,-1000,4,2,13,0,0,-153,1500.0,190.0
16:47:19.654,GUIDED,-35.3632622,149.1652379,36450,0.0018090615049004555,0.0011241986649110913,-0.15206335484981537,-0.0011163783492520452,-0.0008663080516271293,0.009161222726106644,0,0,-1000,0,0,8,0,0,-153,1500.0,190.0
16:47:19.855,GUIDED,-35.3632622,149.1652379,36450,0.0018090615049004555,0.0011241986649110913,-0.15206335484981537,-0.0011163783492520452,-0.0008663080516271293,0.009161222726106644,0,0,-1000,0,0,8,0,0,-153,1500.0,190.0
16:47:20.059,GUIDED,-35.3632622,149.1652379,36450,0.0018090615049004555,0.0011241986649110913,-0.15206335484981537,-0.0011163783492520452,-0.0008663080516271293,0.009161222726106644,0,0,-1000,0,0,8,0,0,-153,1500.0,190.0
16:47:20.261,GUIDED,-35.3632622,149.1652379,36450,0.0018090615049004555,0.0011241986649110913,-0.15206335484981537,-0.0011163783492520452,-0.0008663080516271293,0.009161222726106644,0,0,-1000,0,0,8,0,0,-153,1500.0,190.0
16:47:20.463,GUIDED,-35.3632622,149.1652379,36450,0.0018090615049004555,0.0011241986649110913,-0.15206335484981537,-0.0011163783492520452,-0.0008663080516271293,0.009161222726106644,0,0,-1000,0,0,8,0,0,-153,1500.0,190.0
16:47:20.664,GUIDED,-35.3632622,149.1652379,36450,0.0018090615049004555,0.0011241986649110913,-0.15206335484981537,-0.0011163783492520452,-0.0008663080516271293,0.009161222726106644,0,0,-1000,0,0,8,0,0,-153,1500.0,190.0
16:47:20.865,GUIDED,-35.3632622,149.1652379,36450,0.0018090615049004555,0.0011241986649110913,-0.15206335484981537,-0.0011163783492520452,-0.0008663080516271293,0.009161222726106644,0,0,-1000,0,0,8,0,0,-153,1500.0,190.0
16:47:21.068,GUIDED,-35.3632622,149.1652379,36450,0.0018090615049004555,0.0011241986649110913,-0.15206335484981537,-0.0011163783492520452,-0.0008663080516271293,0.009161222726106644,0,0,-1000,0,0,8,0,0,-153,1500.0,190.0
16:47:21.269,GUIDED,-35.3632622,149.1652377,37849,0.00238938070833683,0.000791611266322434,-0.1432373970746994,-0.0011001836974173784,0.0002408657455816865,0.010544957593083382,0,0,-1000,2,1,10,0,0,-153,1500.0,190.0
16:47:21.474,GUIDED,-35.3632622,149.1652376,39016,0.0027462535072118044,0.0013138873036950827,-0.13646794855594635,0.0005036037182435393,0.0016619921661913395,0.00969981774687767,0,0,-1000,1,2,9,0,0,-153,1500.0,190.0
16:47:21.675,GUIDED,-35.3632621,149.1652376,39407,0.002788843587040901,0.0012720872182399035,-0.13455632328987122,0.0025958241894841194,-0.00011237297439947724,0.008418249897658825,0,0,-1001,3,0,8,0,0,-153,1500.0,190.0
16:47:21.877,GUIDED,-35.3632621,149.1652376,39407,0.002788843587040901,0.0012720872182399035,-0.13455632328987122,0.0025958241894841194,-0.00011237297439947724,0.008418249897658825,0,0,-1001,3,0,8,0,0,-153,1500.0,190.0
16:47:22.081,GUIDED,-35.3632621,149.1652376,39407,0.002788843587040901,0.0012720872182399035,-0.13455632328987122,0.0025958241894841194,-0.00011237297439947724,0.008418249897658825,0,0,-1001,3,0,8,0,0,-153,1500.0,190.0
16:47:22.283,GUIDED,-35.3632621,149.1652376,39407,0.002788843587040901,0.0012720872182399035,-0.13455632328987122,0.0025958241894841194,-0.00011237297439947724,0.008418249897658825,0,0,-1001,3,0,8,0,0,-153,1500.0,190.0
16:47:22.487,GUIDED,-35.3632621,149.1652376,39407,0.002788843587040901,0.0012720872182399035,-0.13455632328987122,0.0025958241894841194,-0.00011237297439947724,0.008418249897658825,0,0,-1001,3,0,8,0,0,-153,1500.0,190.0
16:47:22.693,GUIDED,-35.3632621,149.1652376,39407,0.002788843587040901,0.0012720872182399035,-0.13455632328987122,0.0025958241894841194,-0.00011237297439947724,0.008418249897658825,0,0,-1001,3,0,8,0,0,-153,1500.0,190.0
16:47:22.894,GUIDED,-35.3632621,149.1652376,39407,0.002788843587040901,0.0012720872182399035,-0.13455632328987122,0.0025958241894841194,-0.00011237297439947724,0.008418249897658825,0,0,-1001,3,0,8,0,0,-153,1500.0,190.0
16:47:23.096,GUIDED,-35.3632621,149.1652376,39407,0.002788843587040901,0.0012720872182399035,-0.13455632328987122,0.0025958241894841194,-0.00011237297439947724,0.008418249897658825,0,0,-1001,3,0,8,0,0,-153,1500.0,190.0
16:47:23.298,GUIDED,-35.3632621,149.1652375,41355,0.0020755052100867033,0.0013707095058634877,-0.1256590038537979,-0.0010776007547974586,-0.002640270162373781,0.007163429167121649,0,0,-1001,2,0,7,0,0,-153,1500.0,190.0
16:47:23.500,GUIDED,-35.3632621,149.1652375,42133,0.0018978090956807137,0.0012873149244114757,-0.12212295085191727,0.00013229995965957642,0.0021382272243499756,0.010411239229142666,0,0,-999,0,2,10,0,0,-153,1500.0,190.0
16:47:23.702,GUIDED,-35.363262,149.1652375,42523,0.0020285644568502903,0.0014968494651839137,-0.12043249607086182,0.0003872722736559808,0.0034303045831620693,0.008053828962147236,0,0,-1000,1,4,8,0,0,-153,1500.0,190.0
16:47:23.904,GUIDED,-35.363262,149.1652375,42523,0.0020285644568502903,0.0014968494651839137,-0.12043249607086182,0.0003872722736559808,0.0034303045831620693,0.008053828962147236,0,0,-1000,1,4,8,0,0,-153,1500.0,190.0
16:47:24.106,GUIDED,-35.363262,149.1652375,42523,0.0020285644568502903,0.0014968494651839137,-0.12043249607086182,0.0003872722736559808,0.0034303045831620693,0.008053828962147236,0,0,-1000,1,4,8,0,0,-153,1500.0,190.0
16:47:24.308,GUIDED,-35.363262,149.1652375,42523,0.0020285644568502903,0.0014968494651839137,-0.12043249607086182,0.0003872722736559808,0.0034303045831620693,0.008053828962147236,0,0,-1000,1,4,8,0,0,-153,1500.0,190.0
16:47:24.510,GUIDED,-35.363262,149.1652375,42523,0.0020285644568502903,0.0014968494651839137,-0.12043249607086182,0.0003872722736559808,0.0034303045831620693,0.008053828962147236,0,0,-1000,1,4,8,0,0,-153,1500.0,190.0
16:47:24.713,GUIDED,-35.363262,149.1652375,42523,0.0020285644568502903,0.0014968494651839137,-0.12043249607086182,0.0003872722736559808,0.0034303045831620693,0.008053828962147236,0,0,-1000,1,4,8,0,0,-153,1500.0,190.0
16:47:24.915,GUIDED,-35.363262,149.1652375,42523,0.0020285644568502903,0.0014968494651839137,-0.12043249607086182,0.0003872722736559808,0.0034303045831620693,0.008053828962147236,0,0,-1000,1,4,8,0,0,-153,1500.0,190.0
16:47:25.122,GUIDED,-35.363262,149.1652375,42523,0.0020285644568502903,0.0014968494651839137,-0.12043249607086182,0.0003872722736559808,0.0034303045831620693,0.008053828962147236,0,0,-1000,1,4,8,0,0,-153,1500.0,190.0
16:47:25.326,GUIDED,-35.363262,149.1652375,42523,0.0020285644568502903,0.0014968494651839137,-0.12043249607086182,0.0003872722736559808,0.0034303045831620693,0.008053828962147236,0,0,-1000,1,4,8,0,0,-153,1500.0,190.0
16:47:25.528,GUIDED,-35.363262,149.1652374,45258,0.001886121230199933,0.0010643565328791738,-0.10986005514860153,-0.0009406963363289833,0.00035871792351827025,0.00654284143820405,0,0,-1000,0,1,6,-1,1,-153,1500.0,190.0
16:47:25.730,GUIDED,-35.363262,149.1652374,45648,0.0018282594392076135,0.0009789307368919253,-0.10835589468479156,0.0003391164354979992,0.0010908182011917233,0.008040471002459526,0,0,-999,1,1,8,-1,1,-153,1500.0,190.0
16:47:25.932,GUIDED,-35.363262,149.1652374,45648,0.0018282594392076135,0.0009789307368919253,-0.10835589468479156,0.0003391164354979992,0.0010908182011917233,0.008040471002459526,0,0,-999,1,1,8,-1,1,-153,1500.0,190.0
16:47:26.135,GUIDED,-35.363262,149.1652374,45648,0.0018282594392076135,0.0009789307368919253,-0.10835589468479156,0.0003391164354979992,0.0010908182011917233,0.008040471002459526,0,0,-999,1,1,8,-1,1,-153,1500.0,190.0
16:47:26.339,GUIDED,-35.363262,149.1652374,45648,0.0018282594392076135,0.0009789307368919253,-0.10835589468479156,0.0003391164354979992,0.0010908182011917233,0.008040471002459526,0,0,-999,1,1,8,-1,1,-153,1500.0,190.0
16:47:26.541,GUIDED,-35.363262,149.1652374,45648,0.0018282594392076135,0.0009789307368919253,-0.10835589468479156,0.0003391164354979992,0.0010908182011917233,0.008040471002459526,0,0,-999,1,1,8,-1,1,-153,1500.0,190.0
16:47:26.743,GUIDED,-35.363262,149.1652374,45648,0.0018282594392076135,0.0009789307368919253,-0.10835589468479156,0.0003391164354979992,0.0010908182011917233,0.008040471002459526,0,0,-999,1,1,8,-1,1,-153,1500.0,190.0
16:47:26.948,GUIDED,-35.363262,149.1652374,45648,0.0018282594392076135,0.0009789307368919253,-0.10835589468479156,0.0003391164354979992,0.0010908182011917233,0.008040471002459526,0,0,-999,1,1,8,-1,1,-153,1500.0,190.0
16:47:27.152,GUIDED,-35.363262,149.1652374,45648,0.0018282594392076135,0.0009789307368919253,-0.10835589468479156,0.0003391164354979992,0.0010908182011917233,0.008040471002459526,0,0,-999,1,1,8,-1,1,-153,1500.0,190.0
16:47:27.354,GUIDED,-35.363262,149.1652374,47976,0.00215092278085649,0.0009068557410500944,-0.10040424019098282,0.0017330285627394915,7.261231075972319e-06,0.0075070527382195,0,0,-1000,2,1,7,-1,1,-153,1500.0,190.0
16:47:27.556,GUIDED,-35.363262,149.1652374,48756,0.00218274537473917,0.0008837252389639616,-0.0980919897556305,0.0019976329058408737,-0.0005636648857034743,0.005298906937241554,0,0,-999,0,2,6,-1,1,-153,1500.0,190.0
16:47:27.758,GUIDED,-35.363262,149.1652374,48756,0.00218274537473917,0.0008837252389639616,-0.0980919897556305,0.0019976329058408737,-0.0005636648857034743,0.005298906937241554,0,0,-1001,3,0,5,-1,1,-153,1500.0,190.0
16:47:27.959,GUIDED,-35.363262,149.1652374,48756,0.00218274537473917,0.0008837252389639616,-0.0980919897556305,0.0019976329058408737,-0.0005636648857034743,0.005298906937241554,0,0,-1001,3,0,5,-1,1,-153,1500.0,190.0
16:47:28.161,GUIDED,-35.363262,149.1652374,48756,0.00218274537473917,0.0008837252389639616,-0.0980919897556305,0.0019976329058408737,-0.0005636648857034743,0.005298906937241554,0,0,-1001,3,0,5,-1,1,-153,1500.0,190.0
16:47:28.365,GUIDED,-35.363262,149.1652374,48756,0.00218274537473917,0.0008837252389639616,-0.0980919897556305,0.0019976329058408737,-0.0005636648857034743,0.005298906937241554,0,0,-1001,3,0,5,-1,1,-153,1500.0,190.0
16:47:28.567,GUIDED,-35.363262,149.1652374,48756,0.00218274537473917,0.0008837252389639616,-0.0980919897556305,0.0019976329058408737,-0.0005636648857034743,0.005298906937241554,0,0,-1001,3,0,5,-1,1,-153,1500.0,190.0
16:47:28.769,GUIDED,-35.363262,149.1652374,48756,0.00218274537473917,0.0008837252389639616,-0.0980919897556305,0.0019976329058408737,-0.0005636648857034743,0.005298906937241554,0,0,-1001,3,0,5,-1,1,-153,1500.0,190.0
16:47:28.971,GUIDED,-35.363262,149.1652374,48756,0.00218274537473917,0.0008837252389639616,-0.0980919897556305,0.0019976329058408737,-0.0005636648857034743,0.005298906937241554,0,0,-1001,3,0,5,-1,1,-153,1500.0,190.0
16:47:29.173,GUIDED,-35.363262,149.1652374,48756,0.00218274537473917,0.0008837252389639616,-0.0980919897556305,0.0019976329058408737,-0.0005636648857034743,0.005298906937241554,0,0,-1001,3,0,5,-1,1,-153,1500.0,190.0
16:47:29.376,GUIDED,-35.363262,149.1652374,51489,0.0018194548320025206,0.0009461059817112982,-0.08911532163619995,0.0009589242981746793,-0.0005985196912661195,0.0039230347611010075,0,0,-1000,1,0,4,-1,1,-153,1500.0,190.0
16:47:29.578,GUIDED,-35.363262,149.1652374,51879,0.0019806683994829655,0.0009208208648487926,-0.08810655772686005,0.002123442944139242,-0.00022541271755471826,0.00432583037763834,0,0,-1001,3,0,4,-1,1,-153,1500.0,190.0
16:47:29.782,LAND,-35.363262,149.1652374,51879,0.0019806683994829655,0.0009208208648487926,-0.08810655772686005,0.002123442944139242,-0.00022541271755471826,0.00432583037763834,0,0,-1001,3,0,4,-1,1,-153,1500.0,190.0
16:47:29.985,LAND,-35.363262,149.1652374,51879,0.0019806683994829655,0.0009208208648487926,-0.08810655772686005,0.002123442944139242,-0.00022541271755471826,0.00432583037763834,0,0,-1001,3,0,4,-1,1,-153,1500.0,190.0
16:47:30.187,LAND,-35.363262,149.1652374,51879,0.0019806683994829655,0.0009208208648487926,-0.08810655772686005,0.002123442944139242,-0.00022541271755471826,0.00432583037763834,0,0,-1001,3,0,4,-1,1,-153,1500.0,190.0
16:47:30.391,LAND,-35.363262,149.1652374,51879,0.0019806683994829655,0.0009208208648487926,-0.08810655772686005,0.002123442944139242,-0.00022541271755471826,0.00432583037763834,0,0,-1001,3,0,4,-1,1,-153,1500.0,190.0
16:47:30.592,LAND,-35.363262,149.1652374,51879,0.0019806683994829655,0.0009208208648487926,-0.08810655772686005,0.002123442944139242,-0.00022541271755471826,0.00432583037763834,0,0,-1001,3,0,4,-1,1,-153,1500.0,190.0
16:47:30.794,LAND,-35.363262,149.1652374,51879,0.0019806683994829655,0.0009208208648487926,-0.08810655772686005,0.002123442944139242,-0.00022541271755471826,0.00432583037763834,0,0,-1001,3,0,4,-1,1,-153,1500.0,190.0
16:47:30.997,LAND,-35.363262,149.1652374,51879,0.0019806683994829655,0.0009208208648487926,-0.08810655772686005,0.002123442944139242,-0.00022541271755471826,0.00432583037763834,0,0,-1001,3,0,4,-1,1,-153,1500.0,190.0
16:47:31.199,LAND,-35.363262,149.1652374,51879,0.0019806683994829655,0.0009208208648487926,-0.08810655772686005,0.002123442944139242,-0.00022541271755471826,0.00432583037763834,0,0,-1001,3,0,4,-1,1,-153,1500.0,190.0
16:47:31.402,LAND,-35.3632626,149.1652365,54469,-0.05842781439423561,0.060301415622234344,0.2241118997335434,0.053526993840932846,-0.20238839089870453,0.3330056369304657,3,5,-907,54,-201,333,-27,-28,-105,1500.0,140.0
16:47:31.604,LAND,-35.3632632,149.1652356,54712,-0.02941974252462387,0.007918247021734715,0.2862308621406555,0.15383897721767426,-0.2054934948682785,0.17518877983093262,3,12,-914,154,-204,175,-31,-37,-83,1500.0,140.0
16:47:31.805,LAND,-35.3632632,149.1652356,54712,-0.02941974252462387,0.007918247021734715,0.2862308621406555,0.15383897721767426,-0.2054934948682785,0.17518877983093262,3,12,-914,154,-204,175,-31,-37,-83,1500.0,140.0
16:47:32.008,LAND,-35.3632632,149.1652356,54712,-0.02941974252462387,0.007918247021734715,0.2862308621406555,0.15383897721767426,-0.2054934948682785,0.17518877983093262,3,12,-914,154,-204,175,-31,-37,-83,1500.0,140.0
16:47:32.212,LAND,-35.3632632,149.1652356,54712,-0.02941974252462387,0.007918247021734715,0.2862308621406555,0.15383897721767426,-0.2054934948682785,0.17518877983093262,3,12,-914,154,-204,175,-31,-37,-83,1500.0,140.0
16:47:32.414,LAND,-35.3632632,149.1652356,54712,-0.02941974252462387,0.007918247021734715,0.2862308621406555,0.15383897721767426,-0.2054934948682785,0.17518877983093262,3,12,-914,154,-204,175,-31,-37,-83,1500.0,140.0
16:47:32.620,LAND,-35.3632632,149.1652356,54712,-0.02941974252462387,0.007918247021734715,0.2862308621406555,0.15383897721767426,-0.2054934948682785,0.17518877983093262,3,12,-914,154,-204,175,-31,-37,-83,1500.0,140.0
16:47:32.822,LAND,-35.3632632,149.1652356,54712,-0.02941974252462387,0.007918247021734715,0.2862308621406555,0.15383897721767426,-0.2054934948682785,0.17518877983093262,3,12,-914,154,-204,175,-31,-37,-83,1500.0,140.0
16:47:33.029,LAND,-35.3632632,149.1652356,54712,-0.02941974252462387,0.007918247021734715,0.2862308621406555,0.15383897721767426,-0.2054934948682785,0.17518877983093262,3,12,-914,154,-204,175,-31,-37,-83,1500.0,140.0
16:47:33.230,LAND,-35.3632632,149.1652356,54712,-0.02941974252462387,0.007918247021734715,0.2862308621406555,0.15383897721767426,-0.2054934948682785,0.17518877983093262,3,12,-914,154,-204,175,-31,-37,-83,1500.0,140.0
16:47:33.433,LAND,-35.3632647,149.1652323,55179,0.04270338639616966,-0.04592326655983925,0.3089178502559662,-0.700782835483551,0.046667054295539856,-0.04181959480047226,-2,-41,-948,-704,47,-41,9,3,6,1500.0,140.0
16:47:33.636,LAND,-35.3632636,149.1652336,54999,0.010534863919019699,-0.010668030008673668,0.2809503376483917,-1.118180751800537,0.04759654030203819,-0.03768109530210495,-4,-56,-946,-1117,48,-37,21,26,39,1500.0,140.0
16:47:33.841,LAND,-35.3632636,149.1652336,54999,0.010534863919019699,-0.010668030008673668,0.2809503376483917,-1.118180751800537,0.04759654030203819,-0.03768109530210495,-4,-56,-946,-1117,48,-37,21,26,39,1500.0,140.0
16:47:34.053,LAND,-35.3632636,149.1652336,54999,0.010534863919019699,-0.010668030008673668,0.2809503376483917,-1.118180751800537,0.04759654030203819,-0.03768109530210495,-4,-56,-946,-1117,48,-37,21,26,39,1500.0,140.0
16:47:34.316,LAND,-35.3632636,149.1652336,54999,0.010534863919019699,-0.010668030008673668,0.2809503376483917,-1.118180751800537,0.04759654030203819,-0.03768109530210495,-4,-56,-946,-1117,48,-37,21,26,39,1500.0,140.0
16:47:34.520,LAND,-35.3632636,149.1652336,54999,0.010534863919019699,-0.010668030008673668,0.2809503376483917,-1.118180751800537,0.04759654030203819,-0.03768109530210495,-4,-56,-946,-1117,48,-37,21,26,39,1500.0,140.0
16:47:34.723,LAND,-35.3632636,149.1652336,54999,0.010534863919019699,-0.010668030008673668,0.2809503376483917,-1.118180751800537,0.04759654030203819,-0.03768109530210495,-4,-56,-946,-1117,48,-37,21,26,39,1500.0,140.0
16:47:34.924,LAND,-35.3632636,149.1652336,54999,0.010534863919019699,-0.010668030008673668,0.2809503376483917,-1.118180751800537,0.04759654030203819,-0.03768109530210495,-4,-56,-946,-1117,48,-37,21,26,39,1500.0,140.0
16:47:35.126,LAND,-35.3632636,149.1652336,54999,0.010534863919019699,-0.010668030008673668,0.2809503376483917,-1.118180751800537,0.04759654030203819,-0.03768109530210495,-4,-56,-946,-1117,48,-37,21,26,39,1500.0,140.0
16:47:35.329,LAND,-35.3632623,149.1652362,54605,-0.017889628186821938,0.011186912655830383,0.255296528339386,-0.7299488186836243,0.010434173047542572,-0.03284536302089691,-4,-56,-946,-1117,48,-37,17,30,60,1500.0,140.0
16:47:35.531,LAND,-35.3632614,149.1652393,53682,-0.0342487134039402,0.014317933470010757,0.22400857508182526,-1.5444649457931519,-0.01084072608500719,-0.03277796879410744,0,-81,-1033,-1546,-9,-32,8,11,113,1500.0,160.0
16:47:35.732,LAND,-35.3632614,149.1652397,53382,-0.021093381568789482,0.010614532977342606,0.21598990261554718,-1.676873803138733,-0.015949860215187073,-0.037811875343322754,3,-100,-883,-1681,-15,-37,6,6,123,1500.0,160.0
16:47:35.934,LAND,-35.3632614,149.1652397,53382,-0.021093381568789482,0.010614532977342606,0.21598990261554718,-1.676873803138733,-0.015949860215187073,-0.037811875343322754,3,-100,-883,-1681,-15,-37,6,6,123,1500.0,160.0
16:47:36.140,LAND,-35.3632614,149.1652397,53382,-0.021093381568789482,0.010614532977342606,0.21598990261554718,-1.676873803138733,-0.015949860215187073,-0.037811875343322754,3,-100,-883,-1681,-15,-37,6,6,123,1500.0,160.0
16:47:36.342,LAND,-35.3632614,149.1652397,53382,-0.021093381568789482,0.010614532977342606,0.21598990261554718,-1.676873803138733,-0.015949860215187073,-0.037811875343322754,3,-100,-883,-1681,-15,-37,6,6,123,1500.0,160.0
16:47:36.547,LAND,-35.3632614,149.1652397,53382,-0.021093381568789482,0.010614532977342606,0.21598990261554718,-1.676873803138733,-0.015949860215187073,-0.037811875343322754,3,-100,-883,-1681,-15,-37,6,6,123,1500.0,160.0
16:47:36.749,LAND,-35.3632614,149.1652397,53382,-0.021093381568789482,0.010614532977342606,0.21598990261554718,-1.676873803138733,-0.015949860215187073,-0.037811875343322754,3,-100,-883,-1681,-15,-37,6,6,123,1500.0,160.0
16:47:36.950,LAND,-35.3632614,149.1652397,53382,-0.021093381568789482,0.010614532977342606,0.21598990261554718,-1.676873803138733,-0.015949860215187073,-0.037811875343322754,3,-100,-883,-1681,-15,-37,6,6,123,1500.0,160.0
16:47:37.151,LAND,-35.3632614,149.1652397,53382,-0.021093381568789482,0.010614532977342606,0.21598990261554718,-1.676873803138733,-0.015949860215187073,-0.037811875343322754,3,-100,-883,-1681,-15,-37,6,6,123,1500.0,160.0
16:47:37.357,LAND,-35.3632616,149.1652405,51844,0.009868687018752098,-0.00026710404199548066,0.18554404377937317,0.6554471850395203,-0.00408160500228405,-0.01743333972990513,2,5,-1042,990,-14,-13,2,-7,101,1500.0,160.0
16:47:37.559,LAND,-35.3632618,149.1652405,51290,0.012202178128063679,-0.001873032539151609,0.1743248701095581,0.9159213900566101,-0.00895971991121769,-0.014380795881152153,1,13,-1029,913,-8,-13,2,-8,94,1500.0,160.0
16:47:37.761,LAND,-35.3632619,149.1652404,51017,0.007911444641649723,-0.0027033693622797728,0.1704663783311844,1.264784812927246,-0.007897076196968555,-0.015998151153326035,1,43,-1048,1263,-7,-15,2,-8,107,1500.0,160.0
16:47:38.006,LAND,-35.3632619,149.1652404,51017,0.007911444641649723,-0.0027033693622797728,0.1704663783311844,1.264784812927246,-0.007897076196968555,-0.015998151153326035,1,43,-1048,1263,-7,-15,2,-8,107,1500.0,160.0
16:47:38.298,LAND,-35.3632619,149.1652404,51017,0.007911444641649723,-0.0027033693622797728,0.1704663783311844,1.264784812927246,-0.007897076196968555,-0.015998151153326035,1,43,-1048,1263,-7,-15,2,-8,107,1500.0,160.0
16:47:38.500,LAND,-35.3632619,149.1652404,51017,0.007911444641649723,-0.0027033693622797728,0.1704663783311844,1.264784812927246,-0.007897076196968555,-0.015998151153326035,1,43,-1048,1263,-7,-15,2,-8,107,1500.0,160.0
16:47:38.702,LAND,-35.3632619,149.1652404,51017,0.007911444641649723,-0.0027033693622797728,0.1704663783311844,1.264784812927246,-0.007897076196968555,-0.015998151153326035,1,43,-1048,1263,-7,-15,2,-8,107,1500.0,160.0
16:47:38.909,LAND,-35.3632619,149.1652404,51017,0.007911444641649723,-0.0027033693622797728,0.1704663783311844,1.264784812927246,-0.007897076196968555,-0.015998151153326035,1,43,-1048,1263,-7,-15,2,-8,107,1500.0,160.0
16:47:39.111,LAND,-35.3632619,149.1652404,51017,0.007911444641649723,-0.0027033693622797728,0.1704663783311844,1.264784812927246,-0.007897076196968555,-0.015998151153326035,1,43,-1048,1263,-7,-15,2,-8,107,1500.0,160.0
16:47:39.313,LAND,-35.3632619,149.1652404,51017,0.007911444641649723,-0.0027033693622797728,0.1704663783311844,1.264784812927246,-0.007897076196968555,-0.015998151153326035,1,43,-1048,1263,-7,-15,2,-8,107,1500.0,160.0
16:47:39.514,LAND,-35.3632624,149.1652387,49114,0.0008460251265205443,-0.0073053776286542416,0.13937123119831085,0.3505428731441498,0.0022957399487495422,-0.02252827025949955,-3,93,-838,530,8,-12,5,-8,88,1500.0,100.0
16:47:39.716,LAND,-35.3632624,149.1652382,48923,0.012705503962934017,-0.006479613017290831,0.13561595976352692,0.7303613424301147,0.003305519465357065,-0.011248626746237278,-3,51,-1085,736,3,-10,5,-7,57,1500.0,100.0
16:47:39.922,LAND,-35.3632624,149.1652382,48923,0.012705503962934017,-0.006479613017290831,0.13561595976352692,0.7303613424301147,0.003305519465357065,-0.011248626746237278,-3,51,-1085,736,3,-10,5,-7,57,1500.0,100.0
16:47:40.127,LAND,-35.3632624,149.1652382,48923,0.012705503962934017,-0.006479613017290831,0.13561595976352692,0.7303613424301147,0.003305519465357065,-0.011248626746237278,-3,51,-1085,736,3,-10,5,-7,57,1500.0,100.0
16:47:40.328,LAND,-35.3632624,149.1652382,48923,0.012705503962934017,-0.006479613017290831,0.13561595976352692,0.7303613424301147,0.003305519465357065,-0.011248626746237278,-3,51,-1085,736,3,-10,5,-7,57,1500.0,100.0
16:47:40.530,LAND,-35.3632624,149.1652382,48923,0.012705503962934017,-0.006479613017290831,0.13561595976352692,0.7303613424301147,0.003305519465357065,-0.011248626746237278,-3,51,-1085,736,3,-10,5,-7,57,1500.0,100.0
16:47:40.734,LAND,-35.3632624,149.1652382,48923,0.012705503962934017,-0.006479613017290831,0.13561595976352692,0.7303613424301147,0.003305519465357065,-0.011248626746237278,-3,51,-1085,736,3,-10,5,-7,57,1500.0,100.0
16:47:40.938,LAND,-35.3632624,149.1652382,48923,0.012705503962934017,-0.006479613017290831,0.13561595976352692,0.7303613424301147,0.003305519465357065,-0.011248626746237278,-3,51,-1085,736,3,-10,5,-7,57,1500.0,100.0
16:47:41.140,LAND,-35.3632624,149.1652382,48923,0.012705503962934017,-0.006479613017290831,0.13561595976352692,0.7303613424301147,0.003305519465357065,-0.011248626746237278,-3,51,-1085,736,3,-10,5,-7,57,1500.0,100.0
16:47:41.341,LAND,-35.3632622,149.1652357,48117,0.04202118143439293,-0.003533504670485854,0.11784892529249191,0.9154882431030273,-0.000590904732234776,-0.01005285419523716,-5,31,-1005,914,0,-9,4,9,61,1500.0,100.0
16:47:41.544,LAND,-35.3632622,149.1652355,47951,0.036258067935705185,-0.0026945024728775024,0.11507512629032135,0.6262111663818359,0.003012570319697261,-0.013018335215747356,-2,4,-970,622,3,-12,4,12,64,1500.0,100.0
16:47:41.746,LAND,-35.3632621,149.1652352,47776,0.030997304245829582,-0.0011896376963704824,0.11174643039703369,0.247158482670784,0.001474966062232852,-0.013096842914819717,-1,-11,-980,242,1,-12,4,13,65,1500.0,100.0
16:47:41.962,LAND,-35.3632621,149.1652352,47776,0.030997304245829582,-0.0011896376963704824,0.11174643039703369,0.247158482670784,0.001474966062232852,-0.013096842914819717,-1,-11,-980,242,1,-12,4,13,65,1500.0,100.0
16:47:42.192,LAND,-35.3632621,149.1652352,47776,0.030997304245829582,-0.0011896376963704824,0.11174643039703369,0.247158482670784,0.001474966062232852,-0.013096842914819717,-1,-11,-980,242,1,-12,4,13,65,1500.0,100.0
16:47:42.420,LAND,-35.3632621,149.1652352,47776,0.030997304245829582,-0.0011896376963704824,0.11174643039703369,0.247158482670784,0.001474966062232852,-0.013096842914819717,-1,-11,-980,242,1,-12,4,13,65,1500.0,100.0
16:47:42.655,LAND,-35.3632621,149.1652352,47776,0.030997304245829582,-0.0011896376963704824,0.11174643039703369,0.247158482670784,0.001474966062232852,-0.013096842914819717,-1,-11,-980,242,1,-12,4,13,65,1500.0,100.0
16:47:42.858,LAND,-35.3632621,149.1652352,47776,0.030997304245829582,-0.0011896376963704824,0.11174643039703369,0.247158482670784,0.001474966062232852,-0.013096842914819717,-1,-11,-980,242,1,-12,4,13,65,1500.0,100.0
16:47:43.060,LAND,-35.3632621,149.1652352,47776,0.030997304245829582,-0.0011896376963704824,0.11174643039703369,0.247158482670784,0.001474966062232852,-0.013096842914819717,-1,-11,-980,242,1,-12,4,13,65,1500.0,100.0
16:47:43.261,LAND,-35.363262,149.1652351,47080,0.02369757369160652,0.003956865519285202,0.10399563610553741,-0.0482654795050621,0.012764723971486092,-0.01800355687737465,2,-56,-967,-446,-4,-11,3,19,66,1500.0,100.0
16:47:43.466,LAND,-35.3632619,149.1652361,46580,-0.00854611024260521,0.006213348358869553,0.09644659608602524,-1.1060134172439575,0.0032242180313915014,-0.01501704566180706,1,-64,-987,-1108,3,-14,2,18,63,1500.0,110.0
16:47:43.667,LAND,-35.363262,149.1652366,46414,-0.019554786384105682,0.006560476031154394,0.09392992407083511,-1.2049219608306885,0.00019692641217261553,-0.013738230802118778,3,-54,-965,-1204,1,-13,2,16,65,1500.0,110.0
16:47:43.868,LAND,-35.363262,149.1652366,46414,-0.019554786384105682,0.006560476031154394,0.09392992407083511,-1.2049219608306885,0.00019692641217261553,-0.013738230802118778,3,-54,-965,-1204,1,-13,2,16,65,1500.0,110.0
16:47:44.075,LAND,-35.363262,149.1652366,46414,-0.019554786384105682,0.006560476031154394,0.09392992407083511,-1.2049219608306885,0.00019692641217261553,-0.013738230802118778,3,-54,-965,-1204,1,-13,2,16,65,1500.0,110.0
16:47:44.277,LAND,-35.363262,149.1652366,46414,-0.019554786384105682,0.006560476031154394,0.09392992407083511,-1.2049219608306885,0.00019692641217261553,-0.013738230802118778,3,-54,-965,-1204,1,-13,2,16,65,1500.0,110.0
16:47:44.481,LAND,-35.363262,149.1652366,46414,-0.019554786384105682,0.006560476031154394,0.09392992407083511,-1.2049219608306885,0.00019692641217261553,-0.013738230802118778,3,-54,-965,-1204,1,-13,2,16,65,1500.0,110.0
16:47:44.684,LAND,-35.363262,149.1652366,46414,-0.019554786384105682,0.006560476031154394,0.09392992407083511,-1.2049219608306885,0.00019692641217261553,-0.013738230802118778,3,-54,-965,-1204,1,-13,2,16,65,1500.0,110.0
16:47:44.888,LAND,-35.363262,149.1652366,46414,-0.019554786384105682,0.006560476031154394,0.09392992407083511,-1.2049219608306885,0.00019692641217261553,-0.013738230802118778,3,-54,-965,-1204,1,-13,2,16,65,1500.0,110.0
16:47:45.089,LAND,-35.363262,149.1652366,46414,-0.019554786384105682,0.006560476031154394,0.09392992407083511,-1.2049219608306885,0.00019692641217261553,-0.013738230802118778,3,-54,-965,-1204,1,-13,2,16,65,1500.0,110.0
