time_stamp,MODE,lat,lon,relative_alt,roll,pitch,yaw,rollspeed,pitchspeed,yawspeed,xacc,yacc,zacc,xgyro,ygyro,zgyro,vx,vy,vz,RTL_ALT
16:27:27.972,STABILIZE,-35.3632621,149.1652374,0,-0.00036029660259373486,0.0012954107951372862,0.028804216533899307,0.00035246560582891107,0.00023583904840052128,0.002542421454563737,0,1,-1000,0,0,0,0,0,-1,1500.0
16:27:28.178,STABILIZE,-35.3632621,149.1652374,0,-0.00036029660259373486,0.0012954107951372862,0.028804216533899307,0.00035246560582891107,0.00023583904840052128,0.002542421454563737,0,1,-1000,0,0,0,0,0,-1,1500.0
16:27:28.379,STABILIZE,-35.3632621,149.1652374,0,-0.00036029660259373486,0.0012954107951372862,0.028804216533899307,0.00035246560582891107,0.00023583904840052128,0.002542421454563737,0,1,-1000,0,0,0,0,0,-1,1500.0
16:27:28.580,STABILIZE,-35.3632621,149.1652374,0,-0.00036029660259373486,0.0012954107951372862,0.028804216533899307,0.00035246560582891107,0.00023583904840052128,0.002542421454563737,0,1,-1000,0,0,0,0,0,-1,1500.0
16:27:28.782,STABILIZE,-35.3632621,149.1652374,0,-0.00036029660259373486,0.0012954107951372862,0.028804216533899307,0.00035246560582891107,0.00023583904840052128,0.002542421454563737,0,1,-1000,0,0,0,0,0,-1,1500.0
16:27:28.984,STABILIZE,-35.3632621,149.1652374,0,-0.00036029660259373486,0.0012954107951372862,0.028804216533899307,0.00035246560582891107,0.00023583904840052128,0.002542421454563737,0,1,-1000,0,0,0,0,0,-1,1500.0
16:27:29.186,STABILIZE,-35.3632621,149.1652374,0,-0.00036029660259373486,0.0012954107951372862,0.028804216533899307,0.00035246560582891107,0.00023583904840052128,0.002542421454563737,0,1,-1000,0,0,0,0,0,-1,1500.0
16:27:29.387,STABILIZE,-35.3632621,149.1652374,0,-0.00036029660259373486,0.0012954107951372862,0.028804216533899307,0.00035246560582891107,0.00023583904840052128,0.002542421454563737,0,1,-1000,0,0,0,0,0,-1,1500.0
16:27:29.588,STABILIZE,-35.3632621,149.1652374,0,-0.00036029660259373486,0.0012954107951372862,0.028804216533899307,0.00035246560582891107,0.00023583904840052128,0.002542421454563737,0,1,-1000,0,0,0,0,0,-1,1500.0
16:27:29.790,STABILIZE,-35.3632621,149.1652374,0,-0.00036029660259373486,0.0012954107951372862,0.028804216533899307,0.00035246560582891107,0.00023583904840052128,0.002542421454563737,0,1,-1000,0,0,0,0,0,-1,1500.0
16:27:29.992,STABILIZE,-35.3632621,149.1652374,0,-0.00036029660259373486,0.0012954107951372862,0.028804216533899307,0.00035246560582891107,0.00023583904840052128,0.002542421454563737,0,1,-1000,0,0,0,0,0,-1,1500.0
16:27:30.192,STABILIZE,-35.3632621,149.1652374,0,-0.00036029660259373486,0.0012954107951372862,0.028804216533899307,0.00035246560582891107,0.00023583904840052128,0.002542421454563737,0,1,-1000,0,0,0,0,0,-1,1500.0
16:27:30.394,STABILIZE,-35.3632621,149.1652374,0,-0.00036029660259373486,0.0012954107951372862,0.028804216533899307,0.00035246560582891107,0.00023583904840052128,0.002542421454563737,0,1,-1000,0,0,0,0,0,-1,1500.0
16:27:30.595,STABILIZE,-35.3632621,149.1652374,0,-0.00036029660259373486,0.0012954107951372862,0.028804216533899307,0.00035246560582891107,0.00023583904840052128,0.002542421454563737,0,1,-1000,0,0,0,0,0,-1,1500.0
16:27:30.797,STABILIZE,-35.3632621,149.1652374,0,-0.00036029660259373486,0.0012954107951372862,0.028804216533899307,0.00035246560582891107,0.00023583904840052128,0.002542421454563737,0,1,-1000,0,0,0,0,0,-1,1500.0
16:27:30.998,STABILIZE,-35.3632621,149.1652374,0,-0.00036029660259373486,0.0012954107951372862,0.028804216533899307,0.00035246560582891107,0.00023583904840052128,0.002542421454563737,0,1,-1000,0,0,0,0,0,-1,1500.0
16:27:31.200,STABILIZE,-35.3632621,149.1652374,0,-0.00036029660259373486,0.0012954107951372862,0.028804216533899307,0.00035246560582891107,0.00023583904840052128,0.002542421454563737,0,1,-1000,0,0,0,0,0,-1,1500.0
16:27:31.404,STABILIZE,-35.3632621,149.1652374,0,-0.00036029660259373486,0.0012954107951372862,0.028804216533899307,0.00035246560582891107,0.00023583904840052128,0.002542421454563737,0,1,-1000,0,0,0,0,0,-1,1500.0
16:27:31.605,STABILIZE,-35.3632621,149.1652374,0,-0.00036029660259373486,0.0012954107951372862,0.028804216533899307,0.00035246560582891107,0.00023583904840052128,0.002542421454563737,0,1,-1000,0,0,0,0,0,-1,1500.0
16:27:31.806,STABILIZE,-35.3632621,149.1652374,0,-0.00036029660259373486,0.0012954107951372862,0.028804216533899307,0.00035246560582891107,0.00023583904840052128,0.002542421454563737,0,1,-1000,0,0,0,0,0,-1,1500.0
16:27:32.008,STABILIZE,-35.3632621,149.1652374,0,-0.00036029660259373486,0.0012954107951372862,0.028804216533899307,0.00035246560582891107,0.00023583904840052128,0.002542421454563737,0,1,-1000,0,0,0,0,0,-1,1500.0
16:27:32.209,STABILIZE,-35.3632621,149.1652374,0,-0.00036029660259373486,0.0012954107951372862,0.028804216533899307,0.00035246560582891107,0.00023583904840052128,0.002542421454563737,0,1,-1000,0,0,0,0,0,-1,1500.0
16:27:32.411,STABILIZE,-35.3632621,149.1652374,0,-0.00036029660259373486,0.0012954107951372862,0.028804216533899307,0.00035246560582891107,0.00023583904840052128,0.002542421454563737,0,1,-1000,0,0,0,0,0,-1,1500.0
16:27:32.612,STABILIZE,-35.3632621,149.1652374,0,-0.00036029660259373486,0.0012954107951372862,0.028804216533899307,0.00035246560582891107,0.00023583904840052128,0.002542421454563737,0,1,-1000,0,0,0,0,0,-1,1500.0
16:27:32.814,STABILIZE,-35.3632621,149.1652374,0,-0.00036029660259373486,0.0012954107951372862,0.028804216533899307,0.00035246560582891107,0.00023583904840052128,0.002542421454563737,0,1,-1000,0,0,0,0,0,-1,1500.0
16:27:33.016,AUTO,-35.3632621,149.1652374,0,-0.0002094444789690897,0.0015275515615940094,0.028137601912021637,0.00012626568786799908,0.00034903240157291293,0.0024140290915966034,0,1,-1000,0,0,0,-1,1,-1,1500.0
16:27:33.217,AUTO,-35.3632621,149.1652374,0,-0.0002094444789690897,0.0015275515615940094,0.028137601912021637,0.00012626568786799908,0.00034903240157291293,0.0024140290915966034,0,1,-1000,0,0,0,-1,1,-1,1500.0
16:27:33.419,AUTO,-35.3632621,149.1652374,0,-0.0002094444789690897,0.0015275515615940094,0.028137601912021637,0.00012626568786799908,0.00034903240157291293,0.0024140290915966034,0,1,-1000,0,0,0,-1,1,-1,1500.0
16:27:33.622,AUTO,-35.3632621,149.1652374,0,-0.0002094444789690897,0.0015275515615940094,0.028137601912021637,0.00012626568786799908,0.00034903240157291293,0.0024140290915966034,0,1,-1000,0,0,0,-1,1,-1,1500.0
16:27:33.823,AUTO,-35.363262,149.1652377,1776,0.018679751083254814,0.00264841690659523,0.017914744094014168,0.002626952016726136,0.0022524704691022635,-0.011675572954118252,0,-1,-1005,3,2,-12,0,9,-146,1500.0
16:27:34.025,AUTO,-35.363262,149.165238,2160,0.022425375878810883,0.0028612460009753704,0.014002330601215363,0.02848426252603531,-0.00014202645979821682,-0.013398085720837116,0,-2,-1004,28,0,-14,0,12,-147,1500.0
16:27:34.226,AUTO,-35.3632619,149.1652384,2546,0.0320710651576519,0.0014957328094169497,0.01110070664435625,0.041849177330732346,-0.00949374120682478,-0.006569568533450365,1,-3,-1002,42,-9,-7,1,18,-148,1500.0
16:27:34.428,AUTO,-35.3632619,149.1652384,2546,0.0320710651576519,0.0014957328094169497,0.01110070664435625,0.041849177330732346,-0.00949374120682478,-0.006569568533450365,1,-3,-1002,42,-9,-7,1,18,-148,1500.0
16:27:34.631,AUTO,-35.3632619,149.1652384,2546,0.0320710651576519,0.0014957328094169497,0.01110070664435625,0.041849177330732346,-0.00949374120682478,-0.006569568533450365,1,-3,-1002,42,-9,-7,1,18,-148,1500.0
16:27:34.832,AUTO,-35.3632619,149.1652384,2546,0.0320710651576519,0.0014957328094169497,0.01110070664435625,0.041849177330732346,-0.00949374120682478,-0.006569568533450365,1,-3,-1002,42,-9,-7,1,18,-148,1500.0
16:27:35.034,AUTO,-35.3632619,149.1652384,2546,0.0320710651576519,0.0014957328094169497,0.01110070664435625,0.041849177330732346,-0.00949374120682478,-0.006569568533450365,1,-3,-1002,42,-9,-7,1,18,-148,1500.0
16:27:35.235,AUTO,-35.3632619,149.1652384,2546,0.0320710651576519,0.0014957328094169497,0.01110070664435625,0.041849177330732346,-0.00949374120682478,-0.006569568533450365,1,-3,-1002,42,-9,-7,1,18,-148,1500.0
16:27:35.437,AUTO,-35.3632619,149.1652384,2546,0.0320710651576519,0.0014957328094169497,0.01110070664435625,0.041849177330732346,-0.00949374120682478,-0.006569568533450365,1,-3,-1002,42,-9,-7,1,18,-148,1500.0
16:27:35.639,AUTO,-35.3632619,149.1652384,2546,0.0320710651576519,0.0014957328094169497,0.01110070664435625,0.041849177330732346,-0.00949374120682478,-0.006569568533450365,1,-3,-1002,42,-9,-7,1,18,-148,1500.0
16:27:35.840,AUTO,-35.3632619,149.1652384,2546,0.0320710651576519,0.0014957328094169497,0.01110070664435625,0.041849177330732346,-0.00949374120682478,-0.006569568533450365,1,-3,-1002,42,-9,-7,1,18,-148,1500.0
16:27:36.041,AUTO,-35.3632609,149.165245,5375,-0.07984156161546707,0.004492201376706362,-0.0895361453294754,0.002192870946601033,-0.0018699023639783263,-0.03912578523159027,1,-3,-1006,2,-1,-39,1,0,-149,1500.0
16:27:36.242,AUTO,-35.3632609,149.1652448,5762,-0.07318732142448425,0.0035291784442961216,-0.09759717434644699,0.04301795735955238,-0.0010363748297095299,-0.029477804899215698,-1,0,-1003,43,0,-30,0,-19,-149,1500.0
16:27:36.443,AUTO,-35.3632609,149.1652448,5762,-0.07318732142448425,0.0035291784442961216,-0.09759717434644699,0.04301795735955238,-0.0010363748297095299,-0.029477804899215698,-1,0,-1003,43,0,-30,0,-19,-149,1500.0
16:27:36.645,AUTO,-35.3632609,149.1652448,5762,-0.07318732142448425,0.0035291784442961216,-0.09759717434644699,0.04301795735955238,-0.0010363748297095299,-0.029477804899215698,-1,0,-1003,43,0,-30,0,-19,-149,1500.0
16:27:36.846,AUTO,-35.3632609,149.1652448,5762,-0.07318732142448425,0.0035291784442961216,-0.09759717434644699,0.04301795735955238,-0.0010363748297095299,-0.029477804899215698,-1,0,-1003,43,0,-30,0,-19,-149,1500.0
16:27:37.048,AUTO,-35.3632609,149.1652448,5762,-0.07318732142448425,0.0035291784442961216,-0.09759717434644699,0.04301795735955238,-0.0010363748297095299,-0.029477804899215698,-1,0,-1003,43,0,-30,0,-19,-149,1500.0
16:27:37.252,AUTO,-35.3632609,149.1652448,5762,-0.07318732142448425,0.0035291784442961216,-0.09759717434644699,0.04301795735955238,-0.0010363748297095299,-0.029477804899215698,-1,0,-1003,43,0,-30,0,-19,-149,1500.0
16:27:37.453,AUTO,-35.3632609,149.1652448,5762,-0.07318732142448425,0.0035291784442961216,-0.09759717434644699,0.04301795735955238,-0.0010363748297095299,-0.029477804899215698,-1,0,-1003,43,0,-30,0,-19,-149,1500.0
16:27:37.656,AUTO,-35.3632609,149.1652448,5762,-0.07318732142448425,0.0035291784442961216,-0.09759717434644699,0.04301795735955238,-0.0010363748297095299,-0.029477804899215698,-1,0,-1003,43,0,-30,0,-19,-149,1500.0
16:27:37.859,AUTO,-35.3632613,149.1652391,7546,-0.005018723197281361,0.009030798450112343,-0.11051623523235321,0.06684080511331558,0.009856351651251316,-0.002735351212322712,-6,11,-1003,67,10,-3,-12,-58,-151,1500.0
16:27:38.060,AUTO,-35.363262,149.1652361,8326,0.028384950011968613,0.01345845591276884,-0.10954957455396652,0.06661856174468994,0.00664086639881134,0.002616892335936427,-4,12,-1003,67,7,1,-17,-47,-152,1500.0
16:27:38.262,AUTO,-35.3632624,149.1652349,8720,0.0448099747300148,0.014458666555583477,-0.10851958394050598,0.06513510644435883,0.002252275589853525,0.003922510426491499,-2,11,-1003,65,2,2,-20,-35,-153,1500.0
16:27:38.463,AUTO,-35.3632624,149.1652349,8720,0.0448099747300148,0.014458666555583477,-0.10851958394050598,0.06513510644435883,0.002252275589853525,0.003922510426491499,-2,11,-1003,65,2,2,-20,-35,-153,1500.0
16:27:38.664,AUTO,-35.3632624,149.1652349,8720,0.0448099747300148,0.014458666555583477,-0.10851958394050598,0.06513510644435883,0.002252275589853525,0.003922510426491499,-2,11,-1003,65,2,2,-20,-35,-153,1500.0
16:27:38.867,AUTO,-35.3632624,149.1652349,8720,0.0448099747300148,0.014458666555583477,-0.10851958394050598,0.06513510644435883,0.002252275589853525,0.003922510426491499,-2,11,-1003,65,2,2,-20,-35,-153,1500.0
16:27:39.073,AUTO,-35.3632624,149.1652349,8720,0.0448099747300148,0.014458666555583477,-0.10851958394050598,0.06513510644435883,0.002252275589853525,0.003922510426491499,-2,11,-1003,65,2,2,-20,-35,-153,1500.0
16:27:39.274,AUTO,-35.3632624,149.1652349,8720,0.0448099747300148,0.014458666555583477,-0.10851958394050598,0.06513510644435883,0.002252275589853525,0.003922510426491499,-2,11,-1003,65,2,2,-20,-35,-153,1500.0
16:27:39.476,AUTO,-35.3632624,149.1652349,8720,0.0448099747300148,0.014458666555583477,-0.10851958394050598,0.06513510644435883,0.002252275589853525,0.003922510426491499,-2,11,-1003,65,2,2,-20,-35,-153,1500.0
16:27:39.679,AUTO,-35.3632638,149.1652335,9892,0.053278058767318726,-0.026687249541282654,-0.07150165736675262,-0.04448448866605759,-0.11816519498825073,0.12179536372423172,4,3,-997,-44,-117,120,-15,8,-151,1500.0
16:27:39.880,AUTO,-35.3632637,149.1652347,11047,-0.004469272680580616,-0.025024406611919403,-0.06072698161005974,-0.04651547223329544,0.06582170724868774,-0.056504033505916595,0,-5,-1004,-46,66,-57,18,18,-149,1500.0
16:27:40.082,AUTO,-35.3632632,149.1652351,11432,-0.01231493428349495,-0.011170427314937115,-0.07717453688383102,-0.022149236872792244,0.05024291202425957,-0.06707718968391418,-2,-5,-1004,-21,50,-68,22,13,-150,1500.0
16:27:40.283,AUTO,-35.3632627,149.1652353,11820,-0.01580195501446724,-0.0011443955590948462,-0.09500609338283539,-0.0056901052594184875,0.03461824730038643,-0.0644545704126358,-3,-5,-1003,-5,35,-65,23,7,-151,1500.0
16:27:40.486,AUTO,-35.3632627,149.1652353,11820,-0.01580195501446724,-0.0011443955590948462,-0.09500609338283539,-0.0056901052594184875,0.03461824730038643,-0.0644545704126358,-3,-5,-1003,-5,35,-65,23,7,-151,1500.0
16:27:40.689,AUTO,-35.3632627,149.1652353,11820,-0.01580195501446724,-0.0011443955590948462,-0.09500609338283539,-0.0056901052594184875,0.03461824730038643,-0.0644545704126358,-3,-5,-1003,-5,35,-65,23,7,-151,1500.0
16:27:40.890,AUTO,-35.3632627,149.1652353,11820,-0.01580195501446724,-0.0011443955590948462,-0.09500609338283539,-0.0056901052594184875,0.03461824730038643,-0.0644545704126358,-3,-5,-1003,-5,35,-65,23,7,-151,1500.0
16:27:41.092,AUTO,-35.3632627,149.1652353,11820,-0.01580195501446724,-0.0011443955590948462,-0.09500609338283539,-0.0056901052594184875,0.03461824730038643,-0.0644545704126358,-3,-5,-1003,-5,35,-65,23,7,-151,1500.0
16:27:41.296,AUTO,-35.3632627,149.1652353,11820,-0.01580195501446724,-0.0011443955590948462,-0.09500609338283539,-0.0056901052594184875,0.03461824730038643,-0.0644545704126358,-3,-5,-1003,-5,35,-65,23,7,-151,1500.0
16:27:41.497,AUTO,-35.3632627,149.1652353,11820,-0.01580195501446724,-0.0011443955590948462,-0.09500609338283539,-0.0056901052594184875,0.03461824730038643,-0.0644545704126358,-3,-5,-1003,-5,35,-65,23,7,-151,1500.0
16:27:41.699,AUTO,-35.3632627,149.1652353,11820,-0.01580195501446724,-0.0011443955590948462,-0.09500609338283539,-0.0056901052594184875,0.03461824730038643,-0.0644545704126358,-3,-5,-1003,-5,35,-65,23,7,-151,1500.0
16:27:41.900,AUTO,-35.3632607,149.1652347,14175,0.009410523809492588,0.018498092889785767,-0.1568501740694046,0.013050506822764874,-0.0004493697779253125,-0.014162875711917877,-2,0,-999,13,0,-15,1,-5,-153,1500.0
16:27:42.102,AUTO,-35.3632607,149.1652345,14567,0.012348033487796783,0.017718229442834854,-0.1596876084804535,0.0097171850502491,-0.00377605645917356,-0.007194113917648792,-1,0,-999,10,-3,-8,-1,-2,-153,1500.0
16:27:42.304,AUTO,-35.3632607,149.1652345,14959,0.013590117916464806,0.016008181497454643,-0.16127653419971466,0.0026997183449566364,-0.007565909530967474,-0.004229489713907242,0,0,-999,3,-6,-5,-4,0,-153,1500.0
16:27:42.505,AUTO,-35.3632607,149.1652345,14959,0.013590117916464806,0.016008181497454643,-0.16127653419971466,0.0026997183449566364,-0.007565909530967474,-0.004229489713907242,0,0,-999,3,-6,-5,-4,0,-153,1500.0
16:27:42.707,AUTO,-35.3632607,149.1652345,14959,0.013590117916464806,0.016008181497454643,-0.16127653419971466,0.0026997183449566364,-0.007565909530967474,-0.004229489713907242,0,0,-999,3,-6,-5,-4,0,-153,1500.0
16:27:42.908,AUTO,-35.3632607,149.1652345,14959,0.013590117916464806,0.016008181497454643,-0.16127653419971466,0.0026997183449566364,-0.007565909530967474,-0.004229489713907242,0,0,-999,3,-6,-5,-4,0,-153,1500.0
16:27:43.110,AUTO,-35.3632607,149.1652345,14959,0.013590117916464806,0.016008181497454643,-0.16127653419971466,0.0026997183449566364,-0.007565909530967474,-0.004229489713907242,0,0,-999,3,-6,-5,-4,0,-153,1500.0
16:27:43.311,AUTO,-35.3632607,149.1652345,14959,0.013590117916464806,0.016008181497454643,-0.16127653419971466,0.0026997183449566364,-0.007565909530967474,-0.004229489713907242,0,0,-999,3,-6,-5,-4,0,-153,1500.0
16:27:43.515,AUTO,-35.3632607,149.1652345,14959,0.013590117916464806,0.016008181497454643,-0.16127653419971466,0.0026997183449566364,-0.007565909530967474,-0.004229489713907242,0,0,-999,3,-6,-5,-4,0,-153,1500.0
16:27:43.717,AUTO,-35.3632607,149.1652345,14959,0.013590117916464806,0.016008181497454643,-0.16127653419971466,0.0026997183449566364,-0.007565909530967474,-0.004229489713907242,0,0,-999,3,-6,-5,-4,0,-153,1500.0
16:27:43.920,AUTO,-35.3632616,149.1652354,17684,0.0031735049560666084,0.0017635209951549768,-0.17469194531440735,-0.0042358459904789925,-0.004795794375240803,-0.016115635633468628,2,0,-1000,-6,-6,-13,-8,10,-153,1500.0
16:27:44.122,AUTO,-35.3632616,149.1652354,17684,0.0031735049560666084,0.0017635209951549768,-0.17469194531440735,-0.0042358459904789925,-0.004795794375240803,-0.016115635633468628,2,0,-1000,-3,-4,-17,-8,10,-153,1500.0
16:27:44.325,AUTO,-35.3632618,149.1652356,18083,0.0018469984643161297,0.0007907882099971175,-0.17908933758735657,-0.005655112210661173,-0.002275552600622177,-0.018004903569817543,1,0,-1000,-5,-1,-18,-7,9,-153,1500.0
16:27:44.526,AUTO,-35.3632618,149.1652356,18083,0.0018469984643161297,0.0007907882099971175,-0.17908933758735657,-0.005655112210661173,-0.002275552600622177,-0.018004903569817543,1,0,-1000,-5,-1,-18,-7,9,-153,1500.0
16:27:44.727,AUTO,-35.3632618,149.1652356,18083,0.0018469984643161297,0.0007907882099971175,-0.17908933758735657,-0.005655112210661173,-0.002275552600622177,-0.018004903569817543,1,0,-1000,-5,-1,-18,-7,9,-153,1500.0
16:27:44.929,AUTO,-35.3632618,149.1652356,18083,0.0018469984643161297,0.0007907882099971175,-0.17908933758735657,-0.005655112210661173,-0.002275552600622177,-0.018004903569817543,1,0,-1000,-5,-1,-18,-7,9,-153,1500.0
16:27:45.130,AUTO,-35.3632618,149.1652356,18083,0.0018469984643161297,0.0007907882099971175,-0.17908933758735657,-0.005655112210661173,-0.002275552600622177,-0.018004903569817543,1,0,-1000,-5,-1,-18,-7,9,-153,1500.0
16:27:45.332,AUTO,-35.3632618,149.1652356,18083,0.0018469984643161297,0.0007907882099971175,-0.17908933758735657,-0.005655112210661173,-0.002275552600622177,-0.018004903569817543,1,0,-1000,-5,-1,-18,-7,9,-153,1500.0
16:27:45.534,AUTO,-35.3632618,149.1652356,18083,0.0018469984643161297,0.0007907882099971175,-0.17908933758735657,-0.005655112210661173,-0.002275552600622177,-0.018004903569817543,1,0,-1000,-5,-1,-18,-7,9,-153,1500.0
16:27:45.737,AUTO,-35.3632621,149.1652362,19649,0.0013351220404729247,0.0005874038906767964,-0.20170792937278748,0.0024236079771071672,0.003889089683070779,-0.026002787053585052,0,0,-1000,3,4,-27,-3,5,-153,1500.0
16:27:45.941,AUTO,-35.3632621,149.1652364,20821,0.002741282805800438,0.0018683351809158921,-0.22001118957996368,0.00209133536554873,0.0008531227358616889,-0.022905457764863968,0,0,-1000,2,1,-23,-1,3,-154,1500.0
16:27:46.145,AUTO,-35.3632621,149.1652364,20821,0.002741282805800438,0.0018683351809158921,-0.22001118957996368,0.00209133536554873,0.0008531227358616889,-0.022905457764863968,0,0,-1000,2,1,-23,-1,3,-154,1500.0
16:27:46.350,AUTO,-35.3632621,149.1652364,21213,0.0031311791390180588,0.002206590259447694,-0.2259242683649063,0.0013019859325140715,0.0035796824377030134,-0.022895436733961105,0,0,-1000,1,4,-23,-1,3,-154,1500.0
16:27:46.552,AUTO,-35.3632621,149.1652364,21213,0.0031311791390180588,0.002206590259447694,-0.2259242683649063,0.0013019859325140715,0.0035796824377030134,-0.022895436733961105,0,0,-1000,1,4,-23,-1,3,-154,1500.0
16:27:46.755,AUTO,-35.3632621,149.1652364,21213,0.0031311791390180588,0.002206590259447694,-0.2259242683649063,0.0013019859325140715,0.0035796824377030134,-0.022895436733961105,0,0,-1000,1,4,-23,-1,3,-154,1500.0
16:27:46.959,AUTO,-35.3632621,149.1652364,21213,0.0031311791390180588,0.002206590259447694,-0.2259242683649063,0.0013019859325140715,0.0035796824377030134,-0.022895436733961105,0,0,-1000,1,4,-23,-1,3,-154,1500.0
16:27:47.162,AUTO,-35.3632621,149.1652364,21213,0.0031311791390180588,0.002206590259447694,-0.2259242683649063,0.0013019859325140715,0.0035796824377030134,-0.022895436733961105,0,0,-1000,1,4,-23,-1,3,-154,1500.0
16:27:47.365,AUTO,-35.3632621,149.1652364,21213,0.0031311791390180588,0.002206590259447694,-0.2259242683649063,0.0013019859325140715,0.0035796824377030134,-0.022895436733961105,0,0,-1000,1,4,-23,-1,3,-154,1500.0
16:27:47.567,AUTO,-35.3632621,149.1652364,21213,0.0031311791390180588,0.002206590259447694,-0.2259242683649063,0.0013019859325140715,0.0035796824377030134,-0.022895436733961105,0,0,-1000,1,4,-23,-1,3,-154,1500.0
16:27:47.768,AUTO,-35.3632621,149.1652364,21213,0.0031311791390180588,0.002206590259447694,-0.2259242683649063,0.0013019859325140715,0.0035796824377030134,-0.022895436733961105,0,0,-1000,1,4,-23,-1,3,-154,1500.0
16:27:47.970,AUTO,-35.3632621,149.1652366,23564,0.003778687212616205,0.003269480774179101,-0.2577800750732422,-0.0009340819087810814,-0.00017762643983587623,-0.019421501085162163,0,0,-1000,0,0,-20,-1,3,-154,1500.0
16:27:48.171,AUTO,-35.3632621,149.1652367,23955,0.0036425269208848476,0.0032448635902255774,-0.26255548000335693,0.0005564911407418549,0.0011135132517665625,-0.018817098811268806,0,0,-1000,1,1,-19,-1,3,-154,1500.0
16:27:48.373,AUTO,-35.3632621,149.1652367,24346,0.0037551692221313715,0.0033583948388695717,-0.2673662602901459,0.0011101546697318554,0.0015768881421536207,-0.018624762073159218,0,0,-1000,1,1,-19,-1,3,-154,1500.0
16:27:48.574,AUTO,-35.3632621,149.1652367,24346,0.0037551692221313715,0.0033583948388695717,-0.2673662602901459,0.0011101546697318554,0.0015768881421536207,-0.018624762073159218,0,0,-1000,1,1,-19,-1,3,-154,1500.0
16:27:48.777,AUTO,-35.3632621,149.1652367,24346,0.0037551692221313715,0.0033583948388695717,-0.2673662602901459,0.0011101546697318554,0.0015768881421536207,-0.018624762073159218,0,0,-1000,1,1,-19,-1,3,-154,1500.0
16:27:48.978,AUTO,-35.3632621,149.1652367,24346,0.0037551692221313715,0.0033583948388695717,-0.2673662602901459,0.0011101546697318554,0.0015768881421536207,-0.018624762073159218,0,0,-1000,1,1,-19,-1,3,-154,1500.0
16:27:49.181,AUTO,-35.3632621,149.1652367,24346,0.0037551692221313715,0.0033583948388695717,-0.2673662602901459,0.0011101546697318554,0.0015768881421536207,-0.018624762073159218,0,0,-1000,1,1,-19,-1,3,-154,1500.0
16:27:49.383,AUTO,-35.3632621,149.1652367,24346,0.0037551692221313715,0.0033583948388695717,-0.2673662602901459,0.0011101546697318554,0.0015768881421536207,-0.018624762073159218,0,0,-1000,1,1,-19,-1,3,-154,1500.0
16:27:49.584,AUTO,-35.3632621,149.1652367,24346,0.0037551692221313715,0.0033583948388695717,-0.2673662602901459,0.0011101546697318554,0.0015768881421536207,-0.018624762073159218,0,0,-1000,1,1,-19,-1,3,-154,1500.0
16:27:49.787,AUTO,-35.3632622,149.1652368,26290,0.003504047868773341,0.005728686694055796,-0.2564455568790436,0.025654757395386696,-0.007326883729547262,0.03342816233634949,0,0,-1003,30,-5,28,-5,0,-154,1500.0
16:27:49.989,AUTO,-35.3632623,149.1652368,27072,0.010024533607065678,0.002800317946821451,-0.24083246290683746,0.0034655756317079067,-0.0026552481576800346,0.026854133233428,0,0,-999,4,-1,26,-5,2,-153,1500.0
16:27:50.190,AUTO,-35.3632623,149.1652368,27072,0.010024533607065678,0.002800317946821451,-0.24083246290683746,0.0034655756317079067,-0.0026552481576800346,0.026854133233428,0,0,-999,4,-1,26,-5,2,-153,1500.0
16:27:50.393,AUTO,-35.3632624,149.1652368,27466,0.010479780845344067,0.0019903224892914295,-0.23404259979724884,0.0011870430316776037,-0.0027131764218211174,0.027122732251882553,0,0,-1000,1,-2,26,-4,4,-153,1500.0
16:27:50.595,AUTO,-35.3632624,149.1652368,27466,0.010479780845344067,0.0019903224892914295,-0.23404259979724884,0.0011870430316776037,-0.0027131764218211174,0.027122732251882553,0,0,-1000,1,-2,26,-4,4,-153,1500.0
16:27:50.796,AUTO,-35.3632624,149.1652368,27466,0.010479780845344067,0.0019903224892914295,-0.23404259979724884,0.0011870430316776037,-0.0027131764218211174,0.027122732251882553,0,0,-1000,1,-2,26,-4,4,-153,1500.0
16:27:50.998,AUTO,-35.3632624,149.1652368,27466,0.010479780845344067,0.0019903224892914295,-0.23404259979724884,0.0011870430316776037,-0.0027131764218211174,0.027122732251882553,0,0,-1000,1,-2,26,-4,4,-153,1500.0
16:27:51.200,AUTO,-35.3632624,149.1652368,27466,0.010479780845344067,0.0019903224892914295,-0.23404259979724884,0.0011870430316776037,-0.0027131764218211174,0.027122732251882553,0,0,-1000,1,-2,26,-4,4,-153,1500.0
16:27:51.402,AUTO,-35.3632624,149.1652368,27466,0.010479780845344067,0.0019903224892914295,-0.23404259979724884,0.0011870430316776037,-0.0027131764218211174,0.027122732251882553,0,0,-1000,1,-2,26,-4,4,-153,1500.0
16:27:55.115,AUTO,-35.3632624,149.1652368,27466,0.010479780845344067,0.0019903224892914295,-0.23404259979724884,0.0011870430316776037,-0.0027131764218211174,0.027122732251882553,0,0,-1000,1,-2,26,-4,4,-153,1500.0
16:27:55.316,AUTO,-35.3632624,149.1652373,29020,0.004272966179996729,0.0014458997175097466,-0.2119748443365097,-0.004208107478916645,0.001907638506963849,0.02144077979028225,1,0,-1000,-3,2,20,-1,8,-153,1500.0
16:27:55.518,AUTO,-35.3632624,149.1652378,30188,0.0006886544288136065,0.001858292962424457,-0.19758392870426178,-0.0012145997025072575,8.748361142352223e-05,0.019209856167435646,0,0,-1001,0,0,18,0,6,-153,1500.0
16:27:55.721,AUTO,-35.3632624,149.1652379,30578,0.0003854581736959517,0.0019510658457875252,-0.19335749745368958,-0.0009872590890154243,0.001429195050150156,0.018643531948328018,0,0,-1001,0,0,18,0,5,-153,1500.0
16:27:55.924,AUTO,-35.3632624,149.1652379,30578,0.0003854581736959517,0.0019510658457875252,-0.19335749745368958,-0.0009872590890154243,0.001429195050150156,0.018643531948328018,0,-1,-1000,0,2,18,0,5,-153,1500.0
16:27:56.126,AUTO,-35.3632624,149.1652379,30578,0.0003854581736959517,0.0019510658457875252,-0.19335749745368958,-0.0009872590890154243,0.001429195050150156,0.018643531948328018,0,-1,-1000,0,2,18,0,5,-153,1500.0
16:27:56.328,AUTO,-35.3632624,149.1652379,30578,0.0003854581736959517,0.0019510658457875252,-0.19335749745368958,-0.0009872590890154243,0.001429195050150156,0.018643531948328018,0,-1,-1000,0,2,18,0,5,-153,1500.0
16:27:56.532,AUTO,-35.3632624,149.1652379,30578,0.0003854581736959517,0.0019510658457875252,-0.19335749745368958,-0.0009872590890154243,0.001429195050150156,0.018643531948328018,0,-1,-1000,0,2,18,0,5,-153,1500.0
16:27:56.737,AUTO,-35.3632624,149.1652379,30578,0.0003854581736959517,0.0019510658457875252,-0.19335749745368958,-0.0009872590890154243,0.001429195050150156,0.018643531948328018,0,-1,-1000,0,2,18,0,5,-153,1500.0
16:27:56.943,AUTO,-35.3632624,149.1652379,30578,0.0003854581736959517,0.0019510658457875252,-0.19335749745368958,-0.0009872590890154243,0.001429195050150156,0.018643531948328018,0,-1,-1000,0,2,18,0,5,-153,1500.0
16:27:57.145,AUTO,-35.3632624,149.1652379,30578,0.0003854581736959517,0.0019510658457875252,-0.19335749745368958,-0.0009872590890154243,0.001429195050150156,0.018643531948328018,0,-1,-1000,0,2,18,0,5,-153,1500.0
16:27:57.347,AUTO,-35.3632624,149.1652379,30578,0.0003854581736959517,0.0019510658457875252,-0.19335749745368958,-0.0009872590890154243,0.001429195050150156,0.018643531948328018,0,-1,-1000,0,2,18,0,5,-153,1500.0
16:27:57.548,AUTO,-35.3632624,149.1652382,33309,0.0011539001716300845,0.0008747154497541487,-0.1658007651567459,0.003096044296398759,0.001237641554325819,0.01491136197000742,0,0,-1000,3,1,14,0,0,-153,1500.0
16:27:57.754,AUTO,-35.3632623,149.1652382,33700,0.0012890318175777793,0.0008692798437550664,-0.16258442401885986,0.0022512085270136595,0.0007675860542804003,0.014718764461576939,0,0,-1000,2,1,14,0,0,-153,1500.0
16:27:57.956,AUTO,-35.3632623,149.1652382,33700,0.0012890318175777793,0.0008692798437550664,-0.16258442401885986,0.0022512085270136595,0.0007675860542804003,0.014718764461576939,0,0,-1000,2,1,14,0,0,-153,1500.0
16:27:58.157,AUTO,-35.3632623,149.1652382,33700,0.0012890318175777793,0.0008692798437550664,-0.16258442401885986,0.0022512085270136595,0.0007675860542804003,0.014718764461576939,0,0,-1000,2,1,14,0,0,-153,1500.0
16:27:58.358,AUTO,-35.3632623,149.1652382,33700,0.0012890318175777793,0.0008692798437550664,-0.16258442401885986,0.0022512085270136595,0.0007675860542804003,0.014718764461576939,0,0,-1000,2,1,14,0,0,-153,1500.0
16:27:58.563,AUTO,-35.3632623,149.1652382,33700,0.0012890318175777793,0.0008692798437550664,-0.16258442401885986,0.0022512085270136595,0.0007675860542804003,0.014718764461576939,0,0,-1000,2,1,14,0,0,-153,1500.0
16:27:58.766,AUTO,-35.3632623,149.1652382,33700,0.0012890318175777793,0.0008692798437550664,-0.16258442401885986,0.0022512085270136595,0.0007675860542804003,0.014718764461576939,0,0,-1000,2,1,14,0,0,-153,1500.0
16:27:58.968,AUTO,-35.3632623,149.1652382,33700,0.0012890318175777793,0.0008692798437550664,-0.16258442401885986,0.0022512085270136595,0.0007675860542804003,0.014718764461576939,0,0,-1000,2,1,14,0,0,-153,1500.0
16:27:59.169,AUTO,-35.3632623,149.1652382,33700,0.0012890318175777793,0.0008692798437550664,-0.16258442401885986,0.0022512085270136595,0.0007675860542804003,0.014718764461576939,0,0,-1000,2,1,14,0,0,-153,1500.0
16:27:59.371,AUTO,-35.3632623,149.1652382,33700,0.0012890318175777793,0.0008692798437550664,-0.16258442401885986,0.0022512085270136595,0.0007675860542804003,0.014718764461576939,0,0,-1000,2,1,14,0,0,-153,1500.0
16:27:59.573,AUTO,-35.3632623,149.1652381,35100,0.0022158550564199686,0.0009769542375579476,-0.1520184725522995,-0.0009519016020931304,-0.0015690508298575878,0.009873438626527786,0,0,-1000,5,1,12,0,0,-153,1500.0
16:27:59.776,AUTO,-35.3632622,149.1652379,36661,0.002285372233018279,0.0014030281454324722,-0.14107999205589294,0.0012135521974414587,0.0007731711957603693,0.012371085584163666,0,0,-1000,1,1,12,0,0,-153,1500.0
16:27:59.981,AUTO,-35.3632622,149.1652379,36661,0.002285372233018279,0.0014030281454324722,-0.14107999205589294,0.0012135521974414587,0.0007731711957603693,0.012371085584163666,0,0,-1000,1,1,12,0,0,-153,1500.0
16:28:00.183,AUTO,-35.3632622,149.1652379,36661,0.002285372233018279,0.0014030281454324722,-0.14107999205589294,0.0012135521974414587,0.0007731711957603693,0.012371085584163666,0,0,-1000,1,1,12,0,0,-153,1500.0
16:28:00.387,AUTO,-35.3632622,149.1652379,36661,0.002285372233018279,0.0014030281454324722,-0.14107999205589294,0.0012135521974414587,0.0007731711957603693,0.012371085584163666,0,0,-1000,1,1,12,0,0,-153,1500.0
16:28:00.591,AUTO,-35.3632622,149.1652379,36661,0.002285372233018279,0.0014030281454324722,-0.14107999205589294,0.0012135521974414587,0.0007731711957603693,0.012371085584163666,0,0,-1000,1,1,12,0,0,-153,1500.0
16:28:00.792,AUTO,-35.3632622,149.1652379,36661,0.002285372233018279,0.0014030281454324722,-0.14107999205589294,0.0012135521974414587,0.0007731711957603693,0.012371085584163666,0,0,-1000,1,1,12,0,0,-153,1500.0
16:28:00.993,AUTO,-35.3632622,149.1652379,36661,0.002285372233018279,0.0014030281454324722,-0.14107999205589294,0.0012135521974414587,0.0007731711957603693,0.012371085584163666,0,0,-1000,1,1,12,0,0,-153,1500.0
16:28:01.196,AUTO,-35.3632622,149.1652379,36661,0.002285372233018279,0.0014030281454324722,-0.14107999205589294,0.0012135521974414587,0.0007731711957603693,0.012371085584163666,0,0,-1000,1,1,12,0,0,-153,1500.0
16:28:01.397,AUTO,-35.3632622,149.1652379,36661,0.002285372233018279,0.0014030281454324722,-0.14107999205589294,0.0012135521974414587,0.0007731711957603693,0.012371085584163666,0,0,-1000,1,1,12,0,0,-153,1500.0
16:28:01.599,AUTO,-35.3632622,149.1652377,39153,0.0027061577420681715,0.0013909507542848587,-0.12693190574645996,0.00020349823171272874,-0.0002525777672417462,0.008744749240577221,0,0,-1000,1,0,8,0,0,-153,1500.0
16:28:01.800,AUTO,-35.3632621,149.1652376,39932,0.0033570798113942146,0.0017049291636794806,-0.12297371029853821,0.0015363452257588506,-1.8695194739848375e-05,0.009085195139050484,0,0,-1000,2,0,8,0,0,-153,1500.0
16:28:02.002,AUTO,-35.3632621,149.1652376,39932,0.0033570798113942146,0.0017049291636794806,-0.12297371029853821,0.0015363452257588506,-1.8695194739848375e-05,0.009085195139050484,0,0,-1000,2,0,8,0,0,-153,1500.0
16:28:02.204,AUTO,-35.3632621,149.1652376,39932,0.0033570798113942146,0.0017049291636794806,-0.12297371029853821,0.0015363452257588506,-1.8695194739848375e-05,0.009085195139050484,0,0,-1000,2,0,8,0,0,-153,1500.0
16:28:02.406,AUTO,-35.3632621,149.1652376,39932,0.0033570798113942146,0.0017049291636794806,-0.12297371029853821,0.0015363452257588506,-1.8695194739848375e-05,0.009085195139050484,0,0,-1000,2,0,8,0,0,-153,1500.0
16:28:02.608,AUTO,-35.3632621,149.1652376,39932,0.0033570798113942146,0.0017049291636794806,-0.12297371029853821,0.0015363452257588506,-1.8695194739848375e-05,0.009085195139050484,0,0,-1000,2,0,8,0,0,-153,1500.0
16:28:02.817,AUTO,-35.3632621,149.1652376,39932,0.0033570798113942146,0.0017049291636794806,-0.12297371029853821,0.0015363452257588506,-1.8695194739848375e-05,0.009085195139050484,0,0,-1000,2,0,8,0,0,-153,1500.0
16:28:03.020,AUTO,-35.3632621,149.1652376,39932,0.0033570798113942146,0.0017049291636794806,-0.12297371029853821,0.0015363452257588506,-1.8695194739848375e-05,0.009085195139050484,0,0,-1000,2,0,8,0,0,-153,1500.0
16:28:03.221,AUTO,-35.3632621,149.1652376,39932,0.0033570798113942146,0.0017049291636794806,-0.12297371029853821,0.0015363452257588506,-1.8695194739848375e-05,0.009085195139050484,0,0,-1000,2,0,8,0,0,-153,1500.0
16:28:03.424,AUTO,-35.3632621,149.1652375,42119,0.002537580905482173,0.001541027333587408,-0.11348316818475723,-0.0018079641740769148,0.00057834608014673,0.009370366111397743,0,0,-999,0,1,9,-1,1,-153,1500.0
16:28:03.626,AUTO,-35.3632621,149.1652375,42509,0.0026025085244327784,0.0013549048453569412,-0.11177601665258408,0.003426463808864355,0.00044125737622380257,0.00975268054753542,0,0,-1000,4,1,9,-1,1,-153,1500.0
16:28:03.828,AUTO,-35.3632621,149.1652375,42898,0.0025997022166848183,0.0012130951508879662,-0.11014565825462341,-0.0005230192909948528,0.00019486516248434782,0.005117671564221382,0,0,-1000,0,1,5,-1,1,-153,1500.0
16:28:04.029,AUTO,-35.3632621,149.1652375,42898,0.0025997022166848183,0.0012130951508879662,-0.11014565825462341,-0.0005230192909948528,0.00019486516248434782,0.005117671564221382,0,0,-1000,0,1,5,-1,1,-153,1500.0
16:28:04.230,AUTO,-35.3632621,149.1652375,42898,0.0025997022166848183,0.0012130951508879662,-0.11014565825462341,-0.0005230192909948528,0.00019486516248434782,0.005117671564221382,0,0,-1000,0,1,5,-1,1,-153,1500.0
16:28:04.434,AUTO,-35.3632621,149.1652375,42898,0.0025997022166848183,0.0012130951508879662,-0.11014565825462341,-0.0005230192909948528,0.00019486516248434782,0.005117671564221382,0,0,-1000,0,1,5,-1,1,-153,1500.0
16:28:04.636,AUTO,-35.3632621,149.1652375,42898,0.0025997022166848183,0.0012130951508879662,-0.11014565825462341,-0.0005230192909948528,0.00019486516248434782,0.005117671564221382,0,0,-1000,0,1,5,-1,1,-153,1500.0
16:28:04.840,AUTO,-35.3632621,149.1652375,42898,0.0025997022166848183,0.0012130951508879662,-0.11014565825462341,-0.0005230192909948528,0.00019486516248434782,0.005117671564221382,0,0,-1000,0,1,5,-1,1,-153,1500.0
16:28:05.042,AUTO,-35.3632621,149.1652375,42898,0.0025997022166848183,0.0012130951508879662,-0.11014565825462341,-0.0005230192909948528,0.00019486516248434782,0.005117671564221382,0,0,-1000,0,1,5,-1,1,-153,1500.0
16:28:05.245,AUTO,-35.3632621,149.1652375,44066,0.002124566351994872,0.0014601595466956496,-0.10552884638309479,-0.0039460379630327225,-0.0005048072198405862,0.005846729967743158,0,0,-1000,-2,0,5,-1,1,-153,1500.0
16:28:05.448,AUTO,-35.363262,149.1652375,45625,0.0025091583374887705,0.0015843227738514543,-0.0999310165643692,0.0025434973649680614,-0.0003764097928069532,0.008037718944251537,0,0,-1000,3,0,8,-1,1,-153,1500.0
16:28:05.651,AUTO,-35.363262,149.1652375,45625,0.0025091583374887705,0.0015843227738514543,-0.0999310165643692,0.0025434973649680614,-0.0003764097928069532,0.008037718944251537,0,0,-1000,3,0,8,-1,1,-153,1500.0
16:28:05.852,AUTO,-35.363262,149.1652375,46014,0.0027115666307508945,0.0013276566751301289,-0.09854593873023987,0.0019036798039451241,0.0011918053496629,0.007597482297569513,0,0,-999,2,2,7,-1,1,-153,1500.0
16:28:06.053,AUTO,-35.363262,149.1652375,46014,0.0027115666307508945,0.0013276566751301289,-0.09854593873023987,0.0019036798039451241,0.0011918053496629,0.007597482297569513,0,0,-999,2,2,7,-1,1,-153,1500.0
16:28:06.256,AUTO,-35.363262,149.1652375,46014,0.0027115666307508945,0.0013276566751301289,-0.09854593873023987,0.0019036798039451241,0.0011918053496629,0.007597482297569513,0,0,-999,2,2,7,-1,1,-153,1500.0
16:28:06.457,AUTO,-35.363262,149.1652375,46014,0.0027115666307508945,0.0013276566751301289,-0.09854593873023987,0.0019036798039451241,0.0011918053496629,0.007597482297569513,0,0,-999,2,2,7,-1,1,-153,1500.0
16:28:06.659,AUTO,-35.363262,149.1652375,46014,0.0027115666307508945,0.0013276566751301289,-0.09854593873023987,0.0019036798039451241,0.0011918053496629,0.007597482297569513,0,0,-999,2,2,7,-1,1,-153,1500.0
16:28:06.863,AUTO,-35.363262,149.1652375,46014,0.0027115666307508945,0.0013276566751301289,-0.09854593873023987,0.0019036798039451241,0.0011918053496629,0.007597482297569513,0,0,-999,2,2,7,-1,1,-153,1500.0
16:28:07.066,AUTO,-35.363262,149.1652375,46014,0.0027115666307508945,0.0013276566751301289,-0.09854593873023987,0.0019036798039451241,0.0011918053496629,0.007597482297569513,0,0,-999,2,2,7,-1,1,-153,1500.0
16:28:07.268,AUTO,-35.363262,149.1652375,46014,0.0027115666307508945,0.0013276566751301289,-0.09854593873023987,0.0019036798039451241,0.0011918053496629,0.007597482297569513,0,0,-999,2,2,7,-1,1,-153,1500.0
16:28:07.470,AUTO,-35.363262,149.1652375,47572,-4.093951793038286e-05,0.0031635588966310024,-0.08823931962251663,-0.05385720729827881,0.04424785450100899,0.10448385030031204,0,0,-973,-52,45,104,-1,1,-151,1500.0
16:28:07.671,AUTO,-35.3632628,149.1652364,48584,-0.050270743668079376,0.04577452689409256,0.23368968069553375,0.08399813622236252,-0.22184160351753235,0.2677004039287567,3,6,-922,84,-220,267,-30,-31,-105,1500.0
16:28:07.873,AUTO,-35.3632634,149.1652354,48829,-0.020670047029852867,-0.00529930554330349,0.28091898560523987,0.12481991201639175,-0.1824091076850891,0.12779666483402252,4,11,-935,126,-181,127,-31,-38,-87,1500.0
16:28:08.076,AUTO,-35.3632634,149.1652354,48829,-0.020670047029852867,-0.00529930554330349,0.28091898560523987,0.12481991201639175,-0.1824091076850891,0.12779666483402252,4,11,-935,126,-181,127,-31,-38,-87,1500.0
16:28:08.277,AUTO,-35.3632634,149.1652354,48829,-0.020670047029852867,-0.00529930554330349,0.28091898560523987,0.12481991201639175,-0.1824091076850891,0.12779666483402252,4,11,-935,126,-181,127,-31,-38,-87,1500.0
16:28:08.479,AUTO,-35.3632634,149.1652354,48829,-0.020670047029852867,-0.00529930554330349,0.28091898560523987,0.12481991201639175,-0.1824091076850891,0.12779666483402252,4,11,-935,126,-181,127,-31,-38,-87,1500.0
16:28:08.682,AUTO,-35.3632634,149.1652354,48829,-0.020670047029852867,-0.00529930554330349,0.28091898560523987,0.12481991201639175,-0.1824091076850891,0.12779666483402252,4,11,-935,126,-181,127,-31,-38,-87,1500.0
16:28:08.885,AUTO,-35.3632634,149.1652354,48829,-0.020670047029852867,-0.00529930554330349,0.28091898560523987,0.12481991201639175,-0.1824091076850891,0.12779666483402252,4,11,-935,126,-181,127,-31,-38,-87,1500.0
16:28:09.087,AUTO,-35.3632634,149.1652354,48829,-0.020670047029852867,-0.00529930554330349,0.28091898560523987,0.12481991201639175,-0.1824091076850891,0.12779666483402252,4,11,-935,126,-181,127,-31,-38,-87,1500.0
16:28:09.289,AUTO,-35.3632648,149.1652328,49344,0.03582419827580452,-0.05582936480641365,0.2998954653739929,0.0802590548992157,0.0049218349158763885,-0.020286446437239647,0,9,-968,81,5,-20,-5,-15,-51,1500.0
16:28:09.491,AUTO,-35.3632641,149.1652332,49744,0.03634561970829964,-0.019044682383537292,0.2648986876010895,0.4962158203125,0.04191112890839577,-0.03202160447835922,-2,18,-1004,499,42,-31,20,25,-33,1500.0
16:28:09.694,AUTO,-35.3632641,149.1652332,49744,0.03634561970829964,-0.019044682383537292,0.2648986876010895,0.4962158203125,0.04191112890839577,-0.03202160447835922,-2,18,-1004,499,42,-31,20,25,-33,1500.0
16:28:09.898,AUTO,-35.3632636,149.1652339,49823,0.029614994302392006,-0.00867083016782999,0.25612249970436096,0.2679612338542938,0.03608870133757591,-0.03927181661128998,-1,-6,-994,266,37,-39,21,29,-31,1500.0
16:28:10.099,AUTO,-35.3632636,149.1652339,49823,0.029614994302392006,-0.00867083016782999,0.25612249970436096,0.2679612338542938,0.03608870133757591,-0.03927181661128998,-1,-6,-994,266,37,-39,21,29,-31,1500.0
16:28:10.301,AUTO,-35.3632636,149.1652339,49823,0.029614994302392006,-0.00867083016782999,0.25612249970436096,0.2679612338542938,0.03608870133757591,-0.03927181661128998,-1,-6,-994,266,37,-39,21,29,-31,1500.0
16:28:10.502,AUTO,-35.3632636,149.1652339,49823,0.029614994302392006,-0.00867083016782999,0.25612249970436096,0.2679612338542938,0.03608870133757591,-0.03927181661128998,-1,-6,-994,266,37,-39,21,29,-31,1500.0
16:28:10.704,AUTO,-35.3632636,149.1652339,49823,0.029614994302392006,-0.00867083016782999,0.25612249970436096,0.2679612338542938,0.03608870133757591,-0.03927181661128998,-1,-6,-994,266,37,-39,21,29,-31,1500.0
16:28:10.907,AUTO,-35.3632636,149.1652339,49823,0.029614994302392006,-0.00867083016782999,0.25612249970436096,0.2679612338542938,0.03608870133757591,-0.03927181661128998,-1,-6,-994,266,37,-39,21,29,-31,1500.0
16:28:11.110,AUTO,-35.3632636,149.1652339,49823,0.029614994302392006,-0.00867083016782999,0.25612249970436096,0.2679612338542938,0.03608870133757591,-0.03927181661128998,-1,-6,-994,266,37,-39,21,29,-31,1500.0
16:28:11.313,AUTO,-35.3632636,149.1652339,49823,0.029614994302392006,-0.00867083016782999,0.25612249970436096,0.2679612338542938,0.03608870133757591,-0.03927181661128998,-1,-6,-994,266,37,-39,21,29,-31,1500.0
16:28:11.515,AUTO,-35.3632615,149.1652379,49982,-0.020175430923700333,-0.0198940709233284,0.20730102062225342,0.12844689190387726,-0.0937785729765892,-0.01428736001253128,-1,-16,-1001,124,-92,-14,4,0,3,1500.0
16:28:11.718,AUTO,-35.3632615,149.1652379,49982,-0.020175430923700333,-0.0198940709233284,0.20730102062225342,0.12844689190387726,-0.0937785729765892,-0.01428736001253128,-1,-16,-1001,124,-92,-14,4,0,3,1500.0
16:28:11.925,AUTO,-35.3632613,149.1652378,49973,-0.02808508463203907,-0.039005108177661896,0.20167794823646545,-0.5040369033813477,-0.06711482256650925,-0.016509877517819405,-3,-39,-999,-507,-66,-16,12,-7,0,1500.0
16:28:12.128,AUTO,-35.3632613,149.1652378,49973,-0.02808508463203907,-0.039005108177661896,0.20167794823646545,-0.5040369033813477,-0.06711482256650925,-0.016509877517819405,-3,-39,-999,-507,-66,-16,12,-7,0,1500.0
16:28:12.329,AUTO,-35.3632613,149.1652378,49973,-0.02808508463203907,-0.039005108177661896,0.20167794823646545,-0.5040369033813477,-0.06711482256650925,-0.016509877517819405,-3,-39,-999,-507,-66,-16,12,-7,0,1500.0
16:28:12.531,AUTO,-35.3632613,149.1652378,49973,-0.02808508463203907,-0.039005108177661896,0.20167794823646545,-0.5040369033813477,-0.06711482256650925,-0.016509877517819405,-3,-39,-999,-507,-66,-16,12,-7,0,1500.0
16:28:12.734,AUTO,-35.3632613,149.1652378,49973,-0.02808508463203907,-0.039005108177661896,0.20167794823646545,-0.5040369033813477,-0.06711482256650925,-0.016509877517819405,-3,-39,-999,-507,-66,-16,12,-7,0,1500.0
16:28:12.937,AUTO,-35.3632613,149.1652378,49973,-0.02808508463203907,-0.039005108177661896,0.20167794823646545,-0.5040369033813477,-0.06711482256650925,-0.016509877517819405,-3,-39,-999,-507,-66,-16,12,-7,0,1500.0
16:28:13.139,AUTO,-35.3632613,149.1652378,49973,-0.02808508463203907,-0.039005108177661896,0.20167794823646545,-0.5040369033813477,-0.06711482256650925,-0.016509877517819405,-3,-39,-999,-507,-66,-16,12,-7,0,1500.0
16:28:13.340,AUTO,-35.363258,149.1652356,49969,-0.011743581853806973,-0.093508780002594,0.04648436978459358,0.6797118782997131,-0.08212144672870636,-0.6864709854125977,-13,32,-1000,270,-46,-222,71,-26,-2,1500.0
16:28:13.541,AUTO,-35.3632513,149.1652327,49969,-0.008012226782739162,-0.13001923263072968,-0.1844714730978012,-0.5926237106323242,-0.04885302111506462,-0.01740841381251812,-29,-38,-1010,-592,-47,-17,134,-46,-2,1500.0
16:28:13.743,AUTO,-35.3632481,149.1652314,49969,-0.004668075125664473,-0.14083684980869293,-0.18040622770786285,-0.006553418468683958,-0.04320169612765312,0.005388648249208927,-38,-1,-1007,-1,-42,5,157,-54,-1,1500.0
16:28:13.945,AUTO,-35.3632481,149.1652314,49969,-0.004668075125664473,-0.14083684980869293,-0.18040622770786285,-0.006553418468683958,-0.04320169612765312,0.005388648249208927,-38,-1,-1007,-1,-42,5,157,-54,-1,1500.0
16:28:14.147,AUTO,-35.3632481,149.1652314,49969,-0.004668075125664473,-0.14083684980869293,-0.18040622770786285,-0.006553418468683958,-0.04320169612765312,0.005388648249208927,-38,-1,-1007,-1,-42,5,157,-54,-1,1500.0
16:28:14.350,AUTO,-35.3632481,149.1652314,49969,-0.004668075125664473,-0.14083684980869293,-0.18040622770786285,-0.006553418468683958,-0.04320169612765312,0.005388648249208927,-38,-1,-1007,-1,-42,5,157,-54,-1,1500.0
16:28:14.551,AUTO,-35.3632481,149.1652314,49969,-0.004668075125664473,-0.14083684980869293,-0.18040622770786285,-0.006553418468683958,-0.04320169612765312,0.005388648249208927,-38,-1,-1007,-1,-42,5,157,-54,-1,1500.0
16:28:14.753,AUTO,-35.3632481,149.1652314,49969,-0.004668075125664473,-0.14083684980869293,-0.18040622770786285,-0.006553418468683958,-0.04320169612765312,0.005388648249208927,-38,-1,-1007,-1,-42,5,157,-54,-1,1500.0
16:28:14.956,AUTO,-35.3632481,149.1652314,49969,-0.004668075125664473,-0.14083684980869293,-0.18040622770786285,-0.006553418468683958,-0.04320169612765312,0.005388648249208927,-38,-1,-1007,-1,-42,5,157,-54,-1,1500.0
16:28:15.159,AUTO,-35.3632481,149.1652314,49969,-0.004668075125664473,-0.14083684980869293,-0.18040622770786285,-0.006553418468683958,-0.04320169612765312,0.005388648249208927,-38,-1,-1007,-1,-42,5,157,-54,-1,1500.0
16:28:15.360,AUTO,-35.3632481,149.1652314,49969,-0.004668075125664473,-0.14083684980869293,-0.18040622770786285,-0.006553418468683958,-0.04320169612765312,0.005388648249208927,-38,-1,-1007,-1,-42,5,157,-54,-1,1500.0
16:28:15.562,AUTO,-35.3632236,149.1652216,49956,7.213879143819213e-06,-0.19140169024467468,-0.165257066488266,0.16952334344387054,-0.0074977632611989975,-0.04013530910015106,-59,-38,-1007,-399,-17,-17,296,-105,0,1500.0
16:28:15.763,AUTO,-35.3632014,149.165212,49954,0.017371878027915955,-0.1994442343711853,-0.1823432296514511,-0.2341369390487671,-0.013624923303723335,-0.025521745905280113,-76,-47,-1000,-232,-12,-25,374,-135,0,1500.0
16:28:15.966,AUTO,-35.3632014,149.165212,49954,0.017371878027915955,-0.1994442343711853,-0.1823432296514511,-0.2341369390487671,-0.013624923303723335,-0.025521745905280113,-76,-47,-1000,-232,-12,-25,374,-135,0,1500.0
16:28:16.169,AUTO,-35.3632014,149.165212,49954,0.017371878027915955,-0.1994442343711853,-0.1823432296514511,-0.2341369390487671,-0.013624923303723335,-0.025521745905280113,-76,-47,-1000,-232,-12,-25,374,-135,0,1500.0
16:28:16.371,AUTO,-35.3632014,149.165212,49954,0.017371878027915955,-0.1994442343711853,-0.1823432296514511,-0.2341369390487671,-0.013624923303723335,-0.025521745905280113,-76,-47,-1000,-232,-12,-25,374,-135,0,1500.0
16:28:16.572,AUTO,-35.3632014,149.165212,49954,0.017371878027915955,-0.1994442343711853,-0.1823432296514511,-0.2341369390487671,-0.013624923303723335,-0.025521745905280113,-76,-47,-1000,-232,-12,-25,374,-135,0,1500.0
16:28:16.774,AUTO,-35.3632014,149.165212,49954,0.017371878027915955,-0.1994442343711853,-0.1823432296514511,-0.2341369390487671,-0.013624923303723335,-0.025521745905280113,-76,-47,-1000,-232,-12,-25,374,-135,0,1500.0
16:28:16.978,AUTO,-35.3632014,149.165212,49954,0.017371878027915955,-0.1994442343711853,-0.1823432296514511,-0.2341369390487671,-0.013624923303723335,-0.025521745905280113,-76,-47,-1000,-232,-12,-25,374,-135,0,1500.0
16:28:17.180,AUTO,-35.3632014,149.165212,49954,0.017371878027915955,-0.1994442343711853,-0.1823432296514511,-0.2341369390487671,-0.013624923303723335,-0.025521745905280113,-76,-47,-1000,-232,-12,-25,374,-135,0,1500.0
16:28:17.383,AUTO,-35.3631741,149.1652001,49946,0.03880387917160988,-0.22127659618854523,-0.19767777621746063,-0.11416389793157578,-0.03743266314268112,0.012920884415507317,-102,-51,-997,-114,-36,13,453,-159,1,1500.0
16:28:17.587,AUTO,-35.3631291,149.165181,49936,0.05620242655277252,-0.20638829469680786,-0.20923875272274017,0.028191471472382545,0.05159036070108414,-0.014336934313178062,-120,-57,-1010,29,52,-13,555,-188,-4,1500.0
16:28:17.789,AUTO,-35.3631165,149.1651757,49946,0.060588594526052475,-0.19683468341827393,-0.211776465177536,0.036247964948415756,0.029364336282014847,-0.009548335336148739,-127,-48,-995,36,29,-9,573,-192,-6,1500.0
16:28:17.990,AUTO,-35.3631165,149.1651757,49946,0.060588594526052475,-0.19683468341827393,-0.211776465177536,0.036247964948415756,0.029364336282014847,-0.009548335336148739,-127,-48,-995,36,29,-9,573,-192,-6,1500.0
16:28:18.191,AUTO,-35.3631165,149.1651757,49946,0.060588594526052475,-0.19683468341827393,-0.211776465177536,0.036247964948415756,0.029364336282014847,-0.009548335336148739,-127,-48,-995,36,29,-9,573,-192,-6,1500.0
16:28:18.393,AUTO,-35.3631165,149.1651757,49946,0.060588594526052475,-0.19683468341827393,-0.211776465177536,0.036247964948415756,0.029364336282014847,-0.009548335336148739,-127,-48,-995,36,29,-9,573,-192,-6,1500.0
16:28:18.594,AUTO,-35.3631165,149.1651757,49946,0.060588594526052475,-0.19683468341827393,-0.211776465177536,0.036247964948415756,0.029364336282014847,-0.009548335336148739,-127,-48,-995,36,29,-9,573,-192,-6,1500.0
16:28:18.797,AUTO,-35.3631165,149.1651757,49946,0.060588594526052475,-0.19683468341827393,-0.211776465177536,0.036247964948415756,0.029364336282014847,-0.009548335336148739,-127,-48,-995,36,29,-9,573,-192,-6,1500.0
16:28:18.998,AUTO,-35.3631165,149.1651757,49946,0.060588594526052475,-0.19683468341827393,-0.211776465177536,0.036247964948415756,0.029364336282014847,-0.009548335336148739,-127,-48,-995,36,29,-9,573,-192,-6,1500.0
16:28:19.200,AUTO,-35.3631165,149.1651757,49946,0.060588594526052475,-0.19683468341827393,-0.211776465177536,0.036247964948415756,0.029364336282014847,-0.009548335336148739,-127,-48,-995,36,29,-9,573,-192,-6,1500.0
16:28:19.406,AUTO,-35.3631165,149.1651757,49946,0.060588594526052475,-0.19683468341827393,-0.211776465177536,0.036247964948415756,0.029364336282014847,-0.009548335336148739,-127,-48,-995,36,29,-9,573,-192,-6,1500.0
16:28:19.608,AUTO,-35.3630198,149.1651361,49999,0.07357503473758698,-0.1586710661649704,-0.22409681975841522,-0.016044769436120987,0.005528212990611792,-0.006582470145076513,-133,-76,-983,-14,6,-6,645,-211,-5,1500.0
16:28:19.810,AUTO,-35.3630053,149.1651303,50004,0.07681436836719513,-0.15716670453548431,-0.2261657416820526,0.06680691987276077,-0.008012442849576473,-0.009313954971730709,-139,-68,-982,67,-7,-8,648,-212,-4,1500.0
16:28:20.011,AUTO,-35.3630053,149.1651303,50004,0.07681436836719513,-0.15716670453548431,-0.2261657416820526,0.06680691987276077,-0.008012442849576473,-0.009313954971730709,-139,-68,-982,67,-7,-8,648,-212,-4,1500.0
16:28:20.214,AUTO,-35.3630053,149.1651303,50004,0.07681436836719513,-0.15716670453548431,-0.2261657416820526,0.06680691987276077,-0.008012442849576473,-0.009313954971730709,-139,-68,-982,67,-7,-8,648,-212,-4,1500.0
16:28:20.417,AUTO,-35.3630053,149.1651303,50004,0.07681436836719513,-0.15716670453548431,-0.2261657416820526,0.06680691987276077,-0.008012442849576473,-0.009313954971730709,-139,-68,-982,67,-7,-8,648,-212,-4,1500.0
16:28:20.618,AUTO,-35.3630053,149.1651303,50004,0.07681436836719513,-0.15716670453548431,-0.2261657416820526,0.06680691987276077,-0.008012442849576473,-0.009313954971730709,-139,-68,-982,67,-7,-8,648,-212,-4,1500.0
16:28:20.824,AUTO,-35.3630053,149.1651303,50004,0.07681436836719513,-0.15716670453548431,-0.2261657416820526,0.06680691987276077,-0.008012442849576473,-0.009313954971730709,-139,-68,-982,67,-7,-8,648,-212,-4,1500.0
16:28:21.026,AUTO,-35.3630053,149.1651303,50004,0.07681436836719513,-0.15716670453548431,-0.2261657416820526,0.06680691987276077,-0.008012442849576473,-0.009313954971730709,-139,-68,-982,67,-7,-8,648,-212,-4,1500.0
16:28:21.230,AUTO,-35.3630053,149.1651303,50004,0.07681436836719513,-0.15716670453548431,-0.2261657416820526,0.06680691987276077,-0.008012442849576473,-0.009313954971730709,-139,-68,-982,67,-7,-8,648,-212,-4,1500.0
16:28:21.432,AUTO,-35.3629237,149.1650975,50010,0.07289868593215942,-0.13921362161636353,-0.23527969419956207,-0.2054135650396347,-0.008418617770075798,0.00973719172179699,-135,-72,-977,169,-17,-8,648,-211,0,1500.0
16:28:21.634,AUTO,-35.3629091,149.1650916,50001,0.07198629528284073,-0.13933482766151428,-0.23796910047531128,-0.014780375175178051,0.001237106742337346,-0.023271795362234116,-157,-68,-1000,-12,1,-23,648,-212,0,1500.0
16:28:21.835,AUTO,-35.3628946,149.1650858,49992,0.0778527706861496,-0.14378058910369873,-0.23925113677978516,0.2427484393119812,-0.03208160772919655,-0.01583116129040718,-145,-57,-994,243,-31,-15,649,-213,0,1500.0
16:28:22.037,AUTO,-35.3628946,149.1650858,49992,0.0778527706861496,-0.14378058910369873,-0.23925113677978516,0.2427484393119812,-0.03208160772919655,-0.01583116129040718,-145,-57,-994,243,-31,-15,649,-213,0,1500.0
16:28:22.239,AUTO,-35.3628946,149.1650858,49992,0.0778527706861496,-0.14378058910369873,-0.23925113677978516,0.2427484393119812,-0.03208160772919655,-0.01583116129040718,-145,-57,-994,243,-31,-15,649,-213,0,1500.0
16:28:22.441,AUTO,-35.3628946,149.1650858,49992,0.0778527706861496,-0.14378058910369873,-0.23925113677978516,0.2427484393119812,-0.03208160772919655,-0.01583116129040718,-145,-57,-994,243,-31,-15,649,-213,0,1500.0
16:28:22.644,AUTO,-35.3628946,149.1650858,49992,0.0778527706861496,-0.14378058910369873,-0.23925113677978516,0.2427484393119812,-0.03208160772919655,-0.01583116129040718,-145,-57,-994,243,-31,-15,649,-213,0,1500.0
16:28:22.845,AUTO,-35.3628946,149.1650858,49992,0.0778527706861496,-0.14378058910369873,-0.23925113677978516,0.2427484393119812,-0.03208160772919655,-0.01583116129040718,-145,-57,-994,243,-31,-15,649,-213,0,1500.0
16:28:23.047,AUTO,-35.3628946,149.1650858,49992,0.0778527706861496,-0.14378058910369873,-0.23925113677978516,0.2427484393119812,-0.03208160772919655,-0.01583116129040718,-145,-57,-994,243,-31,-15,649,-213,0,1500.0
16:28:23.249,AUTO,-35.3628946,149.1650858,49992,0.0778527706861496,-0.14378058910369873,-0.23925113677978516,0.2427484393119812,-0.03208160772919655,-0.01583116129040718,-145,-57,-994,243,-31,-15,649,-213,0,1500.0
16:28:23.451,AUTO,-35.362836,149.1650622,49984,0.070847287774086,-0.14398643374443054,-0.2443162202835083,-0.08816104382276535,-0.0017221071757376194,0.007205673959106207,-145,-46,-991,103,-3,-2,654,-217,-3,1500.0
16:28:23.652,AUTO,-35.3627918,149.1650443,49992,0.07531075179576874,-0.14040648937225342,-0.24864663183689117,-0.08306536823511124,-0.005845191422849894,-0.0008486382430419326,-129,-83,-984,-82,-5,0,655,-218,-2,1500.0
16:28:23.853,AUTO,-35.3627771,149.1650384,49994,0.07318959385156631,-0.14027559757232666,-0.2500103712081909,-0.08790059387683868,-0.009148032404482365,-0.000826045754365623,-139,-75,-987,-86,-8,0,654,-219,-2,1500.0
16:28:24.055,AUTO,-35.3627771,149.1650384,49994,0.07318959385156631,-0.14027559757232666,-0.2500103712081909,-0.08790059387683868,-0.009148032404482365,-0.000826045754365623,-139,-75,-987,-86,-8,0,654,-219,-2,1500.0
16:28:24.256,AUTO,-35.3627771,149.1650384,49994,0.07318959385156631,-0.14027559757232666,-0.2500103712081909,-0.08790059387683868,-0.009148032404482365,-0.000826045754365623,-139,-75,-987,-86,-8,0,654,-219,-2,1500.0
16:28:24.458,AUTO,-35.3627771,149.1650384,49994,0.07318959385156631,-0.14027559757232666,-0.2500103712081909,-0.08790059387683868,-0.009148032404482365,-0.000826045754365623,-139,-75,-987,-86,-8,0,654,-219,-2,1500.0
16:28:24.660,AUTO,-35.3627771,149.1650384,49994,0.07318959385156631,-0.14027559757232666,-0.2500103712081909,-0.08790059387683868,-0.009148032404482365,-0.000826045754365623,-139,-75,-987,-86,-8,0,654,-219,-2,1500.0
16:28:24.862,AUTO,-35.3627771,149.1650384,49994,0.07318959385156631,-0.14027559757232666,-0.2500103712081909,-0.08790059387683868,-0.009148032404482365,-0.000826045754365623,-139,-75,-987,-86,-8,0,654,-219,-2,1500.0
16:28:25.063,AUTO,-35.3627771,149.1650384,49994,0.07318959385156631,-0.14027559757232666,-0.2500103712081909,-0.08790059387683868,-0.009148032404482365,-0.000826045754365623,-139,-75,-987,-86,-8,0,654,-219,-2,1500.0
16:28:25.266,AUTO,-35.3627771,149.1650384,49994,0.07318959385156631,-0.14027559757232666,-0.2500103712081909,-0.08790059387683868,-0.009148032404482365,-0.000826045754365623,-139,-75,-987,-86,-8,0,654,-219,-2,1500.0
16:28:25.468,AUTO,-35.3626888,149.1650025,50005,0.0744251012802124,-0.10083562880754471,-0.2561781704425812,-0.15300233662128448,0.06946953386068344,0.007470619864761829,-138,-81,-1000,-152,70,8,642,-216,-7,1500.0
16:28:25.670,AUTO,-35.3626744,149.1649966,50020,0.07517389208078384,-0.08492912352085114,-0.25653794407844543,0.06016118824481964,0.04554610699415207,-0.011729279533028603,-129,-51,-983,62,46,-10,632,-211,-8,1500.0
16:28:25.872,AUTO,-35.3626603,149.1649908,50034,0.08058859407901764,-0.0729605108499527,-0.2571788430213928,0.2727317214012146,0.0565541535615921,-0.000753247644752264,-132,-81,-985,272,57,0,620,-209,-7,1500.0
16:28:26.074,AUTO,-35.3626603,149.1649908,50034,0.08058859407901764,-0.0729605108499527,-0.2571788430213928,0.2727317214012146,0.0565541535615921,-0.000753247644752264,-132,-81,-985,272,57,0,620,-209,-7,1500.0
16:28:26.277,AUTO,-35.3626603,149.1649908,50034,0.08058859407901764,-0.0729605108499527,-0.2571788430213928,0.2727317214012146,0.0565541535615921,-0.000753247644752264,-132,-81,-985,272,57,0,620,-209,-7,1500.0
16:28:26.480,AUTO,-35.3626603,149.1649908,50034,0.08058859407901764,-0.0729605108499527,-0.2571788430213928,0.2727317214012146,0.0565541535615921,-0.000753247644752264,-132,-81,-985,272,57,0,620,-209,-7,1500.0
16:28:26.682,AUTO,-35.3626603,149.1649908,50034,0.08058859407901764,-0.0729605108499527,-0.2571788430213928,0.2727317214012146,0.0565541535615921,-0.000753247644752264,-132,-81,-985,272,57,0,620,-209,-7,1500.0
16:28:26.884,AUTO,-35.3626603,149.1649908,50034,0.08058859407901764,-0.0729605108499527,-0.2571788430213928,0.2727317214012146,0.0565541535615921,-0.000753247644752264,-132,-81,-985,272,57,0,620,-209,-7,1500.0
16:28:27.086,AUTO,-35.3626603,149.1649908,50034,0.08058859407901764,-0.0729605108499527,-0.2571788430213928,0.2727317214012146,0.0565541535615921,-0.000753247644752264,-132,-81,-985,272,57,0,620,-209,-7,1500.0
16:28:27.287,AUTO,-35.3626201,149.1649741,50053,0.0854312852025032,-0.040529072284698486,-0.2608404755592346,0.2936023473739624,0.03934227675199509,-0.040106747299432755,-124,-43,-977,299,40,-39,570,-190,-1,1500.0
16:28:31.076,AUTO,-35.3625724,149.1649543,50039,0.0782691016793251,0.004300756845623255,-0.2606314718723297,-0.8173238039016724,0.0549716055393219,0.02689923718571663,-108,-107,-990,-818,55,27,482,-159,1,1500.0
16:28:31.278,AUTO,-35.3625724,149.1649543,50039,0.0782691016793251,0.004300756845623255,-0.2606314718723297,-0.8173238039016724,0.0549716055393219,0.02689923718571663,-108,-107,-990,-818,55,27,482,-159,1,1500.0
16:28:31.483,AUTO,-35.3625618,149.1649499,50034,0.07435540854930878,0.01731286384165287,-0.2608659565448761,-0.3719637989997864,0.051784224808216095,-0.02916974015533924,-103,-59,-1017,-367,52,-28,456,-148,0,1500.0
16:28:31.684,AUTO,-35.3625618,149.1649499,50034,0.07435540854930878,0.01731286384165287,-0.2608659565448761,-0.3719637989997864,0.051784224808216095,-0.02916974015533924,-103,-59,-1017,-367,52,-28,456,-148,0,1500.0
