time_stamp,MODE,lat,lon,relative_alt,roll,pitch,yaw,rollspeed,pitchspeed,yawspeed,xacc,yacc,zacc,xgyro,ygyro,zgyro,vx,vy,vz,RTL_ALT
05:13:44.787,STABILIZE,-35.3632622,149.1652375,6,-0.0003250475274398923,0.0014330268604680896,0.02744700014591217,0.0002463938435539603,0.00027780086384154856,0.0022273780778050423,0,2,-1000,0,0,0,-2,2,1,1500.0
05:13:44.989,STABILIZE,-35.3632622,149.1652375,6,-0.0003250475274398923,0.0014330268604680896,0.02744700014591217,0.0002463938435539603,0.00027780086384154856,0.0022273780778050423,0,2,-1000,0,0,0,-2,2,1,1500.0
05:13:45.190,STABILIZE,-35.3632622,149.1652375,6,-0.0003250475274398923,0.0014330268604680896,0.02744700014591217,0.0002463938435539603,0.00027780086384154856,0.0022273780778050423,0,2,-1000,0,0,0,-2,2,1,1500.0
05:13:45.392,STABILIZE,-35.3632622,149.1652375,10,-0.0003250475274398923,0.0014330268604680896,0.02744700014591217,0.0002463938435539603,0.00027780086384154856,0.0022273780778050423,0,2,-1000,0,0,0,-1,1,0,1500.0
05:13:45.594,STABILIZE,-35.3632622,149.1652375,11,-0.000844762078486383,0.0011447243159636855,0.026682764291763306,0.00012396782403811812,0.00024002508143894374,0.0021754002664238214,0,1,-1000,0,0,0,-1,1,0,1500.0
05:13:45.796,STABILIZE,-35.3632622,149.1652375,12,-0.0008973974036052823,0.0011045424034819007,0.026561487466096878,0.0002080872654914856,0.00024171950644813478,0.00217174319550395,0,1,-1000,0,0,0,-1,1,0,1500.0
05:13:45.998,STABILIZE,-35.3632622,149.1652375,12,-0.0008973974036052823,0.0011045424034819007,0.026561487466096878,0.0002080872654914856,0.00024171950644813478,0.00217174319550395,0,1,-1000,0,0,0,-1,1,0,1500.0
05:13:46.200,STABILIZE,-35.3632622,149.1652375,12,-0.0008973974036052823,0.0011045424034819007,0.026561487466096878,0.0002080872654914856,0.00024171950644813478,0.00217174319550395,0,1,-1000,0,0,0,-1,1,0,1500.0
05:13:46.402,STABILIZE,-35.3632622,149.1652375,12,-0.000994082074612379,0.0010442202910780907,0.02634928748011589,6.286968709900975e-05,0.00029904855182394385,0.002021786291152239,0,1,-1000,0,0,0,-1,1,0,1500.0
05:13:46.603,STABILIZE,-35.3632622,149.1652375,12,-0.000994082074612379,0.0010442202910780907,0.02634928748011589,6.286968709900975e-05,0.00029904855182394385,0.002021786291152239,0,1,-1000,0,0,0,-1,1,0,1500.0
05:13:46.805,STABILIZE,-35.3632622,149.1652375,12,-0.000994082074612379,0.0010442202910780907,0.02634928748011589,6.286968709900975e-05,0.00029904855182394385,0.002021786291152239,0,1,-1000,0,0,0,-1,1,0,1500.0
05:13:47.006,STABILIZE,-35.3632621,149.1652375,14,-0.0009270446025766432,0.0009879226563498378,0.02605644427239895,0.00018110242672264576,0.0003124412032775581,0.0017505241557955742,0,1,-1000,0,0,0,-1,1,1,1500.0
05:13:47.208,STABILIZE,-35.3632621,149.1652375,13,-0.0009270446025766432,0.0009879226563498378,0.02605644427239895,0.00018110242672264576,0.0003124412032775581,0.0017505241557955742,0,1,-1000,0,0,0,-1,1,1,1500.0
05:13:47.410,STABILIZE,-35.3632621,149.1652375,13,-0.0009270446025766432,0.0009879226563498378,0.02605644427239895,0.00018110242672264576,0.0003124412032775581,0.0017505241557955742,0,1,-1000,0,0,0,-1,1,1,1500.0
05:13:47.612,STABILIZE,-35.3632621,149.1652375,12,-0.0009270446025766432,0.0009879226563498378,0.02605644427239895,0.00018110242672264576,0.0003124412032775581,0.0017505241557955742,0,1,-1000,0,0,0,-1,1,0,1500.0
05:13:47.813,STABILIZE,-35.3632621,149.1652375,12,-0.0010646674782037735,0.0009699539514258504,0.02576766535639763,0.00017456954810768366,0.0003053199325222522,0.0019475204171612859,0,1,-1000,0,0,0,-1,1,0,1500.0
05:13:48.015,STABILIZE,-35.3632621,149.1652375,12,-0.0010646674782037735,0.0009699539514258504,0.02576766535639763,0.00017456954810768366,0.0003053199325222522,0.0019475204171612859,0,1,-1000,0,0,0,-1,1,0,1500.0
05:13:48.217,STABILIZE,-35.3632621,149.1652375,14,-0.0011332753347232938,0.0009464643080718815,0.025603480637073517,0.00011938321404159069,0.0001656277454458177,0.0019378967117518187,0,1,-1000,0,0,0,-1,1,0,1500.0
05:13:48.419,STABILIZE,-35.3632621,149.1652375,14,-0.0011332753347232938,0.0009464643080718815,0.025603480637073517,0.00011938321404159069,0.0001656277454458177,0.0019378967117518187,0,1,-1000,0,0,0,-1,1,0,1500.0
05:13:48.621,STABILIZE,-35.3632621,149.1652375,14,-0.0011332753347232938,0.0009464643080718815,0.025603480637073517,0.00011938321404159069,0.0001656277454458177,0.0019378967117518187,0,1,-1000,0,0,0,-1,1,0,1500.0
05:13:48.824,STABILIZE,-35.3632621,149.1652375,14,-0.0011332753347232938,0.0009464643080718815,0.025603480637073517,0.00011938321404159069,0.0001656277454458177,0.0019378967117518187,0,1,-1000,0,0,0,-1,1,0,1500.0
05:13:49.026,STABILIZE,-35.3632621,149.1652375,14,-0.0011332753347232938,0.0009464643080718815,0.025603480637073517,0.00011938321404159069,0.0001656277454458177,0.0019378967117518187,0,1,-1000,0,0,0,-1,1,0,1500.0
05:13:49.229,STABILIZE,-35.3632621,149.1652375,14,-0.0011332753347232938,0.0009464643080718815,0.025603480637073517,0.00011938321404159069,0.0001656277454458177,0.0019378967117518187,0,2,-1000,0,0,0,-1,1,0,1500.0
05:13:49.431,STABILIZE,-35.3632621,149.1652375,14,-0.0011332753347232938,0.0009464643080718815,0.025603480637073517,0.00011938321404159069,0.0001656277454458177,0.0019378967117518187,0,2,-1000,0,0,0,-1,1,0,1500.0
05:13:49.632,STABILIZE,-35.3632621,149.1652375,14,-0.0011332753347232938,0.0009464643080718815,0.025603480637073517,0.00011938321404159069,0.0001656277454458177,0.0019378967117518187,0,2,-1000,0,0,0,-1,1,0,1500.0
05:13:49.834,STABILIZE,-35.3632621,149.1652374,20,-0.001236733514815569,0.0009331890614703298,0.025129158049821854,0.000154390640091151,0.0002988896449096501,0.0018387974705547094,0,1,-1000,1,0,0,-1,0,0,1500.0
05:13:50.036,STABILIZE,-35.3632621,149.1652374,21,-0.0012351080076768994,0.0009296062053181231,0.025038765743374825,0.0003998347092419863,0.0003326934529468417,0.0019760513678193092,0,1,-1000,0,1,1,-1,0,0,1500.0
05:13:50.237,STABILIZE,-35.3632621,149.1652374,21,-0.0012351080076768994,0.0009296062053181231,0.025038765743374825,0.0003998347092419863,0.0003326934529468417,0.0019760513678193092,0,1,-1000,0,0,0,-1,0,0,1500.0
05:13:50.439,STABILIZE,-35.3632621,149.1652374,21,-0.0012351080076768994,0.0009296062053181231,0.025038765743374825,0.0003998347092419863,0.0003326934529468417,0.0019760513678193092,0,1,-1000,0,0,0,-1,0,0,1500.0
05:13:50.640,STABILIZE,-35.3632621,149.1652374,21,-0.0012351080076768994,0.0009296062053181231,0.025038765743374825,0.0003998347092419863,0.0003326934529468417,0.0019760513678193092,0,1,-1000,0,0,0,-1,0,0,1500.0
05:13:50.842,STABILIZE,-35.3632621,149.1652374,21,-0.0012351080076768994,0.0009296062053181231,0.025038765743374825,0.0003998347092419863,0.0003326934529468417,0.0019760513678193092,0,1,-1000,0,0,0,-1,0,0,1500.0
05:13:51.043,STABILIZE,-35.3632621,149.1652374,26,-0.0012104595080018044,0.0009310577297583222,0.024725543335080147,0.0002635217970237136,0.000298442377243191,0.0018841152777895331,0,1,-1000,1,1,0,-1,0,0,1500.0
05:13:51.245,STABILIZE,-35.3632621,149.1652374,27,-0.0012104595080018044,0.0009310577297583222,0.024725543335080147,0.0002635217970237136,0.000298442377243191,0.0018841152777895331,0,1,-1000,0,0,0,-1,0,0,1500.0
05:13:51.446,STABILIZE,-35.3632621,149.1652374,27,-0.0012104595080018044,0.0009310577297583222,0.024725543335080147,0.0002635217970237136,0.000298442377243191,0.0018841152777895331,0,1,-1000,0,0,0,-1,0,0,1500.0
05:13:51.648,STABILIZE,-35.3632621,149.1652374,27,-0.0012104595080018044,0.0009310577297583222,0.024725543335080147,0.0002635217970237136,0.000298442377243191,0.0018841152777895331,0,1,-1000,0,0,0,-1,0,0,1500.0
05:13:51.849,STABILIZE,-35.3632621,149.1652374,27,-0.0012104595080018044,0.0009310577297583222,0.024725543335080147,0.0002635217970237136,0.000298442377243191,0.0018841152777895331,0,1,-1000,0,0,0,-1,0,0,1500.0
05:13:52.051,STABILIZE,-35.3632621,149.1652374,30,-0.0011765244416892529,0.0009433238883502781,0.02444465644657612,0.00024710706202313304,0.00037611863808706403,0.0018356419168412685,0,1,-1000,0,0,0,-1,0,0,1500.0
05:13:52.253,STABILIZE,-35.3632622,149.1652374,31,-0.0011765244416892529,0.0009433238883502781,0.02444465644657612,0.00024710706202313304,0.00037611863808706403,0.0018356419168412685,0,1,-1000,0,0,0,-1,0,0,1500.0
05:13:52.464,STABILIZE,-35.3632622,149.1652374,31,-0.0011765244416892529,0.0009433238883502781,0.02444465644657612,0.00024710706202313304,0.00037611863808706403,0.0018356419168412685,0,1,-1000,0,0,0,-1,0,0,1500.0
05:13:52.667,STABILIZE,-35.3632622,149.1652374,31,-0.0011765244416892529,0.0009433238883502781,0.02444465644657612,0.00024710706202313304,0.00037611863808706403,0.0018356419168412685,0,1,-1000,0,0,0,-1,0,0,1500.0
05:13:52.869,STABILIZE,-35.3632622,149.1652374,31,-0.0011765244416892529,0.0009433238883502781,0.02444465644657612,0.00024710706202313304,0.00037611863808706403,0.0018356419168412685,0,1,-1000,0,0,0,-1,0,0,1500.0
05:13:53.071,STABILIZE,-35.3632622,149.1652374,31,-0.0011765244416892529,0.0009433238883502781,0.02444465644657612,0.00024710706202313304,0.00037611863808706403,0.0018356419168412685,0,1,-1000,0,0,0,-1,0,0,1500.0
05:13:53.273,STABILIZE,-35.3632622,149.1652374,31,-0.001165473717264831,0.0009609614498913288,0.02407548576593399,7.211411138996482e-05,0.0002778765046969056,0.0016359734581783414,0,1,-1000,0,0,0,-1,0,0,1500.0
05:13:53.475,STABILIZE,-35.3632622,149.1652374,36,-0.0011546441819518805,0.0009622286888770759,0.02399488352239132,0.0004160661483183503,0.00029676425037905574,0.0016442704945802689,0,1,-1000,0,0,0,-1,0,-1,1500.0
05:13:53.676,STABILIZE,-35.3632622,149.1652374,36,-0.0011546441819518805,0.0009622286888770759,0.02399488352239132,0.0004160661483183503,0.00029676425037905574,0.0016442704945802689,0,1,-1000,0,0,0,-1,0,-1,1500.0
05:13:53.877,STABILIZE,-35.3632622,149.1652374,37,-0.0009830256458371878,0.000959178083576262,0.023933079093694687,-6.553385173901916e-05,0.00019497063476592302,0.001728403614833951,0,0,-1003,0,0,0,-1,0,-1,1500.0
05:13:54.079,STABILIZE,-35.3632622,149.1652374,37,-0.0009850572096183896,0.000964695937000215,0.023856813088059425,0.00021813175408169627,0.0003733113990165293,0.0016598443035036325,0,1,-1000,0,1,1,-1,0,-1,1500.0
05:13:54.281,STABILIZE,-35.3632622,149.1652374,38,-0.0009850572096183896,0.000964695937000215,0.023856813088059425,0.00021813175408169627,0.0003733113990165293,0.0016598443035036325,0,1,-1000,0,1,1,-1,1,-1,1500.0
05:13:54.482,STABILIZE,-35.3632622,149.1652374,38,-0.0009850572096183896,0.000964695937000215,0.023856813088059425,0.00021813175408169627,0.0003733113990165293,0.0016598443035036325,0,1,-1000,0,1,1,-1,1,-1,1500.0
05:13:54.684,STABILIZE,-35.3632622,149.1652374,38,-0.0009850572096183896,0.000964695937000215,0.023856813088059425,0.00021813175408169627,0.0003733113990165293,0.0016598443035036325,0,1,-1000,0,1,1,-1,1,-1,1500.0
05:13:54.885,STABILIZE,-35.3632622,149.1652374,38,-0.0009850572096183896,0.000964695937000215,0.023856813088059425,0.00021813175408169627,0.0003733113990165293,0.0016598443035036325,0,1,-1000,0,1,1,-1,1,-1,1500.0
05:13:55.087,STABILIZE,-35.3632622,149.1652374,38,-0.0009850572096183896,0.000964695937000215,0.023856813088059425,0.00021813175408169627,0.0003733113990165293,0.0016598443035036325,0,1,-1000,0,1,1,-1,1,-1,1500.0
05:13:55.289,STABILIZE,-35.3632622,149.1652374,38,-0.0009583765058778226,0.0009636041941121221,0.02350478433072567,0.0002698771422728896,0.0003223554231226444,0.0017105864826589823,0,1,-1000,0,1,1,-1,1,-1,1500.0
05:13:55.491,AUTO,-35.3632622,149.1652374,41,-0.0009527236688882113,0.0009580645128153265,0.023446019738912582,0.00020710017997771502,0.00028315995587036014,0.0015435712411999702,0,1,-1000,0,0,1,-1,1,-1,1500.0
05:13:55.693,AUTO,-35.3632622,149.1652374,41,-0.0009527236688882113,0.0009580645128153265,0.023446019738912582,0.00020710017997771502,0.00028315995587036014,0.0015435712411999702,0,1,-1000,0,0,1,-1,1,-1,1500.0
05:13:55.895,AUTO,-35.3632622,149.1652374,2,-0.0009391101775690913,0.0009582549682818353,0.023377800360322,0.0003328148741275072,0.00027319486252963543,0.001752857817336917,0,1,-1000,1,0,0,-1,1,-1,1500.0
05:13:56.096,AUTO,-35.3632622,149.1652374,3,-0.0009398073307238519,0.000959071796387434,0.023297345265746117,0.00025585852563381195,0.00018810253823176026,0.0016338579589501023,0,1,-1000,0,0,0,-1,1,-1,1500.0
05:13:56.298,AUTO,-35.3632622,149.1652374,4,-0.0009360241238027811,0.0009662453085184097,0.0232384093105793,0.00023998116375878453,0.0002924826112575829,0.0015938128344714642,0,2,-1000,0,1,0,-1,1,-1,1500.0
05:13:56.499,AUTO,-35.3632622,149.1652374,4,-0.0009360241238027811,0.0009662453085184097,0.0232384093105793,0.00023998116375878453,0.0002924826112575829,0.0015938128344714642,0,2,-1000,0,1,0,-1,1,-1,1500.0
05:13:56.701,AUTO,-35.3632622,149.1652374,4,-0.0009360241238027811,0.0009662453085184097,0.0232384093105793,0.00023998116375878453,0.0002924826112575829,0.0015938128344714642,0,2,-1000,0,1,0,-1,1,-1,1500.0
05:13:56.903,AUTO,-35.3632622,149.1652374,4,-0.0009360241238027811,0.0009662453085184097,0.0232384093105793,0.00023998116375878453,0.0002924826112575829,0.0015938128344714642,0,2,-1000,0,1,0,-1,1,-1,1500.0
05:13:57.105,AUTO,-35.3632621,149.1652374,6,-0.0008369882125407457,0.0010834161657840014,0.02301209233701229,0.0004385591601021588,0.0004290808574296534,0.0015659062191843987,0,1,-1000,0,0,0,0,0,-1,1500.0
05:13:57.306,AUTO,-35.3632621,149.1652374,6,-0.0007995212799869478,0.001142175868153572,0.022947588935494423,0.00022345985053107142,0.00020524516003206372,0.0014807215193286538,0,1,-1000,0,1,0,0,0,-1,1500.0
05:13:57.509,AUTO,-35.3632621,149.1652374,6,-0.0007497818442061543,0.0012090576346963644,0.022860288619995117,0.00014531653141602874,0.0003725311835296452,0.001383004360832274,0,2,-1000,1,0,0,0,0,-1,200.0
05:13:57.711,AUTO,-35.3632621,149.1652374,7,-0.0006986812222748995,0.0012712626485154033,0.022788692265748978,0.0003057696158066392,0.00027086108457297087,0.0015835241647437215,0,2,-1000,1,0,0,0,0,-1,200.0
05:13:57.913,AUTO,-35.3632621,149.1652374,7,-0.0006986812222748995,0.0012712626485154033,0.022788692265748978,0.0003057696158066392,0.00027086108457297087,0.0015835241647437215,0,2,-1000,1,0,0,0,0,-1,200.0
05:13:58.115,AUTO,-35.3632621,149.1652374,7,-0.0006372062489390373,0.0013336972333490849,0.022732293233275414,0.00022919889306649566,0.00025710504269227386,0.0016456290613859892,0,2,-1000,0,0,0,0,0,-1,200.0
05:13:58.317,AUTO,-35.3632621,149.1652374,7,-0.0005752576980739832,0.0014020039234310389,0.022646464407444,0.000348196888808161,0.0002523830044083297,0.0015832975041121244,0,1,-1000,0,0,0,0,0,-1,200.0
05:13:58.519,AUTO,-35.3632621,149.1652374,7,-0.0005752576980739832,0.0014020039234310389,0.022646464407444,0.000348196888808161,0.0002523830044083297,0.0015832975041121244,0,1,-1000,0,0,0,0,0,-1,200.0
05:13:58.720,AUTO,-35.3632621,149.1652374,7,-0.0005752576980739832,0.0014020039234310389,0.022646464407444,0.000348196888808161,0.0002523830044083297,0.0015832975041121244,0,1,-1000,0,0,0,0,0,-1,200.0
05:13:58.922,AUTO,-35.3632621,149.1652374,7,-0.0005752576980739832,0.0014020039234310389,0.022646464407444,0.000348196888808161,0.0002523830044083297,0.0015832975041121244,0,1,-1000,0,0,0,0,0,-1,200.0
05:13:59.124,AUTO,-35.3632621,149.1652374,7,-0.0003760950348805636,0.0016244534635916352,0.022411689162254333,0.00040669302688911557,0.00022729806369170547,0.0015072629321366549,0,2,-1000,0,0,0,0,0,0,200.0
05:13:59.326,AUTO,-35.3632621,149.1652374,7,-0.00030538078863173723,0.0017036959761753678,0.02232421562075615,0.00035931740421801805,0.0003722624387592077,0.0014557125978171825,0,2,-1000,1,0,0,0,0,0,200.0
05:13:59.529,AUTO,-35.3632621,149.1652374,9,0.00087168556638062,0.0010936042526736856,0.022224070504307747,0.01025021355599165,-0.009404629468917847,0.0015701735392212868,0,0,-1091,10,-8,0,0,0,-6,200.0
05:13:59.730,AUTO,-35.3632621,149.1652374,65,0.0034426881466060877,-0.0005982728907838464,0.022276997566223145,0.008622105233371258,-0.0014703467022627592,0.00019047735258936882,0,0,-1140,9,0,0,0,0,-40,200.0
05:13:59.932,AUTO,-35.3632621,149.1652374,65,0.0034426881466060877,-0.0005982728907838464,0.022276997566223145,0.008622105233371258,-0.0014703467022627592,0.00019047735258936882,0,0,-1140,9,0,0,0,0,-40,200.0
05:14:00.134,AUTO,-35.3632621,149.1652374,203,0.002815221669152379,0.00021703343372792006,0.022237179800868034,-0.0026778527535498142,0.0049733966588974,0.0017859955551102757,0,0,-1130,-1,5,1,0,0,-73,200.0
05:14:00.336,AUTO,-35.3632621,149.1652374,419,0.0018020070856437087,0.0011612301459535956,0.022186966612935066,-0.004804148804396391,0.0029946500435471535,0.002007806906476617,0,0,-1110,-4,3,1,0,1,-102,200.0
05:14:00.538,AUTO,-35.3632621,149.1652374,419,0.0018020070856437087,0.0011612301459535956,0.022186966612935066,-0.004804148804396391,0.0029946500435471535,0.002007806906476617,0,0,-1110,-4,3,1,0,1,-102,200.0
05:14:00.739,AUTO,-35.3632621,149.1652374,419,0.0018020070856437087,0.0011612301459535956,0.022186966612935066,-0.004804148804396391,0.0029946500435471535,0.002007806906476617,0,0,-1110,-4,3,1,0,1,-102,200.0
05:14:00.941,AUTO,-35.3632621,149.1652374,419,0.0018020070856437087,0.0011612301459535956,0.022186966612935066,-0.004804148804396391,0.0029946500435471535,0.002007806906476617,0,0,-1110,-4,3,1,0,1,-102,200.0
05:14:01.143,AUTO,-35.363262,149.1652375,1405,0.023405542597174644,-0.0011819214560091496,0.021819591522216797,0.046713486313819885,-0.00704176863655448,0.0024176083970814943,0,0,-1016,47,-6,1,1,5,-145,35183.0
05:14:01.344,AUTO,-35.363262,149.1652377,1786,0.034877706319093704,-0.003107378026470542,0.021959861740469933,0.044697631150484085,-0.007617004681378603,0.0030420515686273575,0,-1,-1006,45,-7,2,1,12,-148,35183.0
05:14:01.546,AUTO,-35.3632619,149.1652381,2168,0.04566140100359917,-0.005354681517928839,0.02216264419257641,0.04214473068714142,-0.009347938001155853,0.0035302413161844015,0,-3,-1002,42,-8,3,3,21,-149,35183.0
05:14:01.747,AUTO,-35.3632618,149.1652388,2553,0.055760666728019714,-0.008063806220889091,0.022421661764383316,0.03920627385377884,-0.011014084331691265,0.004039053805172443,1,-5,-999,39,-10,3,5,32,-149,35183.0
05:14:01.949,AUTO,-35.3632618,149.1652388,2553,0.055760666728019714,-0.008063806220889091,0.022421661764383316,0.03920627385377884,-0.011014084331691265,0.004039053805172443,1,-5,-999,39,-10,3,5,32,-149,35183.0
05:14:02.150,AUTO,-35.3632616,149.1652398,2937,0.06140916049480438,-0.008395455777645111,-0.008711708709597588,-0.022640898823738098,0.032064180821180344,-0.05432117357850075,1,-8,-992,-21,32,-54,8,44,-148,35183.0
05:14:02.352,AUTO,-35.3632613,149.1652411,3316,0.038357168436050415,0.014889325946569443,-0.03221447393298149,-0.1491611897945404,0.09284686297178268,-0.09966453909873962,3,-11,-991,-148,93,-100,9,53,-145,35183.0
05:14:02.554,AUTO,-35.3632613,149.1652411,3316,0.038357168436050415,0.014889325946569443,-0.03221447393298149,-0.1491611897945404,0.09284686297178268,-0.09966453909873962,3,-11,-991,-148,93,-100,9,53,-145,35183.0
05:14:02.757,AUTO,-35.3632613,149.1652411,3316,0.038357168436050415,0.014889325946569443,-0.03221447393298149,-0.1491611897945404,0.09284686297178268,-0.09966453909873962,3,-11,-991,-148,93,-100,9,53,-145,35183.0
05:14:02.975,AUTO,-35.363261,149.1652451,4447,-0.037877194583415985,0.03746984153985977,-0.1030745804309845,-0.04710780456662178,-0.03151177987456322,-0.04843874275684357,7,-8,-1003,-46,-30,-49,-7,36,-149,35183.0
05:14:03.177,AUTO,-35.363261,149.1652451,4447,-0.037877194583415985,0.03746984153985977,-0.1030745804309845,-0.04710780456662178,-0.03151177987456322,-0.04843874275684357,7,-8,-1003,-46,-30,-49,-7,36,-149,35183.0
05:14:03.379,AUTO,-35.3632611,149.1652459,4831,-0.053708940744400024,0.016281595453619957,-0.10150482505559921,-0.06772314757108688,-0.11856751888990402,0.037961993366479874,6,-6,-1001,-67,-117,37,-12,23,-149,35183.0
05:14:03.581,AUTO,-35.3632614,149.1652463,5215,-0.07046462595462799,-0.015174378640949726,-0.08214307576417923,-0.05773908272385597,-0.11983417719602585,0.061959173530340195,4,-1,-1003,-57,-118,61,-12,6,-149,35183.0
05:14:03.783,AUTO,-35.3632616,149.1652462,5599,-0.0743459016084671,-0.025626694783568382,-0.07423073053359985,0.012978249229490757,0.0015431082574650645,0.010121001861989498,2,1,-1003,13,2,9,-6,-12,-149,35183.0
05:14:03.985,AUTO,-35.3632617,149.1652457,5983,-0.06705795973539352,-0.022926608100533485,-0.0742848590016365,0.04007337614893913,0.010004092939198017,0.002912322524935007,-1,4,-1001,40,10,2,-1,-29,-149,35183.0
05:14:04.187,AUTO,-35.3632617,149.1652457,5983,-0.06705795973539352,-0.022926608100533485,-0.0742848590016365,0.04007337614893913,0.010004092939198017,0.002912322524935007,-1,4,-1001,40,10,2,-1,-29,-149,35183.0
05:14:04.389,AUTO,-35.3632617,149.1652448,6371,-0.05428159981966019,-0.021118372678756714,-0.07490786910057068,0.05726565420627594,0.00464195990934968,0.0059156157076358795,-4,5,-1000,57,5,5,1,-43,-149,35183.0
05:14:04.591,AUTO,-35.3632617,149.1652448,6371,-0.05428159981966019,-0.021118372678756714,-0.07490786910057068,0.05726565420627594,0.00464195990934968,0.0059156157076358795,-4,5,-1000,57,5,5,1,-43,-149,35183.0
05:14:04.793,AUTO,-35.3632617,149.1652448,6371,-0.05428159981966019,-0.021118372678756714,-0.07490786910057068,0.05726565420627594,0.00464195990934968,0.0059156157076358795,-4,5,-1000,57,5,5,1,-43,-149,35183.0
05:14:04.995,AUTO,-35.3632614,149.1652402,7519,-0.008179937489330769,-0.011495736427605152,-0.0738968774676323,0.06479752063751221,0.018584389239549637,0.005320761818438768,-9,7,-1003,65,19,4,8,-61,-150,35183.0
05:14:05.197,AUTO,-35.3632614,149.1652402,7519,-0.008179937489330769,-0.011495736427605152,-0.0738968774676323,0.06479752063751221,0.018584389239549637,0.005320761818438768,-9,7,-1003,65,19,4,8,-61,-150,56936.0
05:14:05.399,AUTO,-35.3632613,149.1652385,7907,0.008026721887290478,-0.006474460009485483,-0.0730888620018959,0.0634048581123352,0.020944664254784584,0.005240484606474638,-9,15,-1004,63,21,4,8,-59,-151,56936.0
05:14:05.601,AUTO,-35.3632611,149.1652369,8296,0.023951176553964615,-0.0013695668894797564,-0.0722268745303154,0.06436363607645035,0.020327316597104073,0.005173886194825172,-9,9,-1004,64,20,4,8,-53,-152,56936.0
05:14:05.803,AUTO,-35.3632609,149.1652355,8687,0.039098214358091354,0.0036297913175076246,-0.07164942473173141,0.05370083823800087,0.023376427590847015,-0.0002514013322070241,-8,9,-1003,54,24,0,6,-43,-153,56936.0
05:14:06.004,AUTO,-35.3632608,149.1652343,9081,0.050254423171281815,0.011367494240403175,-0.07454204559326172,0.033822815865278244,0.038971394300460815,-0.023677511140704155,-6,10,-1000,34,39,-24,4,-31,-153,56936.0
05:14:06.208,AUTO,-35.3632607,149.1652336,9473,0.055856868624687195,0.0235186405479908,-0.08299606293439865,0.025015637278556824,0.045264534652233124,-0.039880380034446716,-4,4,-1000,25,45,-40,0,-17,-153,56936.0
05:14:06.411,AUTO,-35.3632607,149.1652336,9473,0.055856868624687195,0.0235186405479908,-0.08299606293439865,0.025015637278556824,0.045264534652233124,-0.039880380034446716,-4,4,-1000,25,45,-40,0,-17,-153,56936.0
05:14:06.613,AUTO,-35.3632607,149.1652336,9473,0.055856868624687195,0.0235186405479908,-0.08299606293439865,0.025015637278556824,0.045264534652233124,-0.039880380034446716,-4,4,-1000,25,45,-40,0,-17,-153,56936.0
05:14:06.816,AUTO,-35.3632607,149.1652336,9473,0.055856868624687195,0.0235186405479908,-0.08299606293439865,0.025015637278556824,0.045264534652233124,-0.039880380034446716,-4,4,-1000,25,45,-40,0,-17,-153,56936.0
05:14:07.018,AUTO,-35.3632612,149.1652337,10637,0.04287471994757652,0.030690014362335205,-0.10649324208498001,-0.08573471009731293,-0.06210905313491821,0.015214784070849419,5,0,-995,-85,-61,14,-19,24,-149,56936.0
05:14:07.220,AUTO,-35.3632617,149.1652343,11022,0.02033967897295952,0.013758687302470207,-0.10137823224067688,-0.089427649974823,-0.061645690351724625,0.0264560766518116,6,-1,-999,-88,-61,25,-21,31,-148,56936.0
05:14:07.422,AUTO,-35.3632617,149.1652343,11022,0.02033967897295952,0.013758687302470207,-0.10137823224067688,-0.089427649974823,-0.061645690351724625,0.0264560766518116,6,-1,-999,-88,-61,25,-21,31,-148,56936.0
05:14:07.624,AUTO,-35.3632621,149.1652351,11402,0.0014342183712869883,0.0003201390500180423,-0.09585274010896683,-0.06543204188346863,-0.04311782494187355,0.018722595646977425,8,-2,-1003,-64,-42,18,-20,32,-149,56936.0
05:14:07.826,AUTO,-35.3632625,149.1652359,11785,-0.011735823936760426,-0.008099725469946861,-0.09269581735134125,-0.03679529204964638,-0.027717337012290955,0.008064063265919685,7,-3,-1005,-36,-27,7,-17,28,-150,56936.0
05:14:08.028,AUTO,-35.3632629,149.1652366,12171,-0.019218772649765015,-0.01328971516340971,-0.0924123078584671,-0.021839674562215805,-0.014133419841527939,-0.005120770540088415,6,-2,-1004,-21,-13,-5,-13,23,-151,56936.0
05:14:08.231,AUTO,-35.3632631,149.1652371,12559,-0.022577999159693718,-0.015653075650334358,-0.0950722023844719,-0.005040090996772051,-0.004741514567285776,-0.01581553928554058,4,-2,-1002,-4,-4,-16,-8,15,-152,56936.0
05:14:08.433,AUTO,-35.3632631,149.1652371,12559,-0.022577999159693718,-0.015653075650334358,-0.0950722023844719,-0.005040090996772051,-0.004741514567285776,-0.01581553928554058,4,-2,-1002,-4,-4,-16,-8,15,-152,56936.0
05:14:08.635,AUTO,-35.3632631,149.1652371,12559,-0.022577999159693718,-0.015653075650334358,-0.0950722023844719,-0.005040090996772051,-0.004741514567285776,-0.01581553928554058,4,-2,-1002,-4,-4,-16,-8,15,-152,56936.0
05:14:08.837,AUTO,-35.3632631,149.1652371,12559,-0.022577999159693718,-0.015653075650334358,-0.0950722023844719,-0.005040090996772051,-0.004741514567285776,-0.01581553928554058,4,-2,-1002,-4,-4,-16,-8,15,-152,56936.0
05:14:09.039,AUTO,-35.3632632,149.1652375,13727,-0.014787291176617146,-0.012731590308248997,-0.11390543729066849,0.02277679182589054,0.01207034196704626,-0.029713882133364677,0,0,-1001,23,12,-30,3,-3,-152,56936.0
05:14:09.241,AUTO,-35.3632631,149.1652374,14118,-0.009156018495559692,-0.009766309522092342,-0.12172525376081467,0.02229924127459526,0.012673983350396156,-0.02784937247633934,-1,0,-1000,22,13,-28,6,-6,-152,200.0
05:14:09.442,AUTO,-35.3632631,149.1652374,14118,-0.009156018495559692,-0.009766309522092342,-0.12172525376081467,0.02229924127459526,0.012673983350396156,-0.02784937247633934,-1,0,-1000,22,13,-28,6,-6,-152,200.0
05:14:09.644,AUTO,-35.363263,149.1652372,14508,-0.004288002848625183,-0.006521081551909447,-0.1293639987707138,0.01907411962747574,0.012684861198067665,-0.028165841475129128,-3,0,-1000,19,13,-28,7,-9,-152,200.0
05:14:09.846,AUTO,-35.3632628,149.1652369,14897,0.0003964848583564162,-0.003206734312698245,-0.1366768181324005,0.01826617866754532,0.014415010809898376,-0.02810780331492424,-3,0,-1000,18,14,-28,8,-10,-152,200.0
05:14:10.048,AUTO,-35.3632626,149.1652366,15286,0.004431010223925114,0.0004669785557780415,-0.1437990814447403,0.01583792269229889,0.014316328801214695,-0.028440043330192566,-3,0,-1000,16,15,-28,8,-10,-152,200.0
05:14:10.249,AUTO,-35.3632623,149.1652362,15676,0.007807260379195213,0.003678009146824479,-0.15024986863136292,0.008852913044393063,0.012488894164562225,-0.0239748302847147,-3,0,-999,9,13,-24,8,-9,-153,200.0
05:14:10.451,AUTO,-35.3632623,149.1652362,15676,0.007807260379195213,0.003678009146824479,-0.15024986863136292,0.008852913044393063,0.012488894164562225,-0.0239748302847147,-3,0,-999,9,13,-24,8,-9,-153,200.0
05:14:10.652,AUTO,-35.3632623,149.1652362,15676,0.007807260379195213,0.003678009146824479,-0.15024986863136292,0.008852913044393063,0.012488894164562225,-0.0239748302847147,-3,0,-999,9,13,-24,8,-9,-153,200.0
05:14:10.854,AUTO,-35.3632623,149.1652362,15676,0.007807260379195213,0.003678009146824479,-0.15024986863136292,0.008852913044393063,0.012488894164562225,-0.0239748302847147,-3,0,-999,9,13,-24,8,-9,-153,200.0
05:14:11.056,AUTO,-35.3632618,149.1652356,16846,0.011925742030143738,0.008955028839409351,-0.1645568609237671,0.00274504697881639,0.006068145390599966,-0.017185326665639877,-2,0,-1000,3,6,-17,4,-2,-152,200.0
05:14:11.257,AUTO,-35.3632617,149.1652355,17236,0.01160682924091816,0.009481959044933319,-0.16790854930877686,-0.0022877566516399384,0.0010576441418379545,-0.011111407540738583,-2,0,-1000,-1,1,-11,2,0,-152,200.0
05:14:11.459,AUTO,-35.3632617,149.1652355,17236,0.01160682924091816,0.009481959044933319,-0.16790854930877686,-0.0022877566516399384,0.0010576441418379545,-0.011111407540738583,-2,0,-1000,-1,1,-11,2,0,-152,200.0
05:14:11.661,AUTO,-35.3632616,149.1652354,17625,0.010406925342977047,0.009263169020414352,-0.17074814438819885,-0.003951643127948046,-0.00023691728711128235,-0.009462756104767323,-1,0,-999,-3,0,-9,1,1,-152,200.0
05:14:11.862,AUTO,-35.3632615,149.1652354,18022,0.00915027316659689,0.008777650073170662,-0.17340190708637238,-0.005196017678827047,-0.0033462706487625837,-0.008868605829775333,0,0,-1000,-4,-2,-9,0,3,-152,200.0
05:14:12.063,AUTO,-35.3632615,149.1652355,18411,0.008060958236455917,0.008258038200438023,-0.17622970044612885,-0.0017498824745416641,-0.0014215426053851843,-0.011582212522625923,0,0,-1000,0,0,-12,-1,5,-152,200.0
05:14:12.265,AUTO,-35.3632614,149.1652355,18800,0.006992944981902838,0.007598678581416607,-0.17907902598381042,-0.004152714274823666,-0.0020803501829504967,-0.011420583352446556,0,0,-1000,-3,-1,-12,-2,6,-152,200.0
05:14:12.474,AUTO,-35.3632614,149.1652355,18800,0.006992944981902838,0.007598678581416607,-0.17907902598381042,-0.004152714274823666,-0.0020803501829504967,-0.011420583352446556,0,0,-1000,-3,-1,-12,-2,6,-152,200.0
05:14:12.676,AUTO,-35.3632614,149.1652355,18800,0.006992944981902838,0.007598678581416607,-0.17907902598381042,-0.004152714274823666,-0.0020803501829504967,-0.011420583352446556,0,0,-1000,-3,-1,-12,-2,6,-152,200.0
05:14:12.877,AUTO,-35.3632614,149.1652355,18800,0.006992944981902838,0.007598678581416607,-0.17907902598381042,-0.004152714274823666,-0.0020803501829504967,-0.011420583352446556,0,0,-1000,-3,-1,-12,-2,6,-152,200.0
05:14:13.081,AUTO,-35.3632614,149.1652358,19959,0.003146269591525197,0.004895808175206184,-0.18828170001506805,-0.005218689329922199,-0.0013736539985984564,-0.0159597285091877,1,0,-1000,-4,0,-16,-3,7,-152,200.0
05:14:13.283,AUTO,-35.3632615,149.1652359,20348,0.002178929280489683,0.004408642649650574,-0.19214680790901184,-0.003773107659071684,-0.0012552764965221286,-0.016258275136351585,1,0,-1000,-3,0,-16,-3,7,-153,187787.0
05:14:13.485,AUTO,-35.3632615,149.1652361,20737,0.001377762295305729,0.0038127535954117775,-0.19616267085075378,-0.0020320313051342964,-0.0014764568768441677,-0.013660079799592495,1,0,-1000,-1,0,-14,-3,6,-153,187787.0
05:14:13.686,AUTO,-35.3632615,149.1652361,20737,0.001377762295305729,0.0038127535954117775,-0.19616267085075378,-0.0020320313051342964,-0.0014764568768441677,-0.013660079799592495,1,0,-1000,-1,0,-14,-3,6,-153,187787.0
05:14:13.888,AUTO,-35.3632615,149.1652362,21127,0.0007435327279381454,0.003414711682125926,-0.2005721777677536,-0.0008460803655907512,-0.00039962909067980945,-0.01743968203663826,0,0,-1000,0,0,-17,-3,6,-153,187787.0
05:14:14.091,AUTO,-35.3632616,149.1652363,21516,0.0007864965009503067,0.0030142837204039097,-0.2050418108701706,0.0021109331864863634,-0.001706642797216773,-0.018468383699655533,0,0,-1000,2,0,-18,-3,5,-153,187787.0
05:14:14.293,AUTO,-35.3632616,149.1652364,21906,0.0006369986804202199,0.0027746595442295074,-0.20980645716190338,-9.188952390104532e-06,0.0007433074642904103,-0.019517771899700165,0,0,-1000,1,1,-19,-3,5,-153,187787.0
05:14:14.495,AUTO,-35.3632616,149.1652364,21906,0.0006369986804202199,0.0027746595442295074,-0.20980645716190338,-9.188952390104532e-06,0.0007433074642904103,-0.019517771899700165,0,0,-1000,1,1,-19,-3,5,-153,187787.0
05:14:14.697,AUTO,-35.3632616,149.1652364,21906,0.0006369986804202199,0.0027746595442295074,-0.20980645716190338,-9.188952390104532e-06,0.0007433074642904103,-0.019517771899700165,0,0,-1000,1,1,-19,-3,5,-153,187787.0
05:14:14.899,AUTO,-35.3632616,149.1652364,21906,0.0006369986804202199,0.0027746595442295074,-0.20980645716190338,-9.188952390104532e-06,0.0007433074642904103,-0.019517771899700165,0,0,-1000,1,1,-19,-3,5,-153,187787.0
05:14:15.100,AUTO,-35.3632617,149.1652366,23081,0.00119215645827353,0.002197600668296218,-0.2242720127105713,0.0010509465355426073,-0.0005121516296640038,-0.02143038809299469,0,0,-1000,1,0,-21,-3,3,-153,187787.0
05:14:15.302,AUTO,-35.3632617,149.1652366,23471,0.001257275347597897,0.0022848425433039665,-0.22928369045257568,0.002288633259013295,0.000451522006187588,-0.020104344934225082,0,0,-1000,3,1,-20,-3,3,-153,187787.0
05:14:15.503,AUTO,-35.3632617,149.1652367,23860,0.0016897196182981133,0.002250105608254671,-0.23425430059432983,0.0014296381268650293,0.0010509379208087921,-0.020131928846240044,0,0,-1000,2,1,-20,-2,2,-153,187787.0
05:14:15.705,AUTO,-35.3632617,149.1652367,23860,0.0016897196182981133,0.002250105608254671,-0.23425430059432983,0.0014296381268650293,0.0010509379208087921,-0.020131928846240044,0,0,-1000,2,1,-20,-2,2,-153,187787.0
05:14:15.906,AUTO,-35.3632618,149.1652367,24250,0.0018165080109611154,0.002196062356233597,-0.2391267567873001,0.0022303357254713774,0.0004986174171790481,-0.020977290347218513,0,0,-1000,2,1,-21,-2,2,-153,187787.0
05:14:16.108,AUTO,-35.3632618,149.1652367,24640,0.0019518804037943482,0.002526248339563608,-0.24433761835098267,0.0031652904581278563,0.002175046829506755,-0.022158225998282433,0,0,-1000,4,2,-22,-2,2,-153,187787.0
05:14:16.311,AUTO,-35.3632618,149.1652367,25029,0.0023517992813140154,0.0028189709410071373,-0.24951490759849548,0.002730166306719184,0.00061886414187029,-0.020413868129253387,0,0,-1000,3,1,-20,-2,2,-153,187787.0
05:14:16.513,AUTO,-35.3632618,149.1652367,25029,0.0023517992813140154,0.0028189709410071373,-0.24951490759849548,0.002730166306719184,0.00061886414187029,-0.020413868129253387,0,0,-1000,3,1,-20,-2,2,-153,187787.0
05:14:16.714,AUTO,-35.3632618,149.1652367,25029,0.0023517992813140154,0.0028189709410071373,-0.24951490759849548,0.002730166306719184,0.00061886414187029,-0.020413868129253387,0,0,-1000,3,1,-20,-2,2,-153,187787.0
05:14:16.916,AUTO,-35.3632618,149.1652367,25029,0.0023517992813140154,0.0028189709410071373,-0.24951490759849548,0.002730166306719184,0.00061886414187029,-0.020413868129253387,0,0,-1000,3,1,-20,-2,2,-153,187787.0
05:14:17.118,AUTO,-35.3632619,149.1652366,26193,-2.963053157145623e-05,0.005117735359817743,-0.250171422958374,0.03312685340642929,-0.002272138837724924,0.01531596202403307,0,1,-1001,33,-1,14,-5,-2,-153,93949.0
05:14:17.319,AUTO,-35.363262,149.1652365,26582,0.007232757285237312,0.004442754667252302,-0.2450033724308014,0.025251995772123337,-0.00339938560500741,0.02443614788353443,0,1,-1000,26,-2,23,-5,-1,-153,93949.0
05:14:17.521,AUTO,-35.3632621,149.1652365,26975,0.0111487852409482,0.0030359309166669846,-0.23865820467472076,0.008839339017868042,-0.0043873717077076435,0.025302816182374954,0,1,-999,9,-3,24,-5,0,-153,93949.0
05:14:17.723,AUTO,-35.3632622,149.1652365,27364,0.0119929863139987,0.0019949807319790125,-0.23226995766162872,-0.002403146820142865,-0.005217801313847303,0.026469629257917404,0,0,-999,-1,-4,26,-4,2,-153,93949.0
05:14:17.926,AUTO,-35.3632622,149.1652365,27364,0.0119929863139987,0.0019949807319790125,-0.23226995766162872,-0.002403146820142865,-0.005217801313847303,0.026469629257917404,0,0,-999,-1,-4,26,-4,2,-153,93949.0
05:14:18.129,AUTO,-35.3632623,149.1652365,27752,0.011304235085844994,0.0014048551674932241,-0.22599461674690247,-0.0019205281278118491,-0.0009474426042288542,0.025691358372569084,0,0,-999,0,0,25,-3,5,-152,93949.0
05:14:18.332,AUTO,-35.3632623,149.1652366,28141,0.009873447939753532,0.0011234312551096082,-0.21997009217739105,-0.0076923375017941,0.0008192138629965484,0.024717997759580612,0,0,-999,-6,1,24,-3,7,-152,93949.0
05:14:18.534,AUTO,-35.3632623,149.1652366,28141,0.009873447939753532,0.0011234312551096082,-0.21997009217739105,-0.0076923375017941,0.0008192138629965484,0.024717997759580612,0,0,-999,-6,1,24,-3,7,-152,93949.0
05:14:18.735,AUTO,-35.3632623,149.1652366,28141,0.009873447939753532,0.0011234312551096082,-0.21997009217739105,-0.0076923375017941,0.0008192138629965484,0.024717997759580612,0,0,-999,-6,1,24,-3,7,-152,93949.0
05:14:18.937,AUTO,-35.3632623,149.1652366,28141,0.009873447939753532,0.0011234312551096082,-0.21997009217739105,-0.0076923375017941,0.0008192138629965484,0.024717997759580612,0,0,-999,-6,1,24,-3,7,-152,93949.0
05:14:19.139,AUTO,-35.3632624,149.1652371,29300,0.003568700747564435,0.0013403198681771755,-0.2037554383277893,-0.008067947812378407,0.00013248302275314927,0.022637702524662018,1,-1,-1000,-7,1,22,-1,9,-152,93949.0
05:14:19.340,AUTO,-35.3632623,149.1652373,29688,0.001993787009268999,0.0013347758213058114,-0.19858230650424957,-0.003250188659876585,0.0008210542146116495,0.021610653027892113,0,-1,-1000,-2,1,21,0,9,-152,93949.0
05:14:19.542,AUTO,-35.3632624,149.1652374,30075,0.0007843159255571663,0.0016418519662693143,-0.19348759949207306,-0.0050433180294930935,0.0010515309404581785,0.01979660429060459,1,-1,-1000,-4,2,19,0,8,-152,93949.0
05:14:19.743,AUTO,-35.3632624,149.1652376,30462,-0.0002395735209574923,0.0017812830628827214,-0.188801571726799,-0.0032217816915363073,0.00036116776755079627,0.018758945167064667,0,-1,-1000,-2,1,18,0,7,-152,93949.0
05:14:19.945,AUTO,-35.3632624,149.1652376,30462,-0.0002395735209574923,0.0017812830628827214,-0.188801571726799,-0.0032217816915363073,0.00036116776755079627,0.018758945167064667,0,-1,-1000,-2,1,18,0,7,-152,93949.0
05:14:20.147,AUTO,-35.3632624,149.1652377,30850,-0.0008043957641348243,0.0015050239162519574,-0.1845158487558365,0.0016234824433922768,-0.00040278793312609196,0.01846393011510372,0,-1,-1000,2,0,18,0,6,-153,93949.0
05:14:20.349,AUTO,-35.3632624,149.1652378,31236,-0.006481051445007324,0.006090245209634304,-0.1699191778898239,-0.06551342457532883,0.06009833887219429,0.14381973445415497,0,-2,-975,-64,60,143,0,5,-150,93949.0
05:14:20.550,AUTO,-35.3632624,149.1652378,31236,-0.006481051445007324,0.006090245209634304,-0.1699191778898239,-0.06551342457532883,0.06009833887219429,0.14381973445415497,0,-2,-975,-64,60,143,0,5,-150,93949.0
05:14:20.752,AUTO,-35.3632624,149.1652378,31236,-0.006481051445007324,0.006090245209634304,-0.1699191778898239,-0.06551342457532883,0.06009833887219429,0.14381973445415497,0,-2,-975,-64,60,143,0,5,-150,93949.0
05:14:20.954,AUTO,-35.3632624,149.1652378,31236,-0.006481051445007324,0.006090245209634304,-0.1699191778898239,-0.06551342457532883,0.06009833887219429,0.14381973445415497,0,-2,-975,-64,60,143,0,5,-150,93949.0
05:14:21.155,AUTO,-35.363263,149.1652373,32296,-0.056706205010414124,0.05387503281235695,0.13780733942985535,0.0754658579826355,-0.179714173078537,0.29280224442481995,4,6,-944,76,-178,292,-29,-24,-123,200.0
05:14:21.357,AUTO,-35.3632637,149.1652365,32593,-0.030036495998501778,0.005771694704890251,0.1833977848291397,0.11240174621343613,-0.18779459595680237,0.09854674339294434,3,8,-947,113,-187,98,-33,-34,-109,200.0
05:14:21.558,AUTO,-35.3632644,149.1652355,32857,-0.0015105970669537783,-0.029744375497102737,0.19391484558582306,0.10551777482032776,-0.10566148161888123,0.008558633737266064,2,9,-953,106,-104,8,-28,-34,-97,200.0
05:14:21.760,AUTO,-35.3632649,149.1652346,33091,0.02168153040111065,-0.04729338362812996,0.18917950987815857,0.08114555478096008,-0.043351564556360245,-0.03080594353377819,1,9,-960,81,-42,-31,-19,-28,-87,200.0
05:14:21.963,AUTO,-35.3632652,149.1652339,33300,0.03521840274333954,-0.05202602222561836,0.1792200803756714,0.02637440338730812,-0.0029910774901509285,-0.040094755589962006,0,5,-965,27,-2,-40,-8,-18,-77,200.0
05:14:22.165,AUTO,-35.3632652,149.1652339,33300,0.03521840274333954,-0.05202602222561836,0.1792200803756714,0.02637440338730812,-0.0029910774901509285,-0.040094755589962006,0,5,-965,27,-2,-40,-8,-18,-77,200.0
05:14:22.368,AUTO,-35.3632653,149.1652335,33486,0.0414411798119545,-0.04876160994172096,0.16948017477989197,0.02478911727666855,0.021549275144934654,-0.034150928258895874,0,3,-970,25,22,-34,1,-6,-69,200.0
05:14:22.569,AUTO,-35.3632653,149.1652335,33486,0.0414411798119545,-0.04876160994172096,0.16948017477989197,0.02478911727666855,0.021549275144934654,-0.034150928258895874,0,3,-970,25,22,-34,1,-6,-69,200.0
05:14:22.779,AUTO,-35.3632653,149.1652335,33486,0.0414411798119545,-0.04876160994172096,0.16948017477989197,0.02478911727666855,0.021549275144934654,-0.034150928258895874,0,3,-970,25,22,-34,1,-6,-69,200.0
05:14:22.981,AUTO,-35.3632646,149.1652339,33931,0.03257618471980095,-0.019668523222208023,0.15102431178092957,0.14928926527500153,0.04233735054731369,-0.013939517550170422,-3,1,-979,150,43,-13,21,21,-50,200.0
05:14:23.183,AUTO,-35.3632646,149.1652339,33931,0.03257618471980095,-0.019668523222208023,0.15102431178092957,0.14928926527500153,0.04233735054731369,-0.013939517550170422,-3,1,-979,150,43,-13,21,21,-50,200.0
05:14:23.385,AUTO,-35.3632641,149.1652344,34050,0.023140380159020424,-0.01019629742950201,0.14734861254692078,-0.30549395084381104,0.036635011434555054,-0.01186642050743103,-3,-25,-976,-304,37,-11,23,25,-44,200.0
05:14:23.586,AUTO,-35.3632635,149.1652351,34153,0.013108263723552227,-0.0018815528601408005,0.14381355047225952,-0.21302662789821625,0.02934904955327511,-0.007799571845680475,-3,-3,-972,-211,30,-7,23,28,-37,200.0
05:14:23.788,AUTO,-35.3632629,149.1652358,34238,0.01631055399775505,0.005563545506447554,0.14035171270370483,0.4943503737449646,0.024150002747774124,-0.00942173320800066,-2,16,-980,495,25,-9,22,28,-32,200.0
05:14:23.990,AUTO,-35.3632624,149.1652365,34311,0.011463293805718422,0.01084489282220602,0.13659578561782837,0.061334192752838135,0.019205598160624504,-0.009953073225915432,-2,-18,-974,61,20,-9,20,27,-26,200.0
05:14:24.192,AUTO,-35.3632624,149.1652365,34311,0.011463293805718422,0.01084489282220602,0.13659578561782837,0.061334192752838135,0.019205598160624504,-0.009953073225915432,-2,-18,-974,61,20,-9,20,27,-26,200.0
05:14:24.395,AUTO,-35.363262,149.1652371,34368,-0.003164485329762101,0.013827115297317505,0.13377109169960022,-0.5644774436950684,0.010687902569770813,-0.007492030505090952,0,-37,-975,-563,11,-7,17,24,-21,200.0
05:14:24.597,AUTO,-35.363262,149.1652371,34368,-0.003164485329762101,0.013827115297317505,0.13377109169960022,-0.5644774436950684,0.010687902569770813,-0.007492030505090952,0,-37,-975,-563,11,-7,17,24,-21,200.0
05:14:24.799,AUTO,-35.363262,149.1652371,34368,-0.003164485329762101,0.013827115297317505,0.13377109169960022,-0.5644774436950684,0.010687902569770813,-0.007492030505090952,0,-37,-975,-563,11,-7,17,24,-21,200.0
05:14:25.001,AUTO,-35.363261,149.1652386,34444,-0.00253686448559165,0.020360184833407402,0.1295500248670578,0.47887322306632996,0.17303116619586945,0.0038577252998948097,-7,17,-971,480,174,3,7,15,0,200.0
05:14:25.202,AUTO,-35.363261,149.1652386,34444,-0.00253686448559165,0.020360184833407402,0.1295500248670578,0.47887322306632996,0.17303116619586945,0.0038577252998948097,-7,17,-971,480,174,3,7,15,0,294610.0
05:14:25.404,AUTO,-35.3632609,149.1652388,34419,-0.02342262677848339,0.04022841155529022,0.12301886081695557,0.1799715757369995,-0.02548462338745594,0.019568385556340218,1,-15,-958,179,-24,19,0,6,15,294610.0
05:14:25.606,AUTO,-35.3632609,149.1652388,34376,-0.02125667594373226,0.013666775077581406,0.12087268382310867,-0.4761483371257782,-0.14389868080615997,0.0022357692942023277,2,-40,-1000,-476,-142,2,-5,-1,14,294610.0
05:14:25.807,AUTO,-35.3632609,149.1652387,34335,-0.01857677474617958,-0.01766848750412464,0.11956163495779037,-0.6984606385231018,-0.1049284115433693,-0.007868848741054535,-1,-26,-1025,-697,-103,-7,-4,-4,13,294610.0
05:14:26.010,AUTO,-35.3632609,149.1652387,34301,-0.009687084704637527,-0.04014778882265091,0.11721084266901016,-0.23355352878570557,-0.07611045241355896,-0.02045571431517601,-1,13,-1006,-231,-75,-20,3,-2,8,294610.0
05:14:26.212,AUTO,-35.3632609,149.1652387,34301,-0.009687084704637527,-0.04014778882265091,0.11721084266901016,-0.23355352878570557,-0.07611045241355896,-0.02045571431517601,-1,13,-1006,-231,-75,-20,3,-2,8,294610.0
05:14:26.413,AUTO,-35.3632608,149.1652385,34281,0.009000280871987343,-0.057623665779829025,0.11440445482730865,0.5443186163902283,-0.06220011040568352,-0.017078079283237457,-2,39,-1018,546,-60,-16,14,0,2,294610.0
05:14:26.615,AUTO,-35.3632608,149.1652385,34281,0.009000280871987343,-0.057623665779829025,0.11440445482730865,0.5443186163902283,-0.06220011040568352,-0.017078079283237457,-2,39,-1018,546,-60,-16,14,0,2,294610.0
05:14:26.818,AUTO,-35.3632608,149.1652385,34281,0.009000280871987343,-0.057623665779829025,0.11440445482730865,0.5443186163902283,-0.06220011040568352,-0.017078079283237457,-2,39,-1018,546,-60,-16,14,0,2,294610.0
05:14:27.020,AUTO,-35.3632583,149.1652384,34286,0.013318545185029507,-0.09785457700490952,0.18012608587741852,-0.5718196630477905,-0.07879025489091873,0.5468201041221619,-12,-33,-1018,-571,-78,546,64,11,-9,294610.0
05:14:27.224,AUTO,-35.3632567,149.1652385,34306,0.005089173559099436,-0.10963286459445953,0.31817251443862915,-0.14410695433616638,-0.04376830533146858,0.43525099754333496,-19,1,-1014,-142,-42,435,85,17,-12,294610.0
05:14:27.428,AUTO,-35.3632567,149.1652385,34306,0.005089173559099436,-0.10963286459445953,0.31817251443862915,-0.14410695433616638,-0.04376830533146858,0.43525099754333496,-19,1,-1014,-142,-42,435,85,17,-12,294610.0
05:14:27.630,AUTO,-35.3632546,149.1652389,34335,0.014850271865725517,-0.12128114700317383,0.383901447057724,0.49128130078315735,-0.049847040325403214,0.13988302648067474,-23,21,-1022,493,-49,139,106,25,-15,294610.0
05:14:27.832,AUTO,-35.363252,149.1652393,34371,0.018914980813860893,-0.13200558722019196,0.39397725462913513,0.15969906747341156,-0.045653630048036575,0.01702016033232212,-28,-20,-1006,160,-44,17,129,32,-17,294610.0
05:14:28.034,AUTO,-35.3632489,149.16524,34414,0.013222630135715008,-0.142363503575325,0.3806980550289154,-0.40348324179649353,-0.041225939989089966,-0.0455811507999897,-32,-33,-1021,-402,-40,-45,153,40,-20,294610.0
05:14:28.236,AUTO,-35.3632452,149.165241,34467,0.016176899895071983,-0.15267466008663177,0.36408039927482605,-0.0068460265174508095,-0.047546468675136566,-0.06305062025785446,-37,-10,-1007,-5,-46,-62,178,49,-23,294610.0
05:14:28.438,AUTO,-35.3632452,149.165241,34467,0.016176899895071983,-0.15267466008663177,0.36408039927482605,-0.0068460265174508095,-0.047546468675136566,-0.06305062025785446,-37,-10,-1007,-5,-46,-62,178,49,-23,294610.0
05:14:28.640,AUTO,-35.3632452,149.165241,34467,0.016176899895071983,-0.15267466008663177,0.36408039927482605,-0.0068460265174508095,-0.047546468675136566,-0.06305062025785446,-37,-10,-1007,-5,-46,-62,178,49,-23,294610.0
05:14:28.842,AUTO,-35.3632452,149.165241,34467,0.016176899895071983,-0.15267466008663177,0.36408039927482605,-0.0068460265174508095,-0.047546468675136566,-0.06305062025785446,-37,-10,-1007,-5,-46,-62,178,49,-23,294610.0
05:14:29.044,AUTO,-35.3632307,149.1652453,34669,0.020754925906658173,-0.18888254463672638,0.34522882103919983,-0.25586897134780884,-0.04121895879507065,0.004630323965102434,-54,-36,-1019,-254,-40,4,264,74,-33,294610.0
05:14:29.245,AUTO,-35.3632245,149.1652472,34755,0.02649175189435482,-0.1903539001941681,0.34411224722862244,0.1384742110967636,0.006132085341960192,0.0006470105145126581,-64,-23,-1028,139,7,0,294,83,-37,146636.0
05:14:29.447,AUTO,-35.3632245,149.1652472,34755,0.02649175189435482,-0.1903539001941681,0.34411224722862244,0.1384742110967636,0.006132085341960192,0.0006470105145126581,-64,-23,-1028,139,7,0,294,83,-37,146636.0
05:14:29.649,AUTO,-35.3632175,149.1652494,34855,0.029987825080752373,-0.1882641315460205,0.3437589108943939,-0.023370204493403435,-2.269633114337921e-05,0.015843575820326805,-70,-35,-1023,-22,0,15,323,91,-42,146636.0
05:14:29.851,AUTO,-35.36321,149.1652518,34966,0.029568593949079514,-0.1880125105381012,0.34255126118659973,-0.0776696726679802,0.0020818100310862064,-0.00659112399443984,-85,-44,-1025,-76,3,-6,351,98,-47,146636.0
05:14:30.053,AUTO,-35.3632019,149.1652544,35087,0.03454125300049782,-0.19120202958583832,0.3405472934246063,0.09235770255327225,-0.003166773822158575,-0.005385587923228741,-79,-34,-1017,93,-2,-5,377,105,-50,146636.0
05:14:30.255,AUTO,-35.3631932,149.1652573,35218,0.0341847687959671,-0.19275452196598053,0.3393945097923279,0.008917738683521748,-0.014265398494899273,0.006176390685141087,-101,-56,-1026,10,-13,6,403,112,-55,146636.0
05:14:30.457,AUTO,-35.3631932,149.1652573,35218,0.0341847687959671,-0.19275452196598053,0.3393945097923279,0.008917738683521748,-0.014265398494899273,0.006176390685141087,-101,-56,-1026,10,-13,6,403,112,-55,146636.0
05:14:30.659,AUTO,-35.3631932,149.1652573,35218,0.0341847687959671,-0.19275452196598053,0.3393945097923279,0.008917738683521748,-0.014265398494899273,0.006176390685141087,-101,-56,-1026,10,-13,6,403,112,-55,146636.0
05:14:30.861,AUTO,-35.3631932,149.1652573,35218,0.0341847687959671,-0.19275452196598053,0.3393945097923279,0.008917738683521748,-0.014265398494899273,0.006176390685141087,-101,-56,-1026,10,-13,6,403,112,-55,146636.0
05:14:31.062,AUTO,-35.3631637,149.165267,35669,0.035776395350694656,-0.18054433166980743,0.32540303468704224,-0.021945351734757423,0.07083186507225037,-0.02707640267908573,-90,-51,-1006,-20,71,-26,474,129,-63,146636.0
05:14:31.264,AUTO,-35.363153,149.1652705,35832,0.03497270122170448,-0.16489122807979584,0.3161690831184387,-0.015712913125753403,0.05094727501273155,-0.03303011134266853,-91,-37,-1003,-14,51,-32,489,132,-66,146636.0
05:14:31.466,AUTO,-35.363153,149.1652705,35832,0.03497270122170448,-0.16489122807979584,0.3161690831184387,-0.015712913125753403,0.05094727501273155,-0.03303011134266853,-91,-37,-1003,-14,51,-32,489,132,-66,146636.0
05:14:31.668,AUTO,-35.3631418,149.1652741,36003,0.03660400211811066,-0.15171758830547333,0.30269163846969604,0.015276318415999413,0.039252638816833496,-0.060991860926151276,-108,-45,-1010,16,40,-60,502,132,-70,146636.0
05:14:31.869,AUTO,-35.3631304,149.1652777,36183,0.04213159158825874,-0.1406300663948059,0.2830384373664856,0.008842498995363712,0.057430993765592575,-0.08043430000543594,-103,-51,-1016,10,58,-80,516,133,-73,146636.0
05:14:32.071,AUTO,-35.3631187,149.1652813,36369,0.04748956486582756,-0.14221274852752686,0.2591726779937744,0.00861639715731144,-0.1415770798921585,-0.10053238272666931,-100,-49,-973,9,-140,-100,525,134,-73,146636.0
05:14:32.273,AUTO,-35.3631068,149.1652848,36540,0.05774734541773796,-0.19601264595985413,0.2281581312417984,0.029012983664870262,-0.24703077971935272,-0.11452432721853256,-112,-58,-912,30,-246,-114,537,134,-58,146636.0
05:14:32.475,AUTO,-35.3631068,149.1652848,36540,0.05774734541773796,-0.19601264595985413,0.2281581312417984,0.029012983664870262,-0.24703077971935272,-0.11452432721853256,-112,-58,-912,30,-246,-114,537,134,-58,146636.0
05:14:32.686,AUTO,-35.3631068,149.1652848,36540,0.05774734541773796,-0.19601264595985413,0.2281581312417984,0.029012983664870262,-0.24703077971935272,-0.11452432721853256,-112,-58,-912,30,-246,-114,537,134,-58,146636.0
05:14:32.888,AUTO,-35.3631068,149.1652848,36540,0.05774734541773796,-0.19601264595985413,0.2281581312417984,0.029012983664870262,-0.24703077971935272,-0.11452432721853256,-112,-58,-912,30,-246,-114,537,134,-58,146636.0
05:14:33.090,AUTO,-35.3630677,149.1652964,36704,0.09756730496883392,-0.2679704427719116,0.11235740035772324,-0.03181116655468941,0.09350152313709259,-0.15616600215435028,-107,-75,-940,-30,94,-155,628,157,14,146636.0
05:14:33.292,AUTO,-35.3630534,149.1653007,36665,0.10932810604572296,-0.24531340599060059,0.06647256761789322,-0.004427068401128054,0.09339895844459534,-0.19218619167804718,-118,-91,-986,-2,94,-191,657,162,20,200.0
05:14:33.494,AUTO,-35.3630382,149.1653052,36621,0.11821021139621735,-0.20231442153453827,0.017470955848693848,-0.022883549332618713,0.19347919523715973,-0.22006967663764954,-108,-96,-1039,-21,194,-219,687,167,15,200.0
05:14:33.697,AUTO,-35.3630382,149.1653052,36621,0.11821021139621735,-0.20231442153453827,0.017470955848693848,-0.022883549332618713,0.19347919523715973,-0.22006967663764954,-108,-96,-1039,-21,194,-219,687,167,15,200.0
05:14:33.899,AUTO,-35.3630226,149.1653099,36609,0.122617207467556,-0.15034008026123047,-0.028981272131204605,-0.007951796054840088,0.17133629322052002,-0.17533710598945618,-142,-100,-1071,-6,172,-174,701,173,-2,200.0
05:14:34.102,AUTO,-35.3630066,149.1653147,36653,0.1200176402926445,-0.09591000527143478,-0.05848611891269684,-0.05816575512290001,0.14773327112197876,-0.1236049011349678,-116,-138,-1101,-56,148,-123,704,176,-29,200.0
05:14:34.304,AUTO,-35.3629909,149.1653196,36776,0.10525458306074142,-0.02992784045636654,-0.07091352343559265,-0.07360530644655228,0.29836320877075195,-0.04332171007990837,-140,-116,-1172,-72,299,-42,691,177,-67,200.0
05:14:34.506,AUTO,-35.3629909,149.1653196,36776,0.10525458306074142,-0.02992784045636654,-0.07091352343559265,-0.07360530644655228,0.29836320877075195,-0.04332171007990837,-140,-116,-1172,-72,299,-42,691,177,-67,200.0
05:14:34.708,AUTO,-35.3629909,149.1653196,36776,0.10525458306074142,-0.02992784045636654,-0.07091352343559265,-0.07360530644655228,0.29836320877075195,-0.04332171007990837,-140,-116,-1172,-72,299,-42,691,177,-67,200.0
05:14:34.911,AUTO,-35.3629909,149.1653196,36776,0.10525458306074142,-0.02992784045636654,-0.07091352343559265,-0.07360530644655228,0.29836320877075195,-0.04332171007990837,-140,-116,-1172,-72,299,-42,691,177,-67,200.0
05:14:35.113,AUTO,-35.3629474,149.165334,37577,0.10822182893753052,-0.03446952626109123,-0.06488942354917526,0.029689474031329155,-0.10988607257604599,0.06196102499961853,-95,-88,-960,31,-108,62,610,175,-112,200.0
05:14:35.314,AUTO,-35.3629336,149.1653388,37851,0.10942351073026657,-0.07149996608495712,-0.04939214885234833,-0.010304261930286884,-0.10132153332233429,0.06965117901563644,-101,-104,-943,-8,-100,70,599,176,-100,200.0
05:14:35.516,AUTO,-35.36292,149.1653435,38093,0.1149456799030304,-0.08797293901443481,-0.03213147073984146,0.06464480608701706,0.0109793022274971,0.049012623727321625,-100,-93,-953,66,11,49,597,173,-89,200.0
05:14:35.718,AUTO,-35.3629064,149.1653483,38309,0.10760873556137085,-0.10975196957588196,-0.020079798996448517,-0.03450898081064224,-0.10089698433876038,0.05444511026144028,-106,-102,-952,-33,-99,54,597,177,-78,200.0
05:14:35.920,AUTO,-35.3629064,149.1653483,38309,0.10760873556137085,-0.10975196957588196,-0.020079798996448517,-0.03450898081064224,-0.10089698433876038,0.05444511026144028,-106,-102,-952,-33,-99,54,597,177,-78,200.0
05:14:36.122,AUTO,-35.3628928,149.1653531,38501,0.10094981640577316,-0.12643705308437347,-0.00902173388749361,-0.028930017724633217,-0.04383985325694084,0.04445112496614456,-70,-92,-939,-27,-42,44,603,177,-68,200.0
05:14:36.326,AUTO,-35.3628792,149.1653579,38671,0.09581587463617325,-0.13588109612464905,-0.0005803494132123888,-0.0005798892816528678,-0.027274154126644135,0.03201460465788841,-97,-103,-958,0,-26,32,608,175,-61,200.0
05:14:36.529,AUTO,-35.3628792,149.1653579,38671,0.09581587463617325,-0.13588109612464905,-0.0005803494132123888,-0.0005798892816528678,-0.027274154126644135,0.03201460465788841,-97,-103,-958,0,-26,32,608,175,-61,200.0
05:14:36.731,AUTO,-35.3628792,149.1653579,38671,0.09581587463617325,-0.13588109612464905,-0.0005803494132123888,-0.0005798892816528678,-0.027274154126644135,0.03201460465788841,-97,-103,-958,0,-26,32,608,175,-61,200.0
05:14:36.933,AUTO,-35.3628792,149.1653579,38671,0.09581587463617325,-0.13588109612464905,-0.0005803494132123888,-0.0005798892816528678,-0.027274154126644135,0.03201460465788841,-97,-103,-958,0,-26,32,608,175,-61,200.0
05:14:37.135,AUTO,-35.3628371,149.1653724,39100,0.08865400403738022,-0.14353494346141815,0.017262052744627,-0.006274170242249966,-0.008169210515916348,0.014323411509394646,-134,-93,-982,-4,-7,14,631,172,-50,200.0
05:14:37.337,AUTO,-35.3628228,149.1653772,39228,0.0904896929860115,-0.14270487427711487,0.021404560655355453,0.013819151557981968,0.011837414465844631,0.009625556878745556,-142,-102,-996,15,12,10,636,169,-50,197244.0
05:14:37.538,AUTO,-35.3628083,149.1653818,39353,0.09649164974689484,-0.13881248235702515,0.025248190388083458,0.08523491024971008,0.045278020203113556,0.005058382637798786,-116,-98,-990,86,46,5,645,167,-49,197244.0
05:14:37.740,AUTO,-35.3627935,149.1653866,39477,0.09640001505613327,-0.13838030397891998,0.03035162389278412,0.01003511156886816,-0.008809957653284073,0.026906387880444527,-130,-102,-995,11,-7,27,651,169,-49,197244.0
05:14:37.942,AUTO,-35.3627935,149.1653866,39477,0.09640001505613327,-0.13838030397891998,0.03035162389278412,0.01003511156886816,-0.008809957653284073,0.026906387880444527,-130,-102,-995,11,-7,27,651,169,-49,197244.0
05:14:38.144,AUTO,-35.3627787,149.1653913,39602,0.09835081547498703,-0.13719482719898224,0.03481389209628105,-0.0023490209132432938,0.004669808782637119,0.01763305440545082,-109,-105,-985,0,5,18,657,170,-48,197244.0
05:14:38.346,AUTO,-35.3627639,149.165396,39727,0.10017980635166168,-0.13670510053634644,0.03970877453684807,0.03187090903520584,0.0026731977704912424,0.01854315958917141,-125,-104,-987,33,3,18,662,170,-49,197244.0
05:14:38.548,AUTO,-35.3627639,149.165396,39727,0.10017980635166168,-0.13670510053634644,0.03970877453684807,0.03187090903520584,0.0026731977704912424,0.01854315958917141,-125,-104,-987,33,3,18,662,170,-49,197244.0
05:14:38.750,AUTO,-35.3627639,149.165396,39727,0.10017980635166168,-0.13670510053634644,0.03970877453684807,0.03187090903520584,0.0026731977704912424,0.01854315958917141,-125,-104,-987,33,3,18,662,170,-49,197244.0
05:14:38.952,AUTO,-35.3627639,149.165396,39727,0.10017980635166168,-0.13670510053634644,0.03970877453684807,0.03187090903520584,0.0026731977704912424,0.01854315958917141,-125,-104,-987,33,3,18,662,170,-49,197244.0
05:14:39.154,AUTO,-35.3627188,149.1654103,40116,0.09780635684728622,-0.10393747687339783,0.058080416172742844,-0.01572520285844803,0.08912794291973114,0.006599907763302326,-103,-108,-1024,-13,90,6,669,175,-59,197244.0
05:14:39.355,AUTO,-35.3627037,149.1654151,40282,0.09594156593084335,-0.07833095639944077,0.061784155666828156,-0.018361082300543785,0.059288859367370605,0.003948496654629707,-125,-102,-1045,-16,60,4,663,174,-72,197244.0
05:14:39.557,AUTO,-35.3626889,149.1654199,40480,0.08534258604049683,-0.06769092381000519,0.06558690220117569,-0.030445538461208344,0.04847795143723488,0.018103333190083504,-105,-101,-1032,-28,49,18,653,174,-83,197244.0
05:14:39.759,AUTO,-35.3626743,149.1654247,40706,0.08679791539907455,-0.05005815625190735,0.07070239633321762,0.00968328956514597,0.05734242498874664,0.011852877214550972,-123,-101,-1041,11,58,12,640,171,-94,197244.0
05:14:39.961,AUTO,-35.3626743,149.1654247,40706,0.08679791539907455,-0.05005815625190735,0.07070239633321762,0.00968328956514597,0.05734242498874664,0.011852877214550972,-123,-101,-1041,11,58,12,640,171,-94,197244.0
05:14:40.162,AUTO,-35.3626599,149.1654294,40962,0.08022123575210571,-0.040631167590618134,0.07585659623146057,-0.01765326038002968,0.02044844813644886,0.018694300204515457,-119,-84,-1021,-16,21,19,623,169,-103,197244.0
05:14:40.365,AUTO,-35.3626461,149.165434,41238,0.07693660259246826,-0.037533070892095566,0.08165570348501205,-0.051758140325546265,0.036874838173389435,0.021214429289102554,-112,-90,-1021,-50,37,21,605,165,-110,197244.0
05:14:40.566,AUTO,-35.3626461,149.165434,41238,0.07693660259246826,-0.037533070892095566,0.08165570348501205,-0.051758140325546265,0.036874838173389435,0.021214429289102554,-112,-90,-1021,-50,37,21,605,165,-110,197244.0
05:14:40.768,AUTO,-35.3626461,149.165434,41238,0.07693660259246826,-0.037533070892095566,0.08165570348501205,-0.051758140325546265,0.036874838173389435,0.021214429289102554,-112,-90,-1021,-50,37,21,605,165,-110,197244.0
05:14:40.970,AUTO,-35.3626461,149.165434,41238,0.07693660259246826,-0.037533070892095566,0.08165570348501205,-0.051758140325546265,0.036874838173389435,0.021214429289102554,-112,-90,-1021,-50,37,21,605,165,-110,197244.0
05:14:41.172,AUTO,-35.3626073,149.1654469,42154,0.06899819523096085,-0.015322869643568993,0.09545557200908661,0.005915153305977583,0.05049992725253105,0.013630651868879795,-114,-93,-1020,7,51,14,547,150,-127,197244.0
05:14:41.373,AUTO,-35.3625952,149.165451,42488,0.061807937920093536,-0.006918532308191061,0.10005149990320206,-0.02062012068927288,0.02909521572291851,0.02044782042503357,-114,-96,-1025,-18,30,20,524,145,-132,214451.0
