time_stamp,MODE,lat,lon,relative_alt,roll,pitch,yaw,rollspeed,pitchspeed,yawspeed,xacc,yacc,zacc,xgyro,ygyro,zgyro,vx,vy,vz,RTL_ALT
05:39:19.978,STABILIZE,-35.3632621,149.1652374,0,-8.070789772318676e-05,0.0013666877057403326,0.028534872457385063,0.0002687255619093776,0.0002763770171441138,0.002429589629173279,0,1,-1000,0,0,0,0,0,0,94214.0
05:39:20.179,STABILIZE,-35.3632621,149.1652374,0,-8.070789772318676e-05,0.0013666877057403326,0.028534872457385063,0.0002687255619093776,0.0002763770171441138,0.002429589629173279,0,1,-1000,0,0,0,0,0,0,94214.0
05:39:20.380,STABILIZE,-35.3632621,149.1652374,0,-8.070789772318676e-05,0.0013666877057403326,0.028534872457385063,0.0002687255619093776,0.0002763770171441138,0.002429589629173279,0,1,-1000,0,0,0,0,0,0,94214.0
05:39:20.581,STABILIZE,-35.3632621,149.1652374,0,2.6807678295881487e-05,0.0015489977085962892,0.028029825538396835,0.0002037023368757218,0.00015542752225883305,0.0023415079340338707,0,1,-1000,0,0,0,-1,0,0,94214.0
05:39:20.781,STABILIZE,-35.3632621,149.1652374,0,2.6807678295881487e-05,0.0015489977085962892,0.028029825538396835,0.0002037023368757218,0.00015542752225883305,0.0023415079340338707,0,1,-1000,0,0,0,-1,0,0,94214.0
05:39:20.982,STABILIZE,-35.3632621,149.1652374,0,4.791981336893514e-05,0.0015871523646637797,0.02787146158516407,0.00025344034656882286,0.0002634415286593139,0.002338917925953865,0,1,-1000,0,0,0,-1,1,0,94214.0
05:39:21.183,STABILIZE,-35.3632621,149.1652374,0,4.791981336893514e-05,0.0015871523646637797,0.02787146158516407,0.00025344034656882286,0.0002634415286593139,0.002338917925953865,0,1,-1000,0,0,0,-1,1,0,94214.0
05:39:21.384,STABILIZE,-35.3632621,149.1652374,0,4.791981336893514e-05,0.0015871523646637797,0.02787146158516407,0.00025344034656882286,0.0002634415286593139,0.002338917925953865,0,1,-1000,0,0,0,-1,1,0,94214.0
05:39:21.586,STABILIZE,-35.3632621,149.1652374,0,4.791981336893514e-05,0.0015871523646637797,0.02787146158516407,0.00025344034656882286,0.0002634415286593139,0.002338917925953865,0,1,-1000,0,0,0,-1,1,0,94214.0
05:39:21.787,STABILIZE,-35.3632621,149.1652374,0,4.791981336893514e-05,0.0015871523646637797,0.02787146158516407,0.00025344034656882286,0.0002634415286593139,0.002338917925953865,0,1,-1000,0,0,0,-1,1,0,94214.0
05:39:21.988,STABILIZE,-35.3632621,149.1652374,0,4.791981336893514e-05,0.0015871523646637797,0.02787146158516407,0.00025344034656882286,0.0002634415286593139,0.002338917925953865,0,1,-1000,0,0,0,-1,1,0,94214.0
05:39:22.190,STABILIZE,-35.3632621,149.1652374,0,-1.9705345039255917e-05,0.0015779900131747127,0.027037138119339943,0.0003687150601763278,0.00035903952084481716,0.0022471530828624964,0,1,-1000,0,0,0,-1,1,0,94214.0
05:39:22.391,STABILIZE,-35.3632621,149.1652374,0,-1.9705345039255917e-05,0.0015779900131747127,0.027037138119339943,0.0003687150601763278,0.00035903952084481716,0.0022471530828624964,0,1,-1000,0,0,0,-1,1,0,94214.0
05:39:22.593,STABILIZE,-35.3632622,149.1652375,0,0.00014950895274523646,0.0014783676015213132,0.02671726420521736,0.00020647223573178053,0.00021261084475554526,0.002224508672952652,0,1,-1000,0,0,0,-2,2,1,94214.0
05:39:22.794,STABILIZE,-35.3632622,149.1652375,0,0.00014950895274523646,0.0014783676015213132,0.02671726420521736,0.00020647223573178053,0.00021261084475554526,0.002224508672952652,0,1,-1000,0,0,0,-2,2,1,94214.0
05:39:22.995,STABILIZE,-35.3632622,149.1652375,0,0.00014950895274523646,0.0014783676015213132,0.02671726420521736,0.00020647223573178053,0.00021261084475554526,0.002224508672952652,0,1,-1000,0,0,0,-2,2,1,94214.0
05:39:23.197,STABILIZE,-35.3632622,149.1652375,0,0.00014950895274523646,0.0014783676015213132,0.02671726420521736,0.00020647223573178053,0.00021261084475554526,0.002224508672952652,0,1,-1000,0,0,0,-2,2,1,94214.0
05:39:23.399,STABILIZE,-35.3632622,149.1652375,0,0.00014950895274523646,0.0014783676015213132,0.02671726420521736,0.00020647223573178053,0.00021261084475554526,0.002224508672952652,0,1,-1000,0,0,0,-2,2,1,94214.0
05:39:23.610,STABILIZE,-35.3632622,149.1652375,0,0.00014950895274523646,0.0014783676015213132,0.02671726420521736,0.00020647223573178053,0.00021261084475554526,0.002224508672952652,0,1,-1000,0,0,0,-2,2,1,94214.0
05:39:23.821,STABILIZE,-35.3632622,149.1652375,0,-0.00040375470416620374,0.0012136767618358135,0.026009058579802513,0.00018052136874757707,0.0002284952497575432,0.0020738127641379833,0,1,-1000,0,0,0,-1,2,1,94214.0
05:39:24.023,STABILIZE,-35.3632622,149.1652375,0,-0.00040375470416620374,0.0012136767618358135,0.026009058579802513,0.00018052136874757707,0.0002284952497575432,0.0020738127641379833,0,1,-1000,0,0,0,-1,2,1,94214.0
05:39:24.224,STABILIZE,-35.3632622,149.1652375,0,-0.00040375470416620374,0.0012136767618358135,0.026009058579802513,0.00018052136874757707,0.0002284952497575432,0.0020738127641379833,0,1,-1000,0,0,1,-1,1,1,94214.0
05:39:24.426,STABILIZE,-35.3632622,149.1652375,0,-0.0005675457650795579,0.001124758506193757,0.025783158838748932,0.00013433455023914576,0.0003206462715752423,0.0020039312075823545,0,1,-1000,0,0,1,-1,1,1,94214.0
05:39:24.627,STABILIZE,-35.3632622,149.1652375,0,-0.0006492146058008075,0.001082406030036509,0.025666091591119766,0.0002152005909010768,0.00032267800997942686,0.002049827016890049,0,1,-1000,0,0,0,-1,1,1,94214.0
05:39:24.829,STABILIZE,-35.3632622,149.1652375,0,-0.0006492146058008075,0.001082406030036509,0.025666091591119766,0.0002152005909010768,0.00032267800997942686,0.002049827016890049,0,1,-1000,0,0,0,-1,1,1,94214.0
05:39:25.032,STABILIZE,-35.3632622,149.1652375,0,-0.0006492146058008075,0.001082406030036509,0.025666091591119766,0.0002152005909010768,0.00032267800997942686,0.002049827016890049,0,1,-1000,0,0,0,-1,1,1,94214.0
05:39:25.233,STABILIZE,-35.3632622,149.1652375,0,-0.0006492146058008075,0.001082406030036509,0.025666091591119766,0.0002152005909010768,0.00032267800997942686,0.002049827016890049,0,1,-1000,0,0,0,-1,1,1,94214.0
05:39:25.435,STABILIZE,-35.3632622,149.1652375,0,-0.0006492146058008075,0.001082406030036509,0.025666091591119766,0.0002152005909010768,0.00032267800997942686,0.002049827016890049,0,1,-1000,0,0,0,-1,1,1,94214.0
05:39:25.636,STABILIZE,-35.3632622,149.1652375,0,-0.0006492146058008075,0.001082406030036509,0.025666091591119766,0.0002152005909010768,0.00032267800997942686,0.002049827016890049,0,1,-1000,0,0,0,-1,1,1,94214.0
05:39:25.838,STABILIZE,-35.3632622,149.1652375,0,-0.0006492146058008075,0.001082406030036509,0.025666091591119766,0.0002152005909010768,0.00032267800997942686,0.002049827016890049,0,1,-1000,0,0,0,-1,1,1,94214.0
05:39:26.039,STABILIZE,-35.3632622,149.1652375,0,-0.0006492146058008075,0.001082406030036509,0.025666091591119766,0.0002152005909010768,0.00032267800997942686,0.002049827016890049,0,1,-1000,0,0,0,-1,1,1,94214.0
05:39:26.241,STABILIZE,-35.3632622,149.1652375,0,-0.0006492146058008075,0.001082406030036509,0.025666091591119766,0.0002152005909010768,0.00032267800997942686,0.002049827016890049,0,1,-1000,0,0,0,-1,1,1,94214.0
05:39:26.442,STABILIZE,-35.3632621,149.1652375,0,-0.0007935874164104462,0.0009123272029682994,0.025003373622894287,0.00016576622147113085,0.00023493589833378792,0.0019741011783480644,0,1,-1000,0,0,0,-1,2,3,94214.0
05:39:26.643,STABILIZE,-35.3632621,149.1652375,0,-0.0008859641966409981,0.0009026916231960058,0.02491513453423977,0.00011787889525294304,0.0002720169723033905,0.0019712389912456274,0,1,-1000,0,0,0,-1,2,3,94214.0
05:39:26.845,STABILIZE,-35.3632621,149.1652375,0,-0.0008859641966409981,0.0009026916231960058,0.02491513453423977,0.00011787889525294304,0.0002720169723033905,0.0019712389912456274,0,1,-1000,0,0,1,-1,2,2,94214.0
05:39:27.046,STABILIZE,-35.3632621,149.1652375,0,-0.0008859641966409981,0.0009026916231960058,0.02491513453423977,0.00011787889525294304,0.0002720169723033905,0.0019712389912456274,0,1,-1000,0,0,1,-1,2,2,94214.0
05:39:27.247,STABILIZE,-35.3632621,149.1652375,0,-0.0008859641966409981,0.0009026916231960058,0.02491513453423977,0.00011787889525294304,0.0002720169723033905,0.0019712389912456274,0,1,-1000,0,0,1,-1,2,2,94214.0
05:39:27.449,STABILIZE,-35.3632621,149.1652375,0,-0.0008859641966409981,0.0009026916231960058,0.02491513453423977,0.00011787889525294304,0.0002720169723033905,0.0019712389912456274,0,1,-1000,0,0,1,-1,2,2,94214.0
05:39:27.652,STABILIZE,-35.3632621,149.1652375,0,-0.0008859641966409981,0.0009026916231960058,0.02491513453423977,0.00011787889525294304,0.0002720169723033905,0.0019712389912456274,0,1,-1000,0,0,1,-1,2,2,94214.0
05:39:27.853,STABILIZE,-35.3632621,149.1652375,0,-0.0008859641966409981,0.0009026916231960058,0.02491513453423977,0.00011787889525294304,0.0002720169723033905,0.0019712389912456274,0,1,-1000,0,0,1,-1,2,2,94214.0
05:39:28.056,STABILIZE,-35.3632621,149.1652375,0,-0.0008859641966409981,0.0009026916231960058,0.02491513453423977,0.00011787889525294304,0.0002720169723033905,0.0019712389912456274,0,1,-1000,0,1,1,-1,1,1,94214.0
05:39:28.257,STABILIZE,-35.3632621,149.1652375,0,-0.0008859641966409981,0.0009026916231960058,0.02491513453423977,0.00011787889525294304,0.0002720169723033905,0.0019712389912456274,0,1,-1000,0,1,1,-1,1,1,94214.0
05:39:28.458,STABILIZE,-35.3632621,149.1652375,0,-0.0008859641966409981,0.0009026916231960058,0.02491513453423977,0.00011787889525294304,0.0002720169723033905,0.0019712389912456274,0,1,-1000,0,0,1,-1,1,1,94214.0
05:39:28.660,STABILIZE,-35.3632621,149.1652375,0,-0.0012665516696870327,0.0009054073016159236,0.024310143664479256,0.000277155835647136,0.0002709761029109359,0.0018462114967405796,0,1,-1000,0,0,0,-1,0,1,94214.0
05:39:28.861,STABILIZE,-35.3632621,149.1652375,0,-0.0012845329474657774,0.0009113086853176355,0.02423848584294319,0.0002447427250444889,0.00027312885504215956,0.0017778963083401322,0,1,-1000,0,0,0,-1,0,1,94214.0
05:39:29.062,STABILIZE,-35.3632621,149.1652375,0,-0.0009736398351378739,0.0009297855431213975,0.02417062595486641,0.004255635663866997,0.00027511577354744077,0.001879385905340314,0,25,-964,4,0,0,-1,1,2,94214.0
05:39:29.264,STABILIZE,-35.3632621,149.1652375,0,-0.0009736398351378739,0.0009297855431213975,0.02417062595486641,0.004255635663866997,0.00027511577354744077,0.001879385905340314,0,25,-964,4,0,0,-1,1,2,94214.0
05:39:29.466,STABILIZE,-35.3632621,149.1652375,0,-0.0009736398351378739,0.0009297855431213975,0.02417062595486641,0.004255635663866997,0.00027511577354744077,0.001879385905340314,0,25,-964,4,0,0,-1,1,2,94214.0
05:39:29.668,STABILIZE,-35.3632621,149.1652375,0,-0.0009736398351378739,0.0009297855431213975,0.02417062595486641,0.004255635663866997,0.00027511577354744077,0.001879385905340314,0,25,-964,4,0,0,-1,1,2,94214.0
05:39:29.869,STABILIZE,-35.3632621,149.1652375,0,-0.0009736398351378739,0.0009297855431213975,0.02417062595486641,0.004255635663866997,0.00027511577354744077,0.001879385905340314,0,25,-964,4,0,0,-1,1,2,94214.0
05:39:30.071,STABILIZE,-35.3632621,149.1652375,0,-0.0011082529090344906,0.0009552850387990475,0.023907627910375595,0.000303230423014611,0.00011884962441399693,0.0017558543477207422,0,1,-1000,0,0,1,-1,1,2,94214.0
05:39:30.273,STABILIZE,-35.3632621,149.1652375,0,-0.0011082529090344906,0.0009552850387990475,0.023907627910375595,0.000303230423014611,0.00011884962441399693,0.0017558543477207422,0,1,-1000,0,0,1,-1,1,2,94214.0
05:39:30.474,STABILIZE,-35.3632621,149.1652375,0,-0.0011082529090344906,0.0009552850387990475,0.023907627910375595,0.000303230423014611,0.00011884962441399693,0.0017558543477207422,0,1,-1000,0,0,1,-1,1,2,94214.0
05:39:30.676,STABILIZE,-35.3632621,149.1652375,0,-0.0011082529090344906,0.0009552850387990475,0.023907627910375595,0.000303230423014611,0.00011884962441399693,0.0017558543477207422,0,1,-1000,0,0,0,-1,1,2,94214.0
05:39:30.878,STABILIZE,-35.3632621,149.1652375,0,-0.0011082529090344906,0.0009552850387990475,0.023907627910375595,0.000303230423014611,0.00011884962441399693,0.0017558543477207422,0,1,-1000,0,0,0,-1,1,2,94214.0
05:39:31.079,STABILIZE,-35.3632622,149.1652375,0,-0.0012143183266744018,0.0009729877347126603,0.023664899170398712,5.641422467306256e-05,0.0003394375671632588,0.0017425746191293001,0,1,-1000,0,0,0,-1,1,1,94214.0
05:39:31.280,STABILIZE,-35.3632622,149.1652375,0,-0.0012143183266744018,0.0009729877347126603,0.023664899170398712,5.641422467306256e-05,0.0003394375671632588,0.0017425746191293001,0,1,-1000,0,0,0,-1,1,1,94214.0
05:39:31.482,STABILIZE,-35.3632622,149.1652375,0,-0.0012143183266744018,0.0009729877347126603,0.023664899170398712,5.641422467306256e-05,0.0003394375671632588,0.0017425746191293001,0,1,-1000,0,0,0,-1,1,1,94214.0
05:39:31.683,STABILIZE,-35.3632622,149.1652375,0,-0.0012143183266744018,0.0009729877347126603,0.023664899170398712,5.641422467306256e-05,0.0003394375671632588,0.0017425746191293001,0,1,-1000,0,0,0,-1,1,1,94214.0
05:39:31.884,STABILIZE,-35.3632622,149.1652375,0,-0.0012598334578797221,0.000984261860139668,0.023473404347896576,0.00021742557873949409,0.0003387870383448899,0.001780104823410511,0,1,-1000,1,0,0,-1,0,0,94214.0
05:39:32.086,STABILIZE,-35.3632622,149.1652375,0,-0.0012598334578797221,0.000984261860139668,0.023473404347896576,0.00021742557873949409,0.0003387870383448899,0.001780104823410511,0,1,-1000,0,0,1,-1,0,0,94214.0
05:39:32.287,STABILIZE,-35.3632622,149.1652375,0,-0.0012598334578797221,0.000984261860139668,0.023473404347896576,0.00021742557873949409,0.0003387870383448899,0.001780104823410511,0,1,-1000,0,0,1,-1,0,0,94214.0
05:39:32.490,STABILIZE,-35.3632622,149.1652375,0,-0.0012598334578797221,0.000984261860139668,0.023473404347896576,0.00021742557873949409,0.0003387870383448899,0.001780104823410511,0,1,-1000,0,0,1,-1,0,0,94214.0
05:39:32.691,STABILIZE,-35.3632622,149.1652375,0,-0.00048624660121276975,0.000984334503300488,0.023303167894482613,-0.0015146066434681416,0.00017144001321867108,0.001629534875974059,0,38,-944,0,0,0,-1,5,7,94214.0
05:39:32.892,STABILIZE,-35.3632622,149.1652375,0,-0.00048624660121276975,0.000984334503300488,0.023303167894482613,-0.0015146066434681416,0.00017144001321867108,0.001629534875974059,0,38,-944,0,0,0,-1,5,7,94214.0
05:39:33.094,STABILIZE,-35.3632622,149.1652376,0,-0.0006750781321898103,0.0009837952675297856,0.023135222494602203,0.0003284071572124958,0.00031549902632832527,0.0016625672578811646,0,2,-1000,0,1,0,-1,5,6,94214.0
05:39:33.295,STABILIZE,-35.3632622,149.1652376,0,-0.0006750781321898103,0.0009837952675297856,0.023135222494602203,0.0003284071572124958,0.00031549902632832527,0.0016625672578811646,0,2,-1000,0,1,0,-1,5,6,94214.0
05:39:33.497,STABILIZE,-35.3632622,149.1652376,0,-0.0006750781321898103,0.0009837952675297856,0.023135222494602203,0.0003284071572124958,0.00031549902632832527,0.0016625672578811646,0,2,-1000,0,1,0,-1,5,6,94214.0
05:39:33.698,STABILIZE,-35.3632622,149.1652376,0,-0.0006750781321898103,0.0009837952675297856,0.023135222494602203,0.0003284071572124958,0.00031549902632832527,0.0016625672578811646,0,2,-1000,0,1,0,-1,5,6,94214.0
05:39:33.899,STABILIZE,-35.3632622,149.1652377,0,-0.0011072176275774837,0.000987692503258586,0.02288803458213806,0.000168491096701473,0.0001941821537911892,0.0016447147354483604,0,2,-1000,1,0,1,-1,3,5,94214.0
05:39:34.101,STABILIZE,-35.3632622,149.1652377,0,-0.0011072176275774837,0.000987692503258586,0.02288803458213806,0.000168491096701473,0.0001941821537911892,0.0016447147354483604,0,1,-1000,0,0,1,-1,3,5,94214.0
05:39:34.310,STABILIZE,-35.3632622,149.1652376,0,-0.0013314018724486232,0.000975378614384681,0.022766049951314926,0.00027469551423564553,0.000240345427300781,0.001586788916029036,0,1,-1000,0,0,0,-1,2,4,94214.0
05:39:34.514,AUTO,-35.3632622,149.1652376,0,-0.0013314018724486232,0.000975378614384681,0.022766049951314926,0.00027469551423564553,0.000240345427300781,0.001586788916029036,0,1,-1000,0,0,0,-1,2,4,144309.0
05:39:34.715,AUTO,-35.3632622,149.1652376,3,-0.0014256739523261786,0.0009789224714040756,0.022714458405971527,0.00015642493963241577,0.00033363146940246224,0.001639137975871563,0,1,-1000,0,0,1,-1,2,3,144309.0
05:39:34.917,AUTO,-35.3632622,149.1652376,3,-0.001507091335952282,0.0009711344027891755,0.022669650614261627,0.00021257071057334542,0.00024286122061312199,0.0015943028265610337,0,2,-1000,1,1,0,-1,1,3,144309.0
05:39:35.119,AUTO,-35.3632622,149.1652376,1,-0.0015636553289368749,0.0009768619202077389,0.022639567032456398,0.00012862618314102292,0.00023518496891483665,0.001588976476341486,0,1,-1000,0,0,1,-1,1,2,144309.0
05:39:35.322,AUTO,-35.3632622,149.1652376,1,-0.0015636553289368749,0.0009768619202077389,0.022639567032456398,0.00012862618314102292,0.00023518496891483665,0.001588976476341486,0,1,-1000,0,0,1,-1,1,2,144309.0
05:39:35.524,AUTO,-35.3632622,149.1652376,1,-0.0015636553289368749,0.0009768619202077389,0.022639567032456398,0.00012862618314102292,0.00023518496891483665,0.001588976476341486,0,1,-1000,0,0,1,-1,1,2,144309.0
05:39:35.725,AUTO,-35.3632622,149.1652376,1,-0.0015636553289368749,0.0009768619202077389,0.022639567032456398,0.00012862618314102292,0.00023518496891483665,0.001588976476341486,0,1,-1000,0,0,1,-1,1,2,144309.0
05:39:35.927,AUTO,-35.3632621,149.1652375,0,-0.001579561736434698,0.0010732088703662157,0.022527532652020454,0.0002730750711634755,0.0003001016448251903,0.0016065255040302873,0,2,-1000,1,0,1,0,0,1,144309.0
05:39:36.129,AUTO,-35.3632621,149.1652375,0,-0.0012215188471600413,0.0011324745137244463,0.02247612737119198,0.0002961892168968916,0.00017001153901219368,0.0016035689041018486,0,0,-1004,0,0,1,0,1,4,144309.0
05:39:36.331,AUTO,-35.3632621,149.1652375,0,-0.001189923845231533,0.0011860689846798778,0.022438427433371544,0.00019178132060915232,0.0002217857399955392,0.0015427926555275917,0,1,-1000,1,0,0,0,0,4,144309.0
05:39:36.533,AUTO,-35.3632621,149.1652375,0,-0.001189923845231533,0.0011860689846798778,0.022438427433371544,0.00019178132060915232,0.0002217857399955392,0.0015427926555275917,0,1,-1000,1,0,0,0,0,4,144309.0
05:39:36.734,AUTO,-35.3632621,149.1652375,0,-0.0011612777598202229,0.0012515014968812466,0.022388005629181862,0.0002744188532233238,0.00027425604639574885,0.0015292540192604065,0,2,-1000,0,0,1,0,0,3,144309.0
05:39:36.936,AUTO,-35.3632621,149.1652375,0,-0.0011302026687189937,0.0013230332406237721,0.022338027134537697,0.0001999452360905707,0.00042819679947569966,0.0014381548389792442,0,1,-1000,1,0,1,0,0,3,144309.0
05:39:37.137,AUTO,-35.3632621,149.1652375,0,-0.0010918076150119305,0.0013942732475697994,0.022281751036643982,0.00019086833344772458,0.0002583495806902647,0.0014975329395383596,0,1,-1000,1,0,0,0,0,2,144309.0
05:39:37.339,AUTO,-35.3632621,149.1652375,0,-0.0010918076150119305,0.0013942732475697994,0.022281751036643982,0.00019086833344772458,0.0002583495806902647,0.0014975329395383596,0,1,-1000,1,0,0,0,0,2,10772.0
05:39:37.542,AUTO,-35.3632621,149.1652375,0,-0.0010918076150119305,0.0013942732475697994,0.022281751036643982,0.00019086833344772458,0.0002583495806902647,0.0014975329395383596,0,1,-1000,1,0,0,0,0,2,10772.0
05:39:37.743,AUTO,-35.3632621,149.1652375,0,-0.0010918076150119305,0.0013942732475697994,0.022281751036643982,0.00019086833344772458,0.0002583495806902647,0.0014975329395383596,0,1,-1000,1,0,0,0,0,2,10772.0
05:39:37.945,AUTO,-35.3632621,149.1652374,0,-0.0009422856965102255,0.0016179020749405026,0.022124415263533592,0.0003418108099140227,0.0002601874293759465,0.0014959827531129122,0,1,-1000,0,0,0,0,-1,1,10772.0
05:39:38.147,AUTO,-35.3632621,149.1652374,0,-0.0008898682426661253,0.0016944215167313814,0.022056246176362038,0.00028969947015866637,0.00039544946048408747,0.0015252558514475822,0,2,-1000,1,0,1,0,-1,1,10772.0
05:39:38.349,AUTO,-35.3632621,149.1652374,2,0.0007553989998996258,0.0015073857503011823,0.02206343412399292,0.03863115608692169,-0.009638950228691101,0.002462371252477169,0,0,-1054,39,-9,1,0,-1,-1,10772.0
05:39:38.552,AUTO,-35.3632621,149.1652374,2,0.0007553989998996258,0.0015073857503011823,0.02206343412399292,0.03863115608692169,-0.009638950228691101,0.002462371252477169,0,0,-1054,39,-9,1,0,-1,-1,10772.0
05:39:38.754,AUTO,-35.3632621,149.1652374,49,0.0058271740563213825,-0.0004927724367007613,0.02212468534708023,-0.01080716960132122,-0.0030369595624506474,0.002586544491350651,0,-1,-1137,-10,-2,2,0,0,-34,10772.0
05:39:38.956,AUTO,-35.3632621,149.1652374,179,0.004603546112775803,2.5349178031319752e-05,0.021884441375732422,-0.002534561324864626,0.004265935160219669,0.00020059218513779342,0,0,-1130,-1,4,0,0,1,-67,10772.0
05:39:39.158,AUTO,-35.3632621,149.1652375,386,0.002456624759361148,0.0012300536036491394,0.021872106939554214,-0.001403315458446741,0.003990925382822752,0.0014593489468097687,0,0,-1109,0,4,1,0,1,-96,10772.0
05:39:39.361,AUTO,-35.3632621,149.1652375,386,0.002456624759361148,0.0012300536036491394,0.021872106939554214,-0.001403315458446741,0.003990925382822752,0.0014593489468097687,0,0,-1109,0,4,1,0,1,-96,10772.0
05:39:39.563,AUTO,-35.3632621,149.1652375,386,0.002456624759361148,0.0012300536036491394,0.021872106939554214,-0.001403315458446741,0.003990925382822752,0.0014593489468097687,0,0,-1109,0,4,1,0,1,-96,10772.0
05:39:39.765,AUTO,-35.3632621,149.1652375,386,0.002456624759361148,0.0012300536036491394,0.021872106939554214,-0.001403315458446741,0.003990925382822752,0.0014593489468097687,0,0,-1109,0,4,1,0,1,-96,10772.0
05:39:39.967,AUTO,-35.363262,149.1652376,1360,0.018779056146740913,-0.0005431768367998302,0.021725313737988472,0.04646579548716545,-0.007384276948869228,0.002260288456454873,0,0,-1021,47,-6,2,0,4,-144,10772.0
05:39:40.169,AUTO,-35.363262,149.1652378,1745,0.030299924314022064,-0.002551754703745246,0.021897194907069206,0.04480867087841034,-0.008028576150536537,0.002835869090631604,0,-1,-1008,45,-7,2,1,10,-148,10772.0
05:39:40.371,AUTO,-35.3632619,149.1652382,2132,0.04120839759707451,-0.004889023490250111,0.022126322612166405,0.042585767805576324,-0.00982770323753357,0.003304734593257308,0,-2,-1003,43,-9,3,3,18,-149,142591.0
05:39:40.573,AUTO,-35.3632618,149.1652388,2522,0.05142056941986084,-0.00748490123078227,0.022404270246624947,0.039427854120731354,-0.01091844029724598,0.003672029823064804,1,-4,-1000,40,-10,3,5,28,-150,142591.0
05:39:40.775,AUTO,-35.3632618,149.1652388,2522,0.05142056941986084,-0.00748490123078227,0.022404270246624947,0.039427854120731354,-0.01091844029724598,0.003672029823064804,1,-4,-1000,40,-10,3,5,28,-150,142591.0
05:39:40.977,AUTO,-35.3632616,149.1652397,2911,0.06003371626138687,-0.009929426945745945,-0.004608409013599157,0.010982934385538101,0.00302866380661726,-0.027643144130706787,2,-8,-994,11,3,-27,8,40,-149,142591.0
05:39:41.179,AUTO,-35.3632614,149.165241,3296,0.04515959694981575,0.008450261317193508,-0.024728015065193176,-0.1151256412267685,0.11282871663570404,-0.1110980287194252,2,-10,-991,-114,113,-111,10,50,-147,142591.0
05:39:41.381,AUTO,-35.3632614,149.165241,3296,0.04515959694981575,0.008450261317193508,-0.024728015065193176,-0.1151256412267685,0.11282871663570404,-0.1110980287194252,2,-10,-991,-114,113,-111,10,50,-147,142591.0
05:39:41.583,AUTO,-35.3632614,149.165241,3296,0.04515959694981575,0.008450261317193508,-0.024728015065193176,-0.1151256412267685,0.11282871663570404,-0.1110980287194252,2,-10,-991,-114,113,-111,10,50,-147,142591.0
05:39:41.787,AUTO,-35.3632614,149.165241,3296,0.04515959694981575,0.008450261317193508,-0.024728015065193176,-0.1151256412267685,0.11282871663570404,-0.1110980287194252,2,-10,-991,-114,113,-111,10,50,-147,142591.0
05:39:41.989,AUTO,-35.3632609,149.1652449,4437,-0.03877218812704086,0.01761709898710251,-0.0750863179564476,-0.024041874334216118,-0.014479005709290504,-0.051154524087905884,5,-8,-1007,-23,-13,-51,0,35,-151,142591.0
05:39:42.190,AUTO,-35.3632609,149.1652458,4826,-0.04614357277750969,0.012163370847702026,-0.08439259976148605,-0.04169640690088272,-0.027563907206058502,-0.026810908690094948,4,-7,-1001,-41,-27,-27,-2,23,-151,142591.0
05:39:42.392,AUTO,-35.3632609,149.1652462,5215,-0.06095932424068451,0.002576246624812484,-0.08691965788602829,-0.07124771177768707,-0.04562153294682503,0.0016271353233605623,3,-4,-998,-70,-45,1,-4,8,-151,142591.0
05:39:42.594,AUTO,-35.363261,149.1652463,5601,-0.07403581589460373,-0.007237519137561321,-0.08593089878559113,-0.01235777698457241,-0.021158352494239807,-0.0067597366869449615,1,0,-1003,-11,-20,-7,-4,-8,-151,142591.0
05:39:42.796,AUTO,-35.363261,149.1652463,5601,-0.07403581589460373,-0.007237519137561321,-0.08593089878559113,-0.01235777698457241,-0.021158352494239807,-0.0067597366869449615,1,0,-1003,-11,-20,-7,-4,-8,-151,142591.0
05:39:42.999,AUTO,-35.3632611,149.1652458,5988,-0.0674147680401802,-0.00882889237254858,-0.08857863396406174,0.0457577109336853,-0.0015395800583064556,-0.006570012308657169,-1,3,-1002,46,0,-6,-3,-26,-151,142591.0
05:39:43.201,AUTO,-35.3632611,149.165245,6379,-0.054145488888025284,-0.00884372740983963,-0.09129787981510162,0.056653816252946854,0.0011088401079177856,-0.0030559368897229433,-3,6,-1001,57,1,-3,-2,-40,-151,142591.0
05:39:43.403,AUTO,-35.3632611,149.165245,6379,-0.054145488888025284,-0.00884372740983963,-0.09129787981510162,0.056653816252946854,0.0011088401079177856,-0.0030559368897229433,-3,6,-1001,57,1,-3,-2,-40,-151,251382.0
05:39:43.606,AUTO,-35.3632611,149.165245,6379,-0.054145488888025284,-0.00884372740983963,-0.09129787981510162,0.056653816252946854,0.0011088401079177856,-0.0030559368897229433,-3,6,-1001,57,1,-3,-2,-40,-151,251382.0
05:39:43.817,AUTO,-35.3632611,149.165245,6379,-0.054145488888025284,-0.00884372740983963,-0.09129787981510162,0.056653816252946854,0.0011088401079177856,-0.0030559368897229433,-3,6,-1001,57,1,-3,-2,-40,-151,251382.0
05:39:44.019,AUTO,-35.3632613,149.1652408,7537,-0.008071418851613998,-0.0029003468807786703,-0.09327731281518936,0.06430130451917648,0.012390564195811749,0.0025687934830784798,-7,12,-1003,65,12,2,-2,-57,-153,251382.0
05:39:44.221,AUTO,-35.3632614,149.1652392,7928,0.008330517448484898,0.0003742275293916464,-0.09285374730825424,0.06540470570325851,0.013071317225694656,0.003445141250267625,-7,13,-1004,66,13,3,-3,-55,-154,251382.0
05:39:44.423,AUTO,-35.3632615,149.1652378,8319,0.024453654885292053,0.0034694646019488573,-0.09198208153247833,0.0650501474738121,0.011776831932365894,0.00386600848287344,-6,9,-1003,65,12,3,-4,-48,-155,251382.0
05:39:44.625,AUTO,-35.3632616,149.1652365,8713,0.0403461717069149,0.006017363164573908,-0.0908341109752655,0.06251025199890137,0.008813241496682167,0.004675025586038828,-4,9,-1003,63,9,4,-6,-38,-155,251382.0
05:39:44.826,AUTO,-35.3632617,149.1652355,9108,0.05521802604198456,0.007450190372765064,-0.08932110667228699,0.049930404871702194,0.0016850258689373732,0.009941505268216133,-2,6,-1000,50,2,9,-7,-25,-156,251382.0
05:39:45.029,AUTO,-35.3632617,149.1652355,9108,0.05521802604198456,0.007450190372765064,-0.08932110667228699,0.049930404871702194,0.0016850258689373732,0.009941505268216133,-2,6,-1000,50,2,9,-7,-25,-156,251382.0
05:39:45.231,AUTO,-35.3632619,149.165235,9502,0.05459684878587723,0.005555001553148031,-0.08614768832921982,-0.03978578373789787,-0.01249838899821043,0.015696516260504723,-2,5,-994,-39,-11,15,-7,-11,-154,251382.0
05:39:45.433,AUTO,-35.3632619,149.165235,9502,0.05459684878587723,0.005555001553148031,-0.08614768832921982,-0.03978578373789787,-0.01249838899821043,0.015696516260504723,-2,5,-994,-39,-11,15,-7,-11,-154,251382.0
05:39:45.635,AUTO,-35.3632619,149.165235,9502,0.05459684878587723,0.005555001553148031,-0.08614768832921982,-0.03978578373789787,-0.01249838899821043,0.015696516260504723,-2,5,-994,-39,-11,15,-7,-11,-154,251382.0
05:39:45.837,AUTO,-35.3632623,149.165235,10664,0.011418330483138561,-0.002500278875231743,-0.08190090954303741,-0.04409059137105942,-0.005323743913322687,-0.004769250750541687,1,-1,-1001,-43,-4,-4,-4,11,-152,251382.0
05:39:46.040,AUTO,-35.3632623,149.165235,10664,0.011418330483138561,-0.002500278875231743,-0.08190090954303741,-0.04409059137105942,-0.005323743913322687,-0.004769250750541687,1,-1,-1001,-43,-4,-4,-4,11,-152,251382.0
05:39:46.242,AUTO,-35.3632624,149.1652352,11054,0.0021835616789758205,-0.0034537676256150007,-0.08429430425167084,-0.029625391587615013,-0.0021107483189553022,-0.010317097418010235,1,-1,-1002,-28,-1,-10,-2,11,-153,251382.0
05:39:46.445,AUTO,-35.3632624,149.1652355,11442,-0.0037140303757041693,-0.0038216589018702507,-0.08818969875574112,-0.016223689541220665,-0.0010950753930956125,-0.01661723107099533,1,-1,-1002,-15,0,-16,0,10,-153,265046.0
05:39:46.647,AUTO,-35.3632624,149.1652357,11830,-0.00657681142911315,-0.003593623172491789,-0.09331438690423965,-0.0076931738294661045,0.00204293429851532,-0.01815384067595005,1,-1,-1001,-6,2,-18,0,7,-154,265046.0
05:39:46.849,AUTO,-35.3632624,149.1652358,12219,-0.007133730687201023,-0.0032629859633743763,-0.09873118251562119,0.001164281740784645,0.0009857716504484415,-0.019011730328202248,0,-1,-1001,1,1,-19,2,4,-154,265046.0
05:39:47.051,AUTO,-35.3632624,149.1652358,12219,-0.007133730687201023,-0.0032629859633743763,-0.09873118251562119,0.001164281740784645,0.0009857716504484415,-0.019011730328202248,0,-1,-1001,1,1,-19,2,4,-154,265046.0
05:39:47.253,AUTO,-35.3632623,149.1652359,12608,-0.006193567533046007,-0.002518240362405777,-0.10456184297800064,0.005218443926423788,0.0048524606972932816,-0.02184845693409443,0,-1,-1001,6,5,-21,2,2,-154,265046.0
05:39:47.455,AUTO,-35.3632623,149.1652359,12608,-0.006193567533046007,-0.002518240362405777,-0.10456184297800064,0.005218443926423788,0.0048524606972932816,-0.02184845693409443,0,-1,-1001,6,5,-21,2,2,-154,265046.0
05:39:47.658,AUTO,-35.3632623,149.1652359,12608,-0.006193567533046007,-0.002518240362405777,-0.10456184297800064,0.005218443926423788,0.0048524606972932816,-0.02184845693409443,0,-1,-1001,6,5,-21,2,2,-154,265046.0
05:39:47.864,AUTO,-35.3632621,149.1652358,13778,0.0002911884512286633,0.0011173759121447802,-0.12193503230810165,0.008369090966880322,0.005749201402068138,-0.020277753472328186,-1,0,-1000,9,6,-20,3,-2,-155,265046.0
05:39:48.065,AUTO,-35.363262,149.1652357,14169,0.0026062128599733114,0.0026012330781668425,-0.1275716871023178,0.011767720803618431,0.006158969830721617,-0.020087501034140587,-1,0,-1000,12,7,-20,3,-2,-155,265046.0
05:39:48.269,AUTO,-35.363262,149.1652357,14169,0.0026062128599733114,0.0026012330781668425,-0.1275716871023178,0.011767720803618431,0.006158969830721617,-0.020087501034140587,-1,0,-1000,12,7,-20,3,-2,-155,265046.0
05:39:48.470,AUTO,-35.363262,149.1652356,14560,0.0047265575267374516,0.003904670709744096,-0.13287122547626495,0.007805767934769392,0.0050996094942092896,-0.019390769302845,-1,0,-1000,8,5,-19,3,-2,-155,265046.0
05:39:48.672,AUTO,-35.3632619,149.1652355,14949,0.006126427557319403,0.0048514255322515965,-0.137783944606781,0.003933174069970846,0.003974524326622486,-0.01827441155910492,-1,0,-1000,4,4,-18,2,-1,-155,265046.0
05:39:48.874,AUTO,-35.3632618,149.1652354,15340,0.006856555584818125,0.005802195053547621,-0.1425435096025467,0.0050485520623624325,0.00286282179877162,-0.016651220619678497,-1,0,-1000,5,3,-17,1,0,-155,265046.0
05:39:49.076,AUTO,-35.3632617,149.1652354,15730,0.007386436220258474,0.006398770958185196,-0.1470969319343567,0.0024528310168534517,0.0027883737348020077,-0.01727474108338356,-1,0,-1000,3,3,-17,0,0,-155,265046.0
05:39:49.279,AUTO,-35.3632617,149.1652354,15730,0.007386436220258474,0.006398770958185196,-0.1470969319343567,0.0024528310168534517,0.0027883737348020077,-0.01727474108338356,-1,0,-1000,3,3,-17,0,0,-155,265046.0
05:39:49.481,AUTO,-35.3632617,149.1652354,15730,0.007386436220258474,0.006398770958185196,-0.1470969319343567,0.0024528310168534517,0.0027883737348020077,-0.01727474108338356,-1,0,-1000,3,3,-17,0,0,-155,223336.0
05:39:49.684,AUTO,-35.3632617,149.1652354,15730,0.007386436220258474,0.006398770958185196,-0.1470969319343567,0.0024528310168534517,0.0027883737348020077,-0.01727474108338356,-1,0,-1000,3,3,-17,0,0,-155,223336.0
05:39:49.887,AUTO,-35.3632616,149.1652354,16900,0.007059053517878056,0.006232302635908127,-0.15873058140277863,-0.0014962803106755018,-0.002074907533824444,-0.011687000282108784,0,0,-999,0,-1,-12,-1,4,-155,223336.0
05:39:50.089,AUTO,-35.3632616,149.1652354,17290,0.0062835668213665485,0.0055182380601763725,-0.16217653453350067,-0.0043883053585886955,-0.0011039096862077713,-0.01474054530262947,0,0,-1000,-3,0,-15,-2,5,-155,223336.0
05:39:50.291,AUTO,-35.3632616,149.1652354,17290,0.0062835668213665485,0.0055182380601763725,-0.16217653453350067,-0.0043883053585886955,-0.0011039096862077713,-0.01474054530262947,0,0,-1000,-3,0,-15,-2,5,-155,223336.0
05:39:50.494,AUTO,-35.3632616,149.1652355,17680,0.005625694990158081,0.005157658364623785,-0.16586396098136902,-0.0003210181021131575,0.0008545228629373014,-0.014110004529356956,0,0,-1000,0,1,-14,-2,5,-155,223336.0
05:39:50.696,AUTO,-35.3632616,149.1652355,18077,0.004802393727004528,0.00490137655287981,-0.16986367106437683,-0.0049289497546851635,-0.0011404443066567183,-0.01640627719461918,0,-1,-999,-4,0,-16,-2,6,-155,223336.0
05:39:50.898,AUTO,-35.3632616,149.1652356,18465,-0.0011444797273725271,0.004542496986687183,-0.17400988936424255,-0.05349064990878105,-0.0011113686487078667,-0.018346920609474182,0,-1,-996,-53,0,-18,-3,6,-154,223336.0
05:39:51.099,AUTO,-35.3632616,149.1652357,18852,-0.019962487742304802,0.00420730747282505,-0.1786513775587082,-0.08466215431690216,-0.00038064239197410643,-0.019635532051324844,0,-1,-997,-83,0,-19,-3,2,-153,223336.0
05:39:51.301,AUTO,-35.3632616,149.1652357,18852,-0.019962487742304802,0.00420730747282505,-0.1786513775587082,-0.08466215431690216,-0.00038064239197410643,-0.019635532051324844,0,-1,-997,-83,0,-19,-3,2,-153,223336.0
05:39:51.503,AUTO,-35.3632616,149.1652357,18852,-0.019962487742304802,0.00420730747282505,-0.1786513775587082,-0.08466215431690216,-0.00038064239197410643,-0.019635532051324844,0,-1,-997,-83,0,-19,-3,2,-153,223336.0
05:39:51.705,AUTO,-35.3632616,149.1652357,18852,-0.019962487742304802,0.00420730747282505,-0.1786513775587082,-0.08466215431690216,-0.00038064239197410643,-0.019635532051324844,0,-1,-997,-83,0,-19,-3,2,-153,223336.0
05:39:51.907,AUTO,-35.363262,149.1652348,19974,-0.04738766700029373,0.04975644126534462,-0.0550449974834919,-0.016205715015530586,0.07561338692903519,0.4770870506763458,-1,5,-982,-15,76,476,-18,-26,-143,223336.0
05:39:52.108,AUTO,-35.3632625,149.1652339,20323,-0.02655194140970707,0.039747536182403564,0.03873255476355553,0.12118593603372574,-0.1419147253036499,0.2690178155899048,2,10,-956,122,-141,268,-29,-34,-133,223336.0
05:39:52.311,AUTO,-35.3632631,149.1652329,20646,0.00740443030372262,-0.0007088169804774225,0.07963039726018906,0.13151809573173523,-0.151497021317482,0.07513140887022018,1,10,-955,132,-151,74,-32,-34,-122,223336.0
05:39:52.513,AUTO,-35.3632631,149.1652329,20646,0.00740443030372262,-0.0007088169804774225,0.07963039726018906,0.13151809573173523,-0.151497021317482,0.07513140887022018,1,10,-955,132,-151,74,-32,-34,-122,270692.0
05:39:52.715,AUTO,-35.3632637,149.165232,20939,0.03531830012798309,-0.02845514938235283,0.08411529660224915,0.09101539850234985,-0.07552850246429443,-0.02216986007988453,2,10,-958,91,-74,-22,-28,-27,-112,270692.0
05:39:52.917,AUTO,-35.3632642,149.1652314,21207,0.05241832882165909,-0.03911228105425835,0.07439543306827545,0.048453133553266525,-0.02189304120838642,-0.04845776781439781,1,6,-962,49,-21,-48,-19,-14,-101,270692.0
05:39:53.119,AUTO,-35.3632645,149.1652311,21449,0.05871495604515076,-0.039485372602939606,0.06399363279342651,0.004881795030087233,0.007734779268503189,-0.03840208053588867,1,3,-965,5,8,-38,-10,0,-92,270692.0
05:39:53.325,AUTO,-35.3632645,149.1652311,21449,0.05871495604515076,-0.039485372602939606,0.06399363279342651,0.004881795030087233,0.007734779268503189,-0.03840208053588867,1,3,-965,5,8,-38,-10,0,-92,270692.0
05:39:53.528,AUTO,-35.3632645,149.1652311,21449,0.05871495604515076,-0.039485372602939606,0.06399363279342651,0.004881795030087233,0.007734779268503189,-0.03840208053588867,1,3,-965,5,8,-38,-10,0,-92,270692.0
05:39:53.735,AUTO,-35.3632645,149.1652311,21449,0.05871495604515076,-0.039485372602939606,0.06399363279342651,0.004881795030087233,0.007734779268503189,-0.03840208053588867,1,3,-965,5,8,-38,-10,0,-92,270692.0
05:39:53.938,AUTO,-35.3632644,149.1652323,22049,0.037081360816955566,-0.018280653282999992,0.05281798169016838,-0.04719354584813118,0.03914125636219978,0.000751595594920218,0,-7,-975,-46,39,0,11,33,-69,270692.0
05:39:54.139,AUTO,-35.3632641,149.1652332,22211,0.02542898617684841,-0.009331867098808289,0.052523404359817505,-0.047130901366472244,0.033674824982881546,0.0020166460890322924,0,-9,-976,-46,34,1,15,38,-63,270692.0
05:39:54.341,AUTO,-35.3632637,149.1652343,22359,0.015048163942992687,-0.0016537802293896675,0.05218029394745827,-0.03397001698613167,0.030330026522278786,0.0018194817239418626,0,-10,-977,-33,30,1,17,39,-57,270692.0
05:39:54.544,AUTO,-35.3632637,149.1652343,22359,0.015048163942992687,-0.0016537802293896675,0.05218029394745827,-0.03397001698613167,0.030330026522278786,0.0018194817239418626,0,-10,-977,-33,30,1,17,39,-57,270692.0
05:39:54.746,AUTO,-35.3632632,149.1652353,22491,0.006436219904571772,0.004802665673196316,0.05171489343047142,-0.04115329310297966,0.02101387083530426,0.002336119767278433,1,-11,-977,-40,21,2,17,39,-51,270692.0
05:39:54.949,AUTO,-35.3632628,149.1652363,22608,-0.0006187183898873627,0.009433145634829998,0.050990790128707886,-0.028961243107914925,0.018288083374500275,-0.0006600735359825194,1,-9,-977,-27,18,0,16,36,-46,270692.0
05:39:55.151,AUTO,-35.3632624,149.1652372,22711,-0.005926152691245079,0.012857440859079361,0.05024519935250282,-0.0046188849955797195,0.010401430539786816,-0.00011723465286195278,0,-8,-977,-3,11,0,15,33,-40,270692.0
05:39:55.353,AUTO,-35.3632624,149.1652372,22711,-0.005926152691245079,0.012857440859079361,0.05024519935250282,-0.0046188849955797195,0.010401430539786816,-0.00011723465286195278,0,-8,-977,-3,11,0,15,33,-40,270692.0
05:39:55.555,AUTO,-35.3632624,149.1652372,22711,-0.005926152691245079,0.012857440859079361,0.05024519935250282,-0.0046188849955797195,0.010401430539786816,-0.00011723465286195278,0,-8,-977,-3,11,0,15,33,-40,31758.0
05:39:55.757,AUTO,-35.3632624,149.1652372,22711,-0.005926152691245079,0.012857440859079361,0.05024519935250282,-0.0046188849955797195,0.010401430539786816,-0.00011723465286195278,0,-8,-977,-3,11,0,15,33,-40,31758.0
05:39:55.959,AUTO,-35.3632615,149.1652392,22926,-0.01279861107468605,0.014465825632214546,0.047698866575956345,0.034867603331804276,-0.002718700561672449,-0.002240343252196908,0,-2,-973,35,-2,-2,7,18,-21,31758.0
05:39:56.161,AUTO,-35.3632614,149.1652397,22964,-0.012008960358798504,0.013227840885519981,0.04699964448809624,0.029393717646598816,-0.0048229144886136055,-0.003544765990227461,0,-5,-970,30,-3,-3,4,14,-14,31758.0
05:39:56.364,AUTO,-35.3632612,149.16524,22982,-0.014303826726973057,0.011543188244104385,0.04634854942560196,-0.14721240103244781,-0.006313123274594545,-0.003257105126976967,0,-5,-964,-146,-5,-3,2,9,-5,31758.0
05:39:56.566,AUTO,-35.3632612,149.16524,22982,-0.014303826726973057,0.011543188244104385,0.04634854942560196,-0.14721240103244781,-0.006313123274594545,-0.003257105126976967,0,-5,-964,-146,-5,-3,2,9,-5,31758.0
05:39:56.768,AUTO,-35.3632612,149.1652401,22970,-0.045084550976753235,0.02514955773949623,0.04491031542420387,0.08757840096950531,0.012051936239004135,-0.005730167496949434,0,16,-947,89,12,-6,-1,2,9,31758.0
05:39:56.972,AUTO,-35.3632612,149.16524,22928,-0.03441588580608368,0.015526443719863892,0.043888289481401443,0.6672579050064087,-0.063123919069767,-0.005446411203593016,0,19,-975,667,-62,-5,-5,-8,17,31758.0
05:39:57.174,AUTO,-35.3632613,149.1652396,22872,-0.03513077273964882,-3.084296258748509e-05,0.043802037835121155,-0.06805729120969772,-0.053574807941913605,0.00466756708920002,-1,-14,-1010,-68,-52,4,-6,-19,19,31758.0
05:39:57.377,AUTO,-35.3632613,149.1652396,22872,-0.03513077273964882,-3.084296258748509e-05,0.043802037835121155,-0.06805729120969772,-0.053574807941913605,0.00466756708920002,-1,-14,-1010,-68,-52,4,-6,-19,19,31758.0
05:39:57.578,AUTO,-35.3632613,149.1652396,22872,-0.03513077273964882,-3.084296258748509e-05,0.043802037835121155,-0.06805729120969772,-0.053574807941913605,0.00466756708920002,-1,-14,-1010,-68,-52,4,-6,-19,19,31758.0
05:39:57.780,AUTO,-35.3632613,149.1652396,22872,-0.03513077273964882,-3.084296258748509e-05,0.043802037835121155,-0.06805729120969772,-0.053574807941913605,0.00466756708920002,-1,-14,-1010,-68,-52,4,-6,-19,19,31758.0
05:39:57.982,AUTO,-35.3632613,149.165237,22752,-0.04350261762738228,-0.026127077639102936,0.040257081389427185,-0.10193824023008347,-0.022868534550070763,-0.010267910547554493,-11,22,-1026,-99,-21,-10,3,-41,5,31758.0
05:39:58.184,AUTO,-35.3632613,149.1652357,22731,-0.03425159305334091,-0.03322185203433037,0.0395054817199707,0.5327966213226318,-0.027928592637181282,-0.008937433362007141,-8,47,-1023,534,-27,-9,9,-47,2,31758.0
05:39:58.387,AUTO,-35.363261,149.1652341,22717,-0.03468045964837074,-0.038729581981897354,0.03885674849152565,0.39186254143714905,-0.024012109264731407,-0.00790844950824976,-11,15,-1014,392,-23,-8,16,-56,0,31758.0
05:39:58.589,AUTO,-35.3632605,149.1652322,22709,-0.04451882466673851,-0.045113760977983475,-0.00971936620771885,-0.46411606669425964,0.00412063067778945,-0.3950705826282501,-16,-19,-997,-464,4,-395,23,-66,-1,222675.0
05:39:58.791,AUTO,-35.3632605,149.1652322,22709,-0.04451882466673851,-0.045113760977983475,-0.00971936620771885,-0.46411606669425964,0.00412063067778945,-0.3950705826282501,-16,-19,-997,-464,4,-395,23,-66,-1,222675.0
05:39:58.993,AUTO,-35.3632599,149.1652301,22701,-0.05055791139602661,-0.05680166184902191,-0.1504368633031845,-0.5667159557342529,-0.007253066636621952,-0.624343991279602,-22,1,-1011,-565,-6,-624,31,-75,-1,222675.0
05:39:59.195,AUTO,-35.3632592,149.1652276,22694,-0.03841578587889671,-0.07102777808904648,-0.311565101146698,0.2849354147911072,-0.03308362141251564,-0.6450884938240051,-23,32,-1007,287,-31,-645,39,-86,-1,222675.0
05:39:59.397,AUTO,-35.3632592,149.1652276,22694,-0.03841578587889671,-0.07102777808904648,-0.311565101146698,0.2849354147911072,-0.03308362141251564,-0.6450884938240051,-23,32,-1007,287,-31,-645,39,-86,-1,222675.0
05:39:59.600,AUTO,-35.3632592,149.1652276,22694,-0.03841578587889671,-0.07102777808904648,-0.311565101146698,0.2849354147911072,-0.03308362141251564,-0.6450884938240051,-23,32,-1007,287,-31,-645,39,-86,-1,222675.0
05:39:59.802,AUTO,-35.3632592,149.1652276,22694,-0.03841578587889671,-0.07102777808904648,-0.311565101146698,0.2849354147911072,-0.03308362141251564,-0.6450884938240051,-23,32,-1007,287,-31,-645,39,-86,-1,222675.0
05:40:00.005,AUTO,-35.3632557,149.165218,22664,-0.01891780085861683,-0.11333642154932022,-0.7435716390609741,-0.6046853065490723,-0.041807129979133606,-0.5137342214584351,-36,-33,-1004,-603,-41,-513,66,-133,0,222675.0
05:40:00.207,AUTO,-35.3632541,149.165214,22649,-0.0033890712074935436,-0.12792059779167175,-0.874845027923584,0.1562528759241104,-0.05788207799196243,-0.5353028774261475,-40,6,-1003,158,-57,-535,77,-151,1,222675.0
05:40:00.409,AUTO,-35.3632523,149.1652094,22628,0.021567365154623985,-0.14224983751773834,-1.0048285722732544,0.5545172691345215,-0.06724445521831512,-0.5116866827011108,-41,-4,-999,555,-66,-511,88,-173,3,222675.0
05:40:00.611,AUTO,-35.3632502,149.1652041,22602,0.032039158046245575,-0.15288737416267395,-1.0990411043167114,-0.23032158613204956,-0.04970112815499306,-0.21724459528923035,-47,-47,-1001,-229,-48,-217,100,-197,3,222675.0
05:40:00.813,AUTO,-35.3632478,149.1651982,22576,0.03271753340959549,-0.16456596553325653,-1.1229361295700073,-0.4333515763282776,-0.046799350529909134,-0.004302230663597584,-49,-47,-1003,-432,-45,-3,113,-222,5,222675.0
05:40:01.015,AUTO,-35.3632478,149.1651982,22576,0.03271753340959549,-0.16456596553325653,-1.1229361295700073,-0.4333515763282776,-0.046799350529909134,-0.004302230663597584,-49,-47,-1003,-432,-45,-3,113,-222,5,222675.0
05:40:01.217,AUTO,-35.3632452,149.1651917,22548,0.03651532903313637,-0.17100393772125244,-1.1120792627334595,0.22453130781650543,-0.01942574977874756,0.0563821904361248,-55,-15,-1004,226,-18,56,126,-247,6,222675.0
05:40:01.434,AUTO,-35.3632452,149.1651917,22548,0.03651532903313637,-0.17100393772125244,-1.1120792627334595,0.22453130781650543,-0.01942574977874756,0.0563821904361248,-55,-15,-1004,226,-18,56,126,-247,6,92989.0
05:40:01.636,AUTO,-35.3632452,149.1651917,22548,0.03651532903313637,-0.17100393772125244,-1.1120792627334595,0.22453130781650543,-0.01942574977874756,0.0563821904361248,-55,-15,-1004,226,-18,56,126,-247,6,92989.0
05:40:01.838,AUTO,-35.3632357,149.165168,22466,0.041836243122816086,-0.15688781440258026,-1.0792405605316162,-0.07591550797224045,0.030849169939756393,0.0034247487783432007,-73,-41,-1004,-74,31,3,161,-318,5,92989.0
05:40:02.041,AUTO,-35.3632357,149.165168,22466,0.041836243122816086,-0.15688781440258026,-1.0792405605316162,-0.07591550797224045,0.030849169939756393,0.0034247487783432007,-73,-41,-1004,-74,31,3,161,-318,5,92989.0
05:40:02.244,AUTO,-35.363232,149.165159,22444,0.05295436084270477,-0.14997617900371552,-1.079161286354065,0.2836856544017792,0.015513734892010689,-0.012258809059858322,-75,-35,-1002,285,16,-12,169,-336,5,92989.0
05:40:02.446,AUTO,-35.3632282,149.1651495,22422,0.05517621710896492,-0.14627458155155182,-1.0801993608474731,-0.038707435131073,0.007014523260295391,0.00198003719560802,-77,-54,-993,-37,7,1,178,-351,5,92989.0
05:40:02.648,AUTO,-35.3632241,149.1651395,22399,0.051746439188718796,-0.14138373732566833,-1.0811420679092407,-0.19326229393482208,0.01972672902047634,0.002443517092615366,-82,-49,-994,-192,20,2,186,-364,6,92989.0
05:40:02.850,AUTO,-35.3632199,149.1651293,22374,0.05824285000562668,-0.13749252259731293,-1.0820082426071167,0.24276898801326752,0.004683056380599737,-0.014347614720463753,-86,-28,-994,244,5,-14,193,-376,7,92989.0
05:40:03.052,AUTO,-35.3632199,149.1651293,22374,0.05824285000562668,-0.13749252259731293,-1.0820082426071167,0.24276898801326752,0.004683056380599737,-0.014347614720463753,-86,-28,-994,244,5,-14,193,-376,7,92989.0
05:40:03.254,AUTO,-35.3632156,149.1651188,22347,0.059188392013311386,-0.13638417422771454,-1.0826880931854248,0.061939410865306854,0.008843448013067245,0.0038151671178638935,-90,-59,-993,62,9,3,199,-388,8,92989.0
05:40:03.456,AUTO,-35.3632156,149.1651188,22347,0.059188392013311386,-0.13638417422771454,-1.0826880931854248,0.061939410865306854,0.008843448013067245,0.0038151671178638935,-90,-59,-993,62,9,3,199,-388,8,92989.0
05:40:03.659,AUTO,-35.3632156,149.1651188,22347,0.059188392013311386,-0.13638417422771454,-1.0826880931854248,0.061939410865306854,0.008843448013067245,0.0038151671178638935,-90,-59,-993,62,9,3,199,-388,8,92989.0
05:40:03.861,AUTO,-35.3632019,149.1650858,22253,0.06203919276595116,-0.12615624070167542,-1.0839108228683472,0.25905147194862366,0.04239363968372345,-0.0062194885686039925,-89,-43,-996,259,43,-6,214,-417,10,92989.0
05:40:04.063,AUTO,-35.3632019,149.1650858,22253,0.06203919276595116,-0.12615624070167542,-1.0839108228683472,0.25905147194862366,0.04239363968372345,-0.0062194885686039925,-89,-43,-996,259,43,-6,214,-417,10,92989.0
05:40:04.265,AUTO,-35.363197,149.1650743,22220,0.05523848533630371,-0.12068576365709305,-1.0839159488677979,-0.26140305399894714,0.02119985781610012,0.012670847587287426,-104,-74,-999,-260,21,12,217,-424,10,92989.0
05:40:04.468,AUTO,-35.3631921,149.1650626,22189,0.0534186065196991,-0.118413046002388,-1.0841563940048218,-0.08167250454425812,0.0014603378949686885,-0.005059503950178623,-104,-64,-998,-79,2,-5,219,-429,10,267236.0
05:40:04.670,AUTO,-35.3631871,149.1650508,22157,0.058020900934934616,-0.11459469050168991,-1.0849274396896362,0.37822189927101135,0.022648323327302933,-0.012791422195732594,-100,-35,-992,379,23,-13,221,-432,11,267236.0
05:40:04.872,AUTO,-35.363182,149.1650389,22124,0.05406579375267029,-0.10426526516675949,-1.0842214822769165,-0.09092400223016739,0.04497016221284866,0.021197468042373657,-100,-69,-995,-90,45,21,221,-436,11,267236.0
05:40:05.074,AUTO,-35.363177,149.1650269,22092,0.04908552020788193,-0.09554896503686905,-1.0843729972839355,-0.3132532238960266,0.021870238706469536,0.004353342577815056,-98,-60,-991,-311,22,4,220,-436,10,267236.0
05:40:05.276,AUTO,-35.363177,149.1650269,22092,0.04908552020788193,-0.09554896503686905,-1.0843729972839355,-0.3132532238960266,0.021870238706469536,0.004353342577815056,-98,-60,-991,-311,22,4,220,-436,10,267236.0
05:40:05.479,AUTO,-35.363177,149.1650269,22092,0.04908552020788193,-0.09554896503686905,-1.0843729972839355,-0.3132532238960266,0.021870238706469536,0.004353342577815056,-98,-60,-991,-311,22,4,220,-436,10,267236.0
05:40:05.682,AUTO,-35.363177,149.1650269,22092,0.04908552020788193,-0.09554896503686905,-1.0843729972839355,-0.3132532238960266,0.021870238706469536,0.004353342577815056,-98,-60,-991,-311,22,4,220,-436,10,267236.0
05:40:05.886,AUTO,-35.363177,149.1650269,22092,0.04908552020788193,-0.09554896503686905,-1.0843729972839355,-0.3132532238960266,0.021870238706469536,0.004353342577815056,-98,-60,-991,-311,22,4,220,-436,10,267236.0
05:40:06.089,AUTO,-35.3631601,149.164986,21970,0.06200337037444115,-0.08867837488651276,-1.088992953300476,0.3059008717536926,0.04617755487561226,-0.02563534863293171,-95,-32,-999,307,47,-25,217,-436,13,267236.0
05:40:06.291,AUTO,-35.3631551,149.1649741,21932,0.06510121375322342,-0.07410191744565964,-1.0890318155288696,0.15398412942886353,0.043698616325855255,0.011997456662356853,-92,-59,-994,154,44,12,215,-433,12,267236.0
05:40:06.494,AUTO,-35.3631502,149.1649623,21898,0.048378415405750275,-0.06568270176649094,-1.0879793167114258,-0.49432608485221863,0.02826041728258133,0.022273987531661987,-91,-79,-992,-493,28,22,212,-427,11,267236.0
05:40:06.696,AUTO,-35.3631454,149.1649507,21866,0.05515418201684952,-0.05448002368211746,-1.0890356302261353,0.19002968072891235,0.055673014372587204,-0.02480393648147583,-94,-40,-1002,192,56,-24,208,-419,10,267236.0
05:40:06.898,AUTO,-35.3631454,149.1649507,21866,0.05515418201684952,-0.05448002368211746,-1.0890356302261353,0.19002968072891235,0.055673014372587204,-0.02480393648147583,-94,-40,-1002,192,56,-24,208,-419,10,267236.0
05:40:07.100,AUTO,-35.3631406,149.1649392,21836,0.06350104510784149,-0.039638593792915344,-1.0892882347106934,0.3384000062942505,0.058559268712997437,0.012160882353782654,-95,-52,-997,338,59,12,203,-410,10,267236.0
05:40:07.302,AUTO,-35.3631359,149.1649281,21808,0.0499216727912426,-0.02757990173995495,-1.0886024236679077,-0.5343486666679382,0.029174791648983955,0.029965100809931755,-84,-78,-991,-533,29,30,196,-397,9,267236.0
05:40:07.504,AUTO,-35.3631359,149.1649281,21808,0.0499216727912426,-0.02757990173995495,-1.0886024236679077,-0.5343486666679382,0.029174791648983955,0.029965100809931755,-84,-78,-991,-533,29,30,196,-397,9,91443.0
05:40:07.706,AUTO,-35.3631359,149.1649281,21808,0.0499216727912426,-0.02757990173995495,-1.0886024236679077,-0.5343486666679382,0.029174791648983955,0.029965100809931755,-84,-78,-991,-533,29,30,196,-397,9,91443.0
05:40:07.908,AUTO,-35.3631359,149.1649281,21808,0.0499216727912426,-0.02757990173995495,-1.0886024236679077,-0.5343486666679382,0.029174791648983955,0.029965100809931755,-84,-78,-991,-533,29,30,196,-397,9,91443.0
05:40:08.111,AUTO,-35.3631231,149.1648973,21720,0.0570489838719368,0.004878954961895943,-1.0888382196426392,0.38036292791366577,0.04650416597723961,0.008217868395149708,-81,-50,-1002,380,47,8,172,-349,11,91443.0
05:40:08.313,AUTO,-35.3631192,149.164888,21690,0.04915940761566162,0.018007032573223114,-1.0880273580551147,-0.4237262010574341,0.062832310795784,0.03330673277378082,-74,-82,-987,-423,63,33,162,-331,12,91443.0
05:40:08.514,AUTO,-35.3631156,149.1648792,21657,0.038172647356987,0.03036731854081154,-1.088516354560852,-0.8387397527694702,0.04398183152079582,0.022062787786126137,-72,-82,-995,-837,44,21,151,-309,11,91443.0
05:40:08.716,AUTO,-35.3631122,149.1648711,21626,0.031770240515470505,0.04126106947660446,-1.088748574256897,-0.47043558955192566,0.05812430381774902,-0.011340904980897903,-62,-42,-1010,-468,58,-11,142,-286,10,91443.0
05:40:08.920,AUTO,-35.363109,149.1648637,21597,0.03409966826438904,0.0554463192820549,-1.0901200771331787,0.3125673830509186,0.06206342950463295,-0.028848573565483093,-57,-14,-1009,314,62,-28,130,-262,9,91443.0
05:40:09.122,AUTO,-35.363109,149.1648637,21597,0.03409966826438904,0.0554463192820549,-1.0901200771331787,0.3125673830509186,0.06206342950463295,-0.028848573565483093,-57,-14,-1009,314,62,-28,130,-262,9,91443.0
05:40:09.324,AUTO,-35.363106,149.1648569,21570,0.037715572863817215,0.06801220774650574,-1.0906970500946045,0.7565947771072388,0.05085894837975502,-0.009505204856395721,-55,13,-1026,758,51,-9,118,-235,9,91443.0
05:40:09.527,AUTO,-35.363106,149.1648569,21570,0.037715572863817215,0.06801220774650574,-1.0906970500946045,0.7565947771072388,0.05085894837975502,-0.009505204856395721,-55,13,-1026,758,51,-9,118,-235,9,91443.0
05:40:09.729,AUTO,-35.363106,149.1648569,21570,0.037715572863817215,0.06801220774650574,-1.0906970500946045,0.7565947771072388,0.05085894837975502,-0.009505204856395721,-55,13,-1026,758,51,-9,118,-235,9,91443.0
05:40:09.932,AUTO,-35.3630989,149.1648413,21504,0.0037404997274279594,0.08246538043022156,-1.0916978120803833,-0.7913786768913269,0.0014659250155091286,0.015272146090865135,-32,-53,-1001,-790,2,15,74,-155,7,91443.0
05:40:10.133,AUTO,-35.3630989,149.1648413,21504,0.0037404997274279594,0.08246538043022156,-1.0916978120803833,-0.7913786768913269,0.0014659250155091286,0.015272146090865135,-32,-53,-1001,-790,2,15,74,-155,7,91443.0
05:40:10.335,AUTO,-35.363097,149.1648376,21484,-0.003393164835870266,0.07889274507761002,-1.0923376083374023,-0.19460979104042053,-0.03589950501918793,-0.000454827822977677,-25,-12,-1006,-192,-35,0,62,-131,6,91443.0
05:40:10.537,AUTO,-35.3630955,149.1648346,21465,0.006478653755038977,0.06741618365049362,-1.0926029682159424,0.6373894810676575,-0.05034355819225311,-0.005214410834014416,-21,18,-1009,639,-49,-4,50,-110,5,153898.0
05:40:10.739,AUTO,-35.3630942,149.1648321,21448,0.0054644811898469925,0.055910393595695496,-1.0928606986999512,0.5630457401275635,-0.0459488108754158,0.008268018253147602,-17,5,-1022,563,-45,8,39,-92,4,153898.0
05:40:10.941,AUTO,-35.3630931,149.1648301,21437,-0.0038579076062887907,0.047974176704883575,-1.093090295791626,0.11621657758951187,-0.028350846841931343,0.01554208155721426,-12,-26,-997,115,-27,16,28,-79,3,153898.0
05:40:11.146,AUTO,-35.3630931,149.1648301,21437,-0.0038579076062887907,0.047974176704883575,-1.093090295791626,0.11621657758951187,-0.028350846841931343,0.01554208155721426,-12,-26,-997,115,-27,16,28,-79,3,153898.0
05:40:11.350,AUTO,-35.3630922,149.1648284,21429,-0.01973431371152401,0.04309617355465889,-1.09365713596344,-0.5289298295974731,-0.01771644875407219,0.011655248701572418,-12,-45,-1001,-528,-17,12,20,-67,1,153898.0
05:40:11.553,AUTO,-35.3630922,149.1648284,21429,-0.01973431371152401,0.04309617355465889,-1.09365713596344,-0.5289298295974731,-0.01771644875407219,0.011655248701572418,-12,-45,-1001,-528,-17,12,20,-67,1,153898.0
05:40:11.755,AUTO,-35.3630922,149.1648284,21429,-0.01973431371152401,0.04309617355465889,-1.09365713596344,-0.5289298295974731,-0.01771644875407219,0.011655248701572418,-12,-45,-1001,-528,-17,12,20,-67,1,153898.0
05:40:11.958,AUTO,-35.3630902,149.1648255,21422,-0.01578364707529545,0.030985871329903603,-1.093065857887268,0.5203697681427002,-0.02041839435696602,0.002822138601914048,-2,6,-1004,520,-19,3,-2,-40,-1,153898.0
05:40:12.160,AUTO,-35.3630902,149.1648255,21422,-0.01578364707529545,0.030985871329903603,-1.093065857887268,0.5203697681427002,-0.02041839435696602,0.002822138601914048,-2,6,-1004,520,-19,3,-2,-40,-1,153898.0
05:40:12.362,AUTO,-35.3630898,149.1648251,21423,-0.026125719770789146,0.027785474434494972,-1.09242582321167,-0.26513370871543884,-0.012609293684363365,0.004169469699263573,-3,-31,-1002,-265,-11,4,-8,-33,-1,153898.0
05:40:12.565,AUTO,-35.3630894,149.1648248,21425,-0.03679506108164787,0.024553989991545677,-1.0918453931808472,-0.6404504776000977,-0.0037929732352495193,-0.0005557250697165728,-4,-25,-998,-639,-3,0,-14,-28,-1,153898.0
05:40:12.766,AUTO,-35.3630892,149.1648246,21428,-0.02915940247476101,0.019786307588219643,-1.091660976409912,0.32578110694885254,-0.020628875121474266,0.004601862747222185,1,24,-999,327,-20,5,-18,-23,-2,153898.0
05:40:12.969,AUTO,-35.3630891,149.1648245,21431,-0.02321477234363556,0.014777359552681446,-1.0905801057815552,0.5939287543296814,-0.027932150289416313,-0.0009780030231922865,1,21,-996,594,-27,0,-23,-21,-1,153898.0
05:40:13.171,AUTO,-35.3630891,149.1648245,21431,-0.02321477234363556,0.014777359552681446,-1.0905801057815552,0.5939287543296814,-0.027932150289416313,-0.0009780030231922865,1,21,-996,594,-27,0,-23,-21,-1,153898.0
05:40:13.376,AUTO,-35.363089,149.1648246,21433,-0.031003175303339958,0.008492357097566128,-1.089492917060852,-0.1637246012687683,-0.025670498609542847,-0.005990210920572281,0,-23,-1002,-164,-24,-5,-27,-19,-2,153898.0
05:40:13.578,AUTO,-35.363089,149.1648246,21433,-0.031003175303339958,0.008492357097566128,-1.089492917060852,-0.1637246012687683,-0.025670498609542847,-0.005990210920572281,0,-23,-1002,-164,-24,-5,-27,-19,-2,116093.0
05:40:13.780,AUTO,-35.363089,149.1648246,21433,-0.031003175303339958,0.008492357097566128,-1.089492917060852,-0.1637246012687683,-0.025670498609542847,-0.005990210920572281,0,-23,-1002,-164,-24,-5,-27,-19,-2,116093.0
05:40:13.982,AUTO,-35.3630889,149.1648246,21440,-0.027489073574543,-0.006515998858958483,-1.0887360572814941,0.4046778380870819,0.006785572972148657,-0.0058209095150232315,-1,34,-1003,405,7,-5,-29,-21,-2,116093.0
05:40:14.184,AUTO,-35.363089,149.1648245,21443,-0.020670942962169647,-0.005727082025259733,-1.0883302688598633,0.4496471583843231,-0.014911681413650513,-0.011214406229555607,-1,9,-999,448,-14,-10,-30,-23,-1,116093.0
05:40:14.387,RTL,-35.363089,149.1648245,21443,-0.020670942962169647,-0.005727082025259733,-1.0883302688598633,0.4496471583843231,-0.014911681413650513,-0.011214406229555607,-1,9,-999,448,-14,-10,-30,-23,-1,116093.0
05:40:14.589,RTL,-35.363089,149.1648244,21446,-0.02302509732544422,-0.013754650950431824,-1.0896018743515015,-0.4153078496456146,-0.014658688567578793,-0.04325691610574722,-3,-26,-996,-416,-14,-42,-30,-25,-2,116093.0
05:40:14.791,RTL,-35.3630891,149.1648242,21447,-0.03041018731892109,-0.0038751550018787384,-1.0895323753356934,-0.478983998298645,0.04378262534737587,-0.009139672853052616,-2,-7,-1008,-478,44,-8,-28,-27,-2,116093.0
05:40:14.993,RTL,-35.3630892,149.1648239,21452,-0.016540689393877983,0.002766462741419673,-1.0896718502044678,0.3086717128753662,0.007708320859819651,-0.012384334579110146,-4,27,-1011,309,8,-12,-27,-26,-3,116093.0
05:40:15.195,RTL,-35.3630893,149.1648237,21464,-0.006907445378601551,0.0028259444516152143,-1.0899829864501953,0.5478769540786743,-0.002336453413590789,-0.015693798661231995,-3,16,-1014,547,-1,-15,-27,-24,-7,116093.0
05:40:15.398,RTL,-35.3630893,149.1648237,21464,-0.006907445378601551,0.0028259444516152143,-1.0899829864501953,0.5478769540786743,-0.002336453413590789,-0.015693798661231995,-3,16,-1014,547,-1,-15,-27,-24,-7,116093.0
05:40:15.600,RTL,-35.3630893,149.1648237,21464,-0.006907445378601551,0.0028259444516152143,-1.0899829864501953,0.5478769540786743,-0.002336453413590789,-0.015693798661231995,-3,16,-1014,547,-1,-15,-27,-24,-7,116093.0
05:40:15.802,RTL,-35.3630893,149.1648237,21464,-0.006907445378601551,0.0028259444516152143,-1.0899829864501953,0.5478769540786743,-0.002336453413590789,-0.015693798661231995,-3,16,-1014,547,-1,-15,-27,-24,-7,116093.0
05:40:16.004,RTL,-35.3630897,149.164823,21586,-0.009551388211548328,0.004787427373230457,-1.0908880233764648,0.1725243330001831,-0.006090037524700165,-0.010690460912883282,-2,19,-1044,172,-5,-10,-24,-19,-30,116093.0
05:40:16.206,RTL,-35.3630898,149.1648229,21676,-0.004685687832534313,0.004503726493567228,-1.0912638902664185,0.13032612204551697,-0.0006848611519671977,-0.01155499741435051,-1,0,-1048,129,0,-11,-23,-17,-42,116093.0
05:40:16.407,RTL,-35.3630898,149.1648229,21676,-0.004685687832534313,0.004503726493567228,-1.0912638902664185,0.13032612204551697,-0.0006848611519671977,-0.01155499741435051,-1,0,-1048,129,0,-11,-23,-17,-42,116093.0
05:40:16.609,RTL,-35.3630899,149.1648228,21796,-0.011597618460655212,0.004157498013228178,-1.0914095640182495,-0.2094922959804535,0.0005757241742685437,-0.00952135305851698,0,-7,-1048,-210,1,-9,-21,-15,-54,83014.0
