time_stamp,MODE,lat,lon,relative_alt,roll,pitch,yaw,rollspeed,pitchspeed,yawspeed,xacc,yacc,zacc,xgyro,ygyro,zgyro,vx,vy,vz,RTL_ALT
18:14:40.894,STABILIZE,-35.3632622,149.1652375,0,-0.0004124955739825964,0.0010770851513370872,0.02713778428733349,0.0003186568501405418,0.00032358142198063433,0.0021009081974625587,0,1,-1000,0,0,1,-1,1,0,1500.0
18:14:41.096,STABILIZE,-35.3632622,149.1652375,0,-0.0004124955739825964,0.0010770851513370872,0.02713778428733349,0.0003186568501405418,0.00032358142198063433,0.0021009081974625587,0,1,-1000,0,0,1,-1,1,0,1500.0
18:14:41.297,STABILIZE,-35.3632621,149.1652375,0,-0.00041420210618525743,0.0010027567623183131,0.02662568911910057,-6.339559331536293e-05,0.00020950334146618843,0.0020073067862540483,0,18,-974,0,0,0,-1,2,1,1500.0
18:14:41.498,STABILIZE,-35.3632621,149.1652375,0,-0.00041420210618525743,0.0010027567623183131,0.02662568911910057,-6.339559331536293e-05,0.00020950334146618843,0.0020073067862540483,0,18,-974,0,0,0,-1,2,1,1500.0
18:14:41.699,STABILIZE,-35.3632621,149.1652375,0,-0.00041420210618525743,0.0010027567623183131,0.02662568911910057,-6.339559331536293e-05,0.00020950334146618843,0.0020073067862540483,0,1,-1000,0,0,0,-1,2,1,1500.0
18:14:41.900,STABILIZE,-35.3632621,149.1652375,0,-0.0005342826480045915,0.0009697338682599366,0.026403000578284264,0.0001545627019368112,0.00023974973009899259,0.0020395489409565926,0,1,-1000,0,1,0,-1,2,1,1500.0
18:14:42.101,STABILIZE,-35.3632621,149.1652375,0,-0.0005342826480045915,0.0009697338682599366,0.026403000578284264,0.0001545627019368112,0.00023974973009899259,0.0020395489409565926,0,1,-1000,0,1,0,-1,2,1,1500.0
18:14:42.302,STABILIZE,-35.3632621,149.1652375,0,-0.0005342826480045915,0.0009697338682599366,0.026403000578284264,0.0001545627019368112,0.00023974973009899259,0.0020395489409565926,0,1,-1000,0,1,0,-1,2,1,1500.0
18:14:42.503,STABILIZE,-35.3632621,149.1652375,0,-0.0005342826480045915,0.0009697338682599366,0.026403000578284264,0.0001545627019368112,0.00023974973009899259,0.0020395489409565926,0,1,-1000,0,1,0,-1,2,1,1500.0
18:14:42.705,STABILIZE,-35.3632621,149.1652375,0,-0.0005342826480045915,0.0009697338682599366,0.026403000578284264,0.0001545627019368112,0.00023974973009899259,0.0020395489409565926,0,1,-1000,0,1,0,-1,2,1,1500.0
18:14:42.906,STABILIZE,-35.3632621,149.1652375,0,-0.0005342826480045915,0.0009697338682599366,0.026403000578284264,0.0001545627019368112,0.00023974973009899259,0.0020395489409565926,0,1,-1000,0,1,0,-1,2,1,1500.0
18:14:43.107,STABILIZE,-35.3632621,149.1652375,0,-0.0005342826480045915,0.0009697338682599366,0.026403000578284264,0.0001545627019368112,0.00023974973009899259,0.0020395489409565926,0,1,-1000,0,1,0,-1,2,1,1500.0
18:14:43.308,STABILIZE,-35.3632621,149.1652375,0,-0.0005342826480045915,0.0009697338682599366,0.026403000578284264,0.0001545627019368112,0.00023974973009899259,0.0020395489409565926,0,1,-1000,0,1,0,-1,2,1,1500.0
18:14:43.509,STABILIZE,-35.3632621,149.1652375,0,-0.0005342826480045915,0.0009697338682599366,0.026403000578284264,0.0001545627019368112,0.00023974973009899259,0.0020395489409565926,0,1,-1000,0,1,0,-1,2,1,1500.0
18:14:43.711,STABILIZE,-35.3632621,149.1652375,0,-0.0008729174733161926,0.0009360986296087503,0.02564413845539093,0.00032157107489183545,0.0003529926179908216,0.0018849571933969855,0,1,-1000,0,1,0,-1,2,1,1500.0
18:14:43.912,STABILIZE,-35.3632621,149.1652375,0,-0.0009144438081420958,0.0009259264334104955,0.02554512768983841,0.0001112308818846941,0.0003487349022179842,0.0018762011313810945,0,1,-1000,0,0,1,-1,1,2,1500.0
18:14:44.113,STABILIZE,-35.3632621,149.1652375,0,-0.000945462379604578,0.0009282008977606893,0.025470485910773277,0.0002168256905861199,0.00030055083334445953,0.0020287176594138145,0,2,-1000,0,0,0,-1,1,2,1500.0
18:14:44.314,STABILIZE,-35.3632621,149.1652375,0,-0.0009610347333364189,0.00093386898515746,0.025370610877871513,0.0003074328415095806,0.0002635140554048121,0.001863099168986082,0,2,-1000,0,0,1,-1,1,2,1500.0
18:14:44.515,STABILIZE,-35.3632621,149.1652375,0,-0.0009610347333364189,0.00093386898515746,0.025370610877871513,0.0003074328415095806,0.0002635140554048121,0.001863099168986082,0,2,-1000,0,0,1,-1,1,2,1500.0
18:14:44.717,STABILIZE,-35.3632621,149.1652375,0,-0.0009610347333364189,0.00093386898515746,0.025370610877871513,0.0003074328415095806,0.0002635140554048121,0.001863099168986082,0,2,-1000,0,0,1,-1,1,2,1500.0
18:14:44.918,STABILIZE,-35.3632621,149.1652375,0,-0.0009610347333364189,0.00093386898515746,0.025370610877871513,0.0003074328415095806,0.0002635140554048121,0.001863099168986082,0,2,-1000,0,0,1,-1,1,2,1500.0
18:14:45.119,STABILIZE,-35.3632621,149.1652375,0,-0.0009610347333364189,0.00093386898515746,0.025370610877871513,0.0003074328415095806,0.0002635140554048121,0.001863099168986082,0,2,-1000,0,0,1,-1,1,2,1500.0
18:14:45.320,STABILIZE,-35.3632621,149.1652375,0,-0.0009610347333364189,0.00093386898515746,0.025370610877871513,0.0003074328415095806,0.0002635140554048121,0.001863099168986082,0,2,-1000,0,0,1,-1,1,2,1500.0
18:14:45.521,STABILIZE,-35.3632621,149.1652375,0,-0.0009610347333364189,0.00093386898515746,0.025370610877871513,0.0003074328415095806,0.0002635140554048121,0.001863099168986082,0,1,-1000,1,0,0,-1,1,1,1500.0
18:14:45.723,STABILIZE,-35.3632621,149.1652375,0,-0.0009610347333364189,0.00093386898515746,0.025370610877871513,0.0003074328415095806,0.0002635140554048121,0.001863099168986082,0,1,-1000,1,0,0,-1,1,1,1500.0
18:14:45.924,STABILIZE,-35.3632621,149.1652375,0,-0.0009610347333364189,0.00093386898515746,0.025370610877871513,0.0003074328415095806,0.0002635140554048121,0.001863099168986082,0,1,-1000,1,0,0,-1,1,1,1500.0
18:14:46.125,STABILIZE,-35.3632621,149.1652375,0,-0.0009013590752147138,0.0009479038999415934,0.024759475141763687,0.00023879518266767263,0.0001751751988194883,0.001842657569795847,0,1,-1000,0,0,0,-1,1,1,1500.0
18:14:46.326,STABILIZE,-35.3632621,149.1652375,0,-0.0009013590752147138,0.0009479038999415934,0.024759475141763687,0.00023879518266767263,0.0001751751988194883,0.001842657569795847,0,1,-1000,0,0,0,-1,1,1,1500.0
18:14:46.527,STABILIZE,-35.3632621,149.1652375,0,-0.000921884085983038,0.0009587454842403531,0.02460337243974209,0.00023903307737782598,0.0003256380441598594,0.001731049851514399,0,2,-1000,0,1,0,-1,1,1,1500.0
18:14:46.729,STABILIZE,-35.3632621,149.1652375,0,-0.000921884085983038,0.0009587454842403531,0.02460337243974209,0.00023903307737782598,0.0003256380441598594,0.001731049851514399,0,2,-1000,0,1,0,-1,1,1,1500.0
18:14:46.930,STABILIZE,-35.3632621,149.1652375,0,-0.000921884085983038,0.0009587454842403531,0.02460337243974209,0.00023903307737782598,0.0003256380441598594,0.001731049851514399,0,2,-1000,0,1,0,-1,1,1,1500.0
18:14:47.131,STABILIZE,-35.3632621,149.1652375,0,-0.000921884085983038,0.0009587454842403531,0.02460337243974209,0.00023903307737782598,0.0003256380441598594,0.001731049851514399,0,2,-1000,0,1,0,-1,1,1,1500.0
18:14:47.332,STABILIZE,-35.3632621,149.1652375,0,-0.000921884085983038,0.0009587454842403531,0.02460337243974209,0.00023903307737782598,0.0003256380441598594,0.001731049851514399,0,2,-1000,0,1,0,-1,1,1,1500.0
18:14:47.533,STABILIZE,-35.3632621,149.1652375,0,-0.0009630195563659072,0.0009710318990983069,0.024274790659546852,0.00016471388516947627,0.00024240475613623857,0.001815534196794033,0,2,-1000,0,1,0,-1,1,1,1500.0
18:14:47.735,STABILIZE,-35.3632621,149.1652375,0,-0.0009630195563659072,0.0009710318990983069,0.024274790659546852,0.00016471388516947627,0.00024240475613623857,0.001815534196794033,0,2,-1000,0,1,0,-1,1,1,1500.0
18:14:47.936,STABILIZE,-35.3632621,149.1652375,0,-0.0009630195563659072,0.0009710318990983069,0.024274790659546852,0.00016471388516947627,0.00024240475613623857,0.001815534196794033,0,2,-1000,0,1,0,-1,1,1,1500.0
18:14:48.137,STABILIZE,-35.3632621,149.1652375,0,-0.0009630195563659072,0.0009710318990983069,0.024274790659546852,0.00016471388516947627,0.00024240475613623857,0.001815534196794033,0,2,-1000,0,1,0,-1,1,1,1500.0
18:14:48.338,STABILIZE,-35.3632622,149.1652375,0,-0.0008439781959168613,0.0009719119989313185,0.024051453918218613,0.0002220753813162446,0.00029907049611210823,0.0017675848212093115,0,3,-998,0,0,0,-1,0,0,1500.0
18:14:48.539,STABILIZE,-35.3632622,149.1652375,0,-0.0008439781959168613,0.0009719119989313185,0.024051453918218613,0.0002220753813162446,0.00029907049611210823,0.0017675848212093115,0,3,-998,0,0,0,-1,0,0,1500.0
18:14:48.740,STABILIZE,-35.3632622,149.1652375,0,-0.0008439781959168613,0.0009719119989313185,0.024051453918218613,0.0002220753813162446,0.00029907049611210823,0.0017675848212093115,0,3,-998,0,0,0,-1,0,0,1500.0
18:14:48.941,STABILIZE,-35.3632622,149.1652375,0,-0.0008439781959168613,0.0009719119989313185,0.024051453918218613,0.0002220753813162446,0.00029907049611210823,0.0017675848212093115,0,3,-998,0,0,0,-1,0,0,1500.0
18:14:49.143,STABILIZE,-35.3632622,149.1652375,0,-0.0008439781959168613,0.0009719119989313185,0.024051453918218613,0.0002220753813162446,0.00029907049611210823,0.0017675848212093115,0,3,-998,0,0,0,-1,0,0,1500.0
18:14:49.344,STABILIZE,-35.3632622,149.1652375,0,-0.0008439781959168613,0.0009719119989313185,0.024051453918218613,0.0002220753813162446,0.00029907049611210823,0.0017675848212093115,0,3,-998,0,0,0,-1,0,0,1500.0
18:14:49.545,STABILIZE,-35.3632622,149.1652375,0,-0.0007607274455949664,0.0009636175818741322,0.02368481084704399,0.00033553445246070623,0.0003303854609839618,0.001616838970221579,0,3,-998,0,0,0,-1,0,0,1500.0
18:14:49.746,STABILIZE,-35.3632622,149.1652375,0,-0.0007607274455949664,0.0009636175818741322,0.02368481084704399,0.00033553445246070623,0.0003303854609839618,0.001616838970221579,0,3,-998,0,0,0,-1,0,0,1500.0
18:14:49.947,STABILIZE,-35.3632622,149.1652375,0,-0.0007607274455949664,0.0009636175818741322,0.02368481084704399,0.00033553445246070623,0.0003303854609839618,0.001616838970221579,0,1,-1000,0,0,0,-1,0,0,1500.0
18:14:50.148,STABILIZE,-35.3632622,149.1652375,0,-0.000731207721401006,0.0009509633528068662,0.02354351058602333,0.00033987301867455244,0.00026779482141137123,0.0016747592017054558,0,2,-1000,0,0,0,-1,1,0,1500.0
18:14:50.349,STABILIZE,-35.3632622,149.1652375,0,-0.0007171835168264806,0.0009567973320372403,0.023456741124391556,0.0002974348026327789,0.00014417775673791766,0.001655759522691369,0,1,-1000,0,0,0,-1,1,0,1500.0
18:14:50.551,STABILIZE,-35.3632622,149.1652375,0,-0.0007171835168264806,0.0009567973320372403,0.023456741124391556,0.0002974348026327789,0.00014417775673791766,0.001655759522691369,0,1,-1000,0,0,0,-1,1,0,1500.0
18:14:50.752,STABILIZE,-35.3632622,149.1652375,0,-0.0007171835168264806,0.0009567973320372403,0.023456741124391556,0.0002974348026327789,0.00014417775673791766,0.001655759522691369,0,1,-1000,0,0,0,-1,1,0,1500.0
18:14:50.953,STABILIZE,-35.3632622,149.1652375,0,-0.0007171835168264806,0.0009567973320372403,0.023456741124391556,0.0002974348026327789,0.00014417775673791766,0.001655759522691369,0,1,-1000,0,0,0,-1,1,0,1500.0
18:14:51.155,STABILIZE,-35.3632622,149.1652375,0,-0.0007171835168264806,0.0009567973320372403,0.023456741124391556,0.0002974348026327789,0.00014417775673791766,0.001655759522691369,0,1,-1000,0,0,0,-1,1,0,1500.0
18:14:51.356,STABILIZE,-35.3632622,149.1652375,0,-0.000713003275450319,0.0009715274209156632,0.023143354803323746,0.0002832150203175843,0.00026459520449861884,0.0017210799269378185,0,1,-1000,0,0,0,-1,1,0,1500.0
18:14:51.557,STABILIZE,-35.3632622,149.1652375,0,-0.0007280067075043917,0.0009748616721481085,0.023084096610546112,0.0001961988746188581,0.0003283245605416596,0.0016132525634020567,0,1,-1000,0,0,0,-1,1,0,1500.0
18:14:51.758,STABILIZE,-35.3632622,149.1652375,0,-0.0007280067075043917,0.0009748616721481085,0.023084096610546112,0.0001961988746188581,0.0003283245605416596,0.0016132525634020567,0,1,-1000,0,0,0,-1,1,0,1500.0
18:14:51.959,STABILIZE,-35.3632622,149.1652375,0,-0.0007466035895049572,0.000984234968200326,0.023001857101917267,0.0003987469244748354,0.0004095626645721495,0.001530046807602048,0,2,-999,1,0,1,-1,0,-2,1500.0
18:14:52.160,STABILIZE,-35.3632622,149.1652375,0,-0.0007376314024440944,0.0009763785637915134,0.022925246506929398,0.0003423864836804569,0.00021758303046226501,0.0017238615546375513,0,2,-1000,0,0,1,-1,0,-2,1500.0
18:14:52.361,STABILIZE,-35.3632622,149.1652375,0,-0.0006908586365170777,0.00097660964820534,0.02286331169307232,0.00027015694649890065,0.00017434288747608662,0.0014622212620452046,0,1,-1000,0,1,1,-1,0,-2,1500.0
18:14:52.563,STABILIZE,-35.3632622,149.1652375,0,-0.0006344654830172658,0.0009768386371433735,0.022805439308285713,0.0003643818781711161,0.00033475138479843736,0.0016251736087724566,0,2,-1000,1,1,0,-1,0,-2,1500.0
18:14:52.764,STABILIZE,-35.3632622,149.1652375,0,-0.0006344654830172658,0.0009768386371433735,0.022805439308285713,0.0003643818781711161,0.00033475138479843736,0.0016251736087724566,0,2,-1000,1,1,0,-1,0,-2,1500.0
18:14:52.966,STABILIZE,-35.3632622,149.1652375,0,-0.0006344654830172658,0.0009768386371433735,0.022805439308285713,0.0003643818781711161,0.00033475138479843736,0.0016251736087724566,0,2,-1000,1,1,0,-1,0,-2,1500.0
18:14:53.167,STABILIZE,-35.3632622,149.1652375,0,-0.0006344654830172658,0.0009768386371433735,0.022805439308285713,0.0003643818781711161,0.00033475138479843736,0.0016251736087724566,0,2,-1000,1,1,0,-1,0,-2,1500.0
18:14:53.368,STABILIZE,-35.3632622,149.1652375,0,-0.0005207255599088967,0.0009897645795717835,0.022626787424087524,0.0002792226732708514,0.0002653556875884533,0.0016035278094932437,0,2,-1000,0,0,0,-1,0,-1,1500.0
18:14:53.570,STABILIZE,-35.3632622,149.1652375,0,-0.0005207255599088967,0.0009897645795717835,0.022626787424087524,0.0002792226732708514,0.0002653556875884533,0.0016035278094932437,0,2,-1000,0,0,0,-1,1,-1,1500.0
18:14:53.771,STABILIZE,-35.3632622,149.1652375,0,-0.0005207255599088967,0.0009897645795717835,0.022626787424087524,0.0002792226732708514,0.0002653556875884533,0.0016035278094932437,0,2,-1000,0,0,0,-1,1,-1,1500.0
18:14:53.973,AUTO,-35.3632622,149.1652375,0,-0.0004838564491365105,0.0009927349165081978,0.02245551347732544,0.00033031165366992354,0.00018081424059346318,0.0015146788209676743,0,1,-1000,0,0,1,-1,1,-1,1500.0
18:14:54.174,AUTO,-35.3632622,149.1652375,10,-0.00047053975868038833,0.0010036949533969164,0.022421391680836678,0.0003363434807397425,0.0003903715987689793,0.001415379112586379,0,1,-1000,1,0,1,-1,1,-1,257581.0
18:14:54.376,AUTO,-35.3632622,149.1652375,10,-0.00046012713573873043,0.001007653190754354,0.022321311756968498,0.00040693028131499887,0.0003644318785518408,0.0013736886903643608,0,2,-1000,0,0,1,-1,1,0,257581.0
18:14:54.577,AUTO,-35.3632622,149.1652375,10,-0.00045703520299866796,0.0010142294922843575,0.022243976593017578,0.00033866509329527617,0.00025338836712762713,0.0014430651208385825,0,2,-1000,0,0,0,-1,1,0,257581.0
18:14:54.783,AUTO,-35.3632622,149.1652375,10,-0.00045703520299866796,0.0010142294922843575,0.022243976593017578,0.00033866509329527617,0.00025338836712762713,0.0014430651208385825,0,2,-1000,0,0,0,-1,1,0,257581.0
18:14:54.987,AUTO,-35.3632622,149.1652375,10,-0.00045703520299866796,0.0010142294922843575,0.022243976593017578,0.00033866509329527617,0.00025338836712762713,0.0014430651208385825,0,2,-1000,0,0,0,-1,1,0,257581.0
18:14:55.189,AUTO,-35.3632622,149.1652375,10,-0.00045703520299866796,0.0010142294922843575,0.022243976593017578,0.00033866509329527617,0.00025338836712762713,0.0014430651208385825,0,2,-1000,0,0,0,-1,1,0,257581.0
18:14:55.390,AUTO,-35.3632621,149.1652375,10,-0.0002268617827212438,0.0010959795909002423,0.022026168182492256,0.00024891423527151346,0.0003035735571756959,0.0014199893921613693,0,1,-1000,0,1,1,0,0,0,257581.0
18:14:55.591,AUTO,-35.3632621,149.1652375,10,-0.00017841059889178723,0.001145611866377294,0.021964970976114273,0.0003663621610030532,0.00018564396305009723,0.0014192013768479228,0,2,-1000,0,0,0,0,0,0,257581.0
18:14:55.793,AUTO,-35.3632621,149.1652375,9,-0.00012303954281378537,0.0011998597765341401,0.021878350526094437,0.0002634483971633017,0.00030130386585369706,0.0013183718547224998,0,1,-1000,0,1,0,0,0,0,257581.0
18:14:55.994,AUTO,-35.3632621,149.1652375,9,-0.00012303954281378537,0.0011998597765341401,0.021878350526094437,0.0002634483971633017,0.00030130386585369706,0.0013183718547224998,0,1,-1000,0,1,0,0,0,0,257581.0
18:14:56.196,AUTO,-35.3632621,149.1652375,9,-6.7726599809248e-05,0.0012632074067369103,0.021796230226755142,0.00036038924008607864,0.00021233572624623775,0.0015500131994485855,0,1,-1000,1,0,0,0,0,0,257581.0
18:14:56.397,AUTO,-35.3632621,149.1652375,8,-5.100735961605096e-06,0.0013313171220943332,0.021717233583331108,0.00039248872781172395,0.0001036312896758318,0.0015223032096400857,0,1,-1000,0,0,0,0,0,0,257581.0
18:14:56.599,AUTO,-35.3632621,149.1652375,8,5.6245124142151326e-05,0.0013979278737679124,0.021649621427059174,0.0003177932230755687,0.0002703024656511843,0.0013930895365774632,0,1,-1000,1,1,1,0,0,0,257581.0
18:14:56.800,AUTO,-35.3632621,149.1652375,8,5.6245124142151326e-05,0.0013979278737679124,0.021649621427059174,0.0003177932230755687,0.0002703024656511843,0.0013930895365774632,0,1,-1000,1,1,1,0,0,0,257581.0
18:14:57.002,AUTO,-35.3632621,149.1652375,8,5.6245124142151326e-05,0.0013979278737679124,0.021649621427059174,0.0003177932230755687,0.0002703024656511843,0.0013930895365774632,0,1,-1000,1,1,1,0,0,0,257581.0
18:14:57.203,AUTO,-35.3632621,149.1652375,8,5.6245124142151326e-05,0.0013979278737679124,0.021649621427059174,0.0003177932230755687,0.0002703024656511843,0.0013930895365774632,0,1,-1000,1,1,1,0,0,0,250897.0
18:14:57.405,AUTO,-35.3632621,149.1652375,6,0.0002713815774768591,0.0016150778392329812,0.02139727585017681,0.0003843863378278911,0.00032684364123269916,0.0014207027852535248,0,1,-1000,1,0,1,0,0,0,250897.0
18:14:57.607,AUTO,-35.3632621,149.1652375,6,0.00035559991374611855,0.001687010983005166,0.02130165696144104,0.0004172417684458196,0.0002669540117494762,0.0013519433559849858,0,2,-1000,1,0,0,0,0,0,250897.0
18:14:57.808,AUTO,-35.3632621,149.1652375,7,0.0012378008104860783,0.0010210371110588312,0.02127121388912201,0.0064311558380723,-0.009071783162653446,0.001959074754267931,0,0,-1089,7,-8,1,0,0,-4,250897.0
18:14:58.010,AUTO,-35.3632621,149.1652375,7,0.0012378008104860783,0.0010210371110588312,0.02127121388912201,0.0064311558380723,-0.009071783162653446,0.001959074754267931,0,0,-1089,7,-8,1,0,0,-4,250897.0
18:14:58.211,AUTO,-35.3632621,149.1652375,65,0.0035402406938374043,-0.0005663697374984622,0.021344954147934914,0.010552925057709217,-0.001187600428238511,-8.412459283135831e-05,0,0,-1141,11,0,0,0,0,-38,250897.0
18:14:58.413,AUTO,-35.3632621,149.1652375,206,0.0030182250775396824,0.0002702493511606008,0.021313626319169998,-0.005562773905694485,0.004407905973494053,0.0028333435766398907,0,0,-1129,-4,5,2,0,0,-71,250897.0
18:14:58.615,AUTO,-35.3632621,149.1652375,421,0.0021565330680459738,0.0011405916884541512,0.021307989954948425,-0.004453440196812153,0.0024727988056838512,0.002938068239018321,0,0,-1108,-3,2,2,0,0,-100,250897.0
18:14:58.816,AUTO,-35.3632621,149.1652375,421,0.0021565330680459738,0.0011405916884541512,0.021307989954948425,-0.004453440196812153,0.0024727988056838512,0.002938068239018321,0,0,-1108,-3,2,2,0,0,-100,250897.0
18:14:59.018,AUTO,-35.3632621,149.1652375,421,0.0021565330680459738,0.0011405916884541512,0.021307989954948425,-0.004453440196812153,0.0024727988056838512,0.002938068239018321,0,0,-1108,-3,2,2,0,0,-100,250897.0
18:14:59.220,AUTO,-35.3632621,149.1652375,421,0.0021565330680459738,0.0011405916884541512,0.021307989954948425,-0.004453440196812153,0.0024727988056838512,0.002938068239018321,0,0,-1108,-3,2,2,0,0,-100,250897.0
18:14:59.422,AUTO,-35.3632621,149.1652375,1402,0.02350909821689129,-0.0009922446915879846,0.020970100536942482,0.047250740230083466,-0.007578197866678238,0.0022146969567984343,0,0,-1017,47,-6,1,0,5,-144,250897.0
18:14:59.623,AUTO,-35.363262,149.1652377,1779,0.034980084747076035,-0.0029147870372980833,0.02110866643488407,0.04511642083525658,-0.007711442187428474,0.0029507826548069715,0,-1,-1007,45,-6,2,1,11,-146,250897.0
18:14:59.824,AUTO,-35.3632619,149.1652381,2161,0.04586920887231827,-0.00516038341447711,0.02131813019514084,0.04247181490063667,-0.009631332010030746,0.0034327504690736532,1,-3,-1002,43,-8,2,3,20,-147,250897.0
18:15:00.026,AUTO,-35.3632618,149.1652387,2544,0.05601980909705162,-0.007714546751230955,0.021519146859645844,0.03934110701084137,-0.010875070467591286,0.003383121220394969,0,-4,-1000,39,-10,3,5,31,-147,250897.0
18:15:00.228,AUTO,-35.3632618,149.1652387,2544,0.05601980909705162,-0.007714546751230955,0.021519146859645844,0.03934110701084137,-0.010875070467591286,0.003383121220394969,0,-4,-1000,39,-10,3,5,31,-147,250897.0
18:15:00.429,AUTO,-35.3632616,149.1652397,2936,0.06294750422239304,-0.008914456702768803,-0.009897627867758274,-0.00770238833501935,0.019565211609005928,-0.04616015776991844,2,-8,-993,-7,20,-46,8,43,-146,250897.0
18:15:00.631,AUTO,-35.3632614,149.165241,3314,0.041501160711050034,0.013483838178217411,-0.032619133591651917,-0.14032746851444244,0.09594347327947617,-0.10192305594682693,3,-10,-991,-139,96,-102,10,53,-144,250897.0
18:15:00.833,AUTO,-35.3632614,149.165241,3314,0.041501160711050034,0.013483838178217411,-0.032619133591651917,-0.14032746851444244,0.09594347327947617,-0.10192305594682693,3,-10,-991,-139,96,-102,10,53,-144,250897.0
18:15:01.035,AUTO,-35.3632614,149.165241,3314,0.041501160711050034,0.013483838178217411,-0.032619133591651917,-0.14032746851444244,0.09594347327947617,-0.10192305594682693,3,-10,-991,-139,96,-102,10,53,-144,250897.0
18:15:01.248,AUTO,-35.3632614,149.165241,3314,0.041501160711050034,0.013483838178217411,-0.032619133591651917,-0.14032746851444244,0.09594347327947617,-0.10192305594682693,3,-10,-991,-139,96,-102,10,53,-144,199479.0
18:15:01.450,AUTO,-35.3632608,149.165245,4439,-0.02168307639658451,-0.014924660325050354,-0.04134003818035126,-0.015258385799825191,-0.05455279350280762,0.011591394431889057,3,-8,-1003,-14,-53,11,8,39,-148,199479.0
18:15:01.652,AUTO,-35.3632606,149.165246,4822,-0.0339166559278965,-0.013079525902867317,-0.04824841022491455,-0.06903994828462601,0.05334174633026123,-0.06181427463889122,1,-9,-999,-68,54,-61,13,30,-148,199479.0
18:15:01.854,AUTO,-35.3632602,149.1652466,5205,-0.05547807365655899,0.0041837552562355995,-0.07024239748716354,-0.0970224067568779,0.07677699625492096,-0.09638038277626038,1,-7,-999,-96,77,-96,14,16,-147,199479.0
18:15:02.055,AUTO,-35.36326,149.1652468,5586,-0.08303586393594742,0.01948283426463604,-0.09729091078042984,-0.11203958839178085,0.05954013019800186,-0.10162430256605148,-1,-3,-999,-111,60,-101,9,-2,-146,199479.0
18:15:02.257,AUTO,-35.36326,149.1652468,5586,-0.08303586393594742,0.01948283426463604,-0.09729091078042984,-0.11203958839178085,0.05954013019800186,-0.10162430256605148,-1,-3,-999,-111,60,-101,9,-2,-146,199479.0
18:15:02.459,AUTO,-35.3632598,149.1652464,5967,-0.08517828583717346,0.023309100419282913,-0.11571162939071655,0.04157625511288643,0.0044775428250432014,-0.06094701215624809,-2,1,-1005,42,5,-61,1,-23,-147,199479.0
18:15:02.661,AUTO,-35.3632599,149.1652456,6349,-0.07292930036783218,0.023057078942656517,-0.1283896565437317,0.05481112375855446,0.0039869192987680435,-0.04403170198202133,-4,5,-1001,55,4,-44,-6,-42,-147,199479.0
18:15:02.863,AUTO,-35.3632599,149.1652456,6349,-0.07292930036783218,0.023057078942656517,-0.1283896565437317,0.05481112375855446,0.0039869192987680435,-0.04403170198202133,-4,5,-1001,55,4,-44,-6,-42,-147,199479.0
18:15:03.065,AUTO,-35.3632599,149.1652456,6349,-0.07292930036783218,0.023057078942656517,-0.1283896565437317,0.05481112375855446,0.0039869192987680435,-0.04403170198202133,-4,5,-1001,55,4,-44,-6,-42,-147,199479.0
18:15:03.267,AUTO,-35.3632599,149.1652456,6349,-0.07292930036783218,0.023057078942656517,-0.1283896565437317,0.05481112375855446,0.0039869192987680435,-0.04403170198202133,-4,5,-1001,55,4,-44,-6,-42,-147,199479.0
18:15:03.469,AUTO,-35.363261,149.1652407,7498,-0.02479715459048748,0.02691032737493515,-0.1471492052078247,0.07380365580320358,0.007002926431596279,-0.012999627739191055,-5,15,-1003,74,7,-13,-30,-69,-147,199479.0
18:15:03.670,AUTO,-35.3632617,149.1652387,7879,-0.006395532283931971,0.02839306741952896,-0.14908359944820404,0.0749892070889473,0.0051141157746315,-0.007943911477923393,-3,20,-1004,75,6,-8,-38,-68,-148,199479.0
18:15:03.872,AUTO,-35.3632626,149.1652369,8264,0.012081385590136051,0.029133323580026627,-0.14972464740276337,0.07437346130609512,0.0012163994833827019,-0.00469409953802824,-1,17,-1005,75,2,-5,-44,-63,-149,199479.0
18:15:04.073,AUTO,-35.3632637,149.1652352,8651,0.031105397269129753,0.028699925169348717,-0.14905695617198944,0.07617415487766266,-0.004552856553345919,0.0004099365323781967,0,20,-1005,76,-3,0,-50,-53,-150,199479.0
18:15:04.275,AUTO,-35.3632637,149.1652352,8651,0.031105397269129753,0.028699925169348717,-0.14905695617198944,0.07617415487766266,-0.004552856553345919,0.0004099365323781967,0,20,-1005,76,-3,0,-50,-53,-150,199479.0
18:15:04.477,AUTO,-35.3632648,149.1652339,9040,0.04163504019379616,0.02026670053601265,-0.14068685472011566,-0.013105381280183792,-0.08076757192611694,0.07411431521177292,3,16,-997,-12,-79,74,-53,-39,-150,199479.0
18:15:04.679,AUTO,-35.363266,149.1652329,9428,0.03215505927801132,-0.011324918828904629,-0.11445314437150955,-0.03585134819149971,-0.13520130515098572,0.11838679760694504,3,15,-1001,-35,-134,117,-51,-27,-149,199479.0
18:15:04.881,AUTO,-35.363266,149.1652329,9428,0.03215505927801132,-0.011324918828904629,-0.11445314437150955,-0.03585134819149971,-0.13520130515098572,0.11838679760694504,3,15,-1001,-35,-134,117,-51,-27,-149,199479.0
18:15:05.092,AUTO,-35.363266,149.1652329,9428,0.03215505927801132,-0.011324918828904629,-0.11445314437150955,-0.03585134819149971,-0.13520130515098572,0.11838679760694504,3,15,-1001,-35,-134,117,-51,-27,-149,199479.0
18:15:05.294,AUTO,-35.3632684,149.1652316,10601,0.056563522666692734,-0.058493614196777344,-0.0533011257648468,0.04637753963470459,-0.03028181940317154,0.06162518635392189,3,5,-1001,46,-29,61,-13,3,-152,185931.0
18:15:05.496,AUTO,-35.3632684,149.1652316,10601,0.056563522666692734,-0.058493614196777344,-0.0533011257648468,0.04637753963470459,-0.03028181940317154,0.06162518635392189,3,5,-1001,46,-29,61,-13,3,-152,185931.0
18:15:05.697,AUTO,-35.3632685,149.1652318,10993,0.06405774503946304,-0.06785733252763748,-0.039036333560943604,0.019414545968174934,-0.042099032551050186,0.06911009550094604,2,0,-997,20,-41,68,3,16,-151,185931.0
18:15:05.899,AUTO,-35.3632683,149.1652322,11380,0.06672685593366623,-0.07950573414564133,-0.023943843320012093,0.019436372444033623,-0.03647547587752342,0.06316905468702316,0,-3,-997,19,-35,62,22,30,-149,185931.0
18:15:06.101,AUTO,-35.3632676,149.1652332,11765,0.07107865810394287,-0.08668069541454315,-0.011379323899745941,0.026446955278515816,-0.012766610831022263,0.04737912118434906,-1,-9,-995,26,-11,46,43,43,-147,185931.0
18:15:06.302,AUTO,-35.3632664,149.1652345,12141,0.06548261642456055,-0.08346644043922424,-0.008586038835346699,-0.11887919902801514,0.06851393729448318,-0.03895048052072525,-5,-15,-982,-118,69,-39,64,56,-143,185931.0
18:15:06.504,AUTO,-35.3632664,149.1652345,12141,0.06548261642456055,-0.08346644043922424,-0.008586038835346699,-0.11887919902801514,0.06851393729448318,-0.03895048052072525,-5,-15,-982,-118,69,-39,64,56,-143,185931.0
18:15:06.706,AUTO,-35.3632648,149.165236,12505,0.02213468588888645,-0.049174148589372635,-0.033838290721178055,-0.16314171254634857,0.1561148315668106,-0.1239892840385437,-8,-20,-1005,-162,156,-124,79,60,-140,185931.0
18:15:06.908,AUTO,-35.3632648,149.165236,12505,0.02213468588888645,-0.049174148589372635,-0.033838290721178055,-0.16314171254634857,0.1561148315668106,-0.1239892840385437,-8,-20,-1005,-162,156,-124,79,60,-140,185931.0
18:15:07.110,AUTO,-35.3632648,149.165236,12505,0.02213468588888645,-0.049174148589372635,-0.033838290721178055,-0.16314171254634857,0.1561148315668106,-0.1239892840385437,-8,-20,-1005,-162,156,-124,79,60,-140,185931.0
18:15:07.313,AUTO,-35.3632592,149.1652401,13633,-0.02178758569061756,0.02547794207930565,-0.13467125594615936,-0.009852899238467216,0.05608871206641197,-0.10799946635961533,-9,-19,-1012,-9,56,-108,76,37,-151,185931.0
18:15:07.515,AUTO,-35.3632592,149.1652401,13633,-0.02178758569061756,0.02547794207930565,-0.13467125594615936,-0.009852899238467216,0.05608871206641197,-0.10799946635961533,-9,-19,-1012,-9,56,-108,76,37,-151,185931.0
18:15:07.716,AUTO,-35.3632575,149.1652409,14025,-0.02049895189702511,0.03431914374232292,-0.1582125872373581,0.014703679829835892,0.026652954518795013,-0.08199157565832138,-9,-16,-1006,15,27,-81,65,27,-153,185931.0
18:15:07.918,AUTO,-35.3632561,149.1652416,14421,-0.0268289465457201,0.04055716469883919,-0.1756376028060913,-0.2853149175643921,0.0022906058002263308,-0.012769822962582111,-9,-22,-954,-284,2,-13,53,20,-151,185931.0
18:15:08.120,AUTO,-35.363255,149.1652419,14809,-0.0769200250506401,0.04168988764286041,-0.18877103924751282,-0.08964879810810089,0.035181932151317596,-0.07179737836122513,-4,-11,-1008,-88,35,-71,40,4,-150,185931.0
18:15:08.322,AUTO,-35.3632543,149.1652418,15198,-0.08251116424798965,0.051897305995225906,-0.20622511208057404,0.015368903987109661,0.04177612438797951,-0.05826037377119064,-7,-4,-1007,16,42,-58,23,-14,-151,185931.0
18:15:08.524,AUTO,-35.3632543,149.1652418,15198,-0.08251116424798965,0.051897305995225906,-0.20622511208057404,0.015368903987109661,0.04177612438797951,-0.05826037377119064,-7,-4,-1007,16,42,-58,23,-14,-151,185931.0
18:15:08.726,AUTO,-35.3632539,149.1652411,15587,-0.07403193414211273,0.05700309947133064,-0.21803554892539978,0.04657400771975517,0.016318373382091522,-0.03991643339395523,-6,0,-1001,46,17,-40,5,-31,-151,185931.0
18:15:08.927,AUTO,-35.3632539,149.1652411,15587,-0.07403193414211273,0.05700309947133064,-0.21803554892539978,0.04657400771975517,0.016318373382091522,-0.03991643339395523,-6,0,-1001,46,17,-40,5,-31,-151,185931.0
18:15:09.129,AUTO,-35.3632539,149.1652411,15587,-0.07403193414211273,0.05700309947133064,-0.21803554892539978,0.04657400771975517,0.016318373382091522,-0.03991643339395523,-6,0,-1001,46,17,-40,5,-31,-151,185931.0
18:15:09.332,AUTO,-35.3632551,149.1652373,16743,-0.030668556690216064,0.06258440762758255,-0.2329208254814148,0.07065212726593018,0.003544311737641692,-0.0128181092441082,-5,15,-1001,71,4,-13,-47,-55,-148,300000.0
18:15:09.534,AUTO,-35.3632562,149.1652357,17126,-0.012838396243751049,0.06233232095837593,-0.23361746966838837,0.07460953295230865,-0.0031342078000307083,-0.006926927249878645,0,17,-1002,75,-2,-7,-61,-54,-148,300000.0
18:15:09.736,AUTO,-35.3632562,149.1652357,17126,-0.012838396243751049,0.06233232095837593,-0.23361746966838837,0.07460953295230865,-0.0031342078000307083,-0.006926927249878645,0,17,-1002,75,-2,-7,-61,-54,-148,300000.0
18:15:09.937,AUTO,-35.3632577,149.1652342,17508,0.006142349448055029,0.06041931360960007,-0.23312000930309296,0.07791696488857269,-0.011455444619059563,-0.0007293837843462825,0,21,-1003,78,-10,0,-75,-48,-149,300000.0
18:15:10.139,AUTO,-35.3632595,149.1652329,17892,0.025641432031989098,0.056352972984313965,-0.23158466815948486,0.07985013723373413,-0.018766991794109344,0.001441535772755742,3,19,-1004,80,-17,0,-85,-38,-149,300000.0
18:15:10.341,AUTO,-35.3632614,149.165232,18277,0.0453173890709877,0.049713414162397385,-0.229106605052948,0.07856564223766327,-0.030888501554727554,0.00638923654332757,11,20,-1005,79,-30,6,-92,-23,-150,300000.0
18:15:10.543,AUTO,-35.3632635,149.1652315,18663,0.06453967094421387,0.04077422618865967,-0.22681964933872223,0.0763743668794632,-0.04018650949001312,0.009271478280425072,7,18,-1004,77,-39,9,-96,-5,-150,300000.0
18:15:10.745,AUTO,-35.3632635,149.1652315,18663,0.06453967094421387,0.04077422618865967,-0.22681964933872223,0.0763743668794632,-0.04018650949001312,0.009271478280425072,7,18,-1004,77,-39,9,-96,-5,-150,300000.0
18:15:10.947,AUTO,-35.3632635,149.1652315,18663,0.06453967094421387,0.04077422618865967,-0.22681964933872223,0.0763743668794632,-0.04018650949001312,0.009271478280425072,7,18,-1004,77,-39,9,-96,-5,-150,300000.0
18:15:11.149,AUTO,-35.3632635,149.1652315,18663,0.06453967094421387,0.04077422618865967,-0.22681964933872223,0.0763743668794632,-0.04018650949001312,0.009271478280425072,7,18,-1004,77,-39,9,-96,-5,-150,300000.0
18:15:11.350,AUTO,-35.3632695,149.1652335,19820,0.09431246668100357,-0.021298754960298538,-0.20305484533309937,-0.03561963513493538,-0.15958796441555023,0.10312728583812714,24,7,-1002,-34,-158,102,-78,63,-148,300000.0
18:15:11.552,AUTO,-35.363271,149.1652353,20201,0.08110177516937256,-0.06770750135183334,-0.1753767430782318,-0.048932332545518875,-0.1793840080499649,0.1415562629699707,22,-2,-1008,-48,-178,141,-57,80,-149,300000.0
18:15:11.754,AUTO,-35.363271,149.1652353,20201,0.08110177516937256,-0.06770750135183334,-0.1753767430782318,-0.048932332545518875,-0.1793840080499649,0.1415562629699707,22,-2,-1008,-48,-178,141,-57,80,-149,300000.0
18:15:11.955,AUTO,-35.3632719,149.1652376,20584,0.06573047488927841,-0.11346559226512909,-0.14100199937820435,-0.048820994794368744,-0.16439391672611237,0.16738781332969666,22,-4,-1008,-48,-163,167,-27,90,-149,300000.0
18:15:12.157,AUTO,-35.3632721,149.1652401,20969,0.03866114839911461,-0.15932831168174744,-0.09802506864070892,-0.12848079204559326,-0.1507347673177719,0.15114900469779968,10,-13,-998,-127,-149,150,12,95,-147,300000.0
18:15:12.359,AUTO,-35.3632713,149.1652426,21341,-0.006741701625287533,-0.16410867869853973,-0.08546508848667145,-0.18948552012443542,0.08474310487508774,-0.02422892302274704,6,-27,-998,-188,85,-24,55,89,-142,300000.0
18:15:12.561,AUTO,-35.3632698,149.1652447,21703,-0.050442930310964584,-0.12881816923618317,-0.11180184781551361,-0.1804342418909073,0.16055376827716827,-0.14359800517559052,-3,-24,-1009,-179,161,-143,91,71,-140,300000.0
18:15:12.763,AUTO,-35.3632698,149.1652447,21703,-0.050442930310964584,-0.12881816923618317,-0.11180184781551361,-0.1804342418909073,0.16055376827716827,-0.14359800517559052,-3,-24,-1009,-179,161,-143,91,71,-140,300000.0
18:15:12.965,AUTO,-35.3632698,149.1652447,21703,-0.050442930310964584,-0.12881816923618317,-0.11180184781551361,-0.1804342418909073,0.16055376827716827,-0.14359800517559052,-3,-24,-1009,-179,161,-143,91,71,-140,300000.0
18:15:13.166,AUTO,-35.3632698,149.1652447,21703,-0.050442930310964584,-0.12881816923618317,-0.11180184781551361,-0.1804342418909073,0.16055376827716827,-0.14359800517559052,-3,-24,-1009,-179,161,-143,91,71,-140,164543.0
18:15:13.368,AUTO,-35.3632621,149.1652465,22796,-0.12658189237117767,-0.0303533636033535,-0.27058228850364685,-0.03126433119177818,0.1169852688908577,-0.17252174019813538,-19,-18,-1018,-30,117,-172,118,-27,-146,164543.0
18:15:13.570,AUTO,-35.3632595,149.1652453,23170,-0.12546731531620026,-0.01272149384021759,-0.3090820610523224,0.020254697650671005,0.07358913868665695,-0.12298549711704254,-25,-11,-1011,21,74,-123,108,-61,-147,164543.0
18:15:13.771,AUTO,-35.3632595,149.1652453,23170,-0.12546731531620026,-0.01272149384021759,-0.3090820610523224,0.020254697650671005,0.07358913868665695,-0.12298549711704254,-25,-11,-1011,21,74,-123,108,-61,-147,164543.0
18:15:13.973,AUTO,-35.3632572,149.1652432,23545,-0.11844205111265182,0.0020091133192181587,-0.3377927243709564,0.03314310684800148,0.0762709379196167,-0.09216079115867615,-25,-9,-1006,33,77,-92,93,-91,-146,164543.0
18:15:14.175,AUTO,-35.3632552,149.1652403,23919,-0.10899115353822708,0.019334863871335983,-0.3594913184642792,0.04387303441762924,0.0810093879699707,-0.06993601471185684,-30,-1,-1005,44,81,-70,74,-116,-146,164543.0
18:15:14.377,AUTO,-35.3632537,149.1652368,24292,-0.09714794903993607,0.03852275758981705,-0.37617745995521545,0.05525489151477814,0.08690847456455231,-0.05187869071960449,-36,6,-1008,56,87,-52,52,-134,-146,164543.0
18:15:14.579,AUTO,-35.3632527,149.1652329,24666,-0.08308961987495422,0.05901893973350525,-0.3884528577327728,0.06405691802501678,0.08687545359134674,-0.038405969738960266,-31,10,-1008,65,87,-38,27,-146,-146,164543.0
18:15:14.789,AUTO,-35.3632527,149.1652329,24666,-0.08308961987495422,0.05901893973350525,-0.3884528577327728,0.06405691802501678,0.08687545359134674,-0.038405969738960266,-31,10,-1008,65,87,-38,27,-146,-146,164543.0
18:15:14.991,AUTO,-35.3632527,149.1652329,24666,-0.08308961987495422,0.05901893973350525,-0.3884528577327728,0.06405691802501678,0.08687545359134674,-0.038405969738960266,-31,10,-1008,65,87,-38,27,-146,-146,164543.0
18:15:15.197,AUTO,-35.3632527,149.1652329,24666,-0.08308961987495422,0.05901893973350525,-0.3884528577327728,0.06405691802501678,0.08687545359134674,-0.038405969738960266,-31,10,-1008,65,87,-38,27,-146,-146,164543.0
18:15:15.400,AUTO,-35.3632535,149.1652206,25798,-0.026508403941988945,0.11528226733207703,-0.40796518325805664,0.09214231371879578,0.06106201559305191,-0.012665481306612492,-26,26,-1009,93,61,-13,-60,-138,-148,164543.0
18:15:15.601,AUTO,-35.3632551,149.165217,26178,-0.0032854124438017607,0.12783828377723694,-0.4096049964427948,0.09785299748182297,0.04271348938345909,-0.004521663766354322,-16,33,-1008,98,43,-4,-90,-121,-148,164543.0
18:15:15.803,AUTO,-35.3632573,149.1652139,26555,0.02104843035340309,0.13587045669555664,-0.40945857763290405,0.10067185759544373,0.02431696280837059,-0.0006123052444308996,-8,29,-1006,101,25,0,-117,-99,-147,164543.0
18:15:16.005,AUTO,-35.3632573,149.1652139,26555,0.02104843035340309,0.13587045669555664,-0.40945857763290405,0.10067185759544373,0.02431696280837059,-0.0006123052444308996,-8,29,-1006,101,25,0,-117,-99,-147,164543.0
18:15:16.207,AUTO,-35.3632602,149.1652115,26930,0.046555787324905396,0.13824114203453064,-0.4082852602005005,0.10293424874544144,0.0003144843503832817,0.005053302273154259,2,31,-1005,103,1,4,-141,-71,-146,164543.0
18:15:16.409,AUTO,-35.3632635,149.16521,27301,0.07237574458122253,0.13450345396995544,-0.4066714942455292,0.10263226926326752,-0.024901900440454483,0.009800376370549202,14,34,-1004,103,-23,9,-160,-38,-144,164543.0
18:15:16.611,AUTO,-35.3632673,149.1652094,27668,0.09837622940540314,0.12419899553060532,-0.4044898450374603,0.10146191716194153,-0.0516945905983448,0.0153990238904953,13,34,-1004,102,-50,15,-174,0,-142,164543.0
18:15:16.813,AUTO,-35.3632673,149.1652094,27668,0.09837622940540314,0.12419899553060532,-0.4044898450374603,0.10146191716194153,-0.0516945905983448,0.0153990238904953,13,34,-1004,102,-50,15,-174,0,-142,164543.0
18:15:17.015,AUTO,-35.3632673,149.1652094,27668,0.09837622940540314,0.12419899553060532,-0.4044898450374603,0.10146191716194153,-0.0516945905983448,0.0153990238904953,13,34,-1004,102,-50,15,-174,0,-142,164543.0
18:15:17.217,AUTO,-35.3632673,149.1652094,27668,0.09837622940540314,0.12419899553060532,-0.4044898450374603,0.10146191716194153,-0.0516945905983448,0.0153990238904953,13,34,-1004,102,-50,15,-174,0,-142,99163.0
18:15:17.419,AUTO,-35.3632791,149.1652143,28734,0.15063747763633728,0.03406345099210739,-0.3839278519153595,0.04327959194779396,-0.16089890897274017,0.07054050266742706,50,21,-1016,44,-160,70,-165,120,-137,99163.0
18:15:17.620,AUTO,-35.3632825,149.1652181,29086,0.1638631671667099,-0.008373058401048183,-0.3739596903324127,0.05625295639038086,-0.1538330763578415,0.06081186234951019,51,11,-1019,56,-152,60,-141,156,-138,99163.0
18:15:17.822,AUTO,-35.3632853,149.1652228,29439,0.17220811545848846,-0.05220559239387512,-0.3622622787952423,-0.004965022671967745,-0.19226939976215363,0.10455303639173508,49,-5,-1010,-3,-191,104,-108,188,-137,99163.0
18:15:18.024,AUTO,-35.3632853,149.1652228,29439,0.17220811545848846,-0.05220559239387512,-0.3622622787952423,-0.004965022671967745,-0.19226939976215363,0.10455303639173508,49,-5,-1010,-3,-191,104,-108,188,-137,99163.0
18:15:18.226,AUTO,-35.3632873,149.1652283,29792,0.15229175984859467,-0.11164568364620209,-0.3367609679698944,-0.10799272358417511,-0.23220622539520264,0.17080636322498322,52,-27,-1019,-106,-231,170,-64,211,-136,99163.0
18:15:18.427,AUTO,-35.3632882,149.1652344,30140,0.11595333367586136,-0.17991049587726593,-0.291832834482193,-0.13638123869895935,-0.25152936577796936,0.24638207256793976,44,-18,-1025,-135,-250,246,-9,223,-136,99163.0
18:15:18.629,AUTO,-35.3632877,149.1652405,30485,0.06773395836353302,-0.24559791386127472,-0.23084022104740143,-0.1536792367696762,-0.21346506476402283,0.24271409213542938,36,-51,-1020,-152,-212,242,54,221,-134,99163.0
18:15:18.831,AUTO,-35.3632877,149.1652405,30485,0.06773395836353302,-0.24559791386127472,-0.23084022104740143,-0.1536792367696762,-0.21346506476402283,0.24271409213542938,36,-51,-1020,-152,-212,242,54,221,-134,99163.0
18:15:19.033,AUTO,-35.3632877,149.1652405,30485,0.06773395836353302,-0.24559791386127472,-0.23084022104740143,-0.1536792367696762,-0.21346506476402283,0.24271409213542938,36,-51,-1020,-152,-212,242,54,221,-134,99163.0
18:15:19.235,AUTO,-35.3632877,149.1652405,30485,0.06773395836353302,-0.24559791386127472,-0.23084022104740143,-0.1536792367696762,-0.21346506476402283,0.24271409213542938,36,-51,-1020,-152,-212,242,54,221,-134,99163.0
18:15:19.437,AUTO,-35.3632779,149.1652557,31448,-0.08889879286289215,-0.19739651679992676,-0.267973929643631,-0.2344929277896881,0.1699206680059433,-0.236592099070549,-8,-61,-1039,-233,170,-237,227,129,-122,99163.0
18:15:19.639,AUTO,-35.3632725,149.1652586,31772,-0.1262519359588623,-0.15555168688297272,-0.33000653982162476,-0.1336020827293396,0.22194147109985352,-0.17421883344650269,-23,-54,-1035,-132,222,-174,253,75,-125,99163.0
18:15:19.840,AUTO,-35.3632668,149.1652599,32097,-0.139408677816391,-0.09959689527750015,-0.36866000294685364,-0.029508868232369423,0.247865229845047,-0.08418130874633789,-37,-59,-1045,-28,248,-84,260,21,-130,99163.0
18:15:20.043,AUTO,-35.3632611,149.1652598,32436,-0.13603632152080536,-0.04191140830516815,-0.38973361253738403,0.03648776561021805,0.22812141478061676,-0.02060244046151638,-37,-52,-1050,37,228,-20,251,-27,-137,99163.0
18:15:20.245,AUTO,-35.3632611,149.1652598,32436,-0.13603632152080536,-0.04191140830516815,-0.38973361253738403,0.03648776561021805,0.22812141478061676,-0.02060244046151638,-37,-52,-1050,37,228,-20,251,-27,-137,99163.0
18:15:20.447,AUTO,-35.3632557,149.1652586,32797,-0.12465988844633102,0.01118558831512928,-0.39770248532295227,0.04423533007502556,0.19887182116508484,0.012045402079820633,-46,-40,-1051,45,199,11,228,-66,-146,99163.0
18:15:20.649,AUTO,-35.3632509,149.1652564,33180,-0.11658471077680588,0.055793605744838715,-0.4001225531101227,0.02257957123219967,0.1634877473115921,0.015293331816792488,-39,-32,-1041,23,164,15,195,-95,-154,99163.0
18:15:20.850,AUTO,-35.3632509,149.1652564,33180,-0.11658471077680588,0.055793605744838715,-0.4001225531101227,0.02257957123219967,0.1634877473115921,0.015293331816792488,-39,-32,-1041,23,164,15,195,-95,-154,99163.0
18:15:21.052,AUTO,-35.3632509,149.1652564,33180,-0.11658471077680588,0.055793605744838715,-0.4001225531101227,0.02257957123219967,0.1634877473115921,0.015293331816792488,-39,-32,-1041,23,164,15,195,-95,-154,99163.0
18:15:21.254,AUTO,-35.3632509,149.1652564,33180,-0.11658471077680588,0.055793605744838715,-0.4001225531101227,0.02257957123219967,0.1634877473115921,0.015293331816792488,-39,-32,-1041,23,164,15,195,-95,-154,68997.0
18:15:21.456,AUTO,-35.3632423,149.1652466,34386,-0.09675724059343338,0.14927680790424347,-0.40977880358695984,0.04639895632863045,0.10486260801553726,-0.0028330720961093903,-38,-1,-1011,47,105,-2,58,-135,-159,68997.0
18:15:21.658,AUTO,-35.3632416,149.1652429,34788,-0.08362221717834473,0.1732424646615982,-0.41329312324523926,0.05931413546204567,0.08872254937887192,-0.0017944031860679388,-29,9,-1003,60,89,-1,5,-136,-155,68997.0
18:15:21.859,AUTO,-35.3632419,149.1652394,35178,-0.06626884639263153,0.19215203821659088,-0.4155452847480774,0.07680302858352661,0.06607314944267273,-0.0018083469476550817,-24,13,-997,77,67,-2,-46,-128,-149,68997.0
18:15:22.061,AUTO,-35.3632435,149.1652361,35553,-0.045309554785490036,0.20529526472091675,-0.416727751493454,0.08796581625938416,0.040782809257507324,0.0010320565197616816,-13,28,-994,88,41,1,-96,-113,-143,68997.0
18:15:22.263,AUTO,-35.3632435,149.1652361,35553,-0.045309554785490036,0.20529526472091675,-0.416727751493454,0.08796581625938416,0.040782809257507324,0.0010320565197616816,-13,28,-994,88,41,1,-96,-113,-143,68997.0
18:15:22.465,AUTO,-35.3632461,149.1652333,35911,-0.02118123136460781,0.21191370487213135,-0.4166831970214844,0.10220874100923538,0.014171835035085678,0.005606439895927906,-3,32,-991,103,15,5,-144,-92,-135,68997.0
18:15:22.667,AUTO,-35.3632499,149.1652312,36255,0.003624113742262125,0.20881041884422302,-0.41145947575569153,0.04125526547431946,-0.06623133271932602,0.06496637314558029,6,41,-985,42,-65,64,-188,-64,-127,68997.0
18:15:22.868,AUTO,-35.3632499,149.1652312,36255,0.003624113742262125,0.20881041884422302,-0.41145947575569153,0.04125526547431946,-0.06623133271932602,0.06496637314558029,6,41,-985,42,-65,64,-188,-64,-127,68997.0
18:15:23.070,AUTO,-35.3632499,149.1652312,36255,0.003624113742262125,0.20881041884422302,-0.41145947575569153,0.04125526547431946,-0.06623133271932602,0.06496637314558029,6,41,-985,42,-65,64,-188,-64,-127,68997.0
18:15:23.272,AUTO,-35.3632499,149.1652312,36255,0.003624113742262125,0.20881041884422302,-0.41145947575569153,0.04125526547431946,-0.06623133271932602,0.06496637314558029,6,41,-985,42,-65,64,-188,-64,-127,68997.0
18:15:23.473,AUTO,-35.3632652,149.1652295,37196,0.03646129369735718,0.08767043799161911,-0.3255316913127899,0.06434230506420135,-0.1647336781024933,0.11784572154283524,46,45,-1032,65,-163,117,-256,12,-126,68997.0
18:15:23.675,AUTO,-35.363271,149.1652302,37529,0.06127025932073593,0.04756579548120499,-0.30165472626686096,0.10398418456315994,-0.14617058634757996,0.09525522589683533,43,33,-1039,104,-145,95,-256,35,-134,68997.0
18:15:23.877,AUTO,-35.3632766,149.1652315,37883,0.08858530223369598,0.009268725290894508,-0.28366905450820923,0.09933342039585114,-0.14564351737499237,0.08158393949270248,57,33,-1040,100,-144,81,-242,62,-143,68997.0
18:15:24.079,AUTO,-35.3632818,149.1652336,38257,0.11367922276258469,-0.030267780646681786,-0.2685467302799225,0.0978231430053711,-0.1550736427307129,0.07082698494195938,51,35,-1036,98,-154,71,-219,89,-150,68997.0
18:15:24.282,AUTO,-35.3632863,149.1652365,38645,0.12826846539974213,-0.07355301082134247,-0.2527492046356201,0.03356216102838516,-0.17304334044456482,0.09780967235565186,52,15,-1028,34,-172,98,-184,118,-154,68997.0
18:15:24.484,AUTO,-35.3632863,149.1652365,38645,0.12826846539974213,-0.07355301082134247,-0.2527492046356201,0.03356216102838516,-0.17304334044456482,0.09780967235565186,52,15,-1028,34,-172,98,-184,118,-154,68997.0
18:15:24.686,AUTO,-35.36329,149.16524,39041,0.12898147106170654,-0.1213938519358635,-0.23238633573055267,0.0030997125431895256,-0.18240410089492798,0.11211871355772018,50,6,-1025,3,-181,112,-140,142,-155,68997.0
18:15:24.889,AUTO,-35.36329,149.16524,39041,0.12898147106170654,-0.1213938519358635,-0.23238633573055267,0.0030997125431895256,-0.18240410089492798,0.11211871355772018,50,6,-1025,3,-181,112,-140,142,-155,68997.0
18:15:25.096,AUTO,-35.36329,149.16524,39041,0.12898147106170654,-0.1213938519358635,-0.23238633573055267,0.0030997125431895256,-0.18240410089492798,0.11211871355772018,50,6,-1025,3,-181,112,-140,142,-155,68997.0
18:15:25.298,AUTO,-35.36329,149.16524,39041,0.12898147106170654,-0.1213938519358635,-0.23238633573055267,0.0030997125431895256,-0.18240410089492798,0.11211871355772018,50,6,-1025,3,-181,112,-140,142,-155,300000.0
18:15:25.500,AUTO,-35.3632937,149.1652536,40198,0.08612313866615295,-0.2630884349346161,-0.15675567090511322,-0.14328840374946594,-0.11192956566810608,0.08154376596212387,27,-32,-990,-142,-111,82,42,182,-138,300000.0
18:15:25.702,AUTO,-35.3632919,149.1652586,40544,0.03748122230172157,-0.2639358937740326,-0.15680347383022308,-0.21581056714057922,0.07020346820354462,-0.05812437832355499,5,-47,-989,-214,71,-57,111,176,-125,300000.0
18:15:25.903,AUTO,-35.3632889,149.1652631,40856,-0.013419302180409431,-0.23580051958560944,-0.18438118696212769,-0.24151428043842316,0.12741437554359436,-0.1393190622329712,10,-48,-1007,-240,128,-139,171,155,-118,300000.0
18:15:26.105,AUTO,-35.3632845,149.1652668,41155,-0.06396238505840302,-0.20412281155586243,-0.2313382774591446,-0.24300973117351532,0.1306399255990982,-0.1985691338777542,-24,-56,-1027,-242,131,-198,217,120,-116,300000.0
18:15:26.307,AUTO,-35.3632793,149.1652694,41457,-0.11177053302526474,-0.17567263543605804,-0.288455069065094,-0.21665890514850616,0.13517075777053833,-0.21936073899269104,-25,-57,-1041,-215,136,-219,249,73,-118,300000.0
18:15:26.509,AUTO,-35.3632793,149.1652694,41457,-0.11177053302526474,-0.17567263543605804,-0.288455069065094,-0.21665890514850616,0.13517075777053833,-0.21936073899269104,-25,-57,-1041,-215,136,-219,249,73,-118,300000.0
18:15:26.711,AUTO,-35.3632736,149.1652705,41766,-0.1548716127872467,-0.1494884043931961,-0.35183820128440857,-0.19662290811538696,0.14548300206661224,-0.24296116828918457,-31,-51,-1039,-195,146,-242,266,16,-122,300000.0
18:15:26.913,AUTO,-35.3632736,149.1652705,41766,-0.1548716127872467,-0.1494884043931961,-0.35183820128440857,-0.19662290811538696,0.14548300206661224,-0.24296116828918457,-31,-51,-1039,-195,146,-242,266,16,-122,300000.0
18:15:27.115,AUTO,-35.3632736,149.1652705,41766,-0.1548716127872467,-0.1494884043931961,-0.35183820128440857,-0.19662290811538696,0.14548300206661224,-0.24296116828918457,-31,-51,-1039,-195,146,-242,266,16,-122,300000.0
18:15:27.317,AUTO,-35.3632563,149.1652648,42734,-0.1592647284269333,0.002711991546675563,-0.4363005757331848,0.06266830116510391,0.22558680176734924,0.012475351803004742,-50,-31,-1053,63,226,12,225,-144,-135,300000.0
18:15:27.518,AUTO,-35.3632563,149.1652648,42734,-0.1592647284269333,0.002711991546675563,-0.4363005757331848,0.06266830116510391,0.22558680176734924,0.012475351803004742,-50,-31,-1053,63,226,12,225,-144,-135,300000.0
18:15:27.720,AUTO,-35.3632516,149.1652603,43089,-0.14879034459590912,0.05438940227031708,-0.4424748420715332,0.02709493599832058,0.1868618130683899,0.00369849125854671,-59,-15,-1052,27,188,4,186,-176,-143,300000.0
18:15:27.921,AUTO,-35.3632479,149.1652551,43463,-0.14245420694351196,0.09767196327447891,-0.449562132358551,0.03508142754435539,0.16784629225730896,0.00011234098928980529,-65,-9,-1041,35,169,0,138,-198,-149,300000.0
18:15:28.124,AUTO,-35.3632453,149.1652494,43847,-0.13252167403697968,0.13774706423282623,-0.4559341371059418,0.05234237760305405,0.16020110249519348,0.006186933256685734,-47,0,-1027,53,161,6,85,-211,-152,300000.0
18:15:28.326,AUTO,-35.363244,149.1652436,44231,-0.07375597208738327,0.21123111248016357,-0.4204823076725006,0.33243104815483093,0.3699762523174286,0.3031906187534332,-50,25,-1024,333,371,303,25,-210,-149,300000.0
18:15:28.528,AUTO,-35.363244,149.1652436,44231,-0.07375597208738327,0.21123111248016357,-0.4204823076725006,0.33243104815483093,0.3699762523174286,0.3031906187534332,-50,25,-1024,333,371,303,25,-210,-149,300000.0
18:15:28.730,AUTO,-35.3632442,149.1652382,44609,0.06183034926652908,0.3101777732372284,-0.26306870579719543,0.43503332138061523,0.3109864294528961,0.7773851156234741,-30,35,-1001,436,311,777,-44,-180,-142,300000.0
18:15:28.932,AUTO,-35.3632442,149.1652382,44609,0.06183034926652908,0.3101777732372284,-0.26306870579719543,0.43503332138061523,0.3109864294528961,0.7773851156234741,-30,35,-1001,436,311,777,-44,-180,-142,300000.0
18:15:29.133,AUTO,-35.3632442,149.1652382,44609,0.06183034926652908,0.3101777732372284,-0.26306870579719543,0.43503332138061523,0.3109864294528961,0.7773851156234741,-30,35,-1001,436,311,777,-44,-180,-142,300000.0
18:15:29.335,AUTO,-35.3632519,149.16523,45409,0.15934942662715912,0.031224729493260384,-0.09766378998756409,-0.08953438699245453,-0.3553083539009094,-0.022532297298312187,23,30,-936,-88,-354,-22,-155,-20,-67,218089.0
18:15:29.537,AUTO,-35.3632553,149.1652299,45562,0.11246641725301743,-0.03449828550219536,-0.11828083544969559,-0.371905654668808,-0.2149469405412674,-0.05946467071771622,27,13,-946,-371,-213,-59,-143,15,-50,218089.0
18:15:29.739,AUTO,-35.3632553,149.1652299,45562,0.11246641725301743,-0.03449828550219536,-0.11828083544969559,-0.371905654668808,-0.2149469405412674,-0.05946467071771622,27,13,-946,-371,-213,-59,-143,15,-50,218089.0
18:15:29.941,AUTO,-35.3632582,149.1652306,45675,0.07918436080217361,-0.07113265991210938,-0.13672544062137604,0.28941667079925537,-0.10288894921541214,-0.0491657629609108,27,41,-952,290,-102,-48,-120,39,-36,218089.0
18:15:30.142,AUTO,-35.3632607,149.1652319,45748,0.05425082519650459,-0.08525189757347107,-0.15052801370620728,0.3791411221027374,-0.028013605624437332,-0.03887789696455002,23,15,-963,379,-27,-38,-93,51,-21,218089.0
18:15:30.344,AUTO,-35.3632625,149.1652334,45793,0.023631038144230843,-0.0862521082162857,-0.1597006916999817,-0.3958059549331665,0.01297145988792181,-0.04682588204741478,21,-27,-976,-395,13,-46,-66,54,-13,218089.0
18:15:30.546,AUTO,-35.3632638,149.165235,45816,-0.003806665539741516,-0.07926513254642487,-0.16637541353702545,-0.8059568405151367,0.03249884024262428,-0.03425808995962143,16,-37,-977,-805,33,-33,-42,53,-5,218089.0
18:15:30.748,AUTO,-35.3632638,149.165235,45816,-0.003806665539741516,-0.07926513254642487,-0.16637541353702545,-0.8059568405151367,0.03249884024262428,-0.03425808995962143,16,-37,-977,-805,33,-33,-42,53,-5,218089.0
18:15:30.950,AUTO,-35.3632638,149.165235,45816,-0.003806665539741516,-0.07926513254642487,-0.16637541353702545,-0.8059568405151367,0.03249884024262428,-0.03425808995962143,16,-37,-977,-805,33,-33,-42,53,-5,218089.0
18:15:31.152,AUTO,-35.3632638,149.165235,45816,-0.003806665539741516,-0.07926513254642487,-0.16637541353702545,-0.8059568405151367,0.03249884024262428,-0.03425808995962143,16,-37,-977,-805,33,-33,-42,53,-5,218089.0
18:15:31.354,AUTO,-35.363265,149.1652389,45794,-0.020389508455991745,-0.05008239671587944,-0.18990083038806915,0.6176397204399109,-0.23623189330101013,-0.10299745202064514,14,26,-970,618,-235,-102,5,31,13,218089.0
18:15:31.555,AUTO,-35.3632648,149.1652396,45741,-0.04489947110414505,-0.06969212740659714,-0.1890479326248169,0.6457569599151611,0.05196574702858925,-0.034685272723436356,0,4,-968,645,52,-34,18,15,26,218089.0
18:15:31.757,AUTO,-35.3632648,149.1652396,45741,-0.04489947110414505,-0.06969212740659714,-0.1890479326248169,0.6457569599151611,0.05196574702858925,-0.034685272723436356,0,4,-968,645,52,-34,18,15,26,218089.0
18:15:31.959,AUTO,-35.3632644,149.1652399,45674,-0.035400938242673874,-0.04949864372611046,-0.19317148625850677,0.3311319053173065,0.08128350228071213,-0.02100645750761032,-4,-19,-1026,330,82,-20,29,-2,23,218089.0
18:15:32.160,AUTO,-35.3632638,149.1652398,45616,-0.033073507249355316,-0.03658616542816162,-0.19716398417949677,-0.3048984408378601,0.03686806932091713,-0.01410341914743185,-9,-40,-1028,-305,37,-13,35,-15,18,218089.0
18:15:32.362,AUTO,-35.363263,149.1652393,45569,-0.024429798126220703,-0.028256326913833618,-0.20095738768577576,-0.584846556186676,0.0283559188246727,-0.012470463290810585,-10,-55,-1000,-584,29,-12,38,-24,15,218089.0
18:15:32.564,AUTO,-35.3632622,149.1652385,45536,-0.02251375839114189,-0.022718092426657677,-0.20559321343898773,-0.5594204068183899,0.01517476886510849,-0.019947418943047523,-11,-13,-1005,-557,15,-19,40,-28,9,218089.0
18:15:32.766,AUTO,-35.3632622,149.1652385,45536,-0.02251375839114189,-0.022718092426657677,-0.20559321343898773,-0.5594204068183899,0.01517476886510849,-0.019947418943047523,-11,-13,-1005,-557,15,-19,40,-28,9,218089.0
18:15:32.967,AUTO,-35.3632622,149.1652385,45536,-0.02251375839114189,-0.022718092426657677,-0.20559321343898773,-0.5594204068183899,0.01517476886510849,-0.019947418943047523,-11,-13,-1005,-557,15,-19,40,-28,9,218089.0
18:15:33.169,AUTO,-35.3632622,149.1652385,45536,-0.02251375839114189,-0.022718092426657677,-0.20559321343898773,-0.5594204068183899,0.01517476886510849,-0.019947418943047523,-11,-13,-1005,-557,15,-19,40,-28,9,218089.0
18:15:33.371,AUTO,-35.3632595,149.1652355,45472,0.003748430637642741,-0.03273136913776398,-0.21876634657382965,0.6423409581184387,-0.04162249341607094,-0.025185180827975273,-15,43,-1011,644,-40,-24,46,-35,5,258405.0
18:15:33.572,AUTO,-35.3632585,149.1652344,45455,0.00763451773673296,-0.046200402081012726,-0.22410862147808075,0.5871589183807373,-0.06016850471496582,-0.03835688903927803,-16,22,-1028,588,-59,-37,51,-39,4,258405.0
18:15:33.774,AUTO,-35.3632585,149.1652344,45455,0.00763451773673296,-0.046200402081012726,-0.22410862147808075,0.5871589183807373,-0.06016850471496582,-0.03835688903927803,-16,22,-1028,588,-59,-37,51,-39,4,258405.0
18:15:33.975,AUTO,-35.3632574,149.1652331,45443,0.003650168189778924,-0.06415804475545883,-0.29112836718559265,0.13224340975284576,-0.07416854798793793,-0.49681276082992554,-19,-17,-980,132,-72,-496,59,-44,5,258405.0
18:15:34.177,AUTO,-35.363256,149.1652317,45425,-0.0013443442294374108,-0.07778296619653702,-0.4406222999095917,-0.5803648829460144,-0.0497419610619545,-0.506923258304596,-20,-43,-993,-580,-48,-506,70,-51,5,258405.0
18:15:34.379,AUTO,-35.3632544,149.1652302,45403,-0.005880030337721109,-0.08972182124853134,-0.5300976037979126,-0.7072402238845825,-0.052618324756622314,-0.21664148569107056,-22,-30,-971,-705,-51,-216,82,-61,10,258405.0
18:15:34.581,AUTO,-35.3632525,149.1652284,45371,0.00031300404225476086,-0.09501767158508301,-0.5584141612052917,0.06516416370868683,-0.002695993287488818,-0.04366765916347504,-25,8,-995,67,-1,-43,95,-71,11,258405.0
18:15:34.783,AUTO,-35.3632525,149.1652284,45371,0.00031300404225476086,-0.09501767158508301,-0.5584141612052917,0.06516416370868683,-0.002695993287488818,-0.04366765916347504,-25,8,-995,67,-1,-43,95,-71,11,258405.0
18:15:34.984,AUTO,-35.3632525,149.1652284,45371,0.00031300404225476086,-0.09501767158508301,-0.5584141612052917,0.06516416370868683,-0.002695993287488818,-0.04366765916347504,-25,8,-995,67,-1,-43,95,-71,11,258405.0
18:15:35.186,AUTO,-35.3632525,149.1652284,45371,0.00031300404225476086,-0.09501767158508301,-0.5584141612052917,0.06516416370868683,-0.002695993287488818,-0.04366765916347504,-25,8,-995,67,-1,-43,95,-71,11,258405.0
18:15:35.388,AUTO,-35.3632452,149.1652215,45259,0.021905161440372467,-0.05845797061920166,-0.540352463722229,0.22306811809539795,0.0645197406411171,0.024362526834011078,-32,-26,-995,223,65,25,122,-97,15,258405.0
18:15:35.590,AUTO,-35.3632425,149.1652189,45215,0.01178685575723648,-0.049431540071964264,-0.5365120768547058,-0.4893224537372589,0.008867223747074604,0.020354412496089935,-32,-55,-992,-489,9,21,125,-101,16,258405.0
18:15:35.791,AUTO,-35.3632397,149.1652163,45169,0.010110178962349892,-0.04693242534995079,-0.5377341508865356,-0.7668374180793762,0.007670965977013111,8.168700151145458e-05,-34,-56,-990,-766,8,0,127,-103,18,258405.0
18:15:35.994,AUTO,-35.3632397,149.1652163,45169,0.010110178962349892,-0.04693242534995079,-0.5377341508865356,-0.7668374180793762,0.007670965977013111,8.168700151145458e-05,-34,-56,-990,-766,8,0,127,-103,18,258405.0
18:15:36.196,AUTO,-35.3632368,149.1652136,45118,0.0014277009759098291,-0.041974011808633804,-0.5402732491493225,-0.6561851501464844,0.02713831141591072,-0.012875293381512165,-37,-40,-996,-654,27,-12,128,-103,19,258405.0
18:15:36.398,AUTO,-35.363234,149.1652109,45070,0.00834023766219616,-0.033024050295352936,-0.5435574054718018,0.012958557344973087,0.0401843786239624,-0.01877397485077381,-35,4,-991,14,41,-17,128,-103,18,258405.0
18:15:36.600,AUTO,-35.3632311,149.1652082,45020,0.019563809037208557,-0.022871024906635284,-0.5461105108261108,0.6629282236099243,0.0370517373085022,-0.023383164778351784,-37,28,-1018,664,37,-22,126,-102,17,258405.0
18:15:36.803,AUTO,-35.3632311,149.1652082,45020,0.019563809037208557,-0.022871024906635284,-0.5461105108261108,0.6629282236099243,0.0370517373085022,-0.023383164778351784,-37,28,-1018,664,37,-22,126,-102,17,258405.0
18:15:37.005,AUTO,-35.3632311,149.1652082,45020,0.019563809037208557,-0.022871024906635284,-0.5461105108261108,0.6629282236099243,0.0370517373085022,-0.023383164778351784,-37,28,-1018,664,37,-22,126,-102,17,258405.0
18:15:37.207,AUTO,-35.3632311,149.1652082,45020,0.019563809037208557,-0.022871024906635284,-0.5461105108261108,0.6629282236099243,0.0370517373085022,-0.023383164778351784,-37,28,-1018,664,37,-22,126,-102,17,258405.0
