time_stamp,MODE,lat,lon,relative_alt,roll,pitch,yaw,rollspeed,pitchspeed,yawspeed,xacc,yacc,zacc,xgyro,ygyro,zgyro,vx,vy,vz,RTL_ALT
02:34:16.095,STABILIZE,-35.3632621,149.1652375,0,0.0001016631576931104,0.0013583124382421374,0.025865210220217705,0.00027174947899766266,0.00024082569871097803,0.0022151507437229156,0,1,-1000,0,0,0,-2,3,1,1500.0
02:34:16.296,STABILIZE,-35.3632621,149.1652375,0,0.0001016631576931104,0.0013583124382421374,0.025865210220217705,0.00027174947899766266,0.00024082569871097803,0.0022151507437229156,0,1,-1000,0,0,0,-2,3,1,1500.0
02:34:16.497,STABILIZE,-35.3632622,149.1652375,0,-0.0002822270034812391,0.001203895197249949,0.025482159107923508,0.0002644428750500083,0.00034262824920006096,0.0019905250519514084,0,1,-1000,0,0,0,-1,2,1,1500.0
02:34:16.698,STABILIZE,-35.3632622,149.1652375,0,-0.00039765454130247235,0.0011579314013943076,0.0253656767308712,0.0002170842490158975,0.00029142401763238013,0.0020458190701901913,0,1,-1000,0,0,0,-1,2,1,1500.0
02:34:16.900,STABILIZE,-35.3632622,149.1652375,0,-0.00039765454130247235,0.0011579314013943076,0.0253656767308712,0.0002170842490158975,0.00029142401763238013,0.0020458190701901913,0,1,-1000,0,0,0,-1,2,1,1500.0
02:34:17.101,STABILIZE,-35.3632622,149.1652375,0,-0.00039765454130247235,0.0011579314013943076,0.0253656767308712,0.0002170842490158975,0.00029142401763238013,0.0020458190701901913,0,1,-1000,0,0,0,-1,1,1,1500.0
02:34:17.303,STABILIZE,-35.3632622,149.1652375,0,-0.0005838298820890486,0.0010790603701025248,0.02516251988708973,0.0002545339521020651,0.00016408550436608493,0.0020855353213846684,0,1,-1000,0,0,0,-1,1,0,1500.0
02:34:17.504,STABILIZE,-35.3632622,149.1652375,0,-0.0005838298820890486,0.0010790603701025248,0.02516251988708973,0.0002545339521020651,0.00016408550436608493,0.0020855353213846684,0,1,-1000,0,0,1,-1,1,0,1500.0
02:34:17.706,STABILIZE,-35.3632622,149.1652375,0,-0.0005838298820890486,0.0010790603701025248,0.02516251988708973,0.0002545339521020651,0.00016408550436608493,0.0020855353213846684,0,1,-1000,0,0,1,-1,1,0,1500.0
02:34:17.907,STABILIZE,-35.3632622,149.1652375,0,-0.0005838298820890486,0.0010790603701025248,0.02516251988708973,0.0002545339521020651,0.00016408550436608493,0.0020855353213846684,0,1,-1000,0,0,1,-1,1,0,1500.0
02:34:18.108,STABILIZE,-35.3632622,149.1652375,0,-0.0005838298820890486,0.0010790603701025248,0.02516251988708973,0.0002545339521020651,0.00016408550436608493,0.0020855353213846684,0,1,-1000,0,0,1,-1,1,0,1500.0
02:34:18.310,STABILIZE,-35.3632622,149.1652375,0,-0.0005838298820890486,0.0010790603701025248,0.02516251988708973,0.0002545339521020651,0.00016408550436608493,0.0020855353213846684,0,1,-1000,0,0,1,-1,1,0,1500.0
02:34:18.511,STABILIZE,-35.3632622,149.1652375,0,-0.0005838298820890486,0.0010790603701025248,0.02516251988708973,0.0002545339521020651,0.00016408550436608493,0.0020855353213846684,0,1,-1000,0,0,1,-1,1,0,1500.0
02:34:18.712,STABILIZE,-35.3632621,149.1652375,0,-0.000810449302662164,0.000973111076746136,0.024620024487376213,0.00029100378742441535,0.0002727192477323115,0.00195216853171587,0,1,-1000,0,0,1,-1,1,1,1500.0
02:34:18.914,STABILIZE,-35.3632621,149.1652375,0,-0.000810449302662164,0.000973111076746136,0.024620024487376213,0.00029100378742441535,0.0002727192477323115,0.00195216853171587,0,1,-1000,0,0,1,-1,1,1,1500.0
02:34:19.115,STABILIZE,-35.3632621,149.1652375,0,-0.000810449302662164,0.000973111076746136,0.024620024487376213,0.00029100378742441535,0.0002727192477323115,0.00195216853171587,0,1,-1000,0,0,1,-1,1,1,1500.0
02:34:19.316,STABILIZE,-35.3632621,149.1652375,0,-0.000810449302662164,0.000973111076746136,0.024620024487376213,0.00029100378742441535,0.0002727192477323115,0.00195216853171587,0,1,-1000,0,0,1,-1,1,1,1500.0
02:34:19.517,STABILIZE,-35.3632621,149.1652375,0,-0.0009326073923148215,0.0009586705709807575,0.0243826936930418,0.0002829899895004928,0.00018847815226763487,0.0019246283918619156,0,1,-1000,0,0,0,-1,1,1,1500.0
02:34:19.719,STABILIZE,-35.3632621,149.1652375,0,-0.0009326073923148215,0.0009586705709807575,0.0243826936930418,0.0002829899895004928,0.00018847815226763487,0.0019246283918619156,0,1,-1000,0,0,0,-1,1,1,1500.0
02:34:19.920,STABILIZE,-35.3632621,149.1652375,0,-0.0009326073923148215,0.0009586705709807575,0.0243826936930418,0.0002829899895004928,0.00018847815226763487,0.0019246283918619156,0,1,-1000,0,0,0,-1,1,1,1500.0
02:34:20.121,STABILIZE,-35.3632621,149.1652375,0,-0.0009326073923148215,0.0009586705709807575,0.0243826936930418,0.0002829899895004928,0.00018847815226763487,0.0019246283918619156,0,1,-1000,0,0,0,-1,1,1,1500.0
02:34:20.323,STABILIZE,-35.3632621,149.1652375,0,-0.0009326073923148215,0.0009586705709807575,0.0243826936930418,0.0002829899895004928,0.00018847815226763487,0.0019246283918619156,0,1,-1000,0,0,0,-1,1,1,1500.0
02:34:20.524,STABILIZE,-35.3632621,149.1652375,0,-0.0010683336295187473,0.0009457689011469483,0.024125223979353905,0.0001463030930608511,0.00024853122886270285,0.0018726361449807882,0,1,-1000,0,0,0,-1,0,0,1500.0
02:34:20.725,STABILIZE,-35.3632621,149.1652375,0,-0.0010683336295187473,0.0009457689011469483,0.024125223979353905,0.0001463030930608511,0.00024853122886270285,0.0018726361449807882,0,1,-1000,0,0,0,-1,0,0,1500.0
02:34:20.927,STABILIZE,-35.3632621,149.1652375,0,-0.0010683336295187473,0.0009457689011469483,0.024125223979353905,0.0001463030930608511,0.00024853122886270285,0.0018726361449807882,0,1,-1000,0,0,0,-1,0,0,1500.0
02:34:21.128,STABILIZE,-35.3632621,149.1652375,0,-0.0010683336295187473,0.0009457689011469483,0.024125223979353905,0.0001463030930608511,0.00024853122886270285,0.0018726361449807882,0,1,-1000,0,0,0,-1,0,0,1500.0
02:34:21.330,STABILIZE,-35.3632621,149.1652375,0,-0.001113111968152225,0.000931494461838156,0.023939980193972588,0.0002459058305248618,0.0002727876417338848,0.001913687796331942,0,1,-1000,0,0,0,-1,0,0,1500.0
02:34:21.531,STABILIZE,-35.3632621,149.1652375,0,-0.001113111968152225,0.000931494461838156,0.023939980193972588,0.0002459058305248618,0.0002727876417338848,0.001913687796331942,0,1,-1000,0,0,0,-1,0,0,1500.0
02:34:21.733,STABILIZE,-35.3632621,149.1652375,0,-0.001117622246965766,0.0009256014600396156,0.023803913965821266,0.00022153096506372094,0.00026327045634388924,0.0018117912113666534,0,2,-1000,0,0,0,-1,0,0,1500.0
02:34:21.938,STABILIZE,-35.3632621,149.1652375,0,-0.001117622246965766,0.0009256014600396156,0.023803913965821266,0.00022153096506372094,0.00026327045634388924,0.0018117912113666534,0,2,-1000,0,0,0,-1,0,0,1500.0
02:34:22.140,STABILIZE,-35.3632621,149.1652375,0,-0.001117622246965766,0.0009256014600396156,0.023803913965821266,0.00022153096506372094,0.00026327045634388924,0.0018117912113666534,0,2,-1000,0,0,0,-1,0,0,1500.0
02:34:22.342,STABILIZE,-35.3632621,149.1652375,0,-0.001117622246965766,0.0009256014600396156,0.023803913965821266,0.00022153096506372094,0.00026327045634388924,0.0018117912113666534,0,2,-1000,0,0,0,-1,0,0,1500.0
02:34:22.543,STABILIZE,-35.3632621,149.1652375,0,-0.001117622246965766,0.0009256014600396156,0.023803913965821266,0.00022153096506372094,0.00026327045634388924,0.0018117912113666534,0,2,-1000,0,0,0,-1,0,0,1500.0
02:34:22.745,STABILIZE,-35.3632621,149.1652375,0,-0.0009735335479490459,0.0009509556111879647,0.02353520691394806,0.00024273328017443419,0.000338119687512517,0.0018786974251270294,0,2,-1000,0,0,0,-1,0,0,1500.0
02:34:22.946,STABILIZE,-35.3632621,149.1652375,0,-0.0009849619818851352,0.0009494287660345435,0.023487668484449387,0.00024219875922426581,0.0003014194080606103,0.0017476379871368408,0,1,-1000,0,1,0,-1,0,0,1500.0
02:34:23.147,STABILIZE,-35.3632621,149.1652375,0,-0.0009849619818851352,0.0009494287660345435,0.023487668484449387,0.00024219875922426581,0.0003014194080606103,0.0017476379871368408,0,1,-1000,0,1,0,-1,0,0,1500.0
02:34:23.348,STABILIZE,-35.3632621,149.1652375,0,-0.0009849619818851352,0.0009494287660345435,0.023487668484449387,0.00024219875922426581,0.0003014194080606103,0.0017476379871368408,0,1,-1000,0,1,0,-1,0,0,1500.0
02:34:23.550,STABILIZE,-35.3632621,149.1652375,0,-0.00098912394605577,0.0009577502496540546,0.02335379831492901,0.0001708816853351891,0.0003163237706758082,0.001743305241689086,0,1,-1000,0,1,0,-1,0,0,1500.0
02:34:23.752,STABILIZE,-35.3632621,149.1652375,0,-0.00098912394605577,0.0009577502496540546,0.02335379831492901,0.0001708816853351891,0.0003163237706758082,0.001743305241689086,0,1,-1000,0,0,0,-1,1,0,1500.0
02:34:23.954,STABILIZE,-35.3632621,149.1652375,0,-0.00098912394605577,0.0009577502496540546,0.02335379831492901,0.0001708816853351891,0.0003163237706758082,0.001743305241689086,0,1,-1000,0,0,0,-1,1,0,1500.0
02:34:24.155,STABILIZE,-35.3632621,149.1652375,0,-0.00098912394605577,0.0009577502496540546,0.02335379831492901,0.0001708816853351891,0.0003163237706758082,0.001743305241689086,0,1,-1000,0,0,0,-1,1,0,1500.0
02:34:24.357,STABILIZE,-35.3632621,149.1652375,0,-0.00098912394605577,0.0009577502496540546,0.02335379831492901,0.0001708816853351891,0.0003163237706758082,0.001743305241689086,0,1,-1000,0,0,0,-1,1,0,1500.0
02:34:24.558,STABILIZE,-35.3632621,149.1652375,0,-0.00098912394605577,0.0009577502496540546,0.02335379831492901,0.0001708816853351891,0.0003163237706758082,0.001743305241689086,0,1,-1000,0,0,0,-1,1,0,1500.0
02:34:24.759,STABILIZE,-35.3632622,149.1652375,0,-0.0010436124866828322,0.0009703109390102327,0.023054584860801697,0.00018096913117915392,0.0002489943872205913,0.0017044979613274336,0,2,-1000,0,0,0,-1,1,0,1500.0
02:34:24.961,STABILIZE,-35.3632622,149.1652375,0,-0.0010436124866828322,0.0009703109390102327,0.023054584860801697,0.00018096913117915392,0.0002489943872205913,0.0017044979613274336,0,2,-1000,0,0,0,-1,1,0,1500.0
02:34:25.163,STABILIZE,-35.3632622,149.1652375,0,-0.0010436124866828322,0.0009703109390102327,0.023054584860801697,0.00018096913117915392,0.0002489943872205913,0.0017044979613274336,0,2,-1000,0,0,0,-1,1,0,1500.0
02:34:25.365,STABILIZE,-35.3632622,149.1652375,0,-0.0010436124866828322,0.0009703109390102327,0.023054584860801697,0.00018096913117915392,0.0002489943872205913,0.0017044979613274336,0,2,-1000,0,0,0,-1,1,0,1500.0
02:34:25.566,STABILIZE,-35.3632622,149.1652375,0,-0.0007465182570740581,0.0009687462588772178,0.022861480712890625,0.000230898498557508,0.00030454748775810003,0.0016859379829838872,0,1,-1000,0,1,0,-1,3,2,1500.0
02:34:25.768,STABILIZE,-35.3632622,149.1652375,0,-0.0007465182570740581,0.0009687462588772178,0.022861480712890625,0.000230898498557508,0.00030454748775810003,0.0016859379829838872,0,1,-1000,0,0,0,-1,3,2,1500.0
02:34:25.970,STABILIZE,-35.3632622,149.1652375,0,-0.0007465182570740581,0.0009687462588772178,0.022861480712890625,0.000230898498557508,0.00030454748775810003,0.0016859379829838872,0,1,-1000,0,0,0,-1,3,2,1500.0
02:34:26.172,STABILIZE,-35.3632622,149.1652375,0,-0.0007465182570740581,0.0009687462588772178,0.022861480712890625,0.000230898498557508,0.00030454748775810003,0.0016859379829838872,0,1,-1000,0,0,0,-1,3,2,1500.0
02:34:26.374,STABILIZE,-35.3632622,149.1652375,0,-0.0007465182570740581,0.0009687462588772178,0.022861480712890625,0.000230898498557508,0.00030454748775810003,0.0016859379829838872,0,1,-1000,0,0,0,-1,3,2,1500.0
02:34:26.575,STABILIZE,-35.3632622,149.1652375,0,-0.0007465182570740581,0.0009687462588772178,0.022861480712890625,0.000230898498557508,0.00030454748775810003,0.0016859379829838872,0,2,-1000,0,1,0,-1,2,2,1500.0
02:34:26.777,STABILIZE,-35.3632622,149.1652375,0,-0.0007465182570740581,0.0009687462588772178,0.022861480712890625,0.000230898498557508,0.00030454748775810003,0.0016859379829838872,0,1,-1000,0,0,1,-1,2,1,1500.0
02:34:26.979,STABILIZE,-35.3632622,149.1652375,0,-0.0007465182570740581,0.0009687462588772178,0.022861480712890625,0.000230898498557508,0.00030454748775810003,0.0016859379829838872,0,2,-1000,0,1,0,-1,2,1,1500.0
02:34:27.180,STABILIZE,-35.3632622,149.1652375,0,-0.0007465182570740581,0.0009687462588772178,0.022861480712890625,0.000230898498557508,0.00030454748775810003,0.0016859379829838872,0,2,-1000,0,1,0,-1,2,1,1500.0
02:34:27.382,STABILIZE,-35.3632622,149.1652375,0,-0.0007465182570740581,0.0009687462588772178,0.022861480712890625,0.000230898498557508,0.00030454748775810003,0.0016859379829838872,0,2,-1000,0,1,0,-1,2,1,1500.0
02:34:27.584,STABILIZE,-35.3632622,149.1652375,0,-0.001192003721371293,0.0009699019137769938,0.022376950830221176,0.0003119568573310971,0.00041654298547655344,0.0015911851078271866,0,1,-1000,0,0,1,-1,1,1,1500.0
02:34:27.786,STABILIZE,-35.3632622,149.1652375,0,-0.001192003721371293,0.0009699019137769938,0.022376950830221176,0.0003119568573310971,0.00041654298547655344,0.0015911851078271866,0,1,-1000,0,0,1,-1,1,1,1500.0
02:34:27.988,STABILIZE,-35.3632622,149.1652375,0,-0.001192003721371293,0.0009699019137769938,0.022376950830221176,0.0003119568573310971,0.00041654298547655344,0.0015911851078271866,0,1,-1000,0,0,1,-1,1,1,1500.0
02:34:28.190,STABILIZE,-35.3632622,149.1652375,0,-0.001192003721371293,0.0009699019137769938,0.022376950830221176,0.0003119568573310971,0.00041654298547655344,0.0015911851078271866,0,1,-1000,0,0,1,-1,1,1,1500.0
02:34:28.391,STABILIZE,-35.3632622,149.1652375,0,-0.001192003721371293,0.0009699019137769938,0.022376950830221176,0.0003119568573310971,0.00041654298547655344,0.0015911851078271866,0,1,-1000,0,0,1,-1,1,1,1500.0
02:34:28.592,STABILIZE,-35.3632622,149.1652375,0,-0.001192003721371293,0.0009699019137769938,0.022376950830221176,0.0003119568573310971,0.00041654298547655344,0.0015911851078271866,0,1,-1000,1,0,0,-1,1,1,1500.0
02:34:28.794,STABILIZE,-35.3632622,149.1652375,0,-0.001192003721371293,0.0009699019137769938,0.022376950830221176,0.0003119568573310971,0.00041654298547655344,0.0015911851078271866,0,1,-1000,1,0,0,-1,1,1,1500.0
02:34:28.996,AUTO,-35.3632622,149.1652375,0,-0.001351896091364324,0.0009909548098221421,0.02214096300303936,0.00031533994479104877,0.0002896554069593549,0.0015392957720905542,0,2,-1000,0,1,1,-1,0,0,1500.0
02:34:29.207,AUTO,-35.3632622,149.1652375,3,-0.0013554355828091502,0.0009927572682499886,0.02211887761950493,0.0003181624342687428,0.00018095510313287377,0.0014777155593037605,0,1,-1000,0,1,0,-1,0,0,221602.0
02:34:29.408,AUTO,-35.3632622,149.1652375,3,-0.0013554355828091502,0.0009927572682499886,0.02211887761950493,0.0003181624342687428,0.00018095510313287377,0.0014777155593037605,0,1,-1000,0,1,0,-1,0,0,221602.0
02:34:29.610,AUTO,-35.3632622,149.1652375,3,-0.0013569834409281611,0.0009957427391782403,0.0220804363489151,0.0002608979702927172,0.00030495849205181,0.0014481983380392194,0,1,-1000,1,1,1,-1,0,0,221602.0
02:34:29.811,AUTO,-35.3632622,149.1652375,4,-0.0013576482888311148,0.001001872238703072,0.022045215591788292,0.00015680294018238783,0.00024777447106316686,0.001485112588852644,0,1,-1000,0,1,1,-1,0,0,221602.0
02:34:30.013,AUTO,-35.3632622,149.1652375,4,-0.0013576482888311148,0.001001872238703072,0.022045215591788292,0.00015680294018238783,0.00024777447106316686,0.001485112588852644,0,1,-1000,0,1,1,-1,0,0,221602.0
02:34:30.215,AUTO,-35.3632622,149.1652375,4,-0.0013576482888311148,0.001001872238703072,0.022045215591788292,0.00015680294018238783,0.00024777447106316686,0.001485112588852644,0,1,-1000,0,1,1,-1,0,0,221602.0
02:34:30.416,AUTO,-35.3632622,149.1652375,4,-0.0013576482888311148,0.001001872238703072,0.022045215591788292,0.00015680294018238783,0.00024777447106316686,0.001485112588852644,0,1,-1000,0,1,1,-1,0,0,221602.0
02:34:30.618,AUTO,-35.3632621,149.1652375,4,-0.0012650634162127972,0.0011204391485080123,0.021942012012004852,0.00027989072259515524,0.0003239877405576408,0.001496084500104189,0,1,-1000,0,0,0,0,0,0,221602.0
02:34:30.820,AUTO,-35.3632621,149.1652375,5,-0.001220177160575986,0.0011716980952769518,0.0218968465924263,0.0002662764163687825,0.00030080205760896206,0.0016042946372181177,0,1,-1000,0,1,1,0,0,0,221602.0
02:34:31.022,AUTO,-35.3632621,149.1652375,5,-0.0011781390057876706,0.001226389198563993,0.021849609911441803,0.0003237726050429046,0.00028615054907277226,0.0014482411788776517,0,2,-1000,0,0,0,0,0,0,221602.0
02:34:31.224,AUTO,-35.3632621,149.1652375,6,-0.0011256912257522345,0.0012900473084300756,0.021806765347719193,0.0003204541280865669,0.0002529906341806054,0.0016545981634408236,0,1,-1000,1,1,0,0,0,0,221602.0
02:34:31.425,AUTO,-35.3632621,149.1652375,6,-0.0011256912257522345,0.0012900473084300756,0.021806765347719193,0.0003204541280865669,0.0002529906341806054,0.0016545981634408236,0,1,-1000,1,1,0,0,0,0,221602.0
02:34:31.628,AUTO,-35.3632621,149.1652375,6,-0.001076172455213964,0.0013580330414697528,0.02175172232091427,0.0003281745011918247,0.00030268903356045485,0.0013865644577890635,0,2,-1000,0,1,0,0,0,0,221602.0
02:34:31.829,AUTO,-35.3632621,149.1652375,7,-0.0010249401675537229,0.0014256385620683432,0.021699698641896248,0.00021685648243874311,0.0003055534907616675,0.0014664878835901618,0,2,-1000,0,0,1,0,0,0,221602.0
02:34:32.039,AUTO,-35.3632621,149.1652375,7,-0.0010249401675537229,0.0014256385620683432,0.021699698641896248,0.00021685648243874311,0.0003055534907616675,0.0014664878835901618,0,2,-1000,0,0,1,0,0,0,242395.0
02:34:32.242,AUTO,-35.3632621,149.1652375,7,-0.0010249401675537229,0.0014256385620683432,0.021699698641896248,0.00021685648243874311,0.0003055534907616675,0.0014664878835901618,0,2,-1000,0,0,1,0,0,0,242395.0
02:34:32.444,AUTO,-35.3632621,149.1652374,12,-0.0008561174036003649,0.0016439413884654641,0.021552445366978645,0.0002678473829291761,0.00028099369956180453,0.00140258832834661,0,1,-1000,0,0,0,0,-1,-2,242395.0
02:34:32.646,AUTO,-35.3632621,149.1652374,12,-0.0008561174036003649,0.0016439413884654641,0.021552445366978645,0.0002678473829291761,0.00028099369956180453,0.00140258832834661,0,1,-1000,0,0,0,0,-1,-2,242395.0
02:34:32.849,AUTO,-35.3632621,149.1652374,15,-0.0007910779095254838,0.00171868153847754,0.02149791270494461,0.00034929276444017887,0.00034571008291095495,0.0014187222113832831,0,1,-1000,0,0,1,0,-1,-2,242395.0
02:34:33.051,AUTO,-35.3632621,149.1652374,18,0.001092775259166956,0.0011441487586125731,0.021499546244740486,0.010143577121198177,-0.011321242898702621,0.0016547210980206728,0,0,-1096,10,-10,1,0,0,-8,242395.0
02:34:33.253,AUTO,-35.3632621,149.1652374,80,0.005210991948843002,-0.00046672989265061915,0.0214399304240942,0.018480464816093445,-0.0005369780701585114,0.0002722348435781896,0,0,-1145,19,0,0,0,0,-43,242395.0
02:34:33.455,AUTO,-35.3632621,149.1652375,229,0.0035263956524431705,0.00032677341368980706,0.021341053768992424,-0.005331116262823343,0.004725403152406216,0.0010453484719619155,0,-1,-1131,-4,5,0,0,1,-77,242395.0
02:34:33.657,AUTO,-35.3632621,149.1652375,229,0.0035263956524431705,0.00032677341368980706,0.021341053768992424,-0.005331116262823343,0.004725403152406216,0.0010453484719619155,0,-1,-1131,-4,5,0,0,1,-77,242395.0
02:34:33.858,AUTO,-35.3632621,149.1652375,452,0.001348865800537169,0.0012110081734135747,0.02133850008249283,-0.01834610290825367,0.0017121401615440845,0.0016752766678109765,0,-1,-1109,-17,2,1,0,1,-105,242395.0
02:34:34.060,AUTO,-35.3632621,149.1652375,452,0.001348865800537169,0.0012110081734135747,0.02133850008249283,-0.01834610290825367,0.0017121401615440845,0.0016752766678109765,0,-1,-1109,-17,2,1,0,1,-105,242395.0
02:34:34.262,AUTO,-35.3632621,149.1652375,452,0.001348865800537169,0.0012110081734135747,0.02133850008249283,-0.01834610290825367,0.0017121401615440845,0.0016752766678109765,0,-1,-1109,-17,2,1,0,1,-105,242395.0
02:34:34.464,AUTO,-35.363262,149.1652376,1451,0.023056188598275185,-0.0012550363317131996,0.02063887193799019,0.04679979756474495,-0.0073378984816372395,0.002094769850373268,0,0,-1016,47,-6,1,1,6,-147,242395.0
02:34:34.666,AUTO,-35.363262,149.1652376,1451,0.023056188598275185,-0.0012550363317131996,0.02063887193799019,0.04679979756474495,-0.0073378984816372395,0.002094769850373268,0,0,-1016,47,-6,1,1,6,-147,242395.0
02:34:34.868,AUTO,-35.363262,149.1652379,1830,0.034329477697610855,-0.003264817874878645,0.020752742886543274,0.04413020983338356,-0.008070634678006172,0.002610068069770932,0,-2,-1006,44,-7,2,2,13,-149,242395.0
02:34:35.070,AUTO,-35.3632619,149.1652383,2214,0.045108113437891006,-0.005544489715248346,0.020944567397236824,0.042076658457517624,-0.009706543758511543,0.0033351306337863207,0,-3,-1002,42,-9,3,3,22,-150,271667.0
02:34:35.272,AUTO,-35.3632618,149.165239,2600,0.054999012500047684,-0.008246788755059242,0.02117680385708809,0.03866497799754143,-0.011185792274773121,0.003554336726665497,0,-6,-1000,39,-10,3,6,32,-150,271667.0
02:34:35.473,AUTO,-35.3632616,149.1652401,2985,0.05908142402768135,-0.007258256897330284,-0.009925564751029015,-0.038844943046569824,0.04698135703802109,-0.06800732761621475,1,-8,-991,-38,47,-68,9,45,-149,271667.0
02:34:35.675,AUTO,-35.3632616,149.1652401,2985,0.05908142402768135,-0.007258256897330284,-0.009925564751029015,-0.038844943046569824,0.04698135703802109,-0.06800732761621475,1,-8,-991,-38,47,-68,9,45,-149,271667.0
02:34:35.877,AUTO,-35.3632613,149.1652414,3368,0.03273826837539673,0.01708989217877388,-0.0342879444360733,-0.15820512175559998,0.08397962152957916,-0.09646433591842651,2,-10,-992,-157,84,-96,9,53,-146,271667.0
02:34:36.079,AUTO,-35.3632613,149.1652414,3368,0.03273826837539673,0.01708989217877388,-0.0342879444360733,-0.15820512175559998,0.08397962152957916,-0.09646433591842651,2,-10,-992,-157,84,-96,9,53,-146,271667.0
02:34:36.281,AUTO,-35.3632613,149.1652414,3368,0.03273826837539673,0.01708989217877388,-0.0342879444360733,-0.15820512175559998,0.08397962152957916,-0.09646433591842651,2,-10,-992,-157,84,-96,9,53,-146,271667.0
02:34:36.484,AUTO,-35.363261,149.1652451,4501,-0.04371099919080734,0.028124742209911346,-0.0926167219877243,-0.035549186170101166,-0.023275131359696388,-0.04659917950630188,6,-8,-1004,-34,-22,-47,-4,31,-150,271667.0
02:34:36.685,AUTO,-35.363261,149.1652458,4887,-0.05640796944499016,0.0116393668577075,-0.09227770566940308,-0.06062508001923561,-0.0899667963385582,0.022632120177149773,4,-3,-1000,-59,-89,22,-9,18,-150,271667.0
02:34:36.887,AUTO,-35.363261,149.1652458,4887,-0.05640796944499016,0.0116393668577075,-0.09227770566940308,-0.06062508001923561,-0.0899667963385582,0.022632120177149773,4,-3,-1000,-59,-89,22,-9,18,-150,271667.0
02:34:37.089,AUTO,-35.3632612,149.1652461,5271,-0.07034558802843094,-0.011778478510677814,-0.08013797551393509,-0.03642328083515167,-0.07058420032262802,0.025547802448272705,3,0,-1003,-35,-69,25,-8,1,-150,271667.0
02:34:37.291,AUTO,-35.3632613,149.1652459,5655,-0.07028539478778839,-0.01680789329111576,-0.07798653841018677,0.02478971891105175,0.004901580046862364,-0.0009758442174643278,0,2,-1003,25,5,-1,-5,-16,-150,271667.0
02:34:37.493,AUTO,-35.3632614,149.1652453,6039,-0.0604599192738533,-0.015274585224688053,-0.07905028760433197,0.04974135383963585,0.003228872548788786,0.000627211295068264,-1,4,-1001,50,4,0,-2,-32,-150,271667.0
02:34:37.696,AUTO,-35.3632615,149.1652443,6424,-0.046637240797281265,-0.014550307765603065,-0.0798318088054657,0.058403730392456055,0.0034448911901563406,0.002579623833298683,-4,6,-1001,59,3,2,0,-44,-150,271667.0
02:34:37.898,AUTO,-35.3632615,149.1652443,6424,-0.046637240797281265,-0.014550307765603065,-0.0798318088054657,0.058403730392456055,0.0034448911901563406,0.002579623833298683,-4,6,-1001,59,3,2,0,-44,-150,271667.0
02:34:38.100,AUTO,-35.3632615,149.1652443,6424,-0.046637240797281265,-0.014550307765603065,-0.0798318088054657,0.058403730392456055,0.0034448911901563406,0.002579623833298683,-4,6,-1001,59,3,2,0,-44,-150,261308.0
02:34:38.302,AUTO,-35.3632615,149.1652443,6424,-0.046637240797281265,-0.014550307765603065,-0.0798318088054657,0.058403730392456055,0.0034448911901563406,0.002579623833298683,-4,6,-1001,59,3,2,0,-44,-150,261308.0
02:34:38.503,AUTO,-35.3632615,149.1652399,7579,-0.013448959216475487,0.005934183020144701,-0.09334736317396164,0.031832095235586166,0.06046772003173828,-0.03307226672768593,-6,12,-1003,32,61,-33,0,-57,-150,261308.0
02:34:38.705,AUTO,-35.3632615,149.1652383,7969,0.0008555921958759427,0.013874686323106289,-0.10014332830905914,0.063406802713871,0.019115731120109558,-0.020440546795725822,-9,11,-1004,64,19,-20,-3,-55,-151,261308.0
02:34:38.906,AUTO,-35.3632615,149.1652383,7969,0.0008555921958759427,0.013874686323106289,-0.10014332830905914,0.063406802713871,0.019115731120109558,-0.020440546795725822,-9,11,-1004,64,19,-20,-3,-55,-151,261308.0
02:34:39.108,AUTO,-35.3632616,149.1652367,8357,0.016942286863923073,0.017791081219911575,-0.10439204424619675,0.06508881598711014,0.013425171375274658,-0.013533104211091995,-5,11,-1004,65,14,-13,-8,-51,-152,261308.0
02:34:39.310,AUTO,-35.3632619,149.1652354,8749,0.032959237694740295,0.02056114375591278,-0.10705707222223282,0.06474415212869644,0.008855987340211868,-0.008388766087591648,-3,11,-1003,65,9,-8,-12,-42,-153,261308.0
02:34:39.512,AUTO,-35.3632622,149.1652344,9142,0.048610035330057144,0.021989280357956886,-0.10860223323106766,0.06257739663124084,0.0025220010429620743,-0.0042957644909620285,-2,8,-1002,63,3,-4,-17,-29,-153,261308.0
02:34:39.714,AUTO,-35.3632626,149.1652337,9534,0.06366116553544998,0.021724965423345566,-0.10939759761095047,0.0588470883667469,-0.004244348034262657,-0.0027138658333569765,-1,7,-1001,59,-3,-2,-20,-14,-153,261308.0
02:34:39.916,AUTO,-35.3632626,149.1652337,9534,0.06366116553544998,0.021724965423345566,-0.10939759761095047,0.0588470883667469,-0.004244348034262657,-0.0027138658333569765,-1,7,-1001,59,-3,-2,-20,-14,-153,261308.0
02:34:40.118,AUTO,-35.3632626,149.1652337,9534,0.06366116553544998,0.021724965423345566,-0.10939759761095047,0.0588470883667469,-0.004244348034262657,-0.0027138658333569765,-1,7,-1001,59,-3,-2,-20,-14,-153,261308.0
02:34:40.320,AUTO,-35.3632626,149.1652337,9534,0.06366116553544998,0.021724965423345566,-0.10939759761095047,0.0588470883667469,-0.004244348034262657,-0.0027138658333569765,-1,7,-1001,59,-3,-2,-20,-14,-153,261308.0
02:34:40.522,AUTO,-35.3632638,149.1652343,10694,0.04049830511212349,-0.04940657317638397,-0.05406320467591286,-0.10118073225021362,-0.10374855250120163,0.09787635505199432,7,-2,-997,-100,-103,97,-8,31,-149,261308.0
02:34:40.724,AUTO,-35.3632639,149.1652351,11073,0.01049888413399458,-0.05294600501656532,-0.04493042081594467,-0.12085495889186859,0.047215189784765244,-0.0069235400296747684,4,-5,-999,-120,47,-7,6,34,-148,261308.0
02:34:40.925,AUTO,-35.3632639,149.1652351,11073,0.01049888413399458,-0.05294600501656532,-0.04493042081594467,-0.12085495889186859,0.047215189784765244,-0.0069235400296747684,4,-5,-999,-120,47,-7,6,34,-148,261308.0
02:34:41.127,AUTO,-35.3632637,149.165236,11453,-0.013765712268650532,-0.03525682911276817,-0.0544237457215786,-0.07742511481046677,0.07763339579105377,-0.058679088950157166,1,-6,-1005,-76,78,-59,18,30,-149,256158.0
02:34:41.330,AUTO,-35.3632632,149.1652367,11835,-0.027488181367516518,-0.01861589029431343,-0.07146686315536499,-0.039296556264162064,0.05705178901553154,-0.07329866290092468,-1,-7,-1006,-38,57,-73,24,22,-150,256158.0
02:34:41.532,AUTO,-35.3632627,149.1652371,12220,-0.03227576985955238,-0.006946617271751165,-0.09091398864984512,-0.006993032991886139,0.043400611728429794,-0.07828318327665329,-2,-6,-1004,-6,43,-78,26,12,-151,256158.0
02:34:41.734,AUTO,-35.3632621,149.1652374,12611,-0.031535644084215164,0.0022683546412736177,-0.11067783832550049,0.009705988690257072,0.03450040519237518,-0.07198489457368851,-3,-5,-1003,10,35,-72,25,3,-152,256158.0
02:34:41.946,AUTO,-35.3632621,149.1652374,12611,-0.031535644084215164,0.0022683546412736177,-0.11067783832550049,0.009705988690257072,0.03450040519237518,-0.07198489457368851,-3,-5,-1003,10,35,-72,25,3,-152,256158.0
02:34:42.148,AUTO,-35.3632621,149.1652374,12611,-0.031535644084215164,0.0022683546412736177,-0.11067783832550049,0.009705988690257072,0.03450040519237518,-0.07198489457368851,-3,-5,-1003,10,35,-72,25,3,-152,256158.0
02:34:42.351,AUTO,-35.3632621,149.1652374,12611,-0.031535644084215164,0.0022683546412736177,-0.11067783832550049,0.009705988690257072,0.03450040519237518,-0.07198489457368851,-3,-5,-1003,10,35,-72,25,3,-152,256158.0
02:34:42.552,AUTO,-35.3632607,149.1652368,13777,-0.00909529160708189,0.017461633309721947,-0.15269622206687927,0.039376333355903625,0.012988467700779438,-0.036440011113882065,-5,0,-1001,39,13,-36,12,-14,-153,256158.0
02:34:42.754,AUTO,-35.3632604,149.1652363,14168,-6.969749665586278e-05,0.020073242485523224,-0.1607222557067871,0.03378838673233986,0.0086476756259799,-0.025523673743009567,-5,1,-1000,34,9,-25,7,-15,-153,256158.0
02:34:42.956,AUTO,-35.3632603,149.1652359,14559,0.006994036957621574,0.02106506936252117,-0.1656627357006073,0.02504815347492695,0.0005563929444178939,-0.014056281186640263,-4,1,-999,25,1,-14,2,-13,-153,256158.0
02:34:43.158,AUTO,-35.3632603,149.1652359,14559,0.006994036957621574,0.02106506936252117,-0.1656627357006073,0.02504815347492695,0.0005563929444178939,-0.014056281186640263,-4,1,-999,25,1,-14,2,-13,-153,256158.0
02:34:43.360,AUTO,-35.3632603,149.1652355,14950,0.01219659298658371,0.019918983802199364,-0.16773627698421478,0.016388365998864174,-0.005138241220265627,-0.005149057134985924,-2,2,-999,17,-4,-5,-2,-10,-153,256158.0
02:34:43.561,AUTO,-35.3632603,149.1652353,15341,0.014718462713062763,0.018002737313508987,-0.16814784705638885,0.009840242564678192,-0.008342370390892029,-8.92805983312428e-05,-1,2,-999,10,-7,0,-5,-6,-153,256158.0
02:34:43.763,AUTO,-35.3632603,149.1652351,15730,0.015304223634302616,0.015283573418855667,-0.16744035482406616,-0.0008946774178184569,-0.011188298463821411,0.002956208074465394,0,1,-999,0,-10,2,-8,-1,-152,256158.0
02:34:43.965,AUTO,-35.3632603,149.1652351,15730,0.015304223634302616,0.015283573418855667,-0.16744035482406616,-0.0008946774178184569,-0.011188298463821411,0.002956208074465394,0,1,-999,0,-10,2,-8,-1,-152,256158.0
02:34:44.167,AUTO,-35.3632603,149.1652351,15730,0.015304223634302616,0.015283573418855667,-0.16744035482406616,-0.0008946774178184569,-0.011188298463821411,0.002956208074465394,0,1,-999,0,-10,2,-8,-1,-152,151355.0
02:34:44.369,AUTO,-35.3632603,149.1652351,15730,0.015304223634302616,0.015283573418855667,-0.16744035482406616,-0.0008946774178184569,-0.011188298463821411,0.002956208074465394,0,1,-999,0,-10,2,-8,-1,-152,151355.0
02:34:44.571,AUTO,-35.3632609,149.1652352,16896,0.009084071032702923,0.0063463244587183,-0.1659364104270935,-0.010504987090826035,-0.009671024978160858,-0.00438523106276989,2,0,-1000,-9,-8,-4,-11,7,-152,151355.0
02:34:44.774,AUTO,-35.3632611,149.1652353,17288,0.0064018769189715385,0.004177503753453493,-0.16708679497241974,-0.009954853914678097,-0.007743713445961475,-0.006518888752907515,2,0,-1000,-9,-6,-6,-11,8,-152,151355.0
02:34:44.976,AUTO,-35.3632613,149.1652354,17675,0.0038826402742415667,0.0021485944744199514,-0.16909295320510864,-0.006270853336900473,-0.006803418975323439,-0.010906673967838287,2,0,-1000,-5,-5,-11,-10,9,-152,151355.0
02:34:45.178,AUTO,-35.3632613,149.1652354,17675,0.0038826402742415667,0.0021485944744199514,-0.16909295320510864,-0.006270853336900473,-0.006803418975323439,-0.010906673967838287,2,0,-1000,-5,-5,-11,-10,9,-152,151355.0
02:34:45.380,AUTO,-35.3632615,149.1652356,18064,0.0021661529317498207,0.0003263403777964413,-0.17186908423900604,-0.0057862289249897,-0.005795158911496401,-0.013139533810317516,2,0,-1000,-5,-4,-13,-9,9,-152,151355.0
02:34:45.583,AUTO,-35.3632617,149.1652358,18453,0.00043815019307658076,-0.0008952021598815918,-0.17568297684192657,-0.004876068327575922,-0.00045262096682563424,-0.01944618858397007,1,0,-1001,-4,0,-20,-8,8,-152,151355.0
02:34:45.786,AUTO,-35.3632618,149.165236,18842,-0.0006855391548015177,-0.001371859572827816,-0.1803426593542099,-0.00454587722197175,-0.0007919055060483515,-0.020049259066581726,2,0,-1000,-3,0,-20,-6,7,-152,151355.0
02:34:45.988,AUTO,-35.3632618,149.165236,18842,-0.0006855391548015177,-0.001371859572827816,-0.1803426593542099,-0.00454587722197175,-0.0007919055060483515,-0.020049259066581726,2,0,-1000,-3,0,-20,-6,7,-152,151355.0
02:34:46.190,AUTO,-35.3632618,149.165236,18842,-0.0006855391548015177,-0.001371859572827816,-0.1803426593542099,-0.00454587722197175,-0.0007919055060483515,-0.020049259066581726,2,0,-1000,-3,0,-20,-6,7,-152,151355.0
02:34:46.392,AUTO,-35.3632618,149.165236,18842,-0.0006855391548015177,-0.001371859572827816,-0.1803426593542099,-0.00454587722197175,-0.0007919055060483515,-0.020049259066581726,2,0,-1000,-3,0,-20,-6,7,-152,151355.0
02:34:46.593,AUTO,-35.363262,149.1652363,20005,-0.0008015577914193273,-0.0005794779281131923,-0.19824372231960297,0.0037418717984110117,0.0010093566961586475,-0.025345712900161743,0,0,-1000,4,1,-25,-3,4,-153,151355.0
02:34:46.795,AUTO,-35.363262,149.1652363,20395,1.3631223509946722e-06,-0.00019294599769636989,-0.20454172790050507,0.0024585165083408356,0.0038954741321504116,-0.024933725595474243,0,0,-1000,3,4,-25,-2,3,-153,151355.0
02:34:46.996,AUTO,-35.363262,149.1652364,20784,0.0009532352560199797,0.0004426290688570589,-0.21087254583835602,0.004752876702696085,0.002301086438819766,-0.026384243741631508,0,0,-1000,5,3,-26,-2,2,-153,151355.0
02:34:47.198,AUTO,-35.363262,149.1652364,21173,0.001538915908895433,0.0008776912582106888,-0.2170303612947464,0.003077601082623005,0.004568055272102356,-0.027054766193032265,0,0,-1000,3,5,-27,-1,2,-153,293193.0
02:34:47.399,AUTO,-35.363262,149.1652364,21173,0.001538915908895433,0.0008776912582106888,-0.2170303612947464,0.003077601082623005,0.004568055272102356,-0.027054766193032265,0,0,-1000,3,5,-27,-1,2,-153,293193.0
02:34:47.601,AUTO,-35.363262,149.1652364,21563,0.0018475196557119489,0.0016912141581997275,-0.22321301698684692,0.001237198943272233,0.002527064410969615,-0.024326100945472717,0,0,-1000,1,3,-25,-1,2,-153,293193.0
02:34:47.803,AUTO,-35.363262,149.1652364,21957,0.0021411650814116,0.0021035554818809032,-0.22914008796215057,0.0016574410255998373,0.0022327229380607605,-0.022564468905329704,0,0,-1000,2,2,-22,-1,2,-153,293193.0
02:34:48.005,AUTO,-35.363262,149.1652364,21957,0.0021411650814116,0.0021035554818809032,-0.22914008796215057,0.0016574410255998373,0.0022327229380607605,-0.022564468905329704,0,0,-1000,2,2,-22,-1,2,-153,293193.0
02:34:48.207,AUTO,-35.363262,149.1652364,21957,0.0021411650814116,0.0021035554818809032,-0.22914008796215057,0.0016574410255998373,0.0022327229380607605,-0.022564468905329704,0,0,-1000,2,2,-22,-1,2,-153,293193.0
02:34:48.409,AUTO,-35.363262,149.1652364,21957,0.0021411650814116,0.0021035554818809032,-0.22914008796215057,0.0016574410255998373,0.0022327229380607605,-0.022564468905329704,0,0,-1000,2,2,-22,-1,2,-153,293193.0
02:34:48.610,AUTO,-35.363262,149.1652364,23125,0.003022118005901575,0.0035911647137254477,-0.24613919854164124,-0.0015953999245539308,0.0011926984880119562,-0.020976491272449493,0,0,-999,0,1,-21,-1,2,-153,293193.0
02:34:48.812,AUTO,-35.363262,149.1652365,23515,0.002961274003610015,0.003430483164265752,-0.25108158588409424,3.0346971470862627e-05,-0.00037929831887595356,-0.018667008727788925,0,0,-1000,0,0,-18,-1,3,-153,293193.0
02:34:49.013,AUTO,-35.363262,149.1652365,23903,0.002828477183356881,0.003183153457939625,-0.255826473236084,9.461160516366363e-05,-0.0003104741917923093,-0.021466923877596855,0,0,-1000,0,0,-21,-1,3,-153,293193.0
02:34:49.215,AUTO,-35.363262,149.1652365,24300,0.002422110876068473,0.003164072521030903,-0.26066383719444275,0.00088519137352705,-8.900044485926628e-05,-0.01875537447631359,0,0,-1000,1,0,-18,-1,3,-153,293193.0
02:34:49.417,AUTO,-35.363262,149.1652365,24300,0.002422110876068473,0.003164072521030903,-0.26066383719444275,0.00088519137352705,-8.900044485926628e-05,-0.01875537447631359,0,0,-1000,1,0,-18,-1,3,-153,293193.0
02:34:49.618,AUTO,-35.363262,149.1652366,24690,0.0022734212689101696,0.0029685937333852053,-0.2652338743209839,0.0008238509763032198,0.0008926849695853889,-0.01688520237803459,0,0,-1000,1,1,-17,-1,3,-153,293193.0
02:34:49.820,AUTO,-35.363262,149.1652366,25080,-0.002833997132256627,0.00313106132671237,-0.26936420798301697,-0.10685690492391586,0.006564010865986347,-0.00870122667402029,0,-2,-984,-106,7,-9,-1,3,-152,293193.0
02:34:50.022,AUTO,-35.363262,149.1652366,25080,-0.002833997132256627,0.00313106132671237,-0.26936420798301697,-0.10685690492391586,0.006564010865986347,-0.00870122667402029,0,-2,-984,-106,7,-9,-1,3,-152,293193.0
02:34:50.224,AUTO,-35.363262,149.1652366,25080,-0.002833997132256627,0.00313106132671237,-0.26936420798301697,-0.10685690492391586,0.006564010865986347,-0.00870122667402029,0,-2,-984,-106,7,-9,-1,3,-152,90230.0
02:34:50.426,AUTO,-35.363262,149.1652366,25080,-0.002833997132256627,0.00313106132671237,-0.26936420798301697,-0.10685690492391586,0.006564010865986347,-0.00870122667402029,0,-2,-984,-106,7,-9,-1,3,-152,90230.0
02:34:50.627,AUTO,-35.3632621,149.1652366,26234,0.003335114335641265,0.005151745397597551,-0.263246089220047,0.03004908375442028,-0.0030183871276676655,0.021501081064343452,0,0,-1001,30,-1,21,-4,-1,-153,90230.0
02:34:50.829,AUTO,-35.3632622,149.1652365,26623,0.008282593451440334,0.004314498510211706,-0.25716841220855713,0.013278485275804996,-0.00368323503062129,0.027891311794519424,0,0,-999,14,-2,27,-4,0,-153,90230.0
02:34:51.032,AUTO,-35.3632623,149.1652365,27012,0.010376558639109135,0.003638584865257144,-0.2504023611545563,0.003676676657050848,-0.002973738359287381,0.02614312618970871,0,0,-1000,4,-2,25,-4,2,-153,90230.0
02:34:51.234,AUTO,-35.3632623,149.1652366,27400,0.010448232293128967,0.0029976607766002417,-0.24371209740638733,-0.0020908426959067583,4.784489283338189e-05,0.02640119194984436,0,0,-999,-1,1,26,-4,4,-152,90230.0
02:34:51.435,AUTO,-35.3632623,149.1652366,27400,0.010448232293128967,0.0029976607766002417,-0.24371209740638733,-0.0020908426959067583,4.784489283338189e-05,0.02640119194984436,0,0,-999,-1,1,26,-4,4,-152,90230.0
02:34:51.637,AUTO,-35.3632623,149.1652366,27787,0.009189039468765259,0.002535729669034481,-0.23744413256645203,-0.004058289807289839,-0.00048200623132288456,0.026112079620361328,0,0,-1000,-3,0,25,-3,6,-152,90230.0
02:34:51.839,AUTO,-35.3632624,149.1652367,28176,0.007235318422317505,0.0021108887158334255,-0.23153284192085266,-0.010320543311536312,0.0006697320495732129,0.023592161014676094,0,0,-999,-9,1,23,-2,7,-152,90230.0
02:34:52.046,AUTO,-35.3632624,149.1652367,28176,0.007235318422317505,0.0021108887158334255,-0.23153284192085266,-0.010320543311536312,0.0006697320495732129,0.023592161014676094,0,0,-999,-9,1,23,-2,7,-152,90230.0
02:34:52.253,AUTO,-35.3632624,149.1652367,28176,0.007235318422317505,0.0021108887158334255,-0.23153284192085266,-0.010320543311536312,0.0006697320495732129,0.023592161014676094,0,0,-999,-9,1,23,-2,7,-152,90230.0
02:34:52.455,AUTO,-35.3632623,149.1652373,29338,0.0015098975272849202,0.0023554950021207333,-0.21556338667869568,-0.008076288737356663,0.0017789490520954132,0.021902047097682953,0,-1,-1000,-7,2,21,-1,8,-152,90230.0
02:34:52.657,AUTO,-35.3632623,149.1652373,29338,0.0015098975272849202,0.0023554950021207333,-0.21556338667869568,-0.008076288737356663,0.0017789490520954132,0.021902047097682953,0,-1,-1000,-7,2,21,-1,8,-152,90230.0
02:34:52.858,AUTO,-35.3632623,149.1652375,29726,-9.614221926312894e-05,0.0020286315120756626,-0.21049274504184723,-0.003563872305676341,-8.989690104499459e-05,0.02181668020784855,0,-1,-1000,-2,0,21,-1,8,-152,90230.0
02:34:53.060,AUTO,-35.3632623,149.1652376,30114,-0.0012188345426693559,0.0020018797367811203,-0.20560146868228912,-0.004138614982366562,-0.00038292858516797423,0.019603872671723366,0,-1,-1001,-3,0,19,0,7,-152,90230.0
02:34:53.262,AUTO,-35.3632623,149.1652378,30501,-0.0016121366061270237,0.001988776959478855,-0.200857475399971,0.0027719924692064524,0.0005625325138680637,0.019955970346927643,0,-1,-1000,3,1,19,0,6,-152,264624.0
02:34:53.463,AUTO,-35.3632623,149.1652379,30889,-0.0019948447588831186,0.0018157002050429583,-0.19633358716964722,-0.0034279257524758577,0.00038943340769037604,0.019476424902677536,0,0,-999,-2,1,19,0,5,-152,264624.0
02:34:53.665,AUTO,-35.3632623,149.1652379,30889,-0.0019948447588831186,0.0018157002050429583,-0.19633358716964722,-0.0034279257524758577,0.00038943340769037604,0.019476424902677536,0,0,-999,-2,1,19,0,5,-152,264624.0
02:34:53.867,AUTO,-35.3632623,149.165238,31277,-0.0021160966716706753,0.001576676731929183,-0.19210131466388702,0.0012486372143030167,-0.0008777714101597667,0.015834413468837738,0,0,-1001,2,0,15,0,4,-152,264624.0
02:34:54.070,AUTO,-35.3632623,149.165238,31277,-0.0021160966716706753,0.001576676731929183,-0.19210131466388702,0.0012486372143030167,-0.0008777714101597667,0.015834413468837738,0,0,-1001,2,0,15,0,4,-152,264624.0
02:34:54.273,AUTO,-35.3632623,149.165238,31277,-0.0021160966716706753,0.001576676731929183,-0.19210131466388702,0.0012486372143030167,-0.0008777714101597667,0.015834413468837738,0,0,-1001,2,0,15,0,4,-152,264624.0
02:34:54.476,AUTO,-35.3632623,149.1652381,32441,-0.0008151826332323253,0.0013487947871908545,-0.1801670342683792,0.00578312436118722,-0.000177609093952924,0.015020152553915977,0,0,-1001,6,0,14,0,1,-152,264624.0
02:34:54.677,AUTO,-35.3632623,149.1652381,32441,-0.0008151826332323253,0.0013487947871908545,-0.1801670342683792,0.00578312436118722,-0.000177609093952924,0.015020152553915977,0,0,-1001,6,0,14,0,1,-152,264624.0
02:34:54.878,AUTO,-35.3632623,149.1652381,32829,-0.00040001689922064543,0.0011073912028223276,-0.17628543078899384,0.00201735133305192,-0.00046615194878540933,0.013385385274887085,0,0,-1000,2,0,13,0,1,-153,264624.0
02:34:55.080,AUTO,-35.3632623,149.1652381,33224,-0.0002276851300848648,0.0008698711753822863,-0.17247670888900757,-1.8994673155248165e-05,-0.0012030411744490266,0.016481630504131317,0,0,-1000,1,0,16,0,0,-152,264624.0
02:34:55.282,AUTO,-35.3632623,149.1652381,33613,0.00033506585168652236,0.0010415235301479697,-0.16890397667884827,0.00132993352599442,0.0007385317585431039,0.01344198826700449,0,0,-1000,2,1,13,0,0,-152,264624.0
02:34:55.483,AUTO,-35.3632623,149.1652381,34001,0.0008202560129575431,0.0012341082328930497,-0.165541410446167,0.0023192742373794317,0.0011182832531630993,0.013644237071275711,0,0,-1000,3,2,13,0,0,-152,264624.0
02:34:55.685,AUTO,-35.3632623,149.1652381,34001,0.0008202560129575431,0.0012341082328930497,-0.165541410446167,0.0023192742373794317,0.0011182832531630993,0.013644237071275711,0,0,-1000,3,2,13,0,0,-152,264624.0
02:34:55.888,AUTO,-35.3632623,149.165238,34389,0.0008413664763793349,0.0012365496950224042,-0.16246327757835388,-0.002537392545491457,0.0011370894499123096,0.013815745711326599,0,0,-999,-1,2,13,0,0,-152,264624.0
02:34:56.092,AUTO,-35.3632623,149.165238,34389,0.0008413664763793349,0.0012365496950224042,-0.16246327757835388,-0.002537392545491457,0.0011370894499123096,0.013815745711326599,0,0,-999,-1,2,13,0,0,-152,264624.0
02:34:56.293,AUTO,-35.3632623,149.165238,34389,0.0008413664763793349,0.0012365496950224042,-0.16246327757835388,-0.002537392545491457,0.0011370894499123096,0.013815745711326599,0,0,-999,-1,2,13,0,0,-152,32602.0
02:34:56.495,AUTO,-35.3632623,149.1652379,35553,0.0008897960069589317,0.0010980279184877872,-0.15365223586559296,-8.674373384565115e-05,-0.00027529423823580146,0.011593097820878029,0,0,-1000,0,0,11,0,0,-152,32602.0
02:34:56.696,AUTO,-35.3632622,149.1652379,35941,0.0008300761110149324,0.0010638923849910498,-0.1509743481874466,0.0002007341245189309,-0.0007018022006377578,0.010693988762795925,0,0,-1000,1,0,10,0,0,-152,32602.0
02:34:56.898,AUTO,-35.3632622,149.1652379,35941,0.0008300761110149324,0.0010638923849910498,-0.1509743481874466,0.0002007341245189309,-0.0007018022006377578,0.010693988762795925,0,0,-1000,1,0,10,0,0,-152,32602.0
02:34:57.099,AUTO,-35.3632622,149.1652379,36330,0.0007137663196772337,0.0009809128241613507,-0.14833727478981018,-0.0034380201250314713,0.0005185705376788974,0.011893288232386112,0,0,-999,-2,1,11,0,0,-152,32602.0
02:34:57.301,AUTO,-35.3632622,149.1652378,36718,0.0007839794852770865,0.0009330447646789253,-0.14564241468906403,0.002548500429838896,0.0006862559821456671,0.01208793930709362,0,0,-1000,3,1,12,0,0,-152,32602.0
02:34:57.502,AUTO,-35.3632622,149.1652378,37106,0.001111454563215375,0.0010540778748691082,-0.14307710528373718,0.0045740120112895966,0.0011908098822459579,0.010575035586953163,0,0,-1000,5,2,10,0,0,-152,32602.0
02:34:57.704,AUTO,-35.3632622,149.1652378,37494,0.0013078316114842892,0.001135900616645813,-0.14065799117088318,-0.0005626034107990563,-0.00029215210815891623,0.00956297479569912,0,0,-1000,0,0,9,0,0,-152,32602.0
02:34:57.906,AUTO,-35.3632622,149.1652378,37494,0.0013078316114842892,0.001135900616645813,-0.14065799117088318,-0.0005626034107990563,-0.00029215210815891623,0.00956297479569912,0,0,-1000,0,0,9,0,0,-152,32602.0
02:34:58.108,AUTO,-35.3632622,149.1652378,37494,0.0013078316114842892,0.001135900616645813,-0.14065799117088318,-0.0005626034107990563,-0.00029215210815891623,0.00956297479569912,0,0,-1000,0,0,9,0,0,-152,32602.0
02:34:58.309,AUTO,-35.3632622,149.1652378,37494,0.0013078316114842892,0.001135900616645813,-0.14065799117088318,-0.0005626034107990563,-0.00029215210815891623,0.00956297479569912,0,0,-1000,0,0,9,0,0,-152,32602.0
02:34:58.511,AUTO,-35.3632622,149.1652376,38659,0.0020755489822477102,0.0014703634660691023,-0.1338156759738922,-0.000595005345530808,0.0022592670284211636,0.008641240186989307,0,0,-999,0,3,8,0,0,-152,32602.0
02:34:58.712,AUTO,-35.3632622,149.1652376,39047,0.002006557071581483,0.0016510941786691546,-0.13159257173538208,-0.0032309144735336304,-0.00038643123116344213,0.008159463293850422,0,0,-1000,-1,0,8,0,0,-152,32602.0
02:34:58.914,AUTO,-35.3632622,149.1652376,39047,0.002006557071581483,0.0016510941786691546,-0.13159257173538208,-0.0032309144735336304,-0.00038643123116344213,0.008159463293850422,0,0,-1000,-1,0,8,0,0,-152,32602.0
02:34:59.120,AUTO,-35.3632621,149.1652375,39435,0.0018852876964956522,0.0015683794626966119,-0.12968775629997253,0.0018198773032054305,-0.0004824529169127345,0.007997586391866207,0,0,-1001,2,0,7,0,0,-152,32602.0
02:34:59.322,AUTO,-35.3632621,149.1652375,39823,0.0016613948391750455,0.001772447139956057,-0.12776409089565277,-0.0001286619808524847,0.001991081051528454,0.010487906634807587,0,0,-999,0,3,10,0,0,-152,118054.0
02:34:59.523,AUTO,-35.3632621,149.1652375,40212,0.001530398498289287,0.0018635067390277982,-0.12582747638225555,-0.0020742579363286495,0.002540929475799203,0.009368272498250008,0,0,-999,-1,3,9,0,0,-152,118054.0
02:34:59.725,AUTO,-35.3632621,149.1652375,40600,0.0013995380140841007,0.0018277423223480582,-0.12401757389307022,0.00224150437861681,0.0002908167662099004,0.00955701619386673,0,0,-1000,3,1,9,0,0,-152,118054.0
02:34:59.927,AUTO,-35.3632621,149.1652375,40600,0.0013995380140841007,0.0018277423223480582,-0.12401757389307022,0.00224150437861681,0.0002908167662099004,0.00955701619386673,0,0,-1000,3,1,9,0,0,-152,118054.0
02:35:00.129,AUTO,-35.3632621,149.1652375,40600,0.0013995380140841007,0.0018277423223480582,-0.12401757389307022,0.00224150437861681,0.0002908167662099004,0.00955701619386673,0,0,-1000,3,1,9,0,0,-152,118054.0
02:35:00.330,AUTO,-35.3632621,149.1652375,40600,0.0013995380140841007,0.0018277423223480582,-0.12401757389307022,0.00224150437861681,0.0002908167662099004,0.00955701619386673,0,0,-1000,3,1,9,0,0,-152,118054.0
02:35:00.532,AUTO,-35.3632621,149.1652374,41764,0.0013771612429991364,0.0019254527287557721,-0.11855650693178177,0.0019494456937536597,0.0012907548807561398,0.007330021820962429,0,0,-1000,3,2,7,-1,1,-152,118054.0
02:35:00.733,AUTO,-35.363262,149.1652374,42152,0.0012825384037569165,0.0019720604177564383,-0.1171739399433136,-0.0018155964789912105,0.0016970123397186399,0.00726625369861722,0,0,-999,0,2,7,-1,1,-152,118054.0
02:35:00.935,AUTO,-35.363262,149.1652374,42152,0.0012825384037569165,0.0019720604177564383,-0.1171739399433136,-0.0018155964789912105,0.0016970123397186399,0.00726625369861722,0,0,-999,0,2,7,-1,1,-152,118054.0
02:35:01.136,AUTO,-35.363262,149.1652374,42544,0.0011966952588409185,0.0018696585902944207,-0.11549628525972366,-0.0018701008521020412,-0.0022672791965305805,0.007555335760116577,0,0,-1000,0,-1,7,-1,1,-152,118054.0
02:35:01.338,AUTO,-35.363262,149.1652374,42932,0.0010380866006016731,0.0015457463450729847,-0.11376851052045822,0.0014147576875984669,0.0003026277991011739,0.007528137415647507,0,0,-999,2,1,7,-1,1,-152,118054.0
02:35:01.541,AUTO,-35.363262,149.1652374,43321,0.0010265617165714502,0.0014481596881523728,-0.11208619177341461,-0.0008841301314532757,0.001871528453193605,0.006545575335621834,0,0,-999,0,2,6,-1,1,-152,118054.0
02:35:01.743,AUTO,-35.363262,149.1652374,43709,0.0010581109672784805,0.0014908465091139078,-0.11070513725280762,0.002618825528770685,0.0010027269599959254,0.007951202802360058,0,0,-1000,3,2,7,-1,1,-152,118054.0
02:35:01.953,AUTO,-35.363262,149.1652374,43709,0.0010581109672784805,0.0014908465091139078,-0.11070513725280762,0.002618825528770685,0.0010027269599959254,0.007951202802360058,0,0,-1000,3,2,7,-1,1,-152,118054.0
02:35:02.155,AUTO,-35.363262,149.1652374,43709,0.0010581109672784805,0.0014908465091139078,-0.11070513725280762,0.002618825528770685,0.0010027269599959254,0.007951202802360058,0,0,-1000,3,2,7,-1,1,-152,270264.0
02:35:02.356,AUTO,-35.363262,149.1652374,43709,0.0010581109672784805,0.0014908465091139078,-0.11070513725280762,0.002618825528770685,0.0010027269599959254,0.007951202802360058,0,0,-1000,3,2,7,-1,1,-152,270264.0
02:35:02.559,AUTO,-35.363262,149.1652374,44869,0.0012697314377874136,0.0013779475120827556,-0.10611648857593536,0.0026519778184592724,-0.00017315364675596356,0.005158219952136278,0,0,-1001,3,0,5,-1,1,-152,270264.0
02:35:02.760,AUTO,-35.363262,149.1652374,45257,0.0012604360235854983,0.0013716977555304766,-0.1048249751329422,0.0001688922056928277,0.0008603656897321343,0.007670739199966192,0,0,-999,1,2,7,-1,1,-152,270264.0
02:35:02.962,AUTO,-35.363262,149.1652373,45645,0.0012444257736206055,0.0014475781936198473,-0.10336729139089584,-0.0009361944394186139,0.0012786634033545852,0.006023121066391468,0,0,-1000,0,2,5,-1,1,-152,270264.0
02:35:03.164,AUTO,-35.363262,149.1652373,45645,0.0012444257736206055,0.0014475781936198473,-0.10336729139089584,-0.0009361944394186139,0.0012786634033545852,0.006023121066391468,0,0,-1000,0,2,5,-1,1,-152,270264.0
02:35:03.366,AUTO,-35.363262,149.1652373,46033,0.0013114339672029018,0.0013323113089427352,-0.10192025452852249,0.004418791271746159,0.0010881433263421059,0.008011392317712307,0,0,-1000,5,2,8,-1,1,-152,270264.0
02:35:03.568,AUTO,-35.363262,149.1652373,46411,-0.023210272192955017,0.02525002881884575,-0.04963171109557152,-0.1809788942337036,0.17084844410419464,0.4032321870326996,0,0,-947,-179,171,403,-3,0,-142,270264.0
02:35:03.770,AUTO,-35.3632621,149.1652371,46759,-0.0646018236875534,0.07568308711051941,0.09417904913425446,-0.1564416140317917,0.1118314191699028,0.6018956899642944,2,0,-927,-155,112,602,-14,-12,-128,270264.0
02:35:03.972,AUTO,-35.3632621,149.1652371,46759,-0.0646018236875534,0.07568308711051941,0.09417904913425446,-0.1564416140317917,0.1118314191699028,0.6018956899642944,2,0,-927,-155,112,602,-14,-12,-128,270264.0
02:35:04.173,AUTO,-35.3632621,149.1652371,46759,-0.0646018236875534,0.07568308711051941,0.09417904913425446,-0.1564416140317917,0.1118314191699028,0.6018956899642944,2,0,-927,-155,112,602,-14,-12,-128,270264.0
02:35:04.375,AUTO,-35.3632621,149.1652371,46759,-0.0646018236875534,0.07568308711051941,0.09417904913425446,-0.1564416140317917,0.1118314191699028,0.6018956899642944,2,0,-927,-155,112,602,-14,-12,-128,270264.0
02:35:04.576,AUTO,-35.3632639,149.1652346,47506,-0.002584607107564807,-0.030761823058128357,0.28682076930999756,0.08430895209312439,-0.1187247484922409,0.0626460388302803,3,8,-941,85,-117,62,-28,-37,-71,270264.0
02:35:04.778,AUTO,-35.3632644,149.1652336,47671,0.018998708575963974,-0.050148140639066696,0.29296714067459106,0.08804712444543839,-0.04729202389717102,0.008762369863688946,2,9,-954,89,-46,9,-19,-30,-58,270264.0
02:35:04.980,AUTO,-35.3632647,149.1652329,47806,0.033730749040842056,-0.0552976094186306,0.289874792098999,0.07928802073001862,-0.0025480675976723433,-0.018371181562542915,0,5,-965,80,-1,-18,-9,-19,-48,270264.0
02:35:05.182,AUTO,-35.3632647,149.1652329,47806,0.033730749040842056,-0.0552976094186306,0.289874792098999,0.07928802073001862,-0.0025480675976723433,-0.018371181562542915,0,5,-965,80,-1,-18,-9,-19,-48,175354.0
02:35:05.385,AUTO,-35.3632648,149.1652325,47918,0.035252537578344345,-0.05155769735574722,0.2827034592628479,-0.2163819670677185,0.025148194283246994,-0.030027659609913826,-1,-3,-975,-215,26,-29,0,-6,-40,175354.0
02:35:05.587,AUTO,-35.3632647,149.1652324,48011,0.044822707772254944,-0.043212588876485825,0.27375322580337524,0.5055070519447327,0.033790841698646545,-0.03344694897532463,-1,22,-970,507,34,-33,8,5,-32,175354.0
02:35:05.789,AUTO,-35.3632644,149.1652327,48084,0.04165167734026909,-0.0326097272336483,0.26397213339805603,0.19780895113945007,0.0462767593562603,-0.04455304145812988,-2,-5,-987,198,47,-44,14,15,-27,175354.0
02:35:05.993,AUTO,-35.3632644,149.1652327,48084,0.04165167734026909,-0.0326097272336483,0.26397213339805603,0.19780895113945007,0.0462767593562603,-0.04455304145812988,-2,-5,-987,198,47,-44,14,15,-27,175354.0
02:35:06.194,AUTO,-35.3632644,149.1652327,48084,0.04165167734026909,-0.0326097272336483,0.26397213339805603,0.19780895113945007,0.0462767593562603,-0.04455304145812988,-2,-5,-987,198,47,-44,14,15,-27,175354.0
02:35:06.396,AUTO,-35.3632644,149.1652327,48084,0.04165167734026909,-0.0326097272336483,0.26397213339805603,0.19780895113945007,0.0462767593562603,-0.04455304145812988,-2,-5,-987,198,47,-44,14,15,-27,175354.0
02:35:06.599,AUTO,-35.3632632,149.1652344,48289,0.019106430932879448,-0.0009322083205915987,0.23662960529327393,0.32223430275917053,0.02854018285870552,-0.025004243478178978,-1,15,-1011,323,29,-24,20,31,-30,175354.0
02:35:06.801,AUTO,-35.3632627,149.1652352,48360,0.017553579062223434,0.006200173869729042,0.22865869104862213,0.5088708400726318,0.017929401248693466,-0.02960287779569626,-1,8,-983,509,19,-29,19,31,-27,175354.0
02:35:07.002,AUTO,-35.3632622,149.165236,48417,0.002513777930289507,0.011282888241112232,0.22092966735363007,-0.3206951916217804,0.023652292788028717,-0.02956787683069706,-1,-36,-960,-320,24,-29,17,29,-20,175354.0
02:35:07.204,AUTO,-35.3632618,149.1652367,48445,-0.022196415811777115,0.03995058685541153,0.22071686387062073,-0.8397750854492188,0.128561869263649,-0.04063700884580612,0,-40,-944,-838,129,-40,13,24,-5,175354.0
02:35:07.406,AUTO,-35.3632618,149.1652367,48445,-0.022196415811777115,0.03995058685541153,0.22071686387062073,-0.8397750854492188,0.128561869263649,-0.04063700884580612,0,-40,-944,-838,129,-40,13,24,-5,175354.0
02:35:07.607,AUTO,-35.3632616,149.1652372,48440,-0.026132497936487198,0.047688115388154984,0.21235835552215576,-0.4187301993370056,-0.0068600173108279705,-0.02906975708901882,-1,-4,-981,-416,-5,-28,3,18,4,175354.0
02:35:07.809,AUTO,-35.3632616,149.1652375,48423,-0.007853152230381966,0.04417974501848221,0.2060880959033966,0.34741562604904175,-0.0030750883743166924,-0.02539695054292679,3,37,-983,349,-2,-24,-6,12,5,175354.0
02:35:08.011,AUTO,-35.3632616,149.1652375,48423,-0.007853152230381966,0.04417974501848221,0.2060880959033966,0.34741562604904175,-0.0030750883743166924,-0.02539695054292679,3,37,-983,349,-2,-24,-6,12,5,175354.0
02:35:08.213,AUTO,-35.3632616,149.1652375,48423,-0.007853152230381966,0.04417974501848221,0.2060880959033966,0.34741562604904175,-0.0030750883743166924,-0.02539695054292679,3,37,-983,349,-2,-24,-6,12,5,56361.0
02:35:08.416,AUTO,-35.3632616,149.1652375,48423,-0.007853152230381966,0.04417974501848221,0.2060880959033966,0.34741562604904175,-0.0030750883743166924,-0.02539695054292679,3,37,-983,349,-2,-24,-6,12,5,56361.0
02:35:08.618,AUTO,-35.3632629,149.165238,48388,0.008796913549304008,0.04823107644915581,0.18818646669387817,-0.19610832631587982,0.015091009438037872,-0.027583463117480278,8,-28,-985,-196,16,-27,-34,5,2,56361.0
02:35:08.819,AUTO,-35.3632638,149.1652382,48375,0.0010974138276651502,0.0533447265625,0.18280579149723053,-0.7239797711372375,0.025154098868370056,-0.026536526158452034,10,-31,-996,-723,26,-25,-45,6,3,56361.0
02:35:09.021,AUTO,-35.3632649,149.1652383,48357,0.0020482996478676796,0.05994940921664238,0.1778513640165329,-0.26262331008911133,0.03210185468196869,-0.00982751976698637,13,10,-985,-260,33,-9,-56,8,6,56361.0
02:35:09.223,AUTO,-35.3632663,149.1652385,48332,0.020005229860544205,0.06771298497915268,0.21722689270973206,0.618834912776947,0.060445982962846756,0.3843773901462555,16,38,-1004,620,61,384,-68,10,7,56361.0
02:35:09.425,AUTO,-35.3632663,149.1652385,48332,0.020005229860544205,0.06771298497915268,0.21722689270973206,0.618834912776947,0.060445982962846756,0.3843773901462555,16,38,-1004,620,61,384,-68,10,7,56361.0
02:35:09.626,AUTO,-35.363268,149.1652387,48300,0.03747052699327469,0.07216299325227737,0.38011062145233154,0.7028721570968628,0.05786503106355667,0.7935356497764587,19,22,-986,703,58,794,-82,10,12,56361.0
02:35:09.828,AUTO,-35.3632701,149.165239,48261,0.04757868871092796,0.0716952532529831,0.5879857540130615,-0.18770228326320648,0.02847454883158207,0.8304119110107422,24,-27,-979,-187,29,830,-96,12,14,56361.0
02:35:10.030,AUTO,-35.3632701,149.165239,48261,0.04757868871092796,0.0716952532529831,0.5879857540130615,-0.18770228326320648,0.02847454883158207,0.8304119110107422,24,-27,-979,-187,29,830,-96,12,14,56361.0
02:35:10.232,AUTO,-35.3632701,149.165239,48261,0.04757868871092796,0.0716952532529831,0.5879857540130615,-0.18770228326320648,0.02847454883158207,0.8304119110107422,24,-27,-979,-187,29,830,-96,12,14,56361.0
02:35:10.434,AUTO,-35.3632701,149.165239,48261,0.04757868871092796,0.0716952532529831,0.5879857540130615,-0.18770228326320648,0.02847454883158207,0.8304119110107422,24,-27,-979,-187,29,830,-96,12,14,56361.0
02:35:10.637,AUTO,-35.3632786,149.1652402,48092,0.11049649864435196,0.04958263039588928,1.1845941543579102,0.6667848229408264,0.03366587311029434,0.7626360654830933,27,14,-989,668,34,763,-153,20,25,56361.0
02:35:10.839,AUTO,-35.3632824,149.1652407,48013,0.1382514089345932,0.03476732224225998,1.366371989250183,0.7886476516723633,0.03977781906723976,0.7246544361114502,28,-1,-995,789,41,725,-174,22,31,56361.0
02:35:11.041,AUTO,-35.3632866,149.1652413,47919,0.15508019924163818,0.015195383690297604,1.5419998168945312,0.2253744900226593,0.021118661388754845,0.6907805800437927,26,-56,-990,225,22,691,-197,25,36,56361.0
02:35:11.243,AUTO,-35.3632913,149.165242,47814,0.15921545028686523,-0.009710743092000484,1.7136050462722778,-0.60350102186203,-0.012979268096387386,0.6851394176483154,26,-92,-977,-602,-11,685,-223,28,41,207711.0
02:35:11.447,AUTO,-35.3632913,149.165242,47814,0.15921545028686523,-0.009710743092000484,1.7136050462722778,-0.60350102186203,-0.012979268096387386,0.6851394176483154,26,-92,-977,-602,-11,685,-223,28,41,207711.0
02:35:11.652,AUTO,-35.3632969,149.1652427,47697,0.16204963624477386,-0.03739963471889496,1.8872706890106201,-0.43753311038017273,-0.004695707932114601,0.7132595181465149,12,-64,-1001,-435,-3,713,-254,31,43,207711.0
02:35:11.854,AUTO,-35.3633029,149.1652436,47576,0.16478902101516724,-0.0641564354300499,2.060082197189331,0.3866575062274933,0.024527978152036667,0.7013882398605347,6,-41,-990,389,25,701,-283,34,46,207711.0
02:35:12.060,AUTO,-35.3633029,149.1652436,47576,0.16478902101516724,-0.0641564354300499,2.060082197189331,0.3866575062274933,0.024527978152036667,0.7013882398605347,6,-41,-990,389,25,701,-283,34,46,207711.0
02:35:12.262,AUTO,-35.3633029,149.1652436,47576,0.16478902101516724,-0.0641564354300499,2.060082197189331,0.3866575062274933,0.024527978152036667,0.7013882398605347,6,-41,-990,389,25,701,-283,34,46,207711.0
02:35:12.465,AUTO,-35.3633244,149.1652465,47143,0.12200896441936493,-0.14099207520484924,2.577716588973999,-0.4970373213291168,0.020106535404920578,0.7112019062042236,-42,-99,-977,-496,21,711,-361,42,63,207711.0
02:35:12.667,AUTO,-35.3633244,149.1652465,47143,0.12200896441936493,-0.14099207520484924,2.577716588973999,-0.4970373213291168,0.020106535404920578,0.7112019062042236,-42,-99,-977,-496,21,711,-361,42,63,207711.0
02:35:12.869,AUTO,-35.3633327,149.1652477,46972,0.08659117668867111,-0.15058407187461853,2.7549235820770264,-0.7498515844345093,0.026890600100159645,0.7220965027809143,-56,-103,-987,-748,28,722,-384,44,67,207711.0
02:35:13.071,AUTO,-35.3633415,149.165249,46787,0.06643879413604736,-0.1556544005870819,2.9345827102661133,-0.1261330246925354,0.01359678152948618,0.684986412525177,-78,-55,-998,-123,14,685,-404,46,72,207711.0
