time_stamp,MODE,lat,lon,relative_alt,roll,pitch,yaw,rollspeed,pitchspeed,yawspeed,xacc,yacc,zacc,xgyro,ygyro,zgyro,vx,vy,vz,RTL_ALT
03:09:00.666,STABILIZE,-35.3632622,149.1652375,0,-0.00017542639398016036,0.0011145989410579205,0.025665324181318283,0.00017191539518535137,0.0002715626033023,0.0020846063271164894,0,1,-1000,0,1,0,-2,1,0,1500.0
03:09:00.867,STABILIZE,-35.3632622,149.1652375,0,-0.00017542639398016036,0.0011145989410579205,0.025665324181318283,0.00017191539518535137,0.0002715626033023,0.0020846063271164894,0,1,-1000,0,1,0,-2,1,0,1500.0
03:09:01.068,STABILIZE,-35.3632622,149.1652375,0,-0.00017542639398016036,0.0011145989410579205,0.025665324181318283,0.00017191539518535137,0.0002715626033023,0.0020846063271164894,0,1,-1000,0,1,0,-2,1,0,1500.0
03:09:01.269,STABILIZE,-35.3632622,149.1652375,0,-0.00017542639398016036,0.0011145989410579205,0.025665324181318283,0.00017191539518535137,0.0002715626033023,0.0020846063271164894,0,1,-1000,0,1,0,-2,1,0,1500.0
03:09:01.469,STABILIZE,-35.3632622,149.1652375,0,-0.00017542639398016036,0.0011145989410579205,0.025665324181318283,0.00017191539518535137,0.0002715626033023,0.0020846063271164894,0,1,-1000,0,1,0,-2,1,0,1500.0
03:09:01.670,STABILIZE,-35.3632622,149.1652375,0,-0.00017542639398016036,0.0011145989410579205,0.025665324181318283,0.00017191539518535137,0.0002715626033023,0.0020846063271164894,0,1,-1000,0,1,0,-2,1,0,1500.0
03:09:01.871,STABILIZE,-35.3632622,149.1652375,0,-0.00017542639398016036,0.0011145989410579205,0.025665324181318283,0.00017191539518535137,0.0002715626033023,0.0020846063271164894,0,1,-1000,0,1,0,-2,1,0,1500.0
03:09:02.071,STABILIZE,-35.3632622,149.1652375,0,-0.00017542639398016036,0.0011145989410579205,0.025665324181318283,0.00017191539518535137,0.0002715626033023,0.0020846063271164894,0,1,-1000,0,1,0,-2,1,0,1500.0
03:09:02.272,STABILIZE,-35.3632622,149.1652375,0,-0.00017542639398016036,0.0011145989410579205,0.025665324181318283,0.00017191539518535137,0.0002715626033023,0.0020846063271164894,0,1,-1000,0,1,0,-2,1,0,1500.0
03:09:02.473,STABILIZE,-35.3632622,149.1652375,0,-0.00017542639398016036,0.0011145989410579205,0.025665324181318283,0.00017191539518535137,0.0002715626033023,0.0020846063271164894,0,1,-1000,0,1,0,-2,1,0,1500.0
03:09:02.674,STABILIZE,-35.3632622,149.1652375,0,-0.00017542639398016036,0.0011145989410579205,0.025665324181318283,0.00017191539518535137,0.0002715626033023,0.0020846063271164894,0,1,-1000,0,1,0,-2,1,0,1500.0
03:09:02.875,STABILIZE,-35.3632622,149.1652375,0,-0.00017542639398016036,0.0011145989410579205,0.025665324181318283,0.00017191539518535137,0.0002715626033023,0.0020846063271164894,0,1,-1000,0,1,0,-2,1,0,1500.0
03:09:03.075,STABILIZE,-35.3632622,149.1652375,0,-0.00017542639398016036,0.0011145989410579205,0.025665324181318283,0.00017191539518535137,0.0002715626033023,0.0020846063271164894,0,1,-1000,0,1,0,-2,1,0,1500.0
03:09:03.276,STABILIZE,-35.3632622,149.1652375,0,-0.00017542639398016036,0.0011145989410579205,0.025665324181318283,0.00017191539518535137,0.0002715626033023,0.0020846063271164894,0,1,-1000,0,1,0,-2,1,0,1500.0
03:09:03.477,STABILIZE,-35.3632622,149.1652375,0,-0.00017542639398016036,0.0011145989410579205,0.025665324181318283,0.00017191539518535137,0.0002715626033023,0.0020846063271164894,0,1,-1000,0,1,0,-2,1,0,1500.0
03:09:03.677,STABILIZE,-35.3632622,149.1652375,0,-0.0003515212156344205,0.0009566041990183294,0.024356801062822342,0.00031444121850654483,0.00033029780024662614,0.00184689462184906,0,1,-1000,0,0,0,-2,1,0,1500.0
03:09:03.878,STABILIZE,-35.3632622,149.1652375,0,-0.0003515212156344205,0.0009566041990183294,0.024356801062822342,0.00031444121850654483,0.00033029780024662614,0.00184689462184906,0,1,-1000,0,0,0,-2,1,0,1500.0
03:09:04.079,STABILIZE,-35.3632622,149.1652375,0,-0.0003515212156344205,0.0009566041990183294,0.024356801062822342,0.00031444121850654483,0.00033029780024662614,0.00184689462184906,0,1,-1000,0,0,0,-2,1,0,1500.0
03:09:04.279,STABILIZE,-35.3632622,149.1652375,0,-0.0003515212156344205,0.0009566041990183294,0.024356801062822342,0.00031444121850654483,0.00033029780024662614,0.00184689462184906,0,1,-1000,0,0,0,-2,1,0,1500.0
03:09:04.480,STABILIZE,-35.3632622,149.1652375,0,-0.0003515212156344205,0.0009566041990183294,0.024356801062822342,0.00031444121850654483,0.00033029780024662614,0.00184689462184906,0,1,-1000,0,0,0,-2,1,0,1500.0
03:09:04.681,STABILIZE,-35.3632621,149.1652374,0,-0.0003665704862214625,0.0009348359890282154,0.023926330730319023,0.0003209986607544124,0.00027617596788331866,0.0018826080486178398,0,1,-1000,0,0,0,-1,1,-1,1500.0
03:09:04.882,STABILIZE,-35.3632621,149.1652375,0,-0.0003734786296263337,0.0009363996796309948,0.023818638175725937,0.00022047036327421665,0.0002614061231724918,0.001821576151996851,0,1,-1000,0,0,0,-1,1,-1,1500.0
03:09:05.083,STABILIZE,-35.3632621,149.1652375,0,-0.0003734786296263337,0.0009363996796309948,0.023818638175725937,0.00022047036327421665,0.0002614061231724918,0.001821576151996851,0,1,-1000,0,0,0,-1,1,-1,1500.0
03:09:05.284,STABILIZE,-35.3632621,149.1652375,0,-0.0003734786296263337,0.0009363996796309948,0.023818638175725937,0.00022047036327421665,0.0002614061231724918,0.001821576151996851,0,1,-1000,0,0,0,-1,1,-1,1500.0
03:09:05.486,STABILIZE,-35.3632621,149.1652375,0,-0.0003734786296263337,0.0009363996796309948,0.023818638175725937,0.00022047036327421665,0.0002614061231724918,0.001821576151996851,0,1,-1000,0,0,0,-1,1,-1,1500.0
03:09:05.693,STABILIZE,-35.3632621,149.1652375,0,-0.0003734786296263337,0.0009363996796309948,0.023818638175725937,0.00022047036327421665,0.0002614061231724918,0.001821576151996851,0,1,-1000,0,0,0,-1,1,-1,1500.0
03:09:05.899,STABILIZE,-35.3632621,149.1652375,0,-0.0003734786296263337,0.0009363996796309948,0.023818638175725937,0.00022047036327421665,0.0002614061231724918,0.001821576151996851,0,1,-1000,0,0,0,-1,1,-1,1500.0
03:09:06.101,STABILIZE,-35.3632621,149.1652376,0,-0.00027188341482542455,0.000947271182667464,0.023300349712371826,0.000365261803381145,0.0002085095038637519,0.001752757583744824,0,1,-1000,0,0,0,-1,3,1,1500.0
03:09:06.302,STABILIZE,-35.3632621,149.1652376,0,-0.00027188341482542455,0.000947271182667464,0.023300349712371826,0.000365261803381145,0.0002085095038637519,0.001752757583744824,0,1,-1000,0,0,0,-1,3,1,1500.0
03:09:06.503,STABILIZE,-35.3632621,149.1652376,0,-0.0003843652957584709,0.0009469033684581518,0.023191610351204872,0.00025052711134776473,0.0003006293554790318,0.0017884527333080769,0,1,-1000,0,0,0,-1,3,1,1500.0
03:09:06.705,STABILIZE,-35.3632621,149.1652376,0,-0.0003843652957584709,0.0009469033684581518,0.023191610351204872,0.00025052711134776473,0.0003006293554790318,0.0017884527333080769,0,1,-1000,0,0,0,-1,3,1,1500.0
03:09:06.906,STABILIZE,-35.3632622,149.1652376,0,-0.0005444664275273681,0.0009568608365952969,0.023022590205073357,0.0003897257847711444,0.00024395412765443325,0.0017503018025308847,0,1,-1000,0,0,0,-1,2,1,1500.0
03:09:07.107,STABILIZE,-35.3632622,149.1652376,0,-0.0006246165139600635,0.0009683404350653291,0.022923005744814873,0.00018123758491128683,0.00028826348716393113,0.0017375934403389692,0,1,-1000,0,0,0,-1,2,1,1500.0
03:09:07.308,STABILIZE,-35.3632622,149.1652376,0,-0.0006246165139600635,0.0009683404350653291,0.022923005744814873,0.00018123758491128683,0.00028826348716393113,0.0017375934403389692,0,1,-1000,0,0,0,-1,2,1,1500.0
03:09:07.510,STABILIZE,-35.3632622,149.1652376,0,-0.0006246165139600635,0.0009683404350653291,0.022923005744814873,0.00018123758491128683,0.00028826348716393113,0.0017375934403389692,0,2,-1000,0,0,0,-1,2,1,1500.0
03:09:07.711,STABILIZE,-35.3632622,149.1652376,0,-0.0006246165139600635,0.0009683404350653291,0.022923005744814873,0.00018123758491128683,0.00028826348716393113,0.0017375934403389692,0,2,-1000,0,0,0,-1,2,1,1500.0
03:09:07.912,STABILIZE,-35.3632622,149.1652376,0,-0.0006246165139600635,0.0009683404350653291,0.022923005744814873,0.00018123758491128683,0.00028826348716393113,0.0017375934403389692,0,2,-1000,0,0,0,-1,2,1,1500.0
03:09:08.114,STABILIZE,-35.3632622,149.1652376,0,-0.000885103247128427,0.0009736082283779979,0.022608468309044838,0.00013401824980974197,0.0002677489537745714,0.0015604877844452858,0,1,-1000,0,0,0,-1,2,1,1500.0
03:09:08.315,STABILIZE,-35.3632622,149.1652376,0,-0.000885103247128427,0.0009736082283779979,0.022608468309044838,0.00013401824980974197,0.0002677489537745714,0.0015604877844452858,0,1,-1000,0,0,0,-1,2,1,1500.0
03:09:08.516,STABILIZE,-35.3632622,149.1652376,0,-0.000885103247128427,0.0009736082283779979,0.022608468309044838,0.00013401824980974197,0.0002677489537745714,0.0015604877844452858,0,1,-1000,0,0,0,-1,2,1,1500.0
03:09:08.717,STABILIZE,-35.3632622,149.1652375,0,-0.0009980828035622835,0.0009734851773828268,0.022491123527288437,0.00029683212051168084,0.00017410691361874342,0.0016484095249325037,0,2,-1000,0,0,0,-1,1,1,1500.0
03:09:08.918,STABILIZE,-35.3632622,149.1652375,0,-0.0009980828035622835,0.0009734851773828268,0.022491123527288437,0.00029683212051168084,0.00017410691361874342,0.0016484095249325037,0,2,-1000,0,0,0,-1,1,1,1500.0
03:09:09.119,STABILIZE,-35.3632622,149.1652375,0,-0.0009254187461920083,0.0009837292600423098,0.022363372147083282,0.00035746971843764186,0.0002570404903963208,0.0015915094409137964,0,2,-1000,0,0,0,-1,2,2,1500.0
03:09:09.320,STABILIZE,-35.3632622,149.1652375,0,-0.0009254187461920083,0.0009837292600423098,0.022363372147083282,0.00035746971843764186,0.0002570404903963208,0.0015915094409137964,0,2,-1000,0,0,0,-1,2,2,1500.0
03:09:09.522,STABILIZE,-35.3632622,149.1652375,0,-0.0009839792037382722,0.0009782376000657678,0.022311123088002205,0.00029693078249692917,0.0002504133153706789,0.0015835731755942106,0,1,-1000,0,0,0,-1,2,2,1500.0
03:09:09.723,STABILIZE,-35.3632622,149.1652375,0,-0.0009839792037382722,0.0009782376000657678,0.022311123088002205,0.00029693078249692917,0.0002504133153706789,0.0015835731755942106,0,1,-1000,0,0,0,-1,2,2,1500.0
03:09:09.924,STABILIZE,-35.3632622,149.1652375,0,-0.0009839792037382722,0.0009782376000657678,0.022311123088002205,0.00029693078249692917,0.0002504133153706789,0.0015835731755942106,0,1,-1000,0,0,0,-1,2,2,1500.0
03:09:10.125,STABILIZE,-35.3632622,149.1652375,0,-0.0009839792037382722,0.0009782376000657678,0.022311123088002205,0.00029693078249692917,0.0002504133153706789,0.0015835731755942106,0,1,-1000,0,0,0,-1,2,2,1500.0
03:09:10.327,STABILIZE,-35.3632622,149.1652375,0,-0.0009839792037382722,0.0009782376000657678,0.022311123088002205,0.00029693078249692917,0.0002504133153706789,0.0015835731755942106,0,1,-1000,0,0,0,-1,2,2,1500.0
03:09:10.528,STABILIZE,-35.3632622,149.1652375,0,-0.0009839792037382722,0.0009782376000657678,0.022311123088002205,0.00029693078249692917,0.0002504133153706789,0.0015835731755942106,0,1,-1000,1,0,1,-1,1,1,1500.0
03:09:10.729,STABILIZE,-35.3632622,149.1652375,0,-0.0012057303683832288,0.0009752599289640784,0.02204863913357258,0.0002490327460691333,0.000308218935970217,0.0015255693579092622,0,1,-1000,1,0,1,-1,1,1,1500.0
03:09:10.930,STABILIZE,-35.3632622,149.1652375,0,-0.0012261982774361968,0.0009806372690945864,0.02201213873922825,0.0002030974137596786,0.00025331712095066905,0.0016498949844390154,0,2,-1000,0,1,0,-1,1,1,1500.0
03:09:11.131,STABILIZE,-35.3632622,149.1652375,0,-0.0012479076394811273,0.000979576027020812,0.021966800093650818,0.0002192867104895413,0.0002549230703152716,0.001504235900938511,0,2,-1000,0,0,0,-1,1,1,1500.0
03:09:11.333,STABILIZE,-35.3632622,149.1652375,0,-0.0012479076394811273,0.000979576027020812,0.021966800093650818,0.0002192867104895413,0.0002549230703152716,0.001504235900938511,0,2,-1000,0,0,0,-1,1,1,1500.0
03:09:11.534,STABILIZE,-35.3632622,149.1652375,0,-0.0012479076394811273,0.000979576027020812,0.021966800093650818,0.0002192867104895413,0.0002549230703152716,0.001504235900938511,0,2,-1000,0,0,0,-1,1,1,1500.0
03:09:11.736,STABILIZE,-35.3632622,149.1652375,0,-0.0012479076394811273,0.000979576027020812,0.021966800093650818,0.0002192867104895413,0.0002549230703152716,0.001504235900938511,0,2,-1000,0,0,0,-1,1,1,1500.0
03:09:11.937,STABILIZE,-35.3632622,149.1652375,0,-0.0012479076394811273,0.000979576027020812,0.021966800093650818,0.0002192867104895413,0.0002549230703152716,0.001504235900938511,0,2,-1000,0,0,0,-1,1,1,1500.0
03:09:12.138,STABILIZE,-35.3632622,149.1652375,0,-0.001297748414799571,0.0009947122307494283,0.02180464006960392,0.00013804284390062094,0.00015254656318575144,0.0016367221251130104,0,2,-1000,0,1,0,-1,0,0,1500.0
03:09:12.339,STABILIZE,-35.3632622,149.1652375,0,-0.001297748414799571,0.0009947122307494283,0.02180464006960392,0.00013804284390062094,0.00015254656318575144,0.0016367221251130104,0,2,-1000,0,1,0,-1,0,0,1500.0
03:09:12.541,STABILIZE,-35.3632622,149.1652375,0,-0.001297748414799571,0.0009947122307494283,0.02180464006960392,0.00013804284390062094,0.00015254656318575144,0.0016367221251130104,0,2,-1000,0,1,0,-1,0,0,1500.0
03:09:12.742,STABILIZE,-35.3632622,149.1652375,0,-0.001297748414799571,0.0009947122307494283,0.02180464006960392,0.00013804284390062094,0.00015254656318575144,0.0016367221251130104,0,2,-1000,0,1,0,-1,0,0,1500.0
03:09:12.943,STABILIZE,-35.3632622,149.1652375,0,-0.001297748414799571,0.0009947122307494283,0.02180464006960392,0.00013804284390062094,0.00015254656318575144,0.0016367221251130104,0,2,-1000,0,1,0,-1,0,0,1500.0
03:09:13.144,STABILIZE,-35.3632622,149.1652375,0,-0.0011155189713463187,0.0009946307400241494,0.02164645493030548,0.0002550773788243532,0.0003628129488788545,0.0014203866012394428,0,1,-1000,1,0,0,-1,0,0,1500.0
03:09:13.345,STABILIZE,-35.3632622,149.1652375,0,-0.0010994314216077328,0.0009951302781701088,0.021617906168103218,0.00020160991698503494,0.00030797283397987485,0.0014007487334311008,0,1,-1000,0,0,0,-1,0,0,1500.0
03:09:13.546,STABILIZE,-35.3632622,149.1652375,0,-0.0010994314216077328,0.0009951302781701088,0.021617906168103218,0.00020160991698503494,0.00030797283397987485,0.0014007487334311008,0,1,-1000,0,0,0,-1,0,0,1500.0
03:09:13.748,STABILIZE,-35.3632622,149.1652375,0,-0.0010994314216077328,0.0009951302781701088,0.021617906168103218,0.00020160991698503494,0.00030797283397987485,0.0014007487334311008,0,1,-1000,0,0,0,-1,0,0,1500.0
03:09:13.949,STABILIZE,-35.3632622,149.1652375,0,-0.0010994314216077328,0.0009951302781701088,0.021617906168103218,0.00020160991698503494,0.00030797283397987485,0.0014007487334311008,0,1,-1000,0,0,0,-1,0,0,1500.0
03:09:14.150,STABILIZE,-35.3632622,149.1652375,0,-0.0010994314216077328,0.0009951302781701088,0.021617906168103218,0.00020160991698503494,0.00030797283397987485,0.0014007487334311008,0,1,-1000,0,0,0,-1,0,0,1500.0
03:09:14.352,STABILIZE,-35.3632622,149.1652375,0,-0.0010994314216077328,0.0009951302781701088,0.021617906168103218,0.00020160991698503494,0.00030797283397987485,0.0014007487334311008,0,1,-1000,0,0,0,-1,0,0,1500.0
03:09:14.553,STABILIZE,-35.3632622,149.1652375,0,-0.0010994314216077328,0.0009951302781701088,0.021617906168103218,0.00020160991698503494,0.00030797283397987485,0.0014007487334311008,0,1,-1000,0,0,0,-1,0,0,1500.0
03:09:14.755,STABILIZE,-35.3632622,149.1652375,0,-0.0010994314216077328,0.0009951302781701088,0.021617906168103218,0.00020160991698503494,0.00030797283397987485,0.0014007487334311008,0,1,-1000,0,0,0,-1,0,0,1500.0
03:09:14.957,STABILIZE,-35.3632622,149.1652375,0,-0.0010994314216077328,0.0009951302781701088,0.021617906168103218,0.00020160991698503494,0.00030797283397987485,0.0014007487334311008,0,1,-1000,0,0,0,-1,0,0,1500.0
03:09:15.158,STABILIZE,-35.3632622,149.1652375,0,-0.0009976121364161372,0.0010092892916873097,0.021325426176190376,0.0002405684208497405,0.00021342275431379676,0.0014179777354001999,0,1,-1000,0,1,0,-1,1,0,1500.0
03:09:15.359,STABILIZE,-35.3632622,149.1652375,0,-0.0009971280815079808,0.0010123976971954107,0.021268025040626526,0.00035209907218813896,0.000236306746955961,0.00134291872382164,0,2,-1000,0,1,0,-1,1,0,1500.0
03:09:15.560,STABILIZE,-35.3632622,149.1652375,0,-0.0009971280815079808,0.0010123976971954107,0.021268025040626526,0.00035209907218813896,0.000236306746955961,0.00134291872382164,0,2,-1000,0,1,0,-1,1,0,1500.0
03:09:15.762,STABILIZE,-35.3632622,149.1652375,0,-0.0009971280815079808,0.0010123976971954107,0.021268025040626526,0.00035209907218813896,0.000236306746955961,0.00134291872382164,0,2,-1000,0,1,0,-1,1,0,1500.0
03:09:15.963,STABILIZE,-35.3632622,149.1652375,0,-0.0009971280815079808,0.0010123976971954107,0.021268025040626526,0.00035209907218813896,0.000236306746955961,0.00134291872382164,0,2,-1000,0,1,0,-1,1,0,1500.0
03:09:16.164,STABILIZE,-35.3632622,149.1652375,0,-0.0006879443535581231,0.000995218870230019,0.021137289702892303,0.00024596002185717225,0.0002728277468122542,0.0013874038122594357,0,1,-1000,1,0,0,-1,2,1,1500.0
03:09:16.366,STABILIZE,-35.3632622,149.1652375,0,-0.0006879443535581231,0.000995218870230019,0.021137289702892303,0.00024596002185717225,0.0002728277468122542,0.0013874038122594357,0,2,-1000,0,1,0,-1,2,0,1500.0
03:09:16.568,STABILIZE,-35.3632622,149.1652375,0,-0.0006879443535581231,0.000995218870230019,0.021137289702892303,0.00024596002185717225,0.0002728277468122542,0.0013874038122594357,0,2,-1000,0,1,0,-1,2,0,1500.0
03:09:16.769,STABILIZE,-35.3632622,149.1652375,0,-0.0006879443535581231,0.000995218870230019,0.021137289702892303,0.00024596002185717225,0.0002728277468122542,0.0013874038122594357,0,2,-1000,0,1,1,-1,2,0,1500.0
03:09:16.970,STABILIZE,-35.3632622,149.1652375,0,-0.000808846321888268,0.000993984518572688,0.020993106067180634,0.00021636253222823143,0.00022871984401717782,0.001411916222423315,0,1,-1000,1,1,1,-1,2,0,1500.0
03:09:17.171,STABILIZE,-35.3632622,149.1652375,0,-0.000808846321888268,0.000993984518572688,0.020993106067180634,0.00021636253222823143,0.00022871984401717782,0.001411916222423315,0,1,-1000,1,1,1,-1,2,0,1500.0
03:09:17.374,STABILIZE,-35.3632622,149.1652375,0,-0.0008677361183799803,0.0009966392535716295,0.020901717245578766,0.0002858482184819877,0.0002514104126021266,0.001355998101644218,0,2,-1000,1,1,0,-1,1,0,1500.0
03:09:17.575,STABILIZE,-35.3632622,149.1652375,0,-0.0008677361183799803,0.0009966392535716295,0.020901717245578766,0.0002858482184819877,0.0002514104126021266,0.001355998101644218,0,2,-1000,1,1,0,-1,1,0,1500.0
03:09:17.776,STABILIZE,-35.3632622,149.1652375,0,-0.0008677361183799803,0.0009966392535716295,0.020901717245578766,0.0002858482184819877,0.0002514104126021266,0.001355998101644218,0,2,-1000,1,1,0,-1,1,0,1500.0
03:09:17.978,STABILIZE,-35.3632622,149.1652375,0,-0.0008677361183799803,0.0009966392535716295,0.020901717245578766,0.0002858482184819877,0.0002514104126021266,0.001355998101644218,0,2,-1000,1,1,0,-1,1,0,1500.0
03:09:18.179,STABILIZE,-35.3632622,149.1652375,0,-0.0009290901944041252,0.0009891085792332888,0.020791413262486458,0.00026827288093045354,0.0002259367029182613,0.0015237252227962017,0,2,-1000,1,1,0,-1,1,0,1500.0
03:09:18.380,STABILIZE,-35.3632622,149.1652375,0,-0.0009290901944041252,0.0009891085792332888,0.020791413262486458,0.00026827288093045354,0.0002259367029182613,0.0015237252227962017,0,2,-1000,1,1,0,-1,1,0,1500.0
03:09:18.581,STABILIZE,-35.3632622,149.1652375,0,-0.0009290901944041252,0.0009891085792332888,0.020791413262486458,0.00026827288093045354,0.0002259367029182613,0.0015237252227962017,0,2,-1000,1,1,0,-1,1,0,1500.0
03:09:18.784,AUTO,-35.3632622,149.1652375,0,-0.0009774304926395416,0.000983408186584711,0.020701033994555473,0.00021723919780924916,0.00014905480202287436,0.0014651300152763724,0,1,-1000,1,0,1,-1,1,0,1500.0
03:09:18.985,AUTO,-35.3632622,149.1652375,2,-0.0010092706652358174,0.0009855433600023389,0.02066432498395443,0.00031563814263790846,0.0003318298840895295,0.0013027085224166512,0,2,-1000,0,1,0,-1,1,0,1500.0
03:09:19.186,AUTO,-35.3632622,149.1652375,2,-0.0010216949740424752,0.0009954653214663267,0.020639976486563683,0.000294133962597698,0.0002843026304617524,0.0013900239719077945,0,1,-1000,0,1,0,-1,1,0,1500.0
03:09:19.388,AUTO,-35.3632622,149.1652375,2,-0.0010326103074476123,0.0010051600402221084,0.02060205116868019,8.537626126781106e-05,0.00030361604876816273,0.0014228068757802248,0,1,-1000,0,0,1,-1,1,0,1500.0
03:09:19.590,AUTO,-35.3632622,149.1652375,2,-0.0010326103074476123,0.0010051600402221084,0.02060205116868019,8.537626126781106e-05,0.00030361604876816273,0.0014228068757802248,0,1,-1000,0,0,1,-1,1,0,1500.0
03:09:19.792,AUTO,-35.3632622,149.1652375,2,-0.0010326103074476123,0.0010051600402221084,0.02060205116868019,8.537626126781106e-05,0.00030361604876816273,0.0014228068757802248,0,1,-1000,0,0,1,-1,1,0,1500.0
03:09:20.000,AUTO,-35.3632622,149.1652375,2,-0.0010326103074476123,0.0010051600402221084,0.02060205116868019,8.537626126781106e-05,0.00030361604876816273,0.0014228068757802248,0,1,-1000,0,0,1,-1,1,0,1500.0
03:09:20.202,AUTO,-35.3632621,149.1652375,3,-0.0009900180157274008,0.0011156067484989762,0.020520422607660294,0.0001287116901949048,0.000335749180521816,0.0013746789190918207,0,2,-1000,0,1,1,0,0,0,1500.0
03:09:20.414,AUTO,-35.3632621,149.1652375,3,-0.0009410933125764132,0.0011710149701684713,0.02048364095389843,0.0002737765898928046,0.00024552951799705625,0.0013866336084902287,0,1,-1000,0,1,0,0,0,0,1500.0
03:09:20.680,AUTO,-35.3632621,149.1652375,3,-0.000887612346559763,0.0012349861208349466,0.020451730117201805,0.0002180013107135892,0.00020018790382891893,0.0014221598394215107,0,1,-1000,0,1,0,0,0,0,1500.0
03:09:20.912,AUTO,-35.3632621,149.1652375,4,-0.0008357843034900725,0.001300893141888082,0.020418930798768997,0.0002597684506326914,0.0003611648571677506,0.0013187758158892393,0,1,-1000,1,1,1,0,0,0,1500.0
03:09:21.129,AUTO,-35.3632621,149.1652375,4,-0.0007812852854840457,0.0013772986130788922,0.020369887351989746,0.00020160246640443802,0.00031538476468995214,0.0012774989008903503,0,2,-1000,1,0,0,0,0,0,1500.0
03:09:21.331,AUTO,-35.3632621,149.1652375,4,-0.0007812852854840457,0.0013772986130788922,0.020369887351989746,0.00020160246640443802,0.00031538476468995214,0.0012774989008903503,0,2,-1000,1,0,0,0,0,0,1500.0
03:09:21.533,AUTO,-35.3632621,149.1652375,4,-0.0007209965842776,0.0014452423201873899,0.020323293283581734,0.00030944234458729625,0.00033671833807602525,0.0013724981108680367,0,2,-1000,1,1,0,0,0,0,1500.0
03:09:21.736,AUTO,-35.3632621,149.1652375,4,-0.0007209965842776,0.0014452423201873899,0.020323293283581734,0.00030944234458729625,0.00033671833807602525,0.0013724981108680367,0,2,-1000,1,1,0,0,0,0,1500.0
03:09:21.938,AUTO,-35.3632621,149.1652375,4,-0.0007209965842776,0.0014452423201873899,0.020323293283581734,0.00030944234458729625,0.00033671833807602525,0.0013724981108680367,0,2,-1000,1,1,0,0,0,0,59800.0
03:09:22.140,AUTO,-35.3632621,149.1652374,5,-0.0005290465778671205,0.0016609854064881802,0.020189138129353523,0.00037346448516473174,0.0002548209740780294,0.0013749842764809728,0,2,-1000,1,1,0,0,0,0,59800.0
03:09:22.341,AUTO,-35.3632621,149.1652374,5,-0.0005290465778671205,0.0016609854064881802,0.020189138129353523,0.00037346448516473174,0.0002548209740780294,0.0013749842764809728,0,2,-1000,1,1,0,0,0,0,59800.0
03:09:22.542,AUTO,-35.3632621,149.1652375,5,-0.00045742050861008465,0.0017389158019796014,0.020144576206803322,0.0003441283479332924,0.0002697500167414546,0.0013728946214541793,0,1,-1000,0,0,1,0,0,0,59800.0
03:09:22.744,AUTO,-35.3632621,149.1652375,7,0.0007485710084438324,0.001087585580535233,0.020107004791498184,0.00725156394764781,-0.01075259130448103,0.0015220445347949862,0,0,-1086,7,-10,1,0,0,-5,59800.0
03:09:22.945,AUTO,-35.3632621,149.1652375,65,0.0036329019349068403,-0.0004563358088489622,0.01996096409857273,0.013549458235502243,-0.0006137638119980693,0.0010815629502758384,0,0,-1140,14,0,0,0,0,-39,59800.0
03:09:23.147,AUTO,-35.3632621,149.1652375,208,0.002779641654342413,0.0002659628225956112,0.01995682157576084,-0.005561035126447678,0.004705871921032667,0.00028919026954099536,0,0,-1129,-5,5,0,0,0,-72,59800.0
03:09:23.349,AUTO,-35.3632621,149.1652375,426,0.0015366398729383945,0.0012256419286131859,0.019827479496598244,-0.008889558725059032,0.002556717023253441,0.0012918197317048907,0,0,-1129,-5,5,0,0,1,-101,59800.0
03:09:23.551,AUTO,-35.3632621,149.1652375,426,0.0015366398729383945,0.0012256419286131859,0.019827479496598244,-0.008889558725059032,0.002556717023253441,0.0012918197317048907,0,0,-1108,-8,3,1,0,1,-101,59800.0
03:09:23.754,AUTO,-35.3632621,149.1652375,426,0.0015366398729383945,0.0012256419286131859,0.019827479496598244,-0.008889558725059032,0.002556717023253441,0.0012918197317048907,0,0,-1108,-8,3,1,0,1,-101,59800.0
03:09:23.955,AUTO,-35.3632621,149.1652375,426,0.0015366398729383945,0.0012256419286131859,0.019827479496598244,-0.008889558725059032,0.002556717023253441,0.0012918197317048907,0,0,-1108,-8,3,1,0,1,-101,59800.0
03:09:24.157,AUTO,-35.3632621,149.1652375,1408,0.022300617769360542,-0.0009513927507214248,0.019288238137960434,0.04687485471367836,-0.007194510195404291,0.001834726077504456,0,0,-1017,47,-6,1,0,5,-145,59800.0
03:09:24.358,AUTO,-35.363262,149.1652377,1786,0.03369072079658508,-0.0028826443012803793,0.019399920478463173,0.04481501132249832,-0.008160088211297989,0.002583443885669112,0,-1,-1007,45,-7,2,1,11,-148,59800.0
03:09:24.560,AUTO,-35.363262,149.1652377,1786,0.03369072079658508,-0.0028826443012803793,0.019399920478463173,0.04481501132249832,-0.008160088211297989,0.002583443885669112,0,-1,-1007,45,-7,2,1,11,-148,59800.0
03:09:24.762,AUTO,-35.3632619,149.1652381,2170,0.044588517397642136,-0.005117041524499655,0.019617456942796707,0.04225345700979233,-0.009137812070548534,0.0031152802985161543,1,-2,-1002,42,-8,2,3,20,-149,59800.0
03:09:24.980,AUTO,-35.3632618,149.1652387,2555,0.05474141612648964,-0.00773577718064189,0.019888462498784065,0.03843037411570549,-0.011202570982277393,0.003198488149791956,0,-4,-1000,39,-10,3,5,30,-149,59800.0
03:09:25.187,AUTO,-35.3632616,149.1652397,2939,0.06187194585800171,-0.00909030344337225,-0.008591714315116405,-0.01172785833477974,0.022210145369172096,-0.04163364693522453,1,-7,-992,-10,23,-42,8,43,-148,59800.0
03:09:25.438,AUTO,-35.3632614,149.165241,3322,0.040734194219112396,0.013398002833127975,-0.03139032423496246,-0.14029577374458313,0.09798622131347656,-0.10247648507356644,3,-11,-991,-139,98,-102,10,53,-146,59800.0
03:09:25.697,AUTO,-35.3632614,149.165241,3322,0.040734194219112396,0.013398002833127975,-0.03139032423496246,-0.14029577374458313,0.09798622131347656,-0.10247648507356644,3,-11,-991,-139,98,-102,10,53,-146,59800.0
03:09:25.910,AUTO,-35.3632614,149.165241,3322,0.040734194219112396,0.013398002833127975,-0.03139032423496246,-0.14029577374458313,0.09798622131347656,-0.10247648507356644,3,-11,-991,-139,98,-102,10,53,-146,59800.0
03:09:26.121,AUTO,-35.3632609,149.1652449,4454,-0.03410249575972557,0.022499501705169678,-0.083745576441288,-0.02174847573041916,-0.007363118231296539,-0.057690806686878204,4,-8,-1006,-20,-6,-57,-2,37,-149,59800.0
03:09:26.327,AUTO,-35.3632609,149.1652449,4454,-0.03410249575972557,0.022499501705169678,-0.083745576441288,-0.02174847573041916,-0.007363118231296539,-0.057690806686878204,4,-8,-1006,-20,-6,-57,-2,37,-149,59800.0
03:09:26.529,AUTO,-35.3632609,149.1652458,4839,-0.043572742491960526,0.01548015046864748,-0.09163697808980942,-0.05212267488241196,-0.042640723288059235,-0.01688067801296711,5,-6,-1000,-51,-41,-16,-5,25,-150,205.0
03:09:26.731,AUTO,-35.363261,149.1652463,5223,-0.06014084443449974,0.0013538950588554144,-0.08946854621171951,-0.07358982414007187,-0.06412697583436966,0.018590105697512627,3,-2,-999,-72,-63,18,-7,11,-149,205.0
03:09:26.934,AUTO,-35.3632612,149.1652464,5607,-0.0748041644692421,-0.012784266844391823,-0.0830417275428772,-0.013627822510898113,-0.0310579352080822,0.0055125197395682335,2,1,-1005,-12,-30,5,-5,-6,-149,205.0
03:09:27.135,AUTO,-35.3632613,149.1652459,5991,-0.06938964873552322,-0.014366624876856804,-0.08298619091510773,0.04232607036828995,0.0013625829014927149,-8.392219024244696e-05,-1,4,-1003,43,2,0,-3,-24,-149,205.0
03:09:27.338,AUTO,-35.3632613,149.1652459,5991,-0.06938964873552322,-0.014366624876856804,-0.08298619091510773,0.04232607036828995,0.0013625829014927149,-8.392219024244696e-05,-1,4,-1003,43,2,0,-3,-24,-149,205.0
03:09:27.540,AUTO,-35.3632613,149.1652451,6376,-0.0566265843808651,-0.01416769064962864,-0.08323278278112411,0.05686025694012642,0.0011279964819550514,0.0017028358997777104,-2,5,-1001,57,1,1,-1,-39,-149,205.0
03:09:27.742,AUTO,-35.3632613,149.1652451,6376,-0.0566265843808651,-0.01416769064962864,-0.08323278278112411,0.05686025694012642,0.0011279964819550514,0.0017028358997777104,-2,5,-1001,57,1,1,-1,-39,-149,205.0
03:09:27.944,AUTO,-35.3632613,149.1652451,6376,-0.0566265843808651,-0.01416769064962864,-0.08323278278112411,0.05686025694012642,0.0011279964819550514,0.0017028358997777104,-2,5,-1001,57,1,1,-1,-39,-149,205.0
03:09:28.146,AUTO,-35.3632613,149.1652407,7529,-0.010542708449065685,-0.007133846636861563,-0.08365468680858612,0.06532852351665497,0.014921978116035461,0.003827204229310155,-7,10,-1003,65,15,3,1,-59,-150,205.0
03:09:28.348,AUTO,-35.3632613,149.1652407,7529,-0.010542708449065685,-0.007133846636861563,-0.08365468680858612,0.06532852351665497,0.014921978116035461,0.003827204229310155,-7,10,-1003,65,15,3,1,-59,-150,205.0
03:09:28.549,AUTO,-35.3632613,149.165239,7920,0.005868750158697367,-0.0031091743148863316,-0.08305724710226059,0.0640401765704155,0.01625046506524086,0.004386834800243378,-8,12,-1003,64,17,3,1,-58,-151,205.0
03:09:28.751,AUTO,-35.3632613,149.1652375,8310,0.022064419463276863,0.0009370779735036194,-0.08219446986913681,0.06470377743244171,0.015905246138572693,0.004458225332200527,-7,10,-1004,65,16,4,0,-52,-152,205.0
03:09:28.953,AUTO,-35.3632613,149.1652361,8701,0.037913452833890915,0.004489616956561804,-0.08116638660430908,0.06444892287254333,0.013279522769153118,0.004448307678103447,-6,9,-1003,65,13,4,0,-43,-153,205.0
03:09:29.155,AUTO,-35.3632613,149.165235,9094,0.05337847024202347,0.007218940183520317,-0.08016414195299149,0.06020323187112808,0.009265055879950523,0.004687108565121889,-5,8,-1003,60,10,4,-2,-30,-153,205.0
03:09:29.357,AUTO,-35.3632614,149.1652343,9487,0.06345969438552856,0.012572153471410275,-0.08333086967468262,0.020382575690746307,0.037102583795785904,-0.02934669330716133,-3,4,-998,21,37,-29,-3,-14,-153,205.0
03:09:29.559,AUTO,-35.3632614,149.1652343,9487,0.06345969438552856,0.012572153471410275,-0.08333086967468262,0.020382575690746307,0.037102583795785904,-0.02934669330716133,-3,4,-998,21,37,-29,-3,-14,-153,205.0
03:09:29.761,AUTO,-35.3632614,149.1652343,9487,0.06345969438552856,0.012572153471410275,-0.08333086967468262,0.020382575690746307,0.037102583795785904,-0.02934669330716133,-3,4,-998,21,37,-29,-3,-14,-153,205.0
03:09:29.962,AUTO,-35.3632614,149.1652343,9487,0.06345969438552856,0.012572153471410275,-0.08333086967468262,0.020382575690746307,0.037102583795785904,-0.02934669330716133,-3,4,-998,21,37,-29,-3,-14,-153,205.0
03:09:30.164,AUTO,-35.3632619,149.1652346,10645,0.024212490767240524,0.00921169389039278,-0.09132788330316544,-0.07520873099565506,-0.033120959997177124,0.006554838735610247,3,-2,-999,-74,-32,6,-11,20,-149,205.0
03:09:30.377,AUTO,-35.3632621,149.165235,11027,0.007638559676706791,0.0019192290492355824,-0.09064769744873047,-0.05820790305733681,-0.024509770795702934,0.0036886984016746283,5,-2,-1001,-57,-23,3,-10,22,-149,205.0
03:09:30.624,AUTO,-35.3632623,149.1652356,11412,-0.004725236911326647,-0.0031701799016445875,-0.09115411341190338,-0.04150612652301788,-0.01702273264527321,-0.0037452662363648415,4,-2,-1002,-40,-16,-3,-8,21,-150,205.0
03:09:30.857,AUTO,-35.3632624,149.1652361,11797,-0.012658997438848019,-0.006027430761605501,-0.09369567781686783,-0.021761424839496613,-0.008096651174128056,-0.010852553881704807,3,-2,-1003,-21,-7,-10,-5,17,-151,205.0
03:09:31.059,AUTO,-35.3632624,149.1652361,11797,-0.012658997438848019,-0.006027430761605501,-0.09369567781686783,-0.021761424839496613,-0.008096651174128056,-0.010852553881704807,3,-2,-1003,-21,-7,-10,-5,17,-151,205.0
03:09:31.266,AUTO,-35.3632625,149.1652364,12188,-0.01614760234951973,-0.007224962115287781,-0.09800555557012558,-0.007110569626092911,-0.0014275467256084085,-0.018193144351243973,2,-2,-1002,-6,0,-18,-3,12,-151,205.0
03:09:31.472,AUTO,-35.3632626,149.1652367,12576,-0.01610635779798031,-0.007472083903849125,-0.10324662178754807,0.0059559764340519905,0.0010937966872006655,-0.022660182788968086,1,-1,-1001,6,1,-22,-1,7,-152,205.0
03:09:31.674,AUTO,-35.3632626,149.1652367,12576,-0.01610635779798031,-0.007472083903849125,-0.10324662178754807,0.0059559764340519905,0.0010937966872006655,-0.022660182788968086,1,-1,-1001,6,1,-22,-1,7,-152,3689.0
03:09:31.876,AUTO,-35.3632626,149.1652367,12576,-0.01610635779798031,-0.007472083903849125,-0.10324662178754807,0.0059559764340519905,0.0010937966872006655,-0.022660182788968086,1,-1,-1001,6,1,-22,-1,7,-152,3689.0
03:09:32.078,AUTO,-35.3632626,149.1652367,12576,-0.01610635779798031,-0.007472083903849125,-0.10324662178754807,0.0059559764340519905,0.0010937966872006655,-0.022660182788968086,1,-1,-1001,6,1,-22,-1,7,-152,3689.0
03:09:32.279,AUTO,-35.3632625,149.1652367,13743,-0.0058686272241175175,-0.004079323261976242,-0.12188992649316788,0.01752927340567112,0.0064013199880719185,-0.022448763251304626,-1,0,-1000,18,7,-22,3,-4,-152,3689.0
03:09:32.481,AUTO,-35.3632624,149.1652366,14134,-0.0018390105105936527,-0.002392618218436837,-0.12785911560058594,0.016240745782852173,0.007844151929020882,-0.021891212090849876,-2,0,-1000,16,8,-21,4,-6,-152,3689.0
03:09:32.683,AUTO,-35.3632623,149.1652364,14531,0.0018777580698952079,1.2231846085342113e-05,-0.13424281775951385,0.012881183065474033,0.010046722367405891,-0.022782253101468086,-2,0,-1000,13,11,-23,4,-6,-152,3689.0
03:09:32.885,AUTO,-35.3632622,149.1652362,14921,0.004661555401980877,0.0021684844978153706,-0.14008092880249023,0.00897181499749422,0.008067281916737556,-0.021725794300436974,-2,0,-1000,9,8,-21,4,-6,-152,3689.0
03:09:33.086,AUTO,-35.3632622,149.1652362,14921,0.004661555401980877,0.0021684844978153706,-0.14008092880249023,0.00897181499749422,0.008067281916737556,-0.021725794300436974,-2,0,-1000,9,8,-21,4,-6,-152,3689.0
03:09:33.288,AUTO,-35.363262,149.165236,15311,0.007175474893301725,0.003902649274095893,-0.14540636539459229,0.011783815920352936,0.006877566687762737,-0.019856419414281845,-2,0,-1000,12,7,-19,3,-5,-152,3689.0
03:09:33.491,AUTO,-35.3632619,149.1652358,15701,0.008660322986543179,0.0051149106584489346,-0.1500636339187622,0.005261314567178488,0.004413256887346506,-0.018010316416621208,-2,0,-1000,6,5,-18,3,-3,-152,3689.0
03:09:33.692,AUTO,-35.3632619,149.1652358,15701,0.008660322986543179,0.0051149106584489346,-0.1500636339187622,0.005261314567178488,0.004413256887346506,-0.018010316416621208,-2,0,-1000,6,5,-18,3,-3,-152,3689.0
03:09:33.894,AUTO,-35.3632619,149.1652358,15701,0.008660322986543179,0.0051149106584489346,-0.1500636339187622,0.005261314567178488,0.004413256887346506,-0.018010316416621208,-2,0,-1000,6,5,-18,3,-3,-152,3689.0
03:09:34.096,AUTO,-35.3632619,149.1652358,15701,0.008660322986543179,0.0051149106584489346,-0.1500636339187622,0.005261314567178488,0.004413256887346506,-0.018010316416621208,-2,0,-1000,6,5,-18,3,-3,-152,3689.0
03:09:34.298,AUTO,-35.3632617,149.1652355,16861,0.009073177352547646,0.006873879581689835,-0.16197210550308228,-0.0009271276649087667,0.0003510286333039403,-0.01193306315690279,0,0,-1000,0,1,-12,0,1,-152,3689.0
03:09:34.499,AUTO,-35.3632617,149.1652355,17250,0.008460037410259247,0.006714973598718643,-0.1653449535369873,-0.002526379656046629,-0.001379208522848785,-0.010514129884541035,0,0,-999,-1,0,-10,0,2,-152,3689.0
03:09:34.728,AUTO,-35.3632616,149.1652355,17640,0.007696174085140228,0.00626826798543334,-0.16856589913368225,-0.0029442287050187588,-0.002496623434126377,-0.012954683043062687,0,0,-1000,-2,-1,-13,-1,3,-152,3689.0
03:09:34.952,AUTO,-35.3632616,149.1652355,18029,0.006615982390940189,0.006081372499465942,-0.1721562147140503,-0.0025978677440434694,-0.0002247477532364428,-0.01491517387330532,0,0,-1000,-1,0,-15,-1,4,-152,3689.0
03:09:35.178,AUTO,-35.3632616,149.1652356,18418,0.0027371810283511877,0.005625903140753508,-0.17563565075397491,-0.042123232036828995,-0.0017135865055024624,-0.01512199454009533,0,-1,-996,-41,0,-15,-2,5,-152,3689.0
03:09:35.432,AUTO,-35.3632616,149.1652357,18805,-0.014784055761992931,0.005192721262574196,-0.17958828806877136,-0.08368004113435745,-0.0004296641272958368,-0.017338156700134277,0,-1,-996,-83,0,-17,-3,3,-151,3689.0
03:09:35.636,AUTO,-35.3632616,149.1652357,18805,-0.014784055761992931,0.005192721262574196,-0.17958828806877136,-0.08368004113435745,-0.0004296641272958368,-0.017338156700134277,0,-1,-996,-83,0,-17,-3,3,-151,3689.0
03:09:35.838,AUTO,-35.3632616,149.1652357,18805,-0.014784055761992931,0.005192721262574196,-0.17958828806877136,-0.08368004113435745,-0.0004296641272958368,-0.017338156700134277,0,-1,-996,-83,0,-17,-3,3,-151,3689.0
03:09:36.040,AUTO,-35.3632616,149.1652357,18805,-0.014784055761992931,0.005192721262574196,-0.17958828806877136,-0.08368004113435745,-0.0004296641272958368,-0.017338156700134277,0,-1,-996,-83,0,-17,-3,3,-151,73045.0
03:09:36.241,AUTO,-35.3632619,149.1652348,19938,-0.04746803641319275,0.046403609216213226,-0.07414425164461136,-0.01470671035349369,0.08630172163248062,0.461607426404953,-1,3,-982,-13,87,461,-16,-25,-142,73045.0
03:09:36.443,AUTO,-35.3632624,149.1652339,20290,-0.03073890134692192,0.04453063756227493,0.02589251473546028,0.10645308345556259,-0.12496931105852127,0.297982394695282,0,7,-956,107,-124,297,-28,-33,-133,73045.0
03:09:36.645,AUTO,-35.363263,149.1652329,20614,0.00350116821937263,0.004854596219956875,0.0734412744641304,0.13471055030822754,-0.15883629024028778,0.09734290838241577,1,10,-955,135,-157,96,-32,-35,-122,73045.0
03:09:36.847,AUTO,-35.363263,149.1652329,20614,0.00350116821937263,0.004854596219956875,0.0734412744641304,0.13471055030822754,-0.15883629024028778,0.09734290838241577,1,10,-955,135,-157,96,-32,-35,-122,73045.0
03:09:37.049,AUTO,-35.3632636,149.165232,20911,0.03321162238717079,-0.02568647265434265,0.08128736913204193,0.10025513172149658,-0.08738372474908829,-0.013298030942678452,1,9,-958,101,-86,-13,-29,-28,-111,73045.0
03:09:37.251,AUTO,-35.3632641,149.1652313,21182,0.05212865397334099,-0.0385347418487072,0.07238703221082687,0.055761899799108505,-0.026711124926805496,-0.0470157153904438,2,7,-961,56,-25,-47,-20,-16,-101,73045.0
03:09:37.453,AUTO,-35.3632645,149.165231,21428,0.059702061116695404,-0.039944544434547424,0.061561219394207,0.01588396541774273,0.004385500680655241,-0.04043065756559372,1,3,-964,16,5,-40,-11,-1,-91,73045.0
03:09:37.654,AUTO,-35.3632645,149.165231,21428,0.059702061116695404,-0.039944544434547424,0.061561219394207,0.01588396541774273,0.004385500680655241,-0.04043065756559372,1,3,-964,16,5,-40,-11,-1,-91,73045.0
03:09:37.856,AUTO,-35.3632645,149.165231,21428,0.059702061116695404,-0.039944544434547424,0.061561219394207,0.01588396541774273,0.004385500680655241,-0.04043065756559372,1,3,-964,16,5,-40,-11,-1,-91,73045.0
03:09:38.058,AUTO,-35.3632645,149.165231,21428,0.059702061116695404,-0.039944544434547424,0.061561219394207,0.01588396541774273,0.004385500680655241,-0.04043065756559372,1,3,-964,16,5,-40,-11,-1,-91,73045.0
03:09:38.261,AUTO,-35.3632643,149.1652321,22030,0.039419256150722504,-0.019498461857438087,0.04991655424237251,-0.037869106978178024,0.03701568394899368,-0.001335433917120099,0,-6,-975,-37,37,-1,11,32,-68,73045.0
03:09:38.462,AUTO,-35.3632641,149.165233,22195,0.028123294934630394,-0.011114729568362236,0.04963361844420433,-0.042223408818244934,0.03241698816418648,0.0013484979281201959,0,-8,-976,-41,33,1,15,38,-62,73045.0
03:09:38.664,AUTO,-35.3632637,149.165234,22347,0.0174183901399374,-0.0034588719718158245,0.049290403723716736,-0.0439600870013237,0.026567403227090836,0.0025244795251637697,1,-11,-976,-42,27,2,17,40,-56,73045.0
03:09:38.866,AUTO,-35.3632633,149.165235,22479,0.008452863432466984,0.0036731965374201536,0.04859830066561699,-0.03227842599153519,0.027276605367660522,0.00015649368287995458,1,-10,-977,-31,28,0,18,40,-50,73045.0
03:09:39.096,AUTO,-35.3632633,149.165235,22479,0.008452863432466984,0.0036731965374201536,0.04859830066561699,-0.03227842599153519,0.027276605367660522,0.00015649368287995458,1,-10,-977,-31,28,0,18,40,-50,73045.0
03:09:39.318,AUTO,-35.3632629,149.1652361,22598,0.0006424440653063357,0.009045389480888844,0.04775984585285187,-0.02321075089275837,0.016330450773239136,0.0004098933422937989,0,-9,-978,-22,17,0,17,38,-44,73045.0
03:09:39.525,AUTO,-35.3632625,149.165237,22702,-0.005654741544276476,0.011687980964779854,0.04716526344418526,-0.01903381198644638,0.006892218254506588,0.001040017930790782,0,-8,-977,-18,7,1,15,34,-39,73045.0
03:09:39.776,AUTO,-35.3632625,149.165237,22702,-0.005654741544276476,0.011687980964779854,0.04716526344418526,-0.01903381198644638,0.006892218254506588,0.001040017930790782,0,-8,-977,-18,7,1,15,34,-39,73045.0
03:09:39.979,AUTO,-35.3632625,149.165237,22702,-0.005654741544276476,0.011687980964779854,0.04716526344418526,-0.01903381198644638,0.006892218254506588,0.001040017930790782,0,-8,-977,-18,7,1,15,34,-39,73045.0
03:09:40.181,AUTO,-35.3632616,149.1652391,22921,-0.012023193761706352,0.014810330234467983,0.04469757154583931,0.030602294951677322,-0.0012798384996131063,-0.004393335431814194,0,-3,-973,31,0,-4,7,19,-20,73045.0
03:09:40.382,AUTO,-35.3632614,149.1652396,22960,-0.011729859746992588,0.013824389316141605,0.043836891651153564,-0.0005290377885103226,-0.003568134270608425,-0.00392746040597558,0,-5,-970,0,-2,-3,5,15,-13,73045.0
03:09:40.584,AUTO,-35.3632614,149.1652396,22960,-0.011729859746992588,0.013824389316141605,0.043836891651153564,-0.0005290377885103226,-0.003568134270608425,-0.00392746040597558,0,-5,-970,0,-2,-3,5,15,-13,3828.0
03:09:40.786,AUTO,-35.3632612,149.1652399,22980,-0.013348870910704136,0.01225950289517641,0.04304302856326103,-0.10445815324783325,-0.006945979781448841,-0.0042393263429403305,0,-5,-965,-103,-5,-4,2,10,-5,3828.0
03:09:40.987,AUTO,-35.3632612,149.1652401,22972,-0.038454435765743256,0.02541637420654297,0.041468940675258636,0.21197347342967987,0.0284690223634243,-0.005481445696204901,1,7,-935,212,29,-5,0,3,9,3828.0
03:09:41.189,AUTO,-35.3632612,149.16524,22930,-0.029490159824490547,0.01520987693220377,0.041089873760938644,-0.23340155184268951,-0.08459179848432541,0.007551393937319517,0,-37,-940,-233,-83,7,-4,-7,20,3828.0
03:09:41.391,AUTO,-35.3632613,149.1652397,22870,-0.012306015007197857,-0.007481602020561695,0.040735531598329544,-0.614354133605957,-0.08854895085096359,2.0996607418055646e-05,0,-34,-1029,-614,-87,0,-4,-11,21,3828.0
03:09:41.593,AUTO,-35.3632613,149.1652397,22870,-0.012306015007197857,-0.007481602020561695,0.040735531598329544,-0.614354133605957,-0.08854895085096359,2.0996607418055646e-05,0,-34,-1029,-614,-87,0,-4,-11,21,3828.0
03:09:41.794,AUTO,-35.3632613,149.1652397,22870,-0.012306015007197857,-0.007481602020561695,0.040735531598329544,-0.614354133605957,-0.08854895085096359,2.0996607418055646e-05,0,-34,-1029,-614,-87,0,-4,-11,21,3828.0
03:09:41.996,AUTO,-35.3632613,149.1652397,22870,-0.012306015007197857,-0.007481602020561695,0.040735531598329544,-0.614354133605957,-0.08854895085096359,2.0996607418055646e-05,0,-34,-1029,-614,-87,0,-4,-11,21,3828.0
03:09:42.198,AUTO,-35.3632609,149.1652394,22747,0.05748319253325462,-0.04933267831802368,0.03663848713040352,0.6600968241691589,-0.036749906837940216,-0.0068986923433840275,-2,25,-1023,661,-35,-6,17,8,6,3828.0
03:09:42.399,AUTO,-35.3632604,149.1652397,22729,0.07017472386360168,-0.05772827938199043,0.034599751234054565,0.4246975779533386,-0.03221691772341728,-0.002716776682063937,-2,-6,-996,424,-31,-2,30,19,5,3828.0
03:09:42.601,AUTO,-35.3632604,149.1652397,22729,0.07017472386360168,-0.05772827938199043,0.034599751234054565,0.4246975779533386,-0.03221691772341728,-0.002716776682063937,-2,-6,-996,424,-31,-2,30,19,5,3828.0
03:09:42.802,AUTO,-35.3632596,149.1652404,22712,0.06832706928253174,-0.06725824624300003,0.06056934967637062,-0.32611939311027527,-0.04298859089612961,0.29351505637168884,-3,-45,-998,-326,-42,293,44,33,3,3828.0
03:09:43.004,AUTO,-35.3632584,149.1652416,22698,0.05190655216574669,-0.08344041556119919,0.20664839446544647,-0.5442269444465637,-0.05120578408241272,0.7730741500854492,-6,-40,-1015,-543,-50,773,59,48,1,3828.0
03:09:43.206,AUTO,-35.3632569,149.1652431,22686,0.044260721653699875,-0.10110071301460266,0.4183919429779053,0.061565570533275604,-0.0363956019282341,0.8485705852508545,-18,-11,-1012,63,-35,848,75,62,1,3828.0
03:09:43.408,AUTO,-35.363255,149.1652452,22678,0.03920139744877815,-0.11756458133459091,0.6325879096984863,0.5407708287239075,-0.021933741867542267,0.8254584074020386,-22,2,-1002,541,-21,825,92,79,1,3828.0
03:09:43.620,AUTO,-35.363255,149.1652452,22678,0.03920139744877815,-0.11756458133459091,0.6325879096984863,0.5407708287239075,-0.021933741867542267,0.8254584074020386,-22,2,-1002,541,-21,825,92,79,1,3828.0
03:09:43.824,AUTO,-35.363255,149.1652452,22678,0.03920139744877815,-0.11756458133459091,0.6325879096984863,0.5407708287239075,-0.021933741867542267,0.8254584074020386,-22,2,-1002,541,-21,825,92,79,1,3828.0
03:09:44.026,AUTO,-35.363255,149.1652452,22678,0.03920139744877815,-0.11756458133459091,0.6325879096984863,0.5407708287239075,-0.021933741867542267,0.8254584074020386,-22,2,-1002,541,-21,825,92,79,1,3828.0
03:09:44.268,AUTO,-35.3632471,149.1652541,22632,0.00025892246048897505,-0.1534349024295807,0.8593150973320007,-0.29417914152145386,-0.03200588375329971,-0.11514274775981903,-41,-28,-1000,-292,-31,-115,148,131,5,3828.0
03:09:44.476,AUTO,-35.3632436,149.1652581,22609,0.010487404651939869,-0.16592587530612946,0.8290344476699829,0.21251149475574493,-0.0503239743411541,-0.1448657214641571,-47,-5,-997,214,-49,-145,169,151,7,3828.0
03:09:44.688,AUTO,-35.3632395,149.1652627,22581,0.023730235174298286,-0.1785886287689209,0.8033090233802795,0.508021891117096,-0.054692670702934265,-0.10852950066328049,-54,-7,-985,509,-53,-108,193,170,10,3828.0
03:09:44.935,AUTO,-35.3632349,149.1652678,22551,0.03497999906539917,-0.18323494493961334,0.7901807427406311,0.21447961032390594,0.0111390957608819,-0.017440911382436752,-53,-39,-1006,214,11,-17,217,191,8,3828.0
03:09:45.139,AUTO,-35.3632299,149.1652735,22522,0.03573091700673103,-0.1798263043165207,0.7874081134796143,-0.24078650772571564,0.005685131065547466,0.014672593213617802,-66,-59,-1005,-240,6,14,240,212,9,3828.0
03:09:45.342,AUTO,-35.3632299,149.1652735,22522,0.03573091700673103,-0.1798263043165207,0.7874081134796143,-0.24078650772571564,0.005685131065547466,0.014672593213617802,-66,-59,-1005,-240,6,14,240,212,9,3828.0
03:09:45.544,AUTO,-35.3632243,149.1652798,22493,0.03012797236442566,-0.1809721142053604,0.7897235155105591,-0.4019794762134552,0.000917364377528429,0.015765823423862457,-68,-62,-1004,-401,1,15,261,231,9,3828.0
03:09:45.755,AUTO,-35.3632243,149.1652798,22493,0.03012797236442566,-0.1809721142053604,0.7897235155105591,-0.4019794762134552,0.000917364377528429,0.015765823423862457,-68,-62,-1004,-401,1,15,261,231,9,43715.0
03:09:45.957,AUTO,-35.3632243,149.1652798,22493,0.03012797236442566,-0.1809721142053604,0.7897235155105591,-0.4019794762134552,0.000917364377528429,0.015765823423862457,-68,-62,-1004,-401,1,15,261,231,9,43715.0
03:09:46.159,AUTO,-35.3632243,149.1652798,22493,0.03012797236442566,-0.1809721142053604,0.7897235155105591,-0.4019794762134552,0.000917364377528429,0.015765823423862457,-68,-62,-1004,-401,1,15,261,231,9,43715.0
03:09:46.360,AUTO,-35.3632023,149.1653051,22381,0.03565578907728195,-0.19895429909229279,0.7895128130912781,-0.20741893351078033,-0.03207901492714882,-0.0027988883666694164,-100,-61,-999,-206,-31,-2,329,293,13,43715.0
03:09:46.562,AUTO,-35.3631948,149.1653137,22340,0.04424409568309784,-0.2049940675497055,0.7870959639549255,0.07139261066913605,-0.023798011243343353,-0.016495510935783386,-88,-48,-993,72,-22,-16,349,311,15,43715.0
03:09:46.764,AUTO,-35.3631869,149.1653227,22294,0.049275364726781845,-0.2106010913848877,0.7850940227508545,0.13363038003444672,-0.025542981922626495,-0.014231042005121708,-90,-49,-991,134,-24,-14,370,330,17,43715.0
03:09:46.965,AUTO,-35.3631785,149.1653322,22245,0.05210338160395622,-0.21481512486934662,0.783316969871521,-0.03854196146130562,-0.0030683483928442,0.0019526865798979998,-99,-63,-995,-37,-2,1,391,349,18,43715.0
03:09:47.167,AUTO,-35.3631785,149.1653322,22245,0.05210338160395622,-0.21481512486934662,0.783316969871521,-0.03854196146130562,-0.0030683483928442,0.0019526865798979998,-99,-63,-995,-37,-2,1,391,349,18,43715.0
03:09:47.369,AUTO,-35.3631697,149.1653422,22194,0.05440233647823334,-0.20871078968048096,0.7825221419334412,0.002472539199516177,0.0389908105134964,-0.010158602148294449,-108,-58,-1003,3,39,-10,410,368,18,43715.0
03:09:47.571,AUTO,-35.3631604,149.1653527,22147,0.05882779881358147,-0.19762519001960754,0.7816384434700012,0.043241772800683975,0.040631942451000214,-0.012294556945562363,-114,-70,-1006,43,41,-12,427,384,16,43715.0
03:09:47.772,AUTO,-35.3631604,149.1653527,22147,0.05882779881358147,-0.19762519001960754,0.7816384434700012,0.043241772800683975,0.040631942451000214,-0.012294556945562363,-114,-70,-1006,43,41,-12,427,384,16,43715.0
03:09:47.974,AUTO,-35.3631604,149.1653527,22147,0.05882779881358147,-0.19762519001960754,0.7816384434700012,0.043241772800683975,0.040631942451000214,-0.012294556945562363,-114,-70,-1006,43,41,-12,427,384,16,43715.0
03:09:48.176,AUTO,-35.3631604,149.1653527,22147,0.05882779881358147,-0.19762519001960754,0.7816384434700012,0.043241772800683975,0.040631942451000214,-0.012294556945562363,-114,-70,-1006,43,41,-12,427,384,16,43715.0
03:09:48.378,AUTO,-35.3631305,149.1653867,22032,0.07341979444026947,-0.1714145392179489,0.7784056663513184,0.0011184383183717728,0.011773701757192612,-0.00843555387109518,-128,-65,-990,1,12,-8,465,420,12,43715.0
03:09:48.585,AUTO,-35.36312,149.1653986,21997,0.07533115893602371,-0.17077118158340454,0.7778473496437073,0.048027362674474716,-0.0024243539664894342,-0.0032304879277944565,-121,-61,-978,48,-1,-3,473,428,13,43715.0
03:09:48.794,AUTO,-35.3631093,149.1654108,21958,0.07905301451683044,-0.1660958230495453,0.7768539786338806,0.042209334671497345,0.021801283583045006,0.0012693081516772509,-122,-83,-983,42,22,1,482,436,14,43715.0
03:09:49.079,AUTO,-35.3630984,149.1654232,21917,0.08215770870447159,-0.16008876264095306,0.7759305834770203,0.030908122658729553,0.00705323601141572,-0.002704015001654625,-132,-83,-985,31,7,-2,488,442,14,43715.0
03:09:49.298,AUTO,-35.3630876,149.1654357,21873,0.0799882784485817,-0.15807205438613892,0.775034487247467,-0.052170395851135254,-0.013483874499797821,-0.00024596916045993567,-130,-81,-981,-51,-12,0,492,449,16,43715.0
03:09:49.533,AUTO,-35.3630766,149.1654485,21825,0.0768769159913063,-0.1543654203414917,0.7746955752372742,-0.010987582616508007,0.014499207027256489,-0.0008737375610508025,-139,-73,-991,-10,15,0,497,455,17,43715.0
03:09:49.740,AUTO,-35.3630766,149.1654485,21825,0.0768769159913063,-0.1543654203414917,0.7746955752372742,-0.010987582616508007,0.014499207027256489,-0.0008737375610508025,-139,-73,-991,-10,15,0,497,455,17,43715.0
03:09:49.942,AUTO,-35.3630766,149.1654485,21825,0.0768769159913063,-0.1543654203414917,0.7746955752372742,-0.010987582616508007,0.014499207027256489,-0.0008737375610508025,-139,-73,-991,-10,15,0,497,455,17,43715.0
03:09:50.149,AUTO,-35.3630766,149.1654485,21825,0.0768769159913063,-0.1543654203414917,0.7746955752372742,-0.010987582616508007,0.014499207027256489,-0.0008737375610508025,-139,-73,-991,-10,15,0,497,455,17,43715.0
03:09:50.351,AUTO,-35.3630432,149.1654873,21683,0.0729648545384407,-0.12430933117866516,0.7749984860420227,-0.05326409265398979,0.03821111097931862,0.014192160218954086,-122,-74,-983,-52,39,14,503,462,16,94218.0
03:09:50.554,AUTO,-35.363032,149.1655004,21637,0.07265319675207138,-0.11864431947469711,0.7737941145896912,-0.06702160090208054,0.010747052729129791,0.006123523693531752,-135,-80,-983,-66,11,6,501,460,16,94218.0
03:09:50.756,AUTO,-35.3630207,149.1655134,21588,0.07509057968854904,-0.11651767790317535,0.7724157571792603,0.05786025524139404,0.02104513719677925,-0.0017121935961768031,-151,-61,-986,58,21,-1,500,458,18,94218.0
03:09:50.958,AUTO,-35.3630207,149.1655134,21588,0.07509057968854904,-0.11651767790317535,0.7724157571792603,0.05786025524139404,0.02104513719677925,-0.0017121935961768031,-151,-61,-986,58,21,-1,500,458,18,94218.0
03:09:51.159,AUTO,-35.3630095,149.1655263,21536,0.07722977548837662,-0.1183568462729454,0.7718722224235535,0.0161468293517828,-0.003998319618403912,0.006610038690268993,-138,-84,-983,16,-3,6,500,456,19,94218.0
03:09:51.361,AUTO,-35.3629983,149.165539,21481,0.08060801029205322,-0.11873862892389297,0.7717210054397583,0.00959019549190998,0.009164055809378624,0.0060640801675617695,-133,-78,-984,9,10,6,498,454,21,94218.0
03:09:51.563,AUTO,-35.3629872,149.1655518,21424,0.08050442487001419,-0.10712023824453354,0.7721033692359924,0.0139344222843647,0.06870058178901672,0.008722559548914433,-141,-68,-996,14,69,8,496,453,20,94218.0
03:09:51.765,AUTO,-35.3629872,149.1655518,21424,0.08050442487001419,-0.10712023824453354,0.7721033692359924,0.0139344222843647,0.06870058178901672,0.008722559548914433,-141,-68,-996,14,69,8,496,453,20,94218.0
03:09:51.967,AUTO,-35.3629872,149.1655518,21424,0.08050442487001419,-0.10712023824453354,0.7721033692359924,0.0139344222843647,0.06870058178901672,0.008722559548914433,-141,-68,-996,14,69,8,496,453,20,94218.0
03:09:52.169,AUTO,-35.3629872,149.1655518,21424,0.08050442487001419,-0.10712023824453354,0.7721033692359924,0.0139344222843647,0.06870058178901672,0.008722559548914433,-141,-68,-996,14,69,8,496,453,20,94218.0
03:09:52.370,AUTO,-35.3629542,149.1655892,21290,0.08846647292375565,-0.06534768640995026,0.7719346880912781,-0.002092021517455578,0.016676349565386772,0.001924161915667355,-135,-76,-991,-1,17,2,475,434,15,94218.0
03:09:52.572,AUTO,-35.3629437,149.1656013,21249,0.08285985141992569,-0.05508977547287941,0.7724213600158691,-0.04847068712115288,0.02355305664241314,0.006736887618899345,-121,-82,-984,-47,24,7,463,425,15,94218.0
03:09:52.774,AUTO,-35.3629334,149.1656131,21208,0.08297564834356308,-0.04340337589383125,0.7727873921394348,0.0055961282923817635,0.0578325130045414,0.0028877961449325085,-115,-80,-986,6,58,3,451,415,16,94218.0
03:09:52.977,AUTO,-35.3629233,149.1656245,21165,0.08357368409633636,-0.028146853670477867,0.7732151746749878,0.03220563754439354,0.0481383353471756,0.007414012216031551,-123,-67,-995,32,49,7,436,403,16,94218.0
03:09:53.179,AUTO,-35.3629233,149.1656245,21165,0.08357368409633636,-0.028146853670477867,0.7732151746749878,0.03220563754439354,0.0481383353471756,0.007414012216031551,-123,-67,-995,32,49,7,436,403,16,94218.0
03:09:53.382,AUTO,-35.3629137,149.1656356,21123,0.07787756621837616,-0.019020240753889084,0.7733001112937927,-0.13233084976673126,0.04492522403597832,0.004404718987643719,-111,-103,-993,-132,45,4,420,389,16,94218.0
03:09:53.584,AUTO,-35.3629044,149.1656463,21081,0.07607178390026093,-0.009913459420204163,0.7730057835578918,-0.0659177303314209,0.03886397182941437,-0.0025648546870797873,-107,-65,-992,-65,40,-2,403,375,17,94218.0
03:09:53.787,AUTO,-35.3629044,149.1656463,21081,0.07607178390026093,-0.009913459420204163,0.7730057835578918,-0.0659177303314209,0.03886397182941437,-0.0025648546870797873,-107,-65,-992,-65,40,-2,403,375,17,94218.0
03:09:53.989,AUTO,-35.3629044,149.1656463,21081,0.07607178390026093,-0.009913459420204163,0.7730057835578918,-0.0659177303314209,0.03886397182941437,-0.0025648546870797873,-107,-65,-992,-65,40,-2,403,375,17,94218.0
03:09:54.206,AUTO,-35.3629044,149.1656463,21081,0.07607178390026093,-0.009913459420204163,0.7730057835578918,-0.0659177303314209,0.03886397182941437,-0.0025648546870797873,-107,-65,-992,-65,40,-2,403,375,17,94218.0
03:09:54.461,AUTO,-35.3628715,149.1656844,20885,0.058643560856580734,0.045560549944639206,0.7728530764579773,-0.8641198873519897,0.045779526233673096,0.04638614505529404,-97,-113,-1012,-670,47,45,322,301,19,94218.0
03:09:54.682,AUTO,-35.3628715,149.1656844,20885,0.058643560856580734,0.045560549944639206,0.7728530764579773,-0.8641198873519897,0.045779526233673096,0.04638614505529404,-96,-125,-1045,-864,47,46,322,301,19,94218.0
03:09:54.898,AUTO,-35.3628645,149.1656926,20838,0.04803967475891113,0.05460919812321663,0.7711517214775085,-0.9218060374259949,0.0421978123486042,0.023006262257695198,-80,-85,-1027,-921,43,23,298,282,17,94218.0
03:09:55.182,AUTO,-35.362858,149.1657004,20796,0.041486307978630066,0.06024464592337608,0.7702151536941528,-0.1141301691532135,-0.007324091624468565,-0.036927301436662674,-72,-29,-1002,-112,-6,-36,273,261,15,94218.0
03:09:55.385,AUTO,-35.3628521,149.1657075,20756,0.04419583082199097,0.05898988991975784,0.770428478717804,0.4442162811756134,-0.006519525311887264,-0.02841244451701641,-72,-14,-1009,445,-5,-28,251,240,15,94218.0
03:09:55.595,AUTO,-35.3628467,149.1657141,20720,0.05270522087812424,0.056732308119535446,0.7703846096992493,0.7349939942359924,-0.011447538621723652,-0.01726791262626648,-63,0,-1021,735,-10,-16,230,220,13,94218.0
03:09:55.797,AUTO,-35.3628467,149.1657141,20720,0.05270522087812424,0.056732308119535446,0.7703846096992493,0.7349939942359924,-0.011447538621723652,-0.01726791262626648,-63,0,-1021,735,-10,-16,230,220,13,15183.0
03:09:55.999,AUTO,-35.3628467,149.1657141,20720,0.05270522087812424,0.056732308119535446,0.7703846096992493,0.7349939942359924,-0.011447538621723652,-0.01726791262626648,-63,0,-1021,735,-10,-16,230,220,13,15183.0
03:09:56.200,AUTO,-35.3628467,149.1657141,20720,0.05270522087812424,0.056732308119535446,0.7703846096992493,0.7349939942359924,-0.011447538621723652,-0.01726791262626648,-63,0,-1021,735,-10,-16,230,220,13,15183.0
03:09:56.402,AUTO,-35.3628332,149.1657303,20634,0.02805645391345024,0.07277443259954453,0.7713897824287415,-0.5854942202568054,0.025003962218761444,0.023554839193820953,-48,-74,-1003,-586,26,24,173,160,10,15183.0
03:09:56.604,AUTO,-35.3628295,149.1657346,20609,0.020696263760328293,0.07981402426958084,0.7717100381851196,-0.769707441329956,0.023360326886177063,0.01679203286767006,-47,-62,-1039,-769,24,17,153,141,9,15183.0
03:09:56.806,AUTO,-35.3628263,149.1657383,20591,0.016531726345419884,0.08459106832742691,0.7715734839439392,-0.431199312210083,0.026337623596191406,-0.005748635157942772,-40,-20,-1002,-430,27,-5,132,122,6,15183.0
03:09:57.008,AUTO,-35.3628235,149.1657415,20576,0.022205056622624397,0.08878305554389954,0.7715694904327393,0.26999250054359436,0.0010499474592506886,-0.014311390928924084,-27,15,-991,271,2,-13,111,103,6,15183.0
03:09:57.209,AUTO,-35.3628235,149.1657415,20576,0.022205056622624397,0.08878305554389954,0.7715694904327393,0.26999250054359436,0.0010499474592506886,-0.014311390928924084,-27,15,-991,271,2,-13,111,103,6,15183.0
03:09:57.411,AUTO,-35.3628212,149.1657443,20563,0.027302274480462074,0.08333525061607361,0.7709125876426697,0.7042251825332642,-0.040346428751945496,-0.0031147790141403675,-25,10,-1015,704,-39,-2,92,85,4,15183.0
03:09:57.613,AUTO,-35.3628193,149.1657465,20553,0.023828711360692978,0.07414933294057846,0.7702800035476685,0.34786170721054077,-0.03473471477627754,0.003023212542757392,-20,-1,-1019,347,-33,3,76,69,4,15183.0
03:09:57.815,AUTO,-35.3628193,149.1657465,20553,0.023828711360692978,0.07414933294057846,0.7702800035476685,0.34786170721054077,-0.03473471477627754,0.003023212542757392,-20,-1,-1019,347,-33,3,76,69,4,15183.0
03:09:58.018,AUTO,-35.3628193,149.1657465,20553,0.023828711360692978,0.07414933294057846,0.7702800035476685,0.34786170721054077,-0.03473471477627754,0.003023212542757392,-20,-1,-1019,347,-33,3,76,69,4,15183.0
03:09:58.222,AUTO,-35.3628155,149.1657511,20535,-0.007039603311568499,0.056014783680438995,0.7693592309951782,-0.33979007601737976,-0.020377445966005325,-0.004267169628292322,-9,-6,-1000,-338,-19,-3,38,32,2,15183.0
03:09:58.423,AUTO,-35.3628155,149.1657511,20535,-0.007039603311568499,0.056014783680438995,0.7693592309951782,-0.33979007601737976,-0.020377445966005325,-0.004267169628292322,-9,-6,-1000,-338,-19,-3,38,32,2,15183.0
03:09:58.625,AUTO,-35.3628148,149.165752,20533,0.0011144769378006458,0.050820641219615936,0.768943727016449,0.46857398748397827,-0.019413184374570847,-0.004480401519685984,-5,20,-1015,469,-18,-3,29,22,0,15183.0
