time_stamp,MODE,lat,lon,relative_alt,roll,pitch,yaw,rollspeed,pitchspeed,yawspeed,xacc,yacc,zacc,xgyro,ygyro,zgyro,vx,vy,vz,RTL_ALT
16:40:48.249,STABILIZE,-35.3632621,149.1652374,1,-0.0002269412943860516,0.0012829337501898408,0.029405025765299797,0.00022855261340737343,0.0002577709383331239,0.00259966216981411,0,1,-1000,0,0,0,0,0,0,1500.0
16:40:48.450,STABILIZE,-35.3632621,149.1652374,0,-0.00011529338371474296,0.001445112400688231,0.028882715851068497,0.0002984677266795188,0.00018413373618386686,0.002537823747843504,0,1,-1000,0,1,0,0,0,0,1500.0
16:40:48.653,STABILIZE,-35.3632621,149.1652374,0,-0.00011529338371474296,0.001445112400688231,0.028882715851068497,0.0002984677266795188,0.00018413373618386686,0.002537823747843504,0,1,-1000,0,0,0,0,0,0,1500.0
16:40:48.856,STABILIZE,-35.3632621,149.1652374,0,-0.00011529338371474296,0.001445112400688231,0.028882715851068497,0.0002984677266795188,0.00018413373618386686,0.002537823747843504,0,1,-1000,0,0,0,0,0,0,1500.0
16:40:49.058,STABILIZE,-35.3632621,149.1652374,0,-0.00011529338371474296,0.001445112400688231,0.028882715851068497,0.0002984677266795188,0.00018413373618386686,0.002537823747843504,0,1,-1000,0,0,0,0,0,0,1500.0
16:40:49.260,STABILIZE,-35.3632621,149.1652374,0,-0.00011529338371474296,0.001445112400688231,0.028882715851068497,0.0002984677266795188,0.00018413373618386686,0.002537823747843504,0,1,-1000,0,0,0,0,0,0,1500.0
16:40:49.461,STABILIZE,-35.3632621,149.1652374,0,-0.00011529338371474296,0.001445112400688231,0.028882715851068497,0.0002984677266795188,0.00018413373618386686,0.002537823747843504,0,1,-1000,0,0,0,0,0,0,1500.0
16:40:49.663,STABILIZE,-35.3632621,149.1652374,0,-0.00011529338371474296,0.001445112400688231,0.028882715851068497,0.0002984677266795188,0.00018413373618386686,0.002537823747843504,0,1,-1000,0,0,0,0,0,0,1500.0
16:40:49.865,STABILIZE,-35.3632621,149.1652374,0,-0.00011529338371474296,0.001445112400688231,0.028882715851068497,0.0002984677266795188,0.00018413373618386686,0.002537823747843504,0,1,-1000,0,0,0,0,0,0,1500.0
16:40:50.067,STABILIZE,-35.3632621,149.1652374,0,-0.00011529338371474296,0.001445112400688231,0.028882715851068497,0.0002984677266795188,0.00018413373618386686,0.002537823747843504,0,1,-1000,0,0,0,0,0,0,1500.0
16:40:50.270,STABILIZE,-35.3632621,149.1652374,0,-5.73782563151326e-05,0.0016176123172044754,0.028019875288009644,0.00016142241656780243,0.0003501003375276923,0.002282638568431139,0,1,-1000,0,1,0,-1,1,0,1500.0
16:40:50.473,STABILIZE,-35.3632621,149.1652374,0,-0.00017783328075893223,0.0015524463960900903,0.027460306882858276,0.0003017139679286629,0.00029925047419965267,0.0023415684700012207,0,2,-1000,0,0,0,-1,1,0,1500.0
16:40:50.674,STABILIZE,-35.3632621,149.1652374,0,-0.00022181241365615278,0.0015167227247729897,0.027328433468937874,0.00016184034757316113,0.00028300468693487346,0.002357433084398508,0,1,-1000,1,0,0,-1,1,0,1500.0
16:40:50.878,STABILIZE,-35.3632621,149.1652374,0,-0.00022181241365615278,0.0015167227247729897,0.027328433468937874,0.00016184034757316113,0.00028300468693487346,0.002357433084398508,0,1,-1000,1,0,0,-1,1,0,1500.0
16:40:51.087,STABILIZE,-35.3632621,149.1652374,0,-0.00022181241365615278,0.0015167227247729897,0.027328433468937874,0.00016184034757316113,0.00028300468693487346,0.002357433084398508,0,1,-1000,1,0,0,-1,1,0,1500.0
16:40:51.290,STABILIZE,-35.3632621,149.1652374,0,-0.00022181241365615278,0.0015167227247729897,0.027328433468937874,0.00016184034757316113,0.00028300468693487346,0.002357433084398508,0,1,-1000,1,0,0,-1,1,0,1500.0
16:40:51.493,STABILIZE,-35.3632621,149.1652374,0,-0.00022181241365615278,0.0015167227247729897,0.027328433468937874,0.00016184034757316113,0.00028300468693487346,0.002357433084398508,0,1,-1000,1,0,0,-1,1,0,1500.0
16:40:51.695,STABILIZE,-35.3632621,149.1652374,0,-0.00022181241365615278,0.0015167227247729897,0.027328433468937874,0.00016184034757316113,0.00028300468693487346,0.002357433084398508,0,1,-1000,1,0,0,-1,1,0,1500.0
16:40:51.896,STABILIZE,-35.3632621,149.1652374,0,-0.00022181241365615278,0.0015167227247729897,0.027328433468937874,0.00016184034757316113,0.00028300468693487346,0.002357433084398508,0,1,-1000,1,0,0,-1,1,0,1500.0
16:40:52.098,STABILIZE,-35.3632621,149.1652374,0,-0.00022181241365615278,0.0015167227247729897,0.027328433468937874,0.00016184034757316113,0.00028300468693487346,0.002357433084398508,0,1,-1000,1,0,0,-1,1,0,1500.0
16:40:52.305,STABILIZE,-35.3632621,149.1652374,0,-0.00022181241365615278,0.0015167227247729897,0.027328433468937874,0.00016184034757316113,0.00028300468693487346,0.002357433084398508,0,1,-1000,1,0,0,-1,1,0,1500.0
16:40:52.506,STABILIZE,-35.3632622,149.1652376,0,-0.0009064226760528982,0.001155143603682518,0.02628515474498272,0.00016730866627767682,0.00025276761152781546,0.0021507092751562595,0,1,-1000,0,0,0,-1,2,2,1500.0
16:40:52.713,STABILIZE,-35.3632622,149.1652375,0,-0.0009862416191026568,0.0011269141687080264,0.02619338035583496,0.00025709636975079775,0.0002889047027565539,0.0020949523895978928,0,1,-1000,0,0,0,-1,1,1,1500.0
16:40:52.916,STABILIZE,-35.3632622,149.1652375,0,-0.0009862416191026568,0.0011269141687080264,0.02619338035583496,0.00025709636975079775,0.0002889047027565539,0.0020949523895978928,0,1,-1000,0,0,0,-1,1,1,1500.0
16:40:53.117,STABILIZE,-35.3632622,149.1652375,0,-0.0009862416191026568,0.0011269141687080264,0.02619338035583496,0.00025709636975079775,0.0002889047027565539,0.0020949523895978928,0,1,-1000,0,0,0,-1,1,1,1500.0
16:40:53.318,STABILIZE,-35.3632622,149.1652375,0,-0.0009862416191026568,0.0011269141687080264,0.02619338035583496,0.00025709636975079775,0.0002889047027565539,0.0020949523895978928,0,1,-1000,0,0,0,-1,1,1,1500.0
16:40:53.520,STABILIZE,-35.3632622,149.1652375,0,-0.0009862416191026568,0.0011269141687080264,0.02619338035583496,0.00025709636975079775,0.0002889047027565539,0.0020949523895978928,0,1,-1000,0,0,0,-1,1,1,1500.0
16:40:53.721,STABILIZE,-35.3632622,149.1652375,0,-0.0011329121189191937,0.0010583611438050866,0.02603401429951191,0.00022113515296950936,0.0002186350175179541,0.0020202051382511854,0,1,-1000,0,0,0,-1,1,1,1500.0
16:40:53.923,STABILIZE,-35.3632622,149.1652375,0,-0.0011329121189191937,0.0010583611438050866,0.02603401429951191,0.00022113515296950936,0.0002186350175179541,0.0020202051382511854,0,1,-1000,0,0,0,-1,1,1,1500.0
16:40:54.131,STABILIZE,-35.3632622,149.1652375,0,-0.0012464076280593872,0.0010162527905777097,0.025879649445414543,0.00026965851429849863,0.00023201346630230546,0.0020589916966855526,0,2,-1000,0,0,1,-1,1,1,1500.0
16:40:54.334,STABILIZE,-35.3632622,149.1652375,0,-0.0009065956110134721,0.0009449369972571731,0.02557957172393799,7.413607090711594e-05,0.00011687801452353597,0.0020096604712307453,0,2,-1000,1,0,0,-1,1,1,1500.0
16:40:54.535,STABILIZE,-35.3632622,149.1652375,0,-0.0009149356628768146,0.0009452159865759313,0.025546042248606682,0.00020996364764869213,0.00024953129468485713,0.0019476267043501139,0,2,-1000,1,0,0,-1,1,1,1500.0
16:40:54.737,STABILIZE,-35.3632621,149.1652375,0,-0.0009149356628768146,0.0009452159865759313,0.025546042248606682,0.00020996364764869213,0.00024953129468485713,0.0019476267043501139,0,1,-1000,0,0,1,-1,2,2,1500.0
16:40:54.942,STABILIZE,-35.3632621,149.1652375,0,-0.0009149356628768146,0.0009452159865759313,0.025546042248606682,0.00020996364764869213,0.00024953129468485713,0.0019476267043501139,0,1,-1000,0,0,1,-1,2,2,1500.0
16:40:55.145,STABILIZE,-35.3632621,149.1652375,0,-0.0009149356628768146,0.0009452159865759313,0.025546042248606682,0.00020996364764869213,0.00024953129468485713,0.0019476267043501139,0,1,-1000,0,0,1,-1,2,2,1500.0
16:40:55.346,STABILIZE,-35.3632621,149.1652375,0,-0.0009149356628768146,0.0009452159865759313,0.025546042248606682,0.00020996364764869213,0.00024953129468485713,0.0019476267043501139,0,1,-1000,0,0,1,-1,2,2,1500.0
16:40:55.548,STABILIZE,-35.3632621,149.1652375,0,-0.0009149356628768146,0.0009452159865759313,0.025546042248606682,0.00020996364764869213,0.00024953129468485713,0.0019476267043501139,0,1,-1000,0,0,1,-1,2,2,1500.0
16:40:55.752,STABILIZE,-35.3632621,149.1652375,0,-0.0009149356628768146,0.0009452159865759313,0.025546042248606682,0.00020996364764869213,0.00024953129468485713,0.0019476267043501139,0,1,-1000,0,0,1,-1,2,2,1500.0
16:40:55.954,STABILIZE,-35.3632621,149.1652375,0,-0.0009149356628768146,0.0009452159865759313,0.025546042248606682,0.00020996364764869213,0.00024953129468485713,0.0019476267043501139,0,1,-1000,0,0,1,-1,2,2,1500.0
16:40:56.155,STABILIZE,-35.3632621,149.1652375,0,-0.0010937137994915247,0.0009309158194810152,0.025191210210323334,0.00010497710900381207,0.00027073256205767393,0.0019004284404218197,0,1,-1000,0,0,0,-1,1,1,1500.0
16:40:56.358,STABILIZE,-35.3632621,149.1652375,0,-0.0012220687931403518,0.0009330911561846733,0.024877913296222687,9.822705760598183e-05,0.00027539057191461325,0.0018883509328588843,0,1,-1000,0,0,0,-1,1,1,1500.0
16:40:56.559,STABILIZE,-35.3632621,149.1652375,0,-0.0012340312823653221,0.0009313998743891716,0.02485097199678421,0.0002811504527926445,0.00016327790217474103,0.0018257388146594167,0,1,-1000,0,0,0,-1,1,1,1500.0
16:40:56.763,STABILIZE,-35.3632621,149.1652375,0,-0.0012340312823653221,0.0009313998743891716,0.02485097199678421,0.0002811504527926445,0.00016327790217474103,0.0018257388146594167,0,1,-1000,0,0,0,-1,1,1,1500.0
16:40:56.964,STABILIZE,-35.3632621,149.1652375,0,-0.0012340312823653221,0.0009313998743891716,0.02485097199678421,0.0002811504527926445,0.00016327790217474103,0.0018257388146594167,0,1,-1000,0,0,0,-1,1,1,1500.0
16:40:57.166,STABILIZE,-35.3632621,149.1652375,0,-0.0012340312823653221,0.0009313998743891716,0.02485097199678421,0.0002811504527926445,0.00016327790217474103,0.0018257388146594167,0,1,-1000,0,0,0,-1,1,1,1500.0
16:40:57.368,STABILIZE,-35.3632621,149.1652375,0,-0.0012340312823653221,0.0009313998743891716,0.02485097199678421,0.0002811504527926445,0.00016327790217474103,0.0018257388146594167,0,1,-1000,0,0,0,-1,1,1,1500.0
16:40:57.569,STABILIZE,-35.3632621,149.1652375,0,-0.0012340312823653221,0.0009313998743891716,0.02485097199678421,0.0002811504527926445,0.00016327790217474103,0.0018257388146594167,0,1,-1000,0,0,0,-1,1,1,1500.0
16:40:57.779,STABILIZE,-35.3632621,149.1652375,0,-0.0012618170585483313,0.0009544955100864172,0.02466742880642414,0.0002532057696953416,0.0002560190041549504,0.0018020484130829573,0,1,-1000,0,0,0,-1,1,1,1500.0
16:40:57.982,STABILIZE,-35.3632621,149.1652375,0,-0.0012618170585483313,0.0009544955100864172,0.02466742880642414,0.0002532057696953416,0.0002560190041549504,0.0018020484130829573,0,1,-1000,0,0,0,-1,1,1,1500.0
16:41:01.722,STABILIZE,-35.3632621,149.1652375,0,-0.0011273237178102136,0.0009678036440163851,0.024366065859794617,0.00012403837172314525,0.0002771014696918428,0.001880446681752801,0,1,-1000,1,1,0,-1,0,0,1500.0
16:41:01.924,STABILIZE,-35.3632621,149.1652375,4,-0.0011367725674062967,0.000969821703620255,0.024297788739204407,0.000190466467756778,0.00024811684852465987,0.0018329431768506765,0,2,-1000,0,0,0,-1,0,0,1500.0
16:41:02.126,AUTO,-35.3632621,149.1652375,5,-0.001130813267081976,0.0009796981466934085,0.024220416322350502,0.00014338362962007523,0.00022029632236808538,0.0018439701525494456,0,1,-1000,0,0,0,-1,0,0,1500.0
16:41:02.335,AUTO,-35.3632621,149.1652375,5,-0.001130813267081976,0.0009796981466934085,0.024220416322350502,0.00014338362962007523,0.00022029632236808538,0.0018439701525494456,0,1,-1000,0,0,0,-1,0,0,1500.0
16:41:02.537,AUTO,-35.3632621,149.1652375,5,-0.001130813267081976,0.0009796981466934085,0.024220416322350502,0.00014338362962007523,0.00022029632236808538,0.0018439701525494456,0,1,-1000,0,0,0,-1,0,0,1500.0
16:41:02.739,AUTO,-35.3632621,149.1652375,5,-0.001130813267081976,0.0009796981466934085,0.024220416322350502,0.00014338362962007523,0.00022029632236808538,0.0018439701525494456,0,1,-1000,0,0,0,-1,0,0,1500.0
16:41:02.944,AUTO,-35.3632621,149.1652375,5,-0.001130813267081976,0.0009796981466934085,0.024220416322350502,0.00014338362962007523,0.00022029632236808538,0.0018439701525494456,0,1,-1000,0,0,0,-1,0,0,1500.0
16:41:03.148,AUTO,-35.3632621,149.1652375,5,-0.001130813267081976,0.0009796981466934085,0.024220416322350502,0.00014338362962007523,0.00022029632236808538,0.0018439701525494456,0,1,-1000,0,0,0,-1,0,0,1500.0
16:41:03.350,AUTO,-35.3632621,149.1652375,5,-0.001130813267081976,0.0009796981466934085,0.024220416322350502,0.00014338362962007523,0.00022029632236808538,0.0018439701525494456,0,1,-1000,0,0,0,-1,0,0,1500.0
16:41:03.554,AUTO,-35.3632621,149.1652375,5,-0.001130813267081976,0.0009796981466934085,0.024220416322350502,0.00014338362962007523,0.00022029632236808538,0.0018439701525494456,0,1,-1000,0,0,0,-1,0,0,1500.0
16:41:03.756,AUTO,-35.3632621,149.1652375,5,-0.001130813267081976,0.0009796981466934085,0.024220416322350502,0.00014338362962007523,0.00022029632236808538,0.0018439701525494456,0,1,-1000,0,0,0,-1,0,0,1500.0
16:41:03.958,AUTO,-35.3632621,149.1652375,5,-0.001130813267081976,0.0009796981466934085,0.024220416322350502,0.00014338362962007523,0.00022029632236808538,0.0018439701525494456,0,1,-1000,0,0,0,-1,0,0,1500.0
16:41:04.160,AUTO,-35.3632621,149.1652375,9,-0.0009512377437204123,0.001247331383638084,0.02371155470609665,0.0002866729046218097,0.0002474379725754261,0.0018339843954890966,0,1,-1000,0,0,0,0,0,0,1500.0
16:41:04.363,AUTO,-35.3632621,149.1652375,9,-0.0009066073689609766,0.001320011680945754,0.023641236126422882,0.00021471414947882295,0.00023513881023973227,0.001671481877565384,0,1,-1000,1,0,0,0,0,0,1500.0
16:41:04.566,AUTO,-35.3632621,149.1652375,9,-0.0009066073689609766,0.001320011680945754,0.023641236126422882,0.00021471414947882295,0.00023513881023973227,0.001671481877565384,0,1,-1000,1,0,0,0,0,0,1500.0
16:41:04.768,AUTO,-35.3632621,149.1652375,9,-0.0009066073689609766,0.001320011680945754,0.023641236126422882,0.00021471414947882295,0.00023513881023973227,0.001671481877565384,0,1,-1000,1,0,0,0,0,0,1500.0
16:41:04.970,AUTO,-35.3632621,149.1652375,9,-0.0009066073689609766,0.001320011680945754,0.023641236126422882,0.00021471414947882295,0.00023513881023973227,0.001671481877565384,0,1,-1000,1,0,0,0,0,0,1500.0
16:41:05.173,AUTO,-35.3632621,149.1652375,9,-0.0009066073689609766,0.001320011680945754,0.023641236126422882,0.00021471414947882295,0.00023513881023973227,0.001671481877565384,0,1,-1000,1,0,0,0,0,0,1500.0
16:41:05.376,AUTO,-35.3632621,149.1652375,9,-0.0009066073689609766,0.001320011680945754,0.023641236126422882,0.00021471414947882295,0.00023513881023973227,0.001671481877565384,0,1,-1000,1,0,0,0,0,0,1500.0
16:41:05.578,AUTO,-35.3632621,149.1652375,9,-0.0009066073689609766,0.001320011680945754,0.023641236126422882,0.00021471414947882295,0.00023513881023973227,0.001671481877565384,0,1,-1000,1,0,0,0,0,0,1500.0
16:41:05.780,AUTO,-35.3632621,149.1652375,11,-0.0004747005004901439,0.0015227593248710036,0.02338285744190216,0.000294638448394835,0.0003016230184584856,0.0016488259425386786,0,2,-999,0,0,1,0,0,0,1500.0
16:41:05.982,AUTO,-35.3632621,149.1652375,79,0.0029916218481957912,-0.00034944229992106557,0.02291177771985531,0.0008346016984432936,-0.00039902899879962206,0.0013182673137634993,0,0,-1163,1,0,0,0,0,-45,1500.0
16:41:06.183,AUTO,-35.3632621,149.1652375,240,0.002655334770679474,0.0002760545175988227,0.023088229820132256,0.006133795715868473,0.004694882780313492,0.0032062181271612644,0,0,-1102,6,5,2,0,0,-79,1500.0
16:41:06.386,AUTO,-35.3632621,149.1652375,240,0.002655334770679474,0.0002760545175988227,0.023088229820132256,0.006133795715868473,0.004694882780313492,0.0032062181271612644,0,0,-1102,6,5,2,0,0,-79,1500.0
16:41:06.587,AUTO,-35.3632621,149.1652375,240,0.002655334770679474,0.0002760545175988227,0.023088229820132256,0.006133795715868473,0.004694882780313492,0.0032062181271612644,0,0,-1102,6,5,2,0,0,-79,1500.0
16:41:06.790,AUTO,-35.3632621,149.1652375,240,0.002655334770679474,0.0002760545175988227,0.023088229820132256,0.006133795715868473,0.004694882780313492,0.0032062181271612644,0,0,-1102,6,5,2,0,0,-79,1500.0
16:41:06.992,AUTO,-35.3632621,149.1652375,240,0.002655334770679474,0.0002760545175988227,0.023088229820132256,0.006133795715868473,0.004694882780313492,0.0032062181271612644,0,0,-1102,6,5,2,0,0,-79,1500.0
16:41:07.193,AUTO,-35.3632621,149.1652375,240,0.002655334770679474,0.0002760545175988227,0.023088229820132256,0.006133795715868473,0.004694882780313492,0.0032062181271612644,0,0,-1102,6,5,2,0,0,-79,1500.0
16:41:07.396,AUTO,-35.3632621,149.1652375,240,0.002655334770679474,0.0002760545175988227,0.023088229820132256,0.006133795715868473,0.004694882780313492,0.0032062181271612644,0,0,-1102,6,5,2,0,0,-79,1500.0
16:41:07.598,AUTO,-35.3632621,149.1652375,240,0.002655334770679474,0.0002760545175988227,0.023088229820132256,0.006133795715868473,0.004694882780313492,0.0032062181271612644,0,0,-1102,6,5,2,0,0,-79,1500.0
16:41:07.800,AUTO,-35.363262,149.1652376,2166,0.03247429057955742,-0.002213974017649889,0.022301651537418365,0.04516250640153885,-0.00750237051397562,0.0029027529526501894,0,-1,-1004,45,-6,2,1,10,-149,1500.0
16:41:08.001,AUTO,-35.3632619,149.165238,2553,0.04343497008085251,-0.004388642031699419,0.02243342064321041,0.04290259629487991,-0.008926206268370152,0.0032318546436727047,0,-2,-1001,43,-8,2,2,18,-150,1500.0
16:41:08.203,AUTO,-35.3632618,149.1652386,2940,0.05372488871216774,-0.006873734761029482,-0.00514136953279376,0.03967373073101044,-0.010796844959259033,0.0037585238460451365,0,-4,-1000,40,-10,3,4,29,-150,1500.0
16:41:08.405,AUTO,-35.3632618,149.1652386,2940,0.05372488871216774,-0.006873734761029482,-0.00514136953279376,0.03967373073101044,-0.010796844959259033,0.0037585238460451365,0,-4,-1000,40,-10,3,4,29,-150,1500.0
16:41:08.607,AUTO,-35.3632618,149.1652386,2940,0.05372488871216774,-0.006873734761029482,-0.00514136953279376,0.03967373073101044,-0.010796844959259033,0.0037585238460451365,0,-4,-1000,40,-10,3,4,29,-150,1500.0
16:41:08.809,AUTO,-35.3632618,149.1652386,2940,0.05372488871216774,-0.006873734761029482,-0.00514136953279376,0.03967373073101044,-0.010796844959259033,0.0037585238460451365,0,-4,-1000,40,-10,3,4,29,-150,1500.0
16:41:09.010,AUTO,-35.3632618,149.1652386,2940,0.05372488871216774,-0.006873734761029482,-0.00514136953279376,0.03967373073101044,-0.010796844959259033,0.0037585238460451365,0,-4,-1000,40,-10,3,4,29,-150,1500.0
16:41:09.212,AUTO,-35.3632618,149.1652386,2940,0.05372488871216774,-0.006873734761029482,-0.00514136953279376,0.03967373073101044,-0.010796844959259033,0.0037585238460451365,0,-4,-1000,40,-10,3,4,29,-150,1500.0
16:41:09.413,AUTO,-35.3632618,149.1652386,2940,0.05372488871216774,-0.006873734761029482,-0.00514136953279376,0.03967373073101044,-0.010796844959259033,0.0037585238460451365,0,-4,-1000,40,-10,3,4,29,-150,1500.0
16:41:09.615,AUTO,-35.3632618,149.1652386,2940,0.05372488871216774,-0.006873734761029482,-0.00514136953279376,0.03967373073101044,-0.010796844959259033,0.0037585238460451365,0,-4,-1000,40,-10,3,4,29,-150,1500.0
16:41:09.817,AUTO,-35.363261,149.1652452,5236,-0.06640968471765518,0.009832505136728287,-0.08611533045768738,0.002537510357797146,-0.04590170457959175,-0.013894994743168354,3,-3,-1006,3,-45,-14,-3,12,-150,1500.0
16:41:10.018,AUTO,-35.363261,149.1652454,5624,-0.06336769461631775,-0.0017022499814629555,-0.08564785867929459,0.014867384918034077,-0.04136556386947632,0.0010178348748013377,1,0,-1001,15,-40,0,-4,-4,-151,1500.0
16:41:10.219,AUTO,-35.3632611,149.165245,6012,-0.0582309328019619,-0.006764937192201614,-0.08672982454299927,0.02853521704673767,-0.003395237261429429,-0.012078129686415195,0,3,-1000,29,-2,-12,-4,-19,-150,1500.0
16:41:10.421,AUTO,-35.3632611,149.165245,6012,-0.0582309328019619,-0.006764937192201614,-0.08672982454299927,0.02853521704673767,-0.003395237261429429,-0.012078129686415195,0,3,-1000,29,-2,-12,-4,-19,-150,1500.0
16:41:10.622,AUTO,-35.3632611,149.165245,6012,-0.0582309328019619,-0.006764937192201614,-0.08672982454299927,0.02853521704673767,-0.003395237261429429,-0.012078129686415195,0,3,-1000,29,-2,-12,-4,-19,-150,1500.0
16:41:10.824,AUTO,-35.3632611,149.165245,6012,-0.0582309328019619,-0.006764937192201614,-0.08672982454299927,0.02853521704673767,-0.003395237261429429,-0.012078129686415195,0,3,-1000,29,-2,-12,-4,-19,-150,1500.0
16:41:11.025,AUTO,-35.3632611,149.165245,6012,-0.0582309328019619,-0.006764937192201614,-0.08672982454299927,0.02853521704673767,-0.003395237261429429,-0.012078129686415195,0,3,-1000,29,-2,-12,-4,-19,-150,1500.0
16:41:11.227,AUTO,-35.3632611,149.165245,6012,-0.0582309328019619,-0.006764937192201614,-0.08672982454299927,0.02853521704673767,-0.003395237261429429,-0.012078129686415195,0,3,-1000,29,-2,-12,-4,-19,-150,1500.0
16:41:11.429,AUTO,-35.3632611,149.165245,6012,-0.0582309328019619,-0.006764937192201614,-0.08672982454299927,0.02853521704673767,-0.003395237261429429,-0.012078129686415195,0,3,-1000,29,-2,-12,-4,-19,-150,1500.0
16:41:11.631,AUTO,-35.3632611,149.165245,6012,-0.0582309328019619,-0.006764937192201614,-0.08672982454299927,0.02853521704673767,-0.003395237261429429,-0.012078129686415195,0,3,-1000,29,-2,-12,-4,-19,-150,1500.0
16:41:11.835,AUTO,-35.3632615,149.1652396,7955,0.010954034514725208,0.0005696958396583796,-0.09482908248901367,0.05124279856681824,0.01052438747137785,0.00039957472472451627,-5,9,-1002,62,8,0,-4,-44,-152,1500.0
16:41:12.037,AUTO,-35.3632617,149.1652374,8737,0.024058518931269646,0.0014859585789963603,-0.09142988175153732,0.011999084614217281,-0.002424417994916439,0.008302252739667892,-3,7,-1000,12,-1,7,-5,-31,-152,1500.0
16:41:12.239,AUTO,-35.3632619,149.1652365,9128,0.02496536821126938,0.000670145615004003,-0.08878988027572632,-0.0002867947914637625,-0.004262718837708235,0.01217165868729353,-2,6,-999,0,-3,11,-5,-24,-152,1500.0
16:41:12.441,AUTO,-35.3632619,149.1652365,9128,0.02496536821126938,0.000670145615004003,-0.08878988027572632,-0.0002867947914637625,-0.004262718837708235,0.01217165868729353,-2,6,-999,0,-3,11,-5,-24,-152,1500.0
16:41:12.643,AUTO,-35.3632619,149.1652365,9128,0.02496536821126938,0.000670145615004003,-0.08878988027572632,-0.0002867947914637625,-0.004262718837708235,0.01217165868729353,-2,6,-999,0,-3,11,-5,-24,-152,1500.0
16:41:12.847,AUTO,-35.3632619,149.1652365,9128,0.02496536821126938,0.000670145615004003,-0.08878988027572632,-0.0002867947914637625,-0.004262718837708235,0.01217165868729353,-2,6,-999,0,-3,11,-5,-24,-152,1500.0
16:41:13.050,AUTO,-35.3632619,149.1652365,9128,0.02496536821126938,0.000670145615004003,-0.08878988027572632,-0.0002867947914637625,-0.004262718837708235,0.01217165868729353,-2,6,-999,0,-3,11,-5,-24,-152,1500.0
16:41:13.251,AUTO,-35.3632619,149.1652365,9128,0.02496536821126938,0.000670145615004003,-0.08878988027572632,-0.0002867947914637625,-0.004262718837708235,0.01217165868729353,-2,6,-999,0,-3,11,-5,-24,-152,1500.0
16:41:13.453,AUTO,-35.3632619,149.1652365,9128,0.02496536821126938,0.000670145615004003,-0.08878988027572632,-0.0002867947914637625,-0.004262718837708235,0.01217165868729353,-2,6,-999,0,-3,11,-5,-24,-152,1500.0
16:41:13.655,AUTO,-35.3632619,149.1652365,9128,0.02496536821126938,0.000670145615004003,-0.08878988027572632,-0.0002867947914637625,-0.004262718837708235,0.01217165868729353,-2,6,-999,0,-3,11,-5,-24,-152,1500.0
16:41:13.858,AUTO,-35.3632623,149.1652348,11070,0.011959667317569256,-0.0019462599884718657,-0.0873132199048996,-0.011806187219917774,-3.9397215005010366e-05,-0.008055146783590317,0,1,-1000,-11,0,-8,-1,-1,-152,1500.0
16:41:14.059,AUTO,-35.3632623,149.1652347,11848,0.006552713457494974,-0.0009802747517824173,-0.09440083056688309,-0.0056070368736982346,0.0024426556192338467,-0.01387836690992117,0,0,-1001,-4,3,-14,0,1,-152,1500.0
16:41:14.261,AUTO,-35.3632623,149.1652347,12237,0.005070697050541639,-0.00044382893247529864,-0.09877509623765945,-0.004326759837567806,0.0023660201113671064,-0.015750152990221977,0,0,-1000,-3,2,-16,1,2,-152,1500.0
16:41:14.462,AUTO,-35.3632623,149.1652347,12237,0.005070697050541639,-0.00044382893247529864,-0.09877509623765945,-0.004326759837567806,0.0023660201113671064,-0.015750152990221977,0,0,-1000,-3,2,-16,1,2,-152,1500.0
16:41:14.663,AUTO,-35.3632623,149.1652347,12237,0.005070697050541639,-0.00044382893247529864,-0.09877509623765945,-0.004326759837567806,0.0023660201113671064,-0.015750152990221977,0,0,-1000,-3,2,-16,1,2,-152,1500.0
16:41:14.865,AUTO,-35.3632623,149.1652347,12237,0.005070697050541639,-0.00044382893247529864,-0.09877509623765945,-0.004326759837567806,0.0023660201113671064,-0.015750152990221977,0,0,-1000,-3,2,-16,1,2,-152,1500.0
16:41:15.067,AUTO,-35.3632623,149.1652347,12237,0.005070697050541639,-0.00044382893247529864,-0.09877509623765945,-0.004326759837567806,0.0023660201113671064,-0.015750152990221977,0,0,-1000,-3,2,-16,1,2,-152,1500.0
16:41:15.272,AUTO,-35.3632623,149.1652347,12237,0.005070697050541639,-0.00044382893247529864,-0.09877509623765945,-0.004326759837567806,0.0023660201113671064,-0.015750152990221977,0,0,-1000,-3,2,-16,1,2,-152,1500.0
16:41:15.473,AUTO,-35.3632623,149.1652347,12237,0.005070697050541639,-0.00044382893247529864,-0.09877509623765945,-0.004326759837567806,0.0023660201113671064,-0.015750152990221977,0,0,-1000,-3,2,-16,1,2,-152,1500.0
16:41:15.677,AUTO,-35.3632623,149.1652347,12237,0.005070697050541639,-0.00044382893247529864,-0.09877509623765945,-0.004326759837567806,0.0023660201113671064,-0.015750152990221977,0,0,-1000,-3,2,-16,1,2,-152,1500.0
16:41:15.879,AUTO,-35.363262,149.1652349,14578,0.004685255233198404,0.0034435223788022995,-0.1294102519750595,0.001427522860467434,0.00274064764380455,-0.01865355484187603,0,-1,-1000,2,3,-19,2,3,-153,1500.0
16:41:16.080,AUTO,-35.3632619,149.1652349,14969,0.00490142498165369,0.004050718154758215,-0.1346556544303894,0.001271694665774703,0.002547516720369458,-0.018800856545567513,0,0,-1000,2,3,-19,1,3,-153,1500.0
16:41:16.281,AUTO,-35.3632619,149.165235,15359,0.00510449567809701,0.004607277922332287,-0.13983112573623657,0.0011528469622135162,0.0023587425239384174,-0.018797827884554863,0,-1,-1000,1,3,-19,1,4,-153,1500.0
16:41:16.483,AUTO,-35.3632619,149.165235,15359,0.00510449567809701,0.004607277922332287,-0.13983112573623657,0.0011528469622135162,0.0023587425239384174,-0.018797827884554863,0,-1,-1000,1,3,-19,1,4,-153,1500.0
16:41:16.685,AUTO,-35.3632619,149.165235,15359,0.00510449567809701,0.004607277922332287,-0.13983112573623657,0.0011528469622135162,0.0023587425239384174,-0.018797827884554863,0,-1,-1000,1,3,-19,1,4,-153,1500.0
16:41:16.886,AUTO,-35.3632619,149.165235,15359,0.00510449567809701,0.004607277922332287,-0.13983112573623657,0.0011528469622135162,0.0023587425239384174,-0.018797827884554863,0,-1,-1000,1,3,-19,1,4,-153,1500.0
16:41:17.087,AUTO,-35.3632619,149.165235,15359,0.00510449567809701,0.004607277922332287,-0.13983112573623657,0.0011528469622135162,0.0023587425239384174,-0.018797827884554863,0,-1,-1000,1,3,-19,1,4,-153,1500.0
16:41:17.289,AUTO,-35.3632619,149.165235,15359,0.00510449567809701,0.004607277922332287,-0.13983112573623657,0.0011528469622135162,0.0023587425239384174,-0.018797827884554863,0,-1,-1000,1,3,-19,1,4,-153,1500.0
16:41:17.494,AUTO,-35.3632619,149.165235,15359,0.00510449567809701,0.004607277922332287,-0.13983112573623657,0.0011528469622135162,0.0023587425239384174,-0.018797827884554863,0,-1,-1000,1,3,-19,1,4,-153,1500.0
16:41:17.695,AUTO,-35.3632619,149.165235,15359,0.00510449567809701,0.004607277922332287,-0.13983112573623657,0.0011528469622135162,0.0023587425239384174,-0.018797827884554863,0,-1,-1000,1,3,-19,1,4,-153,1500.0
16:41:17.897,AUTO,-35.3632617,149.1652355,17707,0.004124816507101059,0.0055262562818825245,-0.16950656473636627,0.0004240299458615482,-0.0008432483300566673,-0.01927451230585575,0,0,-1000,1,0,-19,-2,5,-153,1500.0
16:41:18.099,AUTO,-35.3632616,149.1652356,18098,0.0038421321660280228,0.005227539222687483,-0.17399778962135315,0.000511993421241641,-0.0006047144415788352,-0.01759492978453636,0,0,-1000,1,0,-18,-2,5,-153,1500.0
16:41:18.302,AUTO,-35.3632616,149.1652357,18490,0.00320400926284492,0.00482159061357379,-0.17837832868099213,-0.002726311795413494,-0.0005620194133371115,-0.017454322427511215,0,0,-1000,-2,0,-18,-2,6,-153,1500.0
16:41:18.504,AUTO,-35.3632616,149.1652357,18490,0.00320400926284492,0.00482159061357379,-0.17837832868099213,-0.002726311795413494,-0.0005620194133371115,-0.017454322427511215,0,0,-1000,-2,0,-18,-2,6,-153,1500.0
16:41:18.708,AUTO,-35.3632616,149.1652357,18490,0.00320400926284492,0.00482159061357379,-0.17837832868099213,-0.002726311795413494,-0.0005620194133371115,-0.017454322427511215,0,0,-1000,-2,0,-18,-2,6,-153,1500.0
16:41:18.910,AUTO,-35.3632616,149.1652357,18490,0.00320400926284492,0.00482159061357379,-0.17837832868099213,-0.002726311795413494,-0.0005620194133371115,-0.017454322427511215,0,0,-1000,-2,0,-18,-2,6,-153,1500.0
16:41:19.111,AUTO,-35.3632616,149.1652357,18490,0.00320400926284492,0.00482159061357379,-0.17837832868099213,-0.002726311795413494,-0.0005620194133371115,-0.017454322427511215,0,0,-1000,-2,0,-18,-2,6,-153,1500.0
16:41:19.314,AUTO,-35.3632616,149.1652357,18490,0.00320400926284492,0.00482159061357379,-0.17837832868099213,-0.002726311795413494,-0.0005620194133371115,-0.017454322427511215,0,0,-1000,-2,0,-18,-2,6,-153,1500.0
16:41:19.516,AUTO,-35.3632616,149.1652357,18490,0.00320400926284492,0.00482159061357379,-0.17837832868099213,-0.002726311795413494,-0.0005620194133371115,-0.017454322427511215,0,0,-1000,-2,0,-18,-2,6,-153,1500.0
16:41:19.719,AUTO,-35.3632616,149.1652357,18490,0.00320400926284492,0.00482159061357379,-0.17837832868099213,-0.002726311795413494,-0.0005620194133371115,-0.017454322427511215,0,0,-1000,-2,0,-18,-2,6,-153,1500.0
16:41:19.921,AUTO,-35.3632617,149.1652361,19893,0.002008505631238222,0.004117298871278763,-0.1949516236782074,-0.0005015271017327905,-0.0006803101277910173,-0.02226056158542633,0,0,-1000,0,0,-17,-3,5,-153,1500.0
16:41:20.124,AUTO,-35.3632617,149.1652365,21457,0.0018125235801562667,0.003234671428799629,-0.21371233463287354,0.002039757091552019,-0.0010240424890071154,-0.019258223474025726,0,0,-1000,2,0,-19,-3,4,-153,1500.0
16:41:20.325,AUTO,-35.3632617,149.1652365,21457,0.0018125235801562667,0.003234671428799629,-0.21371233463287354,0.002039757091552019,-0.0010240424890071154,-0.019258223474025726,0,0,-1000,2,0,-19,-3,4,-153,1500.0
16:41:20.528,AUTO,-35.3632617,149.1652365,21457,0.0018125235801562667,0.003234671428799629,-0.21371233463287354,0.002039757091552019,-0.0010240424890071154,-0.019258223474025726,0,0,-1000,2,0,-19,-3,4,-153,1500.0
16:41:20.730,AUTO,-35.3632617,149.1652365,21457,0.0018125235801562667,0.003234671428799629,-0.21371233463287354,0.002039757091552019,-0.0010240424890071154,-0.019258223474025726,0,0,-1000,2,0,-19,-3,4,-153,1500.0
16:41:20.931,AUTO,-35.3632617,149.1652365,21457,0.0018125235801562667,0.003234671428799629,-0.21371233463287354,0.002039757091552019,-0.0010240424890071154,-0.019258223474025726,0,0,-1000,2,0,-19,-3,4,-153,1500.0
16:41:21.133,AUTO,-35.3632617,149.1652365,21457,0.0018125235801562667,0.003234671428799629,-0.21371233463287354,0.002039757091552019,-0.0010240424890071154,-0.019258223474025726,0,0,-1000,2,0,-19,-3,4,-153,1500.0
16:41:21.335,AUTO,-35.3632617,149.1652365,21457,0.0018125235801562667,0.003234671428799629,-0.21371233463287354,0.002039757091552019,-0.0010240424890071154,-0.019258223474025726,0,0,-1000,2,0,-19,-3,4,-153,1500.0
16:41:21.537,AUTO,-35.3632617,149.1652365,21457,0.0018125235801562667,0.003234671428799629,-0.21371233463287354,0.002039757091552019,-0.0010240424890071154,-0.019258223474025726,0,0,-1000,2,0,-19,-3,4,-153,1500.0
16:41:21.738,AUTO,-35.3632618,149.1652367,23412,0.0020234009716659784,0.002810082631185651,-0.2377142608165741,0.0010443952633067966,-0.0007232501520775259,-0.019839942455291748,0,0,-1000,1,0,-20,-2,3,-154,1500.0
16:41:21.940,AUTO,-35.3632619,149.1652368,24194,0.0020382206421345472,0.0026812031865119934,-0.24722856283187866,0.00242340168915689,-6.382045103237033e-05,-0.01732991635799408,0,0,-1000,3,0,-17,-2,3,-154,1500.0
16:41:22.142,AUTO,-35.3632619,149.1652368,24585,0.002337090438231826,0.0025341196451336145,-0.25195959210395813,0.0014784149825572968,-0.0006937658181414008,-0.019702043384313583,0,0,-1000,2,0,-20,-2,2,-154,1500.0
16:41:22.343,AUTO,-35.3632619,149.1652368,24585,0.002337090438231826,0.0025341196451336145,-0.25195959210395813,0.0014784149825572968,-0.0006937658181414008,-0.019702043384313583,0,0,-1000,2,0,-20,-2,2,-154,1500.0
16:41:22.546,AUTO,-35.3632619,149.1652368,24585,0.002337090438231826,0.0025341196451336145,-0.25195959210395813,0.0014784149825572968,-0.0006937658181414008,-0.019702043384313583,0,0,-1000,2,0,-20,-2,2,-154,1500.0
16:41:22.748,AUTO,-35.3632619,149.1652368,24585,0.002337090438231826,0.0025341196451336145,-0.25195959210395813,0.0014784149825572968,-0.0006937658181414008,-0.019702043384313583,0,0,-1000,2,0,-20,-2,2,-154,1500.0
16:41:22.951,AUTO,-35.3632619,149.1652368,24585,0.002337090438231826,0.0025341196451336145,-0.25195959210395813,0.0014784149825572968,-0.0006937658181414008,-0.019702043384313583,0,0,-1000,2,0,-20,-2,2,-154,1500.0
16:41:23.153,AUTO,-35.3632619,149.1652368,24585,0.002337090438231826,0.0025341196451336145,-0.25195959210395813,0.0014784149825572968,-0.0006937658181414008,-0.019702043384313583,0,0,-1000,2,0,-20,-2,2,-154,1500.0
16:41:23.355,AUTO,-35.3632619,149.1652368,24585,0.002337090438231826,0.0025341196451336145,-0.25195959210395813,0.0014784149825572968,-0.0006937658181414008,-0.019702043384313583,0,0,-1000,2,0,-20,-2,2,-154,1500.0
16:41:23.556,AUTO,-35.3632619,149.1652368,24585,0.002337090438231826,0.0025341196451336145,-0.25195959210395813,0.0014784149825572968,-0.0006937658181414008,-0.019702043384313583,0,0,-1000,2,0,-20,-2,2,-154,1500.0
16:41:23.758,AUTO,-35.3632621,149.1652368,26141,0.002113079186528921,0.004631405230611563,-0.24608291685581207,0.03035433404147625,-0.0040039862506091595,0.02585739642381668,0,0,-1001,31,-3,25,-5,-2,-154,1500.0
16:41:23.960,AUTO,-35.3632623,149.1652366,27322,0.011332575231790543,0.0015238008927553892,-0.22582580149173737,-0.0031719529069960117,-0.0008718480239622295,0.024850089102983475,0,0,-999,-2,0,24,-4,3,-153,1500.0
16:41:24.163,AUTO,-35.3632624,149.1652366,27712,0.010506260208785534,0.0012284531258046627,-0.21967005729675293,-0.0021664428059011698,0.0005372219020500779,0.02421554923057556,0,0,-999,-1,1,23,-3,5,-153,1500.0
16:41:24.364,AUTO,-35.3632624,149.1652366,27712,0.010506260208785534,0.0012284531258046627,-0.21967005729675293,-0.0021664428059011698,0.0005372219020500779,0.02421554923057556,0,0,-999,-1,1,23,-3,5,-153,1500.0
16:41:24.566,AUTO,-35.3632624,149.1652366,27712,0.010506260208785534,0.0012284531258046627,-0.21967005729675293,-0.0021664428059011698,0.0005372219020500779,0.02421554923057556,0,0,-999,-1,1,23,-3,5,-153,1500.0
16:41:24.768,AUTO,-35.3632624,149.1652366,27712,0.010506260208785534,0.0012284531258046627,-0.21967005729675293,-0.0021664428059011698,0.0005372219020500779,0.02421554923057556,0,0,-999,-1,1,23,-3,5,-153,1500.0
16:41:24.970,AUTO,-35.3632624,149.1652366,27712,0.010506260208785534,0.0012284531258046627,-0.21967005729675293,-0.0021664428059011698,0.0005372219020500779,0.02421554923057556,0,0,-999,-1,1,23,-3,5,-153,1500.0
16:41:25.171,AUTO,-35.3632624,149.1652366,27712,0.010506260208785534,0.0012284531258046627,-0.21967005729675293,-0.0021664428059011698,0.0005372219020500779,0.02421554923057556,0,0,-999,-1,1,23,-3,5,-153,1500.0
16:41:25.373,AUTO,-35.3632624,149.1652366,27712,0.010506260208785534,0.0012284531258046627,-0.21967005729675293,-0.0021664428059011698,0.0005372219020500779,0.02421554923057556,0,0,-999,-1,1,23,-3,5,-153,1500.0
16:41:25.574,AUTO,-35.3632624,149.1652366,27712,0.010506260208785534,0.0012284531258046627,-0.21967005729675293,-0.0021664428059011698,0.0005372219020500779,0.02421554923057556,0,0,-999,-1,1,23,-3,5,-153,1500.0
16:41:25.776,AUTO,-35.3632624,149.1652366,27712,0.010506260208785534,0.0012284531258046627,-0.21967005729675293,-0.0021664428059011698,0.0005372219020500779,0.02421554923057556,0,0,-999,-1,1,23,-3,5,-153,1500.0
16:41:25.979,AUTO,-35.3632624,149.1652377,30435,-0.0006365342997014523,0.0019882437773048878,-0.18412648141384125,-0.002176943002268672,-0.001161134336143732,0.017918117344379425,0,-1,-1001,-1,0,17,0,6,-153,1500.0
16:41:26.181,AUTO,-35.3632624,149.1652378,30824,-0.000736564863473177,0.0017825361574068666,-0.17952769994735718,0.00222559692338109,-9.767682058736682e-05,0.02045406587421894,0,-1,-1000,2,0,20,0,5,-153,1500.0
16:41:26.383,AUTO,-35.3632624,149.1652378,30824,-0.000736564863473177,0.0017825361574068666,-0.17952769994735718,0.00222559692338109,-9.767682058736682e-05,0.02045406587421894,0,-1,-1000,2,0,20,0,5,-153,1500.0
16:41:26.585,AUTO,-35.3632624,149.1652378,30824,-0.000736564863473177,0.0017825361574068666,-0.17952769994735718,0.00222559692338109,-9.767682058736682e-05,0.02045406587421894,0,-1,-1000,2,0,20,0,5,-153,1500.0
16:41:26.786,AUTO,-35.3632624,149.1652378,30824,-0.000736564863473177,0.0017825361574068666,-0.17952769994735718,0.00222559692338109,-9.767682058736682e-05,0.02045406587421894,0,-1,-1000,2,0,20,0,5,-153,1500.0
16:41:26.988,AUTO,-35.3632624,149.1652378,30824,-0.000736564863473177,0.0017825361574068666,-0.17952769994735718,0.00222559692338109,-9.767682058736682e-05,0.02045406587421894,0,-1,-1000,2,0,20,0,5,-153,1500.0
16:41:27.190,AUTO,-35.3632624,149.1652378,30824,-0.000736564863473177,0.0017825361574068666,-0.17952769994735718,0.00222559692338109,-9.767682058736682e-05,0.02045406587421894,0,-1,-1000,2,0,20,0,5,-153,1500.0
16:41:27.392,AUTO,-35.3632624,149.1652378,30824,-0.000736564863473177,0.0017825361574068666,-0.17952769994735718,0.00222559692338109,-9.767682058736682e-05,0.02045406587421894,0,-1,-1000,2,0,20,0,5,-153,1500.0
16:41:27.595,AUTO,-35.3632624,149.1652378,30824,-0.000736564863473177,0.0017825361574068666,-0.17952769994735718,0.00222559692338109,-9.767682058736682e-05,0.02045406587421894,0,-1,-1000,2,0,20,0,5,-153,1500.0
16:41:27.798,AUTO,-35.3632623,149.1652381,32382,-0.0005595679976977408,0.0013941266806796193,-0.16309285163879395,0.0024118328001350164,0.000394160277210176,0.016895979642868042,0,0,-1000,3,1,16,0,2,-153,1500.0
16:41:28.001,AUTO,-35.3632623,149.165238,33552,0.0007226949674077332,0.0012549139792099595,-0.1527831256389618,0.001180314808152616,0.00047458807239308953,0.012536919675767422,0,0,-1000,1,1,12,0,0,-153,1500.0
16:41:28.203,AUTO,-35.3632623,149.165238,33941,0.001080741174519062,0.0013989312574267387,-0.14955532550811768,-0.00028653861954808235,-0.00028729240875691175,0.01269547175616026,0,0,-1000,0,0,12,0,0,-153,1500.0
16:41:28.407,AUTO,-35.3632623,149.165238,33941,0.001080741174519062,0.0013989312574267387,-0.14955532550811768,-0.00028653861954808235,-0.00028729240875691175,0.01269547175616026,0,0,-1000,0,0,12,0,0,-153,1500.0
16:41:28.611,AUTO,-35.3632623,149.165238,33941,0.001080741174519062,0.0013989312574267387,-0.14955532550811768,-0.00028653861954808235,-0.00028729240875691175,0.01269547175616026,0,0,-1000,0,0,12,0,0,-153,1500.0
16:41:28.813,AUTO,-35.3632623,149.165238,33941,0.001080741174519062,0.0013989312574267387,-0.14955532550811768,-0.00028653861954808235,-0.00028729240875691175,0.01269547175616026,0,0,-1000,0,0,12,0,0,-153,1500.0
16:41:29.015,AUTO,-35.3632623,149.165238,33941,0.001080741174519062,0.0013989312574267387,-0.14955532550811768,-0.00028653861954808235,-0.00028729240875691175,0.01269547175616026,0,0,-1000,0,0,12,0,0,-153,1500.0
16:41:29.217,AUTO,-35.3632623,149.165238,33941,0.001080741174519062,0.0013989312574267387,-0.14955532550811768,-0.00028653861954808235,-0.00028729240875691175,0.01269547175616026,0,0,-1000,0,0,12,0,0,-153,1500.0
16:41:29.419,AUTO,-35.3632623,149.165238,33941,0.001080741174519062,0.0013989312574267387,-0.14955532550811768,-0.00028653861954808235,-0.00028729240875691175,0.01269547175616026,0,0,-1000,0,0,12,0,0,-153,1500.0
16:41:29.621,AUTO,-35.3632623,149.165238,33941,0.001080741174519062,0.0013989312574267387,-0.14955532550811768,-0.00028653861954808235,-0.00028729240875691175,0.01269547175616026,0,0,-1000,0,0,12,0,0,-153,1500.0
16:41:29.825,AUTO,-35.3632622,149.1652379,35499,0.0012764225248247385,0.0011836560443043709,-0.13721121847629547,0.001112491125240922,-0.0002301430213265121,0.013775373809039593,0,0,-1000,2,0,13,0,0,-153,1500.0
16:41:30.027,AUTO,-35.3632622,149.1652379,36672,0.0012389705516397953,0.0014680461026728153,-0.12903980910778046,0.0019026102963835,-5.23031922057271e-05,0.00913191121071577,0,0,-1001,2,0,9,0,0,-153,1500.0
16:41:30.229,AUTO,-35.3632622,149.1652378,37062,0.0011621493613347411,0.001385241630487144,-0.1266535222530365,-0.0035003875382244587,-0.00028233660850673914,0.010317910462617874,0,0,-1000,-2,0,10,0,0,-153,1500.0
16:41:30.436,AUTO,-35.3632622,149.1652378,37062,0.0011621493613347411,0.001385241630487144,-0.1266535222530365,-0.0035003875382244587,-0.00028233660850673914,0.010317910462617874,0,0,-1000,-2,0,10,0,0,-153,1500.0
16:41:30.638,AUTO,-35.3632622,149.1652378,37062,0.0011621493613347411,0.001385241630487144,-0.1266535222530365,-0.0035003875382244587,-0.00028233660850673914,0.010317910462617874,0,0,-1000,-2,0,10,0,0,-153,1500.0
16:41:30.839,AUTO,-35.3632622,149.1652378,37062,0.0011621493613347411,0.001385241630487144,-0.1266535222530365,-0.0035003875382244587,-0.00028233660850673914,0.010317910462617874,0,0,-1000,-2,0,10,0,0,-153,1500.0
16:41:31.041,AUTO,-35.3632622,149.1652378,37062,0.0011621493613347411,0.001385241630487144,-0.1266535222530365,-0.0035003875382244587,-0.00028233660850673914,0.010317910462617874,0,0,-1000,-2,0,10,0,0,-153,1500.0
16:41:31.242,AUTO,-35.3632622,149.1652378,37062,0.0011621493613347411,0.001385241630487144,-0.1266535222530365,-0.0035003875382244587,-0.00028233660850673914,0.010317910462617874,0,0,-1000,-2,0,10,0,0,-153,1500.0
16:41:31.444,AUTO,-35.3632622,149.1652378,37062,0.0011621493613347411,0.001385241630487144,-0.1266535222530365,-0.0035003875382244587,-0.00028233660850673914,0.010317910462617874,0,0,-1000,-2,0,10,0,0,-153,1500.0
16:41:31.647,AUTO,-35.3632622,149.1652378,37062,0.0011621493613347411,0.001385241630487144,-0.1266535222530365,-0.0035003875382244587,-0.00028233660850673914,0.010317910462617874,0,0,-1000,-2,0,10,0,0,-153,1500.0
16:41:31.849,AUTO,-35.3632621,149.1652376,39395,0.002516187261790037,0.00167485186830163,-0.11361365020275116,-0.0016229479806497693,0.0006467853090725839,0.00838244054466486,0,0,-1000,1,0,6,0,0,-153,1500.0
16:41:32.051,AUTO,-35.3632621,149.1652376,39785,0.002329102484509349,0.0015627425163984299,-0.111632339656353,0.002207343000918627,0.0004422636120580137,0.010036141611635685,0,0,-1000,3,1,10,0,0,-153,1500.0
16:41:32.253,AUTO,-35.3632621,149.1652375,40174,0.00212642690166831,0.0014248690567910671,-0.10971744358539581,-0.0026003497187048197,-0.00031793740345165133,0.005718644708395004,0,0,-1000,-1,0,5,0,0,-153,1500.0
16:41:32.454,AUTO,-35.3632621,149.1652375,40174,0.00212642690166831,0.0014248690567910671,-0.10971744358539581,-0.0026003497187048197,-0.00031793740345165133,0.005718644708395004,0,0,-1000,-1,0,5,0,0,-153,1500.0
16:41:32.660,AUTO,-35.3632621,149.1652375,40174,0.00212642690166831,0.0014248690567910671,-0.10971744358539581,-0.0026003497187048197,-0.00031793740345165133,0.005718644708395004,0,0,-1000,-1,0,5,0,0,-153,1500.0
16:41:32.862,AUTO,-35.3632621,149.1652375,40174,0.00212642690166831,0.0014248690567910671,-0.10971744358539581,-0.0026003497187048197,-0.00031793740345165133,0.005718644708395004,0,0,-1000,-1,0,5,0,0,-153,1500.0
16:41:33.064,AUTO,-35.3632621,149.1652375,40174,0.00212642690166831,0.0014248690567910671,-0.10971744358539581,-0.0026003497187048197,-0.00031793740345165133,0.005718644708395004,0,0,-1000,-1,0,5,0,0,-153,1500.0
16:41:33.267,AUTO,-35.3632621,149.1652375,40174,0.00212642690166831,0.0014248690567910671,-0.10971744358539581,-0.0026003497187048197,-0.00031793740345165133,0.005718644708395004,0,0,-1000,-1,0,5,0,0,-153,1500.0
16:41:33.469,AUTO,-35.3632621,149.1652375,40174,0.00212642690166831,0.0014248690567910671,-0.10971744358539581,-0.0026003497187048197,-0.00031793740345165133,0.005718644708395004,0,0,-1000,-1,0,5,0,0,-153,1500.0
16:41:33.671,AUTO,-35.3632621,149.1652375,40174,0.00212642690166831,0.0014248690567910671,-0.10971744358539581,-0.0026003497187048197,-0.00031793740345165133,0.005718644708395004,0,0,-1000,-1,0,5,0,0,-153,1500.0
16:41:33.873,AUTO,-35.3632621,149.1652375,41343,0.0017175573157146573,0.0017526202136650681,-0.104584239423275,-0.002465837635099888,-0.00036111532244831324,0.006844221614301205,0,0,-1000,-1,0,6,-1,0,-153,1500.0
16:41:37.272,AUTO,-35.363262,149.1652374,42902,0.0017689437372609973,0.0015379852848127484,-0.09786635637283325,6.214657332748175e-05,0.0004060101928189397,0.007929040119051933,0,0,-1000,0,1,7,-1,0,-153,1500.0
16:41:37.473,AUTO,-35.363262,149.1652374,43291,0.0017835599137470126,0.0014408110873773694,-0.09628716111183167,0.0021787527948617935,-0.00010293081868439913,0.008187948726117611,0,0,-1000,3,1,8,-1,0,-153,1500.0
16:41:37.676,AUTO,-35.363262,149.1652374,43291,0.0017835599137470126,0.0014408110873773694,-0.09628716111183167,0.0021787527948617935,-0.00010293081868439913,0.008187948726117611,0,0,-1000,3,1,8,-1,0,-153,1500.0
16:41:37.877,AUTO,-35.363262,149.1652374,43291,0.0017835599137470126,0.0014408110873773694,-0.09628716111183167,0.0021787527948617935,-0.00010293081868439913,0.008187948726117611,0,0,-1000,3,1,8,-1,0,-153,1500.0
16:41:38.080,AUTO,-35.363262,149.1652374,43291,0.0017835599137470126,0.0014408110873773694,-0.09628716111183167,0.0021787527948617935,-0.00010293081868439913,0.008187948726117611,0,0,-1000,3,1,8,-1,0,-153,1500.0
16:41:38.282,AUTO,-35.363262,149.1652374,43291,0.0017835599137470126,0.0014408110873773694,-0.09628716111183167,0.0021787527948617935,-0.00010293081868439913,0.008187948726117611,0,0,-1000,3,1,8,-1,0,-153,1500.0
16:41:38.483,AUTO,-35.363262,149.1652374,43291,0.0017835599137470126,0.0014408110873773694,-0.09628716111183167,0.0021787527948617935,-0.00010293081868439913,0.008187948726117611,0,0,-1000,3,1,8,-1,0,-153,1500.0
16:41:38.686,AUTO,-35.363262,149.1652374,43291,0.0017835599137470126,0.0014408110873773694,-0.09628716111183167,0.0021787527948617935,-0.00010293081868439913,0.008187948726117611,0,0,-1000,3,1,8,-1,0,-153,1500.0
16:41:38.888,AUTO,-35.363262,149.1652374,43291,0.0017835599137470126,0.0014408110873773694,-0.09628716111183167,0.0021787527948617935,-0.00010293081868439913,0.008187948726117611,0,0,-1000,3,1,8,-1,0,-153,1500.0
16:41:39.089,AUTO,-35.363262,149.1652374,45242,0.001731645199470222,0.001349177910014987,-0.08887770771980286,0.0018407260067760944,0.003316190792247653,0.005395637359470129,0,0,-999,2,4,5,-1,1,-153,1500.0
16:41:39.292,AUTO,-35.363262,149.1652374,46022,0.0018022558651864529,0.0013622710248455405,-0.08600146323442459,-0.00023666047491133213,-0.0007789376541040838,0.006569356191903353,0,0,-1000,0,0,6,-1,1,-153,1500.0
16:41:39.493,AUTO,-35.363262,149.1652374,46411,0.0018422013381496072,0.0013514548772946,-0.08479802310466766,0.0029870555736124516,-7.730675861239433e-06,0.00684357387945056,0,0,-1000,4,1,7,-1,1,-153,1500.0
16:41:39.695,AUTO,-35.363262,149.1652374,46411,0.0018422013381496072,0.0013514548772946,-0.08479802310466766,0.0029870555736124516,-7.730675861239433e-06,0.00684357387945056,0,0,-1000,4,1,7,-1,1,-153,1500.0
16:41:39.898,AUTO,-35.363262,149.1652374,46411,0.0018422013381496072,0.0013514548772946,-0.08479802310466766,0.0029870555736124516,-7.730675861239433e-06,0.00684357387945056,0,0,-1000,4,1,7,-1,1,-153,1500.0
16:41:40.099,AUTO,-35.363262,149.1652374,46411,0.0018422013381496072,0.0013514548772946,-0.08479802310466766,0.0029870555736124516,-7.730675861239433e-06,0.00684357387945056,0,0,-1000,4,1,7,-1,1,-153,1500.0
16:41:40.302,AUTO,-35.363262,149.1652374,46411,0.0018422013381496072,0.0013514548772946,-0.08479802310466766,0.0029870555736124516,-7.730675861239433e-06,0.00684357387945056,0,0,-1000,4,1,7,-1,1,-153,1500.0
16:41:40.504,AUTO,-35.363262,149.1652374,46411,0.0018422013381496072,0.0013514548772946,-0.08479802310466766,0.0029870555736124516,-7.730675861239433e-06,0.00684357387945056,0,0,-1000,4,1,7,-1,1,-153,1500.0
16:41:40.707,AUTO,-35.363262,149.1652374,46411,0.0018422013381496072,0.0013514548772946,-0.08479802310466766,0.0029870555736124516,-7.730675861239433e-06,0.00684357387945056,0,0,-1000,4,1,7,-1,1,-153,1500.0
16:41:40.909,AUTO,-35.363262,149.1652374,46411,0.0018422013381496072,0.0013514548772946,-0.08479802310466766,0.0029870555736124516,-7.730675861239433e-06,0.00684357387945056,0,0,-1000,4,1,7,-1,1,-153,1500.0
16:41:41.111,AUTO,-35.363262,149.1652374,46411,0.0018422013381496072,0.0013514548772946,-0.08479802310466766,0.0029870555736124516,-7.730675861239433e-06,0.00684357387945056,0,0,-1000,4,1,7,-1,1,-153,1500.0
16:41:41.313,AUTO,-35.363263,149.165236,48916,-0.0406961627304554,0.02725127898156643,0.2688932716846466,0.13019485771656036,-0.2172674983739853,0.20733878016471863,4,10,-922,131,-215,207,-31,-35,-95,1500.0
16:41:41.516,AUTO,-35.3632637,149.1652349,49139,-0.01056604739278555,-0.020043959841132164,0.30415916442871094,0.1267886608839035,-0.15165120363235474,0.09143668413162231,4,10,-937,127,-150,91,-29,-39,-78,1500.0
16:41:41.717,AUTO,-35.3632637,149.1652349,49139,-0.01056604739278555,-0.020043959841132164,0.30415916442871094,0.1267886608839035,-0.15165120363235474,0.09143668413162231,4,10,-937,127,-150,91,-29,-39,-78,1500.0
16:41:41.920,AUTO,-35.3632637,149.1652349,49139,-0.01056604739278555,-0.020043959841132164,0.30415916442871094,0.1267886608839035,-0.15165120363235474,0.09143668413162231,4,10,-937,127,-150,91,-29,-39,-78,1500.0
16:41:42.122,AUTO,-35.3632637,149.1652349,49139,-0.01056604739278555,-0.020043959841132164,0.30415916442871094,0.1267886608839035,-0.15165120363235474,0.09143668413162231,4,10,-937,127,-150,91,-29,-39,-78,1500.0
16:41:42.323,AUTO,-35.3632637,149.1652349,49139,-0.01056604739278555,-0.020043959841132164,0.30415916442871094,0.1267886608839035,-0.15165120363235474,0.09143668413162231,4,10,-937,127,-150,91,-29,-39,-78,1500.0
16:41:42.525,AUTO,-35.3632637,149.1652349,49139,-0.01056604739278555,-0.020043959841132164,0.30415916442871094,0.1267886608839035,-0.15165120363235474,0.09143668413162231,4,10,-937,127,-150,91,-29,-39,-78,1500.0
16:41:42.728,AUTO,-35.3632637,149.1652349,49139,-0.01056604739278555,-0.020043959841132164,0.30415916442871094,0.1267886608839035,-0.15165120363235474,0.09143668413162231,4,10,-937,127,-150,91,-29,-39,-78,1500.0
16:41:42.929,AUTO,-35.3632637,149.1652349,49139,-0.01056604739278555,-0.020043959841132164,0.30415916442871094,0.1267886608839035,-0.15165120363235474,0.09143668413162231,4,10,-937,127,-150,91,-29,-39,-78,1500.0
16:41:43.132,AUTO,-35.3632643,149.1652327,49924,0.029897432774305344,-0.029283279553055763,0.28615835309028625,-0.31411319971084595,0.04587196931242943,-0.034884266555309296,-2,-4,-985,-310,46,-34,15,18,-32,1500.0
16:41:43.333,AUTO,-35.3632639,149.1652332,49998,0.029885074123740196,-0.00760609982535243,0.2675771117210388,0.47539597749710083,0.03522013872861862,-0.034117281436920166,-2,24,-980,560,42,-34,18,26,-27,1500.0
16:41:43.538,AUTO,-35.3632635,149.1652339,50056,0.029885074123740196,-0.00760609982535243,0.2675771117210388,0.47539597749710083,0.03522013872861862,-0.034117281436920166,-1,4,-975,474,36,-33,20,29,-21,1500.0
16:41:43.741,AUTO,-35.3632635,149.1652339,50056,0.029885074123740196,-0.00760609982535243,0.2675771117210388,0.47539597749710083,0.03522013872861862,-0.034117281436920166,-1,4,-975,474,36,-33,20,29,-21,1500.0
16:41:43.943,AUTO,-35.3632635,149.1652339,50056,0.029885074123740196,-0.00760609982535243,0.2675771117210388,0.47539597749710083,0.03522013872861862,-0.034117281436920166,-1,4,-975,474,36,-33,20,29,-21,1500.0
16:41:44.144,AUTO,-35.3632635,149.1652339,50056,0.029885074123740196,-0.00760609982535243,0.2675771117210388,0.47539597749710083,0.03522013872861862,-0.034117281436920166,-1,4,-975,474,36,-33,20,29,-21,1500.0
16:41:44.347,AUTO,-35.3632635,149.1652339,50056,0.029885074123740196,-0.00760609982535243,0.2675771117210388,0.47539597749710083,0.03522013872861862,-0.034117281436920166,-1,4,-975,474,36,-33,20,29,-21,1500.0
16:41:44.549,AUTO,-35.3632635,149.1652339,50056,0.029885074123740196,-0.00760609982535243,0.2675771117210388,0.47539597749710083,0.03522013872861862,-0.034117281436920166,-1,4,-975,474,36,-33,20,29,-21,1500.0
16:41:44.751,AUTO,-35.3632635,149.1652339,50056,0.029885074123740196,-0.00760609982535243,0.2675771117210388,0.47539597749710083,0.03522013872861862,-0.034117281436920166,-1,4,-975,474,36,-33,20,29,-21,1500.0
16:41:44.953,AUTO,-35.3632619,149.1652369,50107,-0.025652684271335602,0.04220588132739067,0.23244917392730713,-0.8680198788642883,-0.0037106454838067293,-0.03301801532506943,0,-36,-989,-866,-2,-32,9,22,13,1500.0
16:41:45.155,AUTO,-35.3632615,149.1652378,50007,-0.00605302769690752,-0.03689957037568092,0.2184310257434845,0.6839269399642944,-0.07947085052728653,-0.02987830899655819,-1,43,-1000,688,-78,-29,10,9,7,1500.0
16:41:45.357,AUTO,-35.3632611,149.1652379,49988,0.0010155957425013185,-0.055294670164585114,0.2134009450674057,0.6517998576164246,-0.07117495685815811,-0.017345385625958443,-4,21,-1012,651,-70,-16,21,7,3,1500.0
16:41:45.561,AUTO,-35.3632611,149.1652379,49988,0.0010155957425013185,-0.055294670164585114,0.2134009450674057,0.6517998576164246,-0.07117495685815811,-0.017345385625958443,-4,21,-1012,651,-70,-16,21,7,3,1500.0
16:41:45.763,AUTO,-35.3632611,149.1652379,49988,0.0010155957425013185,-0.055294670164585114,0.2134009450674057,0.6517998576164246,-0.07117495685815811,-0.017345385625958443,-4,21,-1012,651,-70,-16,21,7,3,1500.0
16:41:45.964,AUTO,-35.3632611,149.1652379,49988,0.0010155957425013185,-0.055294670164585114,0.2134009450674057,0.6517998576164246,-0.07117495685815811,-0.017345385625958443,-4,21,-1012,651,-70,-16,21,7,3,1500.0
16:41:46.166,AUTO,-35.3632611,149.1652379,49988,0.0010155957425013185,-0.055294670164585114,0.2134009450674057,0.6517998576164246,-0.07117495685815811,-0.017345385625958443,-4,21,-1012,651,-70,-16,21,7,3,1500.0
16:41:46.367,AUTO,-35.3632611,149.1652379,49988,0.0010155957425013185,-0.055294670164585114,0.2134009450674057,0.6517998576164246,-0.07117495685815811,-0.017345385625958443,-4,21,-1012,651,-70,-16,21,7,3,1500.0
16:41:46.570,AUTO,-35.3632611,149.1652379,49988,0.0010155957425013185,-0.055294670164585114,0.2134009450674057,0.6517998576164246,-0.07117495685815811,-0.017345385625958443,-4,21,-1012,651,-70,-16,21,7,3,1500.0
16:41:46.772,AUTO,-35.3632611,149.1652379,49988,0.0010155957425013185,-0.055294670164585114,0.2134009450674057,0.6517998576164246,-0.07117495685815811,-0.017345385625958443,-4,21,-1012,651,-70,-16,21,7,3,1500.0
16:41:46.975,AUTO,-35.3632564,149.1652383,49977,-0.009752755053341389,-0.10949817299842834,0.31869959831237793,-0.22567546367645264,-0.04588503763079643,0.1384814977645874,-21,-1,-1001,-220,-45,138,91,13,-4,1500.0
16:41:47.178,AUTO,-35.363248,149.1652394,49980,0.005237850826233625,-0.14223171770572662,0.3291219174861908,0.3304811120033264,-0.047776009887456894,-0.015086933970451355,-34,-14,-994,329,-46,-14,163,22,-1,1500.0
16:41:47.379,AUTO,-35.3632441,149.1652399,49978,-0.004188140854239464,-0.15632757544517517,0.31914904713630676,-0.3911616802215576,-0.061218373477458954,-0.006509974133223295,-39,-41,-1004,-393,-60,-6,189,25,-1,1500.0
16:41:47.580,AUTO,-35.3632441,149.1652399,49978,-0.004188140854239464,-0.15632757544517517,0.31914904713630676,-0.3911616802215576,-0.061218373477458954,-0.006509974133223295,-39,-41,-1004,-393,-60,-6,189,25,-1,1500.0
16:41:47.784,AUTO,-35.3632441,149.1652399,49978,-0.004188140854239464,-0.15632757544517517,0.31914904713630676,-0.3911616802215576,-0.061218373477458954,-0.006509974133223295,-39,-41,-1004,-393,-60,-6,189,25,-1,1500.0
16:41:47.985,AUTO,-35.3632441,149.1652399,49978,-0.004188140854239464,-0.15632757544517517,0.31914904713630676,-0.3911616802215576,-0.061218373477458954,-0.006509974133223295,-39,-41,-1004,-393,-60,-6,189,25,-1,1500.0
16:41:48.188,AUTO,-35.3632441,149.1652399,49978,-0.004188140854239464,-0.15632757544517517,0.31914904713630676,-0.3911616802215576,-0.061218373477458954,-0.006509974133223295,-39,-41,-1004,-393,-60,-6,189,25,-1,1500.0
16:41:48.390,AUTO,-35.3632441,149.1652399,49978,-0.004188140854239464,-0.15632757544517517,0.31914904713630676,-0.3911616802215576,-0.061218373477458954,-0.006509974133223295,-39,-41,-1004,-393,-60,-6,189,25,-1,1500.0
16:41:48.591,AUTO,-35.3632441,149.1652399,49978,-0.004188140854239464,-0.15632757544517517,0.31914904713630676,-0.3911616802215576,-0.061218373477458954,-0.006509974133223295,-39,-41,-1004,-393,-60,-6,189,25,-1,1500.0
16:41:48.794,AUTO,-35.3632441,149.1652399,49978,-0.004188140854239464,-0.15632757544517517,0.31914904713630676,-0.3911616802215576,-0.061218373477458954,-0.006509974133223295,-39,-41,-1004,-393,-60,-6,189,25,-1,1500.0
16:41:48.997,AUTO,-35.3632148,149.1652443,49945,0.009748460724949837,-0.19491127133369446,0.28741851449012756,-0.31659504771232605,-0.008722180500626564,-0.01892504096031189,-60,-53,-1009,-173,-8,8,340,46,0,1500.0
16:41:49.199,AUTO,-35.3631981,149.165247,49939,0.023858409374952316,-0.19879601895809174,0.2797905504703522,0.17590923607349396,-0.019292259588837624,0.0062889899127185345,-90,-31,-999,175,-18,7,396,53,0,1500.0
16:41:49.400,AUTO,-35.363189,149.1652485,49937,0.021676979959011078,-0.20411154627799988,0.27639925479888916,-0.25094282627105713,-0.03121161460876465,0.0014829197898507118,-91,-50,-1000,-250,-30,1,424,57,0,1500.0
16:41:49.601,AUTO,-35.363189,149.1652485,49937,0.021676979959011078,-0.20411154627799988,0.27639925479888916,-0.25094282627105713,-0.03121161460876465,0.0014829197898507118,-91,-50,-1000,-250,-30,1,424,57,0,1500.0
16:41:49.803,AUTO,-35.363189,149.1652485,49937,0.021676979959011078,-0.20411154627799988,0.27639925479888916,-0.25094282627105713,-0.03121161460876465,0.0014829197898507118,-91,-50,-1000,-250,-30,1,424,57,0,1500.0
16:41:50.006,AUTO,-35.363189,149.1652485,49937,0.021676979959011078,-0.20411154627799988,0.27639925479888916,-0.25094282627105713,-0.03121161460876465,0.0014829197898507118,-91,-50,-1000,-250,-30,1,424,57,0,1500.0
16:41:50.209,AUTO,-35.363189,149.1652485,49937,0.021676979959011078,-0.20411154627799988,0.27639925479888916,-0.25094282627105713,-0.03121161460876465,0.0014829197898507118,-91,-50,-1000,-250,-30,1,424,57,0,1500.0
16:41:50.411,AUTO,-35.363189,149.1652485,49937,0.021676979959011078,-0.20411154627799988,0.27639925479888916,-0.25094282627105713,-0.03121161460876465,0.0014829197898507118,-91,-50,-1000,-250,-30,1,424,57,0,1500.0
16:41:50.613,AUTO,-35.363189,149.1652485,49937,0.021676979959011078,-0.20411154627799988,0.27639925479888916,-0.25094282627105713,-0.03121161460876465,0.0014829197898507118,-91,-50,-1000,-250,-30,1,424,57,0,1500.0
16:41:50.814,AUTO,-35.363189,149.1652485,49937,0.021676979959011078,-0.20411154627799988,0.27639925479888916,-0.25094282627105713,-0.03121161460876465,0.0014829197898507118,-91,-50,-1000,-250,-30,1,424,57,0,1500.0
16:41:51.016,AUTO,-35.363134,149.1652578,49915,0.0380096398293972,-0.21611922979354858,0.26259177923202515,0.08208764344453812,0.04682117700576782,-0.012576629407703876,-110,-41,-1003,83,47,-12,559,76,-1,1500.0
16:41:51.218,AUTO,-35.363108,149.1652623,49929,0.04532279446721077,-0.19896896183490753,0.25768882036209106,-0.07602985203266144,0.02659565769135952,-0.006736535578966141,-128,-54,-998,-74,27,-6,599,81,-5,1500.0
16:41:51.420,AUTO,-35.3630944,149.1652647,49944,0.048235468566417694,-0.19275161623954773,0.2552906274795532,0.04088462144136429,0.012006274424493313,-0.010451273992657661,-138,-41,-1004,42,13,-9,615,83,-9,1500.0
16:41:51.622,AUTO,-35.3630944,149.1652647,49944,0.048235468566417694,-0.19275161623954773,0.2552906274795532,0.04088462144136429,0.012006274424493313,-0.010451273992657661,-138,-41,-1004,42,13,-9,615,83,-9,1500.0
16:41:51.825,AUTO,-35.3630944,149.1652647,49944,0.048235468566417694,-0.19275161623954773,0.2552906274795532,0.04088462144136429,0.012006274424493313,-0.010451273992657661,-138,-41,-1004,42,13,-9,615,83,-9,1500.0
16:41:52.028,AUTO,-35.3630944,149.1652647,49944,0.048235468566417694,-0.19275161623954773,0.2552906274795532,0.04088462144136429,0.012006274424493313,-0.010451273992657661,-138,-41,-1004,42,13,-9,615,83,-9,1500.0
