time_stamp,MODE,lat,lon,relative_alt,roll,pitch,yaw,rollspeed,pitchspeed,yawspeed,xacc,yacc,zacc,xgyro,ygyro,zgyro,vx,vy,vz,RTL_ALT
05:09:40.974,STABILIZE,-35.3632621,149.1652374,0,0.00041748801595531404,0.001488866750150919,0.0277766864746809,0.0003175100137013942,0.00022229808382689953,0.0024400553666055202,0,1,-1000,0,0,0,0,1,2,1500.0
05:09:41.175,STABILIZE,-35.3632621,149.1652374,0,0.00041748801595531404,0.001488866750150919,0.0277766864746809,0.0003175100137013942,0.00022229808382689953,0.0024400553666055202,0,1,-1000,0,0,0,0,1,2,1500.0
05:09:41.375,STABILIZE,-35.3632621,149.1652374,0,0.00046501142787747085,0.0015824984293431044,0.027418436482548714,0.0002950924390461296,0.0003218193887732923,0.0023595443926751614,0,1,-1000,0,0,0,-1,1,2,1500.0
05:09:41.576,STABILIZE,-35.3632621,149.1652374,0,0.00046501142787747085,0.0015824984293431044,0.027418436482548714,0.0002950924390461296,0.0003218193887732923,0.0023595443926751614,0,1,-1000,0,0,0,-1,1,2,1500.0
05:09:41.777,STABILIZE,-35.3632621,149.1652374,0,0.00046501142787747085,0.0015824984293431044,0.027418436482548714,0.0002950924390461296,0.0003218193887732923,0.0023595443926751614,0,1,-1000,0,0,0,-1,1,2,1500.0
05:09:41.978,STABILIZE,-35.3632621,149.1652374,0,0.00046501142787747085,0.0015824984293431044,0.027418436482548714,0.0002950924390461296,0.0003218193887732923,0.0023595443926751614,0,1,-1000,0,0,0,-1,1,2,1500.0
05:09:42.179,STABILIZE,-35.3632621,149.1652374,0,0.00046501142787747085,0.0015824984293431044,0.027418436482548714,0.0002950924390461296,0.0003218193887732923,0.0023595443926751614,0,1,-1000,0,0,0,-1,1,2,1500.0
05:09:42.379,STABILIZE,-35.3632621,149.1652375,0,0.0003561623743735254,0.0016002263873815536,0.026685476303100586,0.00031144320382736623,0.000198280846234411,0.0022990594152361155,0,1,-1000,0,0,0,-1,2,1,1500.0
05:09:42.580,STABILIZE,-35.3632621,149.1652375,0,0.0003561623743735254,0.0016002263873815536,0.026685476303100586,0.00031144320382736623,0.000198280846234411,0.0022990594152361155,0,1,-1000,0,0,0,-1,2,1,1500.0
05:09:42.782,STABILIZE,-35.3632621,149.1652375,0,0.0003561623743735254,0.0016002263873815536,0.026685476303100586,0.00031144320382736623,0.000198280846234411,0.0022990594152361155,0,1,-1000,0,0,0,-1,2,1,1500.0
05:09:42.983,STABILIZE,-35.3632621,149.1652375,0,0.0003827517793979496,0.0015455844113603234,0.026355719193816185,0.00036140979500487447,0.00026369269471615553,0.002236594446003437,0,1,-1000,0,1,0,-2,3,3,1500.0
05:09:43.184,STABILIZE,-35.3632621,149.1652375,0,0.0003827517793979496,0.0015455844113603234,0.026355719193816185,0.00036140979500487447,0.00026369269471615553,0.002236594446003437,0,1,-1000,0,1,0,-2,3,3,1500.0
05:09:43.385,STABILIZE,-35.3632622,149.1652375,0,0.00010129161819349974,0.0014392358716577291,0.02605835720896721,0.0001763750915415585,0.00020050079911015928,0.0021877591498196125,0,1,-1000,0,0,0,-2,3,2,1500.0
05:09:43.587,STABILIZE,-35.3632622,149.1652376,0,-2.9813372748321854e-05,0.0013971365988254547,0.02591223083436489,0.000338872370775789,0.00027185233193449676,0.002313165459781885,0,1,-1000,0,0,0,-2,2,2,1500.0
05:09:43.788,STABILIZE,-35.3632622,149.1652376,0,-2.9813372748321854e-05,0.0013971365988254547,0.02591223083436489,0.000338872370775789,0.00027185233193449676,0.002313165459781885,0,1,-1000,0,0,0,-2,2,2,1500.0
05:09:43.990,STABILIZE,-35.3632622,149.1652376,0,-2.9813372748321854e-05,0.0013971365988254547,0.02591223083436489,0.000338872370775789,0.00027185233193449676,0.002313165459781885,0,1,-1000,0,0,0,-2,2,2,1500.0
05:09:44.192,STABILIZE,-35.3632622,149.1652376,0,-2.9813372748321854e-05,0.0013971365988254547,0.02591223083436489,0.000338872370775789,0.00027185233193449676,0.002313165459781885,0,1,-1000,0,0,0,-2,2,2,1500.0
05:09:44.394,STABILIZE,-35.3632622,149.1652375,0,-0.00040117918979376554,0.001225701067596674,0.02552192658185959,0.00022217800142243505,0.0002444300625938922,0.0020321400370448828,0,1,-1000,0,0,0,-1,2,2,1500.0
05:09:44.595,STABILIZE,-35.3632622,149.1652375,0,-0.0004988351138308644,0.0011935789370909333,0.02539996989071369,0.00018521503079682589,0.00022703170543536544,0.002139062387868762,0,1,-1000,0,1,0,-1,1,2,1500.0
05:09:44.797,STABILIZE,-35.3632622,149.1652375,0,-0.0004988351138308644,0.0011935789370909333,0.02539996989071369,0.00018521503079682589,0.00022703170543536544,0.002139062387868762,0,1,-1000,0,1,0,-1,1,2,1500.0
05:09:44.998,STABILIZE,-35.3632622,149.1652375,0,-0.0004988351138308644,0.0011935789370909333,0.02539996989071369,0.00018521503079682589,0.00022703170543536544,0.002139062387868762,0,1,-1000,0,1,0,-1,1,2,1500.0
05:09:45.200,STABILIZE,-35.3632622,149.1652375,0,-0.0006716687930747867,0.0011014168849214911,0.025185704231262207,0.0002964257728308439,0.00022564039682038128,0.002012040698900819,0,1,-1000,0,1,0,-1,1,1,1500.0
05:09:45.401,STABILIZE,-35.3632622,149.1652375,0,-0.0007420395268127322,0.0010751488152891397,0.0250855665653944,0.00011059484677389264,0.00026596884708851576,0.002186646917834878,0,1,-1000,0,1,0,-1,1,1,1500.0
05:09:45.602,STABILIZE,-35.3632622,149.1652375,0,-0.0007420395268127322,0.0010751488152891397,0.0250855665653944,0.00011059484677389264,0.00026596884708851576,0.002186646917834878,0,1,-1000,0,1,0,-1,1,1,1500.0
05:09:45.804,STABILIZE,-35.3632622,149.1652375,0,-0.0007420395268127322,0.0010751488152891397,0.0250855665653944,0.00011059484677389264,0.00026596884708851576,0.002186646917834878,0,1,-1000,0,1,0,-1,1,1,1500.0
05:09:46.012,STABILIZE,-35.3632622,149.1652375,0,-0.0007420395268127322,0.0010751488152891397,0.0250855665653944,0.00011059484677389264,0.00026596884708851576,0.002186646917834878,0,1,-1000,0,1,0,-1,1,1,1500.0
05:09:46.222,STABILIZE,-35.3632622,149.1652375,0,-0.0007420395268127322,0.0010751488152891397,0.0250855665653944,0.00011059484677389264,0.00026596884708851576,0.002186646917834878,0,1,-1000,0,1,0,-1,1,1,1500.0
05:09:46.423,STABILIZE,-35.3632621,149.1652375,0,-0.0006235360051505268,0.000994950532913208,0.024729404598474503,0.00023075315402820706,0.0003018933057319373,0.0019877159502357244,0,1,-1000,0,0,0,-1,2,2,1500.0
05:09:46.624,STABILIZE,-35.3632621,149.1652375,0,-0.0006235360051505268,0.000994950532913208,0.024729404598474503,0.00023075315402820706,0.0003018933057319373,0.0019877159502357244,0,1,-1000,0,0,0,-1,1,2,1500.0
05:09:46.826,STABILIZE,-35.3632621,149.1652375,0,-0.0007618219242431223,0.0009818508988246322,0.024554958567023277,0.0001997296349145472,0.0002661335456650704,0.0019334328826516867,0,1,-1000,0,0,0,-1,1,2,1500.0
05:09:47.027,STABILIZE,-35.3632621,149.1652375,0,-0.0007618219242431223,0.0009818508988246322,0.024554958567023277,0.0001997296349145472,0.0002661335456650704,0.0019334328826516867,0,1,-1000,0,0,0,-1,1,2,1500.0
05:09:47.228,STABILIZE,-35.3632621,149.1652375,0,-0.0007618219242431223,0.0009818508988246322,0.024554958567023277,0.0001997296349145472,0.0002661335456650704,0.0019334328826516867,0,1,-1000,0,0,0,-1,1,2,1500.0
05:09:47.430,STABILIZE,-35.3632621,149.1652375,0,-0.0007618219242431223,0.0009818508988246322,0.024554958567023277,0.0001997296349145472,0.0002661335456650704,0.0019334328826516867,0,1,-1000,0,0,0,-1,1,2,1500.0
05:09:47.632,STABILIZE,-35.3632621,149.1652375,0,-0.0007618219242431223,0.0009818508988246322,0.024554958567023277,0.0001997296349145472,0.0002661335456650704,0.0019334328826516867,0,1,-1000,0,0,0,-1,1,1,1500.0
05:09:47.833,STABILIZE,-35.3632621,149.1652375,0,-0.0007618219242431223,0.0009818508988246322,0.024554958567023277,0.0001997296349145472,0.0002661335456650704,0.0019334328826516867,0,1,-1000,0,0,0,-1,1,1,1500.0
05:09:48.034,STABILIZE,-35.3632621,149.1652375,0,-0.0007618219242431223,0.0009818508988246322,0.024554958567023277,0.0001997296349145472,0.0002661335456650704,0.0019334328826516867,0,1,-1000,0,0,0,-1,1,1,1500.0
05:09:48.235,STABILIZE,-35.3632621,149.1652375,0,-0.0007618219242431223,0.0009818508988246322,0.024554958567023277,0.0001997296349145472,0.0002661335456650704,0.0019334328826516867,0,1,-1000,0,0,0,-1,1,1,1500.0
05:09:48.437,STABILIZE,-35.3632621,149.1652375,0,-0.0007618219242431223,0.0009818508988246322,0.024554958567023277,0.0001997296349145472,0.0002661335456650704,0.0019334328826516867,0,1,-1000,0,0,0,-1,1,1,1500.0
05:09:48.638,STABILIZE,-35.3632621,149.1652375,0,-0.0010462556965649128,0.0009455212857574224,0.024015847593545914,0.00022448960226029158,0.00013373469118960202,0.0018663584487512708,0,1,-1000,0,0,0,-1,1,1,1500.0
05:09:48.840,STABILIZE,-35.3632621,149.1652375,0,-0.0010689968476071954,0.0009451288497075438,0.0239443127065897,0.00017420121002942324,0.00025869940873235464,0.00189220008905977,0,1,-1000,0,0,0,-1,1,1,1500.0
05:09:49.041,STABILIZE,-35.3632621,149.1652375,0,-0.0010689968476071954,0.0009451288497075438,0.0239443127065897,0.00017420121002942324,0.00025869940873235464,0.00189220008905977,0,1,-1000,0,0,0,-1,1,1,1500.0
05:09:49.242,STABILIZE,-35.3632621,149.1652375,0,-0.0010811936808750033,0.0009400344570167363,0.02387862466275692,0.0002561690052971244,0.00021897797705605626,0.0018399066757410765,0,1,-1000,0,0,0,-1,1,0,1500.0
05:09:49.443,STABILIZE,-35.3632621,149.1652375,0,-0.0010942993685603142,0.0009328725864179432,0.023803386837244034,0.00019593932665884495,0.00019177893409505486,0.0018509305082261562,0,1,-1000,0,0,0,-1,0,0,1500.0
05:09:49.645,STABILIZE,-35.3632621,149.1652375,0,-0.0009337734081782401,0.0009363138815388083,0.023737948387861252,0.0018647247925400734,0.0002752128057181835,0.0017077705124393106,0,1,-1000,0,0,0,-1,0,0,1500.0
05:09:49.847,STABILIZE,-35.3632621,149.1652375,0,-0.0009337734081782401,0.0009363138815388083,0.023737948387861252,0.0018647247925400734,0.0002752128057181835,0.0017077705124393106,0,1,-1000,0,0,0,-1,0,0,1500.0
05:09:50.048,STABILIZE,-35.3632621,149.1652375,0,-0.0009337734081782401,0.0009363138815388083,0.023737948387861252,0.0018647247925400734,0.0002752128057181835,0.0017077705124393106,0,1,-1000,0,0,0,-1,0,0,1500.0
05:09:50.249,STABILIZE,-35.3632621,149.1652375,0,-0.0009337734081782401,0.0009363138815388083,0.023737948387861252,0.0018647247925400734,0.0002752128057181835,0.0017077705124393106,0,1,-1000,0,0,0,-1,0,0,1500.0
05:09:50.451,STABILIZE,-35.3632621,149.1652375,0,-0.0009448941564187407,0.0009441554429940879,0.023512855172157288,0.0003816672251559794,0.0002768205595202744,0.0016778385033831,0,1,-1000,0,1,0,-1,1,0,1500.0
05:09:50.652,STABILIZE,-35.3632621,149.1652375,0,-0.0009448941564187407,0.0009441554429940879,0.023512855172157288,0.0003816672251559794,0.0002768205595202744,0.0016778385033831,0,1,-1000,0,1,0,-1,1,0,1500.0
05:09:50.853,STABILIZE,-35.3632621,149.1652375,0,-0.0009448941564187407,0.0009441554429940879,0.023512855172157288,0.0003816672251559794,0.0002768205595202744,0.0016778385033831,0,1,-1000,0,1,0,-1,1,0,1500.0
05:09:51.056,STABILIZE,-35.3632621,149.1652375,0,-0.0009701594244688749,0.0009498134022578597,0.023317333310842514,0.00029098603408783674,0.00041360955219715834,0.0016777240671217442,0,1,-1000,0,0,0,-1,1,0,1500.0
05:09:51.257,STABILIZE,-35.3632621,149.1652375,0,-0.0009701594244688749,0.0009498134022578597,0.023317333310842514,0.00029098603408783674,0.00041360955219715834,0.0016777240671217442,0,1,-1000,0,0,0,-1,1,0,1500.0
05:09:51.459,STABILIZE,-35.3632622,149.1652375,0,-0.0009701594244688749,0.0009498134022578597,0.023317333310842514,0.00029098603408783674,0.00041360955219715834,0.0016777240671217442,0,1,-1000,0,0,0,-1,1,0,1500.0
05:09:51.660,STABILIZE,-35.3632622,149.1652375,0,-0.0009890557266771793,0.0009583746432326734,0.023195013403892517,0.00031625363044440746,0.00022467656526714563,0.0015768063021823764,0,1,-1000,0,0,0,-1,1,0,1500.0
05:09:51.862,STABILIZE,-35.3632622,149.1652375,0,-0.0009890557266771793,0.0009583746432326734,0.023195013403892517,0.00031625363044440746,0.00022467656526714563,0.0015768063021823764,0,1,-1000,0,0,0,-1,1,0,1500.0
05:09:52.064,STABILIZE,-35.3632622,149.1652375,0,-0.0009890557266771793,0.0009583746432326734,0.023195013403892517,0.00031625363044440746,0.00022467656526714563,0.0015768063021823764,0,1,-1000,0,0,0,-1,1,0,1500.0
05:09:52.266,STABILIZE,-35.3632622,149.1652375,0,-0.0009890557266771793,0.0009583746432326734,0.023195013403892517,0.00031625363044440746,0.00022467656526714563,0.0015768063021823764,0,1,-1000,0,0,0,-1,1,0,1500.0
05:09:52.467,STABILIZE,-35.3632622,149.1652375,0,-0.001012733788229525,0.0009616892784833908,0.022996455430984497,0.00031764578307047486,0.00034162960946559906,0.0016722853761166334,0,1,-1000,0,0,0,-1,1,0,1500.0
05:09:52.668,STABILIZE,-35.3632622,149.1652375,0,-0.001012733788229525,0.0009616892784833908,0.022996455430984497,0.00031764578307047486,0.00034162960946559906,0.0016722853761166334,0,1,-1000,0,0,0,-1,1,0,1500.0
05:09:52.870,STABILIZE,-35.3632622,149.1652375,0,-0.001012733788229525,0.0009616892784833908,0.022996455430984497,0.00031764578307047486,0.00034162960946559906,0.0016722853761166334,0,1,-1000,0,0,0,-1,1,0,1500.0
05:09:53.071,STABILIZE,-35.3632622,149.1652375,0,-0.001012733788229525,0.0009616892784833908,0.022996455430984497,0.00031764578307047486,0.00034162960946559906,0.0016722853761166334,0,1,-1000,0,0,0,-1,1,0,1500.0
05:09:53.272,STABILIZE,-35.3632622,149.1652375,0,-0.001012733788229525,0.0009616892784833908,0.022996455430984497,0.00031764578307047486,0.00034162960946559906,0.0016722853761166334,0,1,-1000,0,0,0,-1,1,0,1500.0
05:09:53.473,STABILIZE,-35.3632622,149.1652375,0,-0.0010498890187591314,0.000969351502135396,0.022737914696335793,0.00021203095093369484,0.0002625559573061764,0.0017671857494860888,0,1,-1000,0,0,0,-1,1,0,1500.0
05:09:53.675,STABILIZE,-35.3632622,149.1652375,0,-0.0010488025145605206,0.0009701469680294394,0.022671038284897804,0.00031216273782774806,0.00025741232093423605,0.0017418673960492015,0,1,-1000,0,0,1,-1,1,0,1500.0
05:09:53.876,STABILIZE,-35.3632622,149.1652375,0,-0.0010488025145605206,0.0009701469680294394,0.022671038284897804,0.00031216273782774806,0.00025741232093423605,0.0017418673960492015,0,1,-1000,0,0,1,-1,1,0,1500.0
05:09:54.077,STABILIZE,-35.3632622,149.1652375,0,-0.0010488025145605206,0.0009701469680294394,0.022671038284897804,0.00031216273782774806,0.00025741232093423605,0.0017418673960492015,0,1,-1000,0,0,1,-1,1,0,1500.0
05:09:54.279,STABILIZE,-35.3632622,149.1652375,0,-0.0010488025145605206,0.0009701469680294394,0.022671038284897804,0.00031216273782774806,0.00025741232093423605,0.0017418673960492015,0,1,-1000,0,0,1,-1,1,0,1500.0
05:09:54.480,STABILIZE,-35.3632622,149.1652375,0,-0.0010488025145605206,0.0009701469680294394,0.022671038284897804,0.00031216273782774806,0.00025741232093423605,0.0017418673960492015,0,1,-1000,0,0,1,-1,1,0,1500.0
05:09:54.682,STABILIZE,-35.3632622,149.1652375,0,-0.0010488025145605206,0.0009701469680294394,0.022671038284897804,0.00031216273782774806,0.00025741232093423605,0.0017418673960492015,0,1,-1000,0,0,1,-1,1,0,1500.0
05:09:54.883,STABILIZE,-35.3632622,149.1652375,0,-0.001060662791132927,0.0009743081755004823,0.022405242547392845,0.0002754296874627471,0.00020790949929505587,0.0016874931752681732,0,1,-1000,0,0,0,-1,1,0,1500.0
05:09:55.084,STABILIZE,-35.3632622,149.1652375,0,-0.001060662791132927,0.0009743081755004823,0.022405242547392845,0.0002754296874627471,0.00020790949929505587,0.0016874931752681732,0,1,-1000,0,0,0,-1,1,0,1500.0
05:09:55.285,STABILIZE,-35.3632622,149.1652375,0,-0.001060662791132927,0.0009743081755004823,0.022405242547392845,0.0002754296874627471,0.00020790949929505587,0.0016874931752681732,0,1,-1000,0,0,0,-1,1,0,1500.0
05:09:55.487,STABILIZE,-35.3632622,149.1652375,0,-0.0010584344854578376,0.0009777528466656804,0.022290488705039024,0.00024827406741678715,0.0002731947461143136,0.0016602944815531373,0,1,-1000,1,0,0,-1,1,0,1500.0
05:09:55.688,STABILIZE,-35.3632622,149.1652375,0,-0.0010584344854578376,0.0009777528466656804,0.022290488705039024,0.00024827406741678715,0.0002731947461143136,0.0016602944815531373,0,2,-1000,0,1,1,-1,1,0,1500.0
05:09:55.890,AUTO,-35.3632622,149.1652375,0,-0.0010584344854578376,0.0009777528466656804,0.022290488705039024,0.00024827406741678715,0.0002731947461143136,0.0016602944815531373,0,2,-1000,0,1,1,-1,1,0,1500.0
05:09:56.092,AUTO,-35.3632622,149.1652375,0,-0.0010584344854578376,0.0009777528466656804,0.022290488705039024,0.00024827406741678715,0.0002731947461143136,0.0016602944815531373,0,2,-1000,0,1,1,-1,1,0,1500.0
05:09:56.294,AUTO,-35.3632622,149.1652375,0,-0.0010584344854578376,0.0009777528466656804,0.022290488705039024,0.00024827406741678715,0.0002731947461143136,0.0016602944815531373,0,2,-1000,0,1,1,-1,1,0,1500.0
05:09:56.496,AUTO,-35.3632622,149.1652375,10,-0.0010617434745654464,0.0009923435281962156,0.022083021700382233,0.00029987440211698413,0.00032824312802404165,0.0015901746228337288,0,1,-1000,0,0,0,-1,1,0,287114.0
05:09:56.698,AUTO,-35.3632622,149.1652375,14,-0.0010556636843830347,0.0009947603102773428,0.022035079076886177,0.0001448175753466785,0.00030163093470036983,0.0016115455655381083,0,4,-996,0,0,0,-1,0,-3,287114.0
05:09:56.899,AUTO,-35.3632621,149.1652375,19,-0.0010217183735221624,0.0010217918315902352,0.02198086492717266,0.0002040685503743589,0.0002720169140957296,0.0015725528355687857,0,1,-1000,0,1,0,0,0,-3,287114.0
05:09:57.101,AUTO,-35.3632621,149.1652375,22,-0.0009643147932365537,0.001057006069459021,0.021937694400548935,0.0002984739257954061,0.0002405148115940392,0.0015571059193462133,0,1,-1000,0,1,0,0,0,-3,287114.0
05:09:57.302,AUTO,-35.3632621,149.1652375,22,-0.0009643147932365537,0.001057006069459021,0.021937694400548935,0.0002984739257954061,0.0002405148115940392,0.0015571059193462133,0,1,-1000,0,1,0,0,0,-3,287114.0
05:09:57.504,AUTO,-35.3632621,149.1652375,24,-0.0009004042949527502,0.0010999961523339152,0.021889135241508484,0.00041782885091379285,0.00017581513384357095,0.0015553970588371158,0,2,-1000,1,1,0,0,0,-3,287114.0
05:09:57.706,AUTO,-35.3632621,149.1652375,26,-0.0008473354973830283,0.001151380012743175,0.02182452566921711,0.0002369637368246913,0.00022321200231090188,0.0015263486420735717,0,1,-1000,0,1,0,0,0,-3,287114.0
05:09:57.918,AUTO,-35.3632621,149.1652375,26,-0.0008473354973830283,0.001151380012743175,0.02182452566921711,0.0002369637368246913,0.00022321200231090188,0.0015263486420735717,0,1,-1000,0,1,0,0,0,-3,287114.0
05:09:58.122,AUTO,-35.3632621,149.1652375,26,-0.0008473354973830283,0.001151380012743175,0.02182452566921711,0.0002369637368246913,0.00022321200231090188,0.0015263486420735717,0,1,-1000,0,1,0,0,0,-3,287114.0
05:09:58.324,AUTO,-35.3632621,149.1652375,28,-0.000673111411742866,0.001362212118692696,0.021659838035702705,0.0002865396672859788,0.00024239177582785487,0.0015508413780480623,0,1,-1000,0,0,0,0,0,-2,287114.0
05:09:58.525,AUTO,-35.3632621,149.1652375,28,-0.000673111411742866,0.001362212118692696,0.021659838035702705,0.0002865396672859788,0.00024239177582785487,0.0015508413780480623,0,1,-1000,0,0,0,0,0,-2,287114.0
05:09:58.727,AUTO,-35.3632621,149.1652375,28,-0.0006114806747063994,0.0014302596682682633,0.021595774218440056,0.00029053312027826905,0.0002461766707710922,0.0014653296675533056,0,2,-1000,0,0,0,0,0,-2,287114.0
05:09:58.928,AUTO,-35.3632621,149.1652375,29,-0.0005446627619676292,0.00149923178832978,0.02153286524116993,0.0003877277486026287,0.00030303274979814887,0.0014933530474081635,0,1,-1000,1,1,0,0,0,-2,287114.0
05:09:59.130,AUTO,-35.3632621,149.1652375,29,-0.00047723171883262694,0.0015706022968515754,0.021455734968185425,0.000345072359777987,0.0001977375359274447,0.0014197826385498047,0,2,-1000,0,1,1,0,0,-1,287114.0
05:09:59.331,AUTO,-35.3632621,149.1652375,29,-0.0004063915694132447,0.0016442131018266082,0.021383484825491905,0.0004001377383247018,0.0002999732387252152,0.001438491977751255,0,2,-1000,0,1,0,0,1,-1,287114.0
05:09:59.533,AUTO,-35.3632621,149.1652375,29,-0.0004063915694132447,0.0016442131018266082,0.021383484825491905,0.0004001377383247018,0.0002999732387252152,0.001438491977751255,0,2,-1000,0,1,0,0,1,-1,287114.0
05:09:59.735,AUTO,-35.3632621,149.1652375,29,-0.00033635663567110896,0.0017174392705783248,0.021311698481440544,0.00032187107717618346,0.0002859872183762491,0.0014163798186928034,0,1,-1000,0,1,0,0,1,-1,287114.0
05:09:59.937,AUTO,-35.3632621,149.1652375,29,-0.00033635663567110896,0.0017174392705783248,0.021311698481440544,0.00032187107717618346,0.0002859872183762491,0.0014163798186928034,0,1,-1000,0,1,0,0,1,-1,287114.0
05:10:00.139,AUTO,-35.3632621,149.1652375,29,-0.00033635663567110896,0.0017174392705783248,0.021311698481440544,0.00032187107717618346,0.0002859872183762491,0.0014163798186928034,0,1,-1000,0,1,0,0,1,-1,287114.0
05:10:00.340,AUTO,-35.3632621,149.1652375,228,0.0019081967184320092,0.0002499503316357732,0.021090280264616013,-0.003329433035105467,0.004856203682720661,0.001700915745459497,0,0,-1130,-2,5,1,0,1,-74,287114.0
05:10:00.542,AUTO,-35.3632621,149.1652375,228,0.0019081967184320092,0.0002499503316357732,0.021090280264616013,-0.003329433035105467,0.004856203682720661,0.001700915745459497,0,0,-1130,-2,5,1,0,1,-74,129785.0
05:10:00.744,AUTO,-35.3632621,149.1652375,447,0.0015212928410619497,0.001051038852892816,0.021135639399290085,0.0001753208925947547,0.0021410381887108088,0.0021316285710781813,0,0,-1109,0,2,1,0,1,-103,129785.0
05:10:00.946,AUTO,-35.3632621,149.1652375,733,0.0021911330986768007,0.0014929354656487703,0.0208743829280138,0.01774335838854313,-0.0005677698645740747,-0.00011161839938722551,0,0,-1086,18,0,0,0,1,-127,129785.0
05:10:01.148,AUTO,-35.3632621,149.1652375,1073,0.012774283066391945,0.0003350130864419043,0.020651666447520256,0.048035264015197754,-0.006313778460025787,0.0014032881008461118,0,0,-1038,48,-5,1,0,2,-140,129785.0
05:10:01.349,AUTO,-35.363262,149.1652375,1438,0.024599585682153702,-0.0013891702983528376,0.020655987784266472,0.046626802533864975,-0.007217733189463615,0.002302285749465227,0,0,-1016,47,-6,1,1,6,-146,129785.0
05:10:01.551,AUTO,-35.363262,149.1652375,1438,0.024599585682153702,-0.0013891702983528376,0.020655987784266472,0.046626802533864975,-0.007217733189463615,0.002302285749465227,0,0,-1016,47,-6,1,1,6,-146,129785.0
05:10:01.753,AUTO,-35.363262,149.1652377,1815,0.036000147461891174,-0.003293111454695463,0.02079743519425392,0.04532306641340256,-0.007908971048891544,0.0030860567931085825,0,-1,-1006,45,-7,2,2,13,-148,129785.0
05:10:01.955,AUTO,-35.363262,149.1652377,1815,0.036000147461891174,-0.003293111454695463,0.02079743519425392,0.04532306641340256,-0.007908971048891544,0.0030860567931085825,0,-1,-1006,45,-7,2,2,13,-148,129785.0
05:10:02.156,AUTO,-35.363262,149.1652377,1815,0.036000147461891174,-0.003293111454695463,0.02079743519425392,0.04532306641340256,-0.007908971048891544,0.0030860567931085825,0,-1,-1006,45,-7,2,2,13,-148,129785.0
05:10:02.358,AUTO,-35.3632616,149.1652399,2961,0.061651818454265594,-0.007854629307985306,-0.009417918510735035,-0.0324978232383728,0.040114983916282654,-0.06285329908132553,1,-7,-991,-31,40,-63,9,45,-147,129785.0
05:10:02.561,AUTO,-35.3632613,149.1652412,3340,0.03644845262169838,0.01615416631102562,-0.033453404903411865,-0.1524869054555893,0.08664797246456146,-0.09914743155241013,4,-13,-992,-151,87,-99,9,54,-145,129785.0
05:10:02.763,AUTO,-35.3632613,149.1652412,3340,0.03644845262169838,0.01615416631102562,-0.033453404903411865,-0.1524869054555893,0.08664797246456146,-0.09914743155241013,4,-13,-992,-151,87,-99,9,54,-145,129785.0
05:10:02.965,AUTO,-35.3632611,149.1652426,3714,-0.005938191898167133,0.02360876090824604,-0.05177149549126625,-0.1315862238407135,-0.0095869405195117,-0.05839644744992256,4,-11,-1009,-131,-8,-58,6,54,-145,129785.0
05:10:03.167,AUTO,-35.363261,149.165244,4092,-0.024146106094121933,0.015209443867206573,-0.060693223029375076,-0.04032561928033829,-0.03638963773846626,-0.035641636699438095,5,-13,-1010,-39,-35,-36,3,47,-148,129785.0
05:10:03.368,AUTO,-35.3632609,149.1652451,4474,-0.036404404789209366,0.007664756383746862,-0.06738593429327011,-0.06184356287121773,-0.019725389778614044,-0.03405888006091118,3,-6,-1003,-60,-19,-34,1,37,-149,129785.0
05:10:03.570,AUTO,-35.3632608,149.1652459,4861,-0.0568021759390831,0.004003917332738638,-0.07509807497262955,-0.09551074355840683,-0.007134518586099148,-0.03367228806018829,3,-6,-999,-94,-6,-34,1,23,-149,129785.0
05:10:03.773,AUTO,-35.3632608,149.1652459,4861,-0.0568021759390831,0.004003917332738638,-0.07509807497262955,-0.09551074355840683,-0.007134518586099148,-0.03367228806018829,3,-6,-999,-94,-6,-34,1,23,-149,129785.0
05:10:03.975,AUTO,-35.3632608,149.1652459,4861,-0.0568021759390831,0.004003917332738638,-0.07509807497262955,-0.09551074355840683,-0.007134518586099148,-0.03367228806018829,3,-6,-999,-94,-6,-34,1,23,-149,129785.0
05:10:04.178,AUTO,-35.3632608,149.1652459,4861,-0.0568021759390831,0.004003917332738638,-0.07509807497262955,-0.09551074355840683,-0.007134518586099148,-0.03367228806018829,3,-6,-999,-94,-6,-34,1,23,-149,129785.0
05:10:04.380,AUTO,-35.3632609,149.1652456,6007,-0.06602557748556137,-0.00021865677263122052,-0.09571602195501328,0.05349215865135193,-0.0018607941456139088,-0.016432588919997215,-2,5,-1001,54,-1,-16,-2,-32,-149,129785.0
05:10:04.581,AUTO,-35.3632609,149.1652445,6390,-0.05200884863734245,-0.000124729034723714,-0.09958184510469437,0.058524686843156815,0.0031039901077747345,-0.010426800698041916,-4,6,-1000,59,3,-10,-4,-45,-149,256639.0
05:10:04.783,AUTO,-35.3632609,149.1652445,6390,-0.05200884863734245,-0.000124729034723714,-0.09958184510469437,0.058524686843156815,0.0031039901077747345,-0.010426800698041916,-4,6,-1000,59,3,-10,-4,-45,-149,256639.0
05:10:04.985,AUTO,-35.363261,149.1652431,6774,-0.03673427551984787,0.001245560823008418,-0.10214560478925705,0.06309990584850311,0.0079201003536582,-0.006585315801203251,-4,10,-1001,63,8,-7,-6,-54,-149,256639.0
05:10:05.187,AUTO,-35.3632611,149.1652415,7158,-0.020717911422252655,0.0035063226241618395,-0.1035456657409668,0.06650270521640778,0.010587271302938461,-0.0032136095687747,-5,12,-1002,66,11,-3,-8,-59,-149,256639.0
05:10:05.389,AUTO,-35.3632614,149.1652398,7543,-0.004117500968277454,0.006249414291232824,-0.10420218110084534,0.06739600747823715,0.010876641608774662,-0.0008289280813187361,-6,12,-1003,68,11,-1,-11,-60,-150,256639.0
05:10:05.592,AUTO,-35.3632617,149.1652381,7931,0.012777949683368206,0.008895219303667545,-0.10412924736738205,0.06796559691429138,0.010334811173379421,0.0006037037819623947,-5,13,-1004,68,10,0,-13,-56,-151,256639.0
05:10:05.794,AUTO,-35.3632617,149.1652381,7931,0.012777949683368206,0.008895219303667545,-0.10412924736738205,0.06796559691429138,0.010334811173379421,0.0006037037819623947,-5,13,-1004,68,10,0,-13,-56,-151,256639.0
05:10:05.997,AUTO,-35.3632617,149.1652381,7931,0.012777949683368206,0.008895219303667545,-0.10412924736738205,0.06796559691429138,0.010334811173379421,0.0006037037819623947,-5,13,-1004,68,10,0,-13,-56,-151,256639.0
05:10:06.199,AUTO,-35.3632617,149.1652381,7931,0.012777949683368206,0.008895219303667545,-0.10412924736738205,0.06796559691429138,0.010334811173379421,0.0006037037819623947,-5,13,-1004,68,10,0,-13,-56,-151,256639.0
05:10:06.400,AUTO,-35.3632628,149.1652346,9104,0.06169761344790459,0.01209612563252449,-0.1011696383357048,0.06187760829925537,-0.0030263562221080065,0.004913509823381901,0,9,-1002,62,-2,4,-19,-21,-153,256639.0
05:10:06.602,AUTO,-35.3632633,149.1652342,9500,0.07263291627168655,0.0073119704611599445,-0.0962555930018425,0.006291395053267479,-0.048337046056985855,0.049029819667339325,2,5,-995,7,-47,48,-20,-3,-152,256639.0
05:10:06.804,AUTO,-35.3632633,149.1652342,9500,0.07263291627168655,0.0073119704611599445,-0.0962555930018425,0.006291395053267479,-0.048337046056985855,0.049029819667339325,2,5,-995,7,-47,48,-20,-3,-152,256639.0
05:10:07.006,AUTO,-35.3632637,149.1652342,9889,0.06355559825897217,-0.018078893423080444,-0.0758708268404007,-0.05980093404650688,-0.12616847455501556,0.11687410622835159,3,1,-995,-59,-125,116,-16,13,-150,256639.0
05:10:07.207,AUTO,-35.3632639,149.1652346,10273,0.04303077235817909,-0.05036291852593422,-0.04891237989068031,-0.11071456223726273,-0.07800958305597305,0.07870802283287048,4,-1,-994,-110,-77,78,-5,24,-148,256639.0
05:10:07.409,AUTO,-35.3632639,149.1652353,10653,0.012807600200176239,-0.049486007541418076,-0.04386591538786888,-0.11235076934099197,0.054924849420785904,-0.01548774354159832,4,-4,-1000,-111,55,-16,9,29,-147,256639.0
05:10:07.611,AUTO,-35.3632635,149.165236,11032,-0.010261920280754566,-0.03120938129723072,-0.05518093332648277,-0.07489915937185287,0.07502032816410065,-0.06054024398326874,0,-7,-1004,-74,75,-61,19,26,-148,256639.0
05:10:07.813,AUTO,-35.3632635,149.165236,11032,-0.010261920280754566,-0.03120938129723072,-0.05518093332648277,-0.07489915937185287,0.07502032816410065,-0.06054024398326874,0,-7,-1004,-74,75,-61,19,26,-148,256639.0
05:10:08.028,AUTO,-35.3632635,149.165236,11032,-0.010261920280754566,-0.03120938129723072,-0.05518093332648277,-0.07489915937185287,0.07502032816410065,-0.06054024398326874,0,-7,-1004,-74,75,-61,19,26,-148,256639.0
05:10:08.230,AUTO,-35.3632635,149.165236,11032,-0.010261920280754566,-0.03120938129723072,-0.05518093332648277,-0.07489915937185287,0.07502032816410065,-0.06054024398326874,0,-7,-1004,-74,75,-61,19,26,-148,256639.0
05:10:08.432,AUTO,-35.363262,149.1652371,12184,-0.02669750526547432,0.004775558598339558,-0.11055491119623184,0.01184034626930952,0.03033534809947014,-0.06819948554039001,-5,-5,-1003,12,30,-68,24,1,-151,256639.0
05:10:08.634,AUTO,-35.3632615,149.165237,12573,-0.021825965493917465,0.010496024042367935,-0.12635496258735657,0.024839740246534348,0.020566284656524658,-0.05662432312965393,-5,-2,-1002,25,21,-57,21,-5,-151,251894.0
05:10:08.836,AUTO,-35.363261,149.1652369,12963,-0.0152285723015666,0.014963462948799133,-0.1394529789686203,0.031169600784778595,0.018141813576221466,-0.0453888475894928,-5,-1,-1001,31,18,-45,16,-10,-152,251894.0
05:10:09.037,AUTO,-35.363261,149.1652369,12963,-0.0152285723015666,0.014963462948799133,-0.1394529789686203,0.031169600784778595,0.018141813576221466,-0.0453888475894928,-5,-1,-1001,31,18,-45,16,-10,-152,251894.0
05:10:09.239,AUTO,-35.3632607,149.1652365,13353,-0.00701917102560401,0.018311619758605957,-0.14960184693336487,0.034460101276636124,0.01244891807436943,-0.035485632717609406,-5,0,-1000,35,13,-35,11,-13,-152,251894.0
05:10:09.440,AUTO,-35.3632605,149.1652361,13744,0.001656896318309009,0.0200660340487957,-0.15663576126098633,0.032774463295936584,0.003963288851082325,-0.022355053573846817,-4,1,-1000,33,4,-22,6,-13,-152,251894.0
05:10:09.642,AUTO,-35.3632603,149.1652358,14136,0.008009759709239006,0.020500579848885536,-0.16108520328998566,0.024175245314836502,0.0003596767201088369,-0.01414391677826643,-3,1,-999,24,1,-14,1,-11,-152,251894.0
05:10:09.844,AUTO,-35.3632603,149.1652358,14136,0.008009759709239006,0.020500579848885536,-0.16108520328998566,0.024175245314836502,0.0003596767201088369,-0.01414391677826643,-3,1,-999,24,1,-14,1,-11,-152,251894.0
05:10:10.046,AUTO,-35.3632603,149.1652358,14136,0.008009759709239006,0.020500579848885536,-0.16108520328998566,0.024175245314836502,0.0003596767201088369,-0.01414391677826643,-3,1,-999,24,1,-14,1,-11,-152,251894.0
05:10:10.248,AUTO,-35.3632603,149.1652358,14136,0.008009759709239006,0.020500579848885536,-0.16108520328998566,0.024175245314836502,0.0003596767201088369,-0.01414391677826643,-3,1,-999,24,1,-14,1,-11,-152,251894.0
05:10:10.449,AUTO,-35.3632604,149.1652351,15306,0.014448187313973904,0.014186471700668335,-0.16258300840854645,-0.0030158585868775845,-0.009988215751945972,0.0007145898416638374,0,1,-999,-2,-9,0,-8,0,-151,251894.0
05:10:10.651,AUTO,-35.3632606,149.1652351,15695,0.013141538947820663,0.011511501856148243,-0.1621699184179306,-0.006302492693066597,-0.009973551146686077,-0.00018347377772442997,1,1,-999,-5,-9,0,-10,2,-151,251894.0
05:10:10.853,AUTO,-35.3632608,149.1652351,16082,0.011075363494455814,0.008932961151003838,-0.16219446063041687,-0.009964080527424812,-0.009737106040120125,-0.000653554976452142,1,1,-999,-9,-8,0,-11,5,-151,251894.0
05:10:11.054,AUTO,-35.3632608,149.1652351,16082,0.011075363494455814,0.008932961151003838,-0.16219446063041687,-0.009964080527424812,-0.009737106040120125,-0.000653554976452142,1,1,-999,-9,-8,0,-11,5,-151,251894.0
05:10:11.256,AUTO,-35.363261,149.1652352,16478,0.008818525820970535,0.00614396994933486,-0.16261030733585358,-0.007574629504233599,-0.010348396375775337,-0.0031086402013897896,2,0,-1000,-7,-9,-3,-11,7,-151,251894.0
05:10:11.458,AUTO,-35.3632612,149.1652353,16866,0.006255641579627991,0.003948505036532879,-0.16404809057712555,-0.004424188286066055,-0.007523073349148035,-0.008167427964508533,2,0,-1001,-3,-6,-8,-11,8,-151,251894.0
05:10:11.661,AUTO,-35.3632614,149.1652355,17254,0.004600996151566505,0.001974220620468259,-0.16620025038719177,-0.00610967306420207,-0.006568003445863724,-0.01065362524241209,2,0,-1000,-5,-5,-10,-10,9,-151,251894.0
05:10:11.863,AUTO,-35.3632614,149.1652355,17254,0.004600996151566505,0.001974220620468259,-0.16620025038719177,-0.00610967306420207,-0.006568003445863724,-0.01065362524241209,2,0,-1000,-5,-5,-10,-10,9,-151,251894.0
05:10:12.065,AUTO,-35.3632614,149.1652355,17254,0.004600996151566505,0.001974220620468259,-0.16620025038719177,-0.00610967306420207,-0.006568003445863724,-0.01065362524241209,2,0,-1000,-5,-5,-10,-10,9,-151,200.0
05:10:12.268,AUTO,-35.3632614,149.1652355,17254,0.004600996151566505,0.001974220620468259,-0.16620025038719177,-0.00610967306420207,-0.006568003445863724,-0.01065362524241209,2,0,-1000,-5,-5,-10,-10,9,-151,200.0
05:10:12.469,AUTO,-35.3632618,149.165236,18413,0.0003484369080979377,-0.0012201097561046481,-0.1777651458978653,-0.0034566358663141727,0.0004939116188324988,-0.022751353681087494,1,0,-1000,-2,1,-22,-6,7,-152,200.0
05:10:12.671,AUTO,-35.3632619,149.1652361,18802,-0.0003522073966450989,-0.0009780193213373423,-0.18352651596069336,-0.001794520765542984,0.002783821430057287,-0.023644570261240005,1,0,-1000,-1,3,-23,-5,6,-152,200.0
05:10:12.872,AUTO,-35.363262,149.1652363,19193,-0.0005956626264378428,-0.0007256040698848665,-0.189520925283432,0.0006719820667058229,0.0008245095959864557,-0.022771010175347328,0,0,-1000,1,1,-23,-4,5,-152,200.0
05:10:13.074,AUTO,-35.363262,149.1652363,19582,6.044057590770535e-05,-0.0005217197467572987,-0.1956167370080948,0.0029842935036867857,0.0006558254826813936,-0.023021971806883812,0,0,-1000,3,1,-23,-3,4,-152,200.0
05:10:13.275,AUTO,-35.363262,149.1652363,19582,6.044057590770535e-05,-0.0005217197467572987,-0.1956167370080948,0.0029842935036867857,0.0006558254826813936,-0.023021971806883812,0,0,-1000,3,1,-23,-3,4,-152,200.0
05:10:13.477,AUTO,-35.3632621,149.1652364,19971,0.0005812424933537841,0.0001322501921094954,-0.20208680629730225,0.0020991943310946226,0.002366643864661455,-0.023947114124894142,0,0,-1000,2,2,-24,-2,3,-152,200.0
05:10:13.679,AUTO,-35.3632621,149.1652364,20360,0.0011959486873820424,0.0005163713358342648,-0.20836949348449707,0.003936199005693197,0.004286203067749739,-0.026826778426766396,0,0,-1000,4,5,-27,-1,3,-152,200.0
05:10:13.881,AUTO,-35.3632621,149.1652364,20360,0.0011959486873820424,0.0005163713358342648,-0.20836949348449707,0.003936199005693197,0.004286203067749739,-0.026826778426766396,0,0,-1000,4,5,-27,-1,3,-152,200.0
05:10:14.083,AUTO,-35.3632621,149.1652364,20360,0.0011959486873820424,0.0005163713358342648,-0.20836949348449707,0.003936199005693197,0.004286203067749739,-0.026826778426766396,0,0,-1000,4,5,-27,-1,3,-152,200.0
05:10:14.284,AUTO,-35.3632621,149.1652364,20360,0.0011959486873820424,0.0005163713358342648,-0.20836949348449707,0.003936199005693197,0.004286203067749739,-0.026826778426766396,0,0,-1000,4,5,-27,-1,3,-152,200.0
05:10:14.486,AUTO,-35.363262,149.1652365,21536,0.002871154109016061,0.002410170389339328,-0.2267606407403946,0.0025252143386751413,0.0024346248246729374,-0.022812051698565483,0,0,-1000,3,3,-23,-1,2,-152,200.0
05:10:14.688,AUTO,-35.363262,149.1652365,21926,0.0032461395021528006,0.0027465326711535454,-0.23238597810268402,0.0012508351355791092,0.0021818422246724367,-0.022318074479699135,0,0,-1000,2,3,-22,-1,2,-152,200.0
05:10:14.889,AUTO,-35.363262,149.1652365,22315,0.003583502722904086,0.0033871366176754236,-0.23818407952785492,0.0008705019135959446,0.003536375006660819,-0.024557307362556458,0,0,-1000,1,4,-24,-1,2,-152,200.0
05:10:15.091,AUTO,-35.363262,149.1652365,22705,0.0037291774060577154,0.0037374193780124187,-0.2435246855020523,0.000339744845405221,-0.00019504566444084048,-0.018611596897244453,0,0,-1000,1,0,-19,-1,3,-152,200.0
05:10:15.293,AUTO,-35.363262,149.1652365,22705,0.0037291774060577154,0.0037374193780124187,-0.2435246855020523,0.000339744845405221,-0.00019504566444084048,-0.018611596897244453,0,0,-1000,1,0,-19,-1,3,-152,200.0
05:10:15.495,AUTO,-35.363262,149.1652365,23094,0.003378991037607193,0.0035042641684412956,-0.24846512079238892,-0.0017366583924740553,-0.0013238919200375676,-0.01944207400083542,0,0,-1000,0,0,-19,-1,3,-152,200.0
05:10:15.697,AUTO,-35.363262,149.1652366,23484,0.003135276958346367,0.0035172109492123127,-0.25347423553466797,0.001057736575603485,0.0013789674267172813,-0.01975584216415882,0,0,-1000,1,2,-19,-1,3,-152,200.0
05:10:15.899,AUTO,-35.363262,149.1652366,23484,0.003135276958346367,0.0035172109492123127,-0.25347423553466797,0.001057736575603485,0.0013789674267172813,-0.01975584216415882,0,0,-1000,1,2,-19,-1,3,-152,200.0
05:10:16.100,AUTO,-35.363262,149.1652366,23484,0.003135276958346367,0.0035172109492123127,-0.25347423553466797,0.001057736575603485,0.0013789674267172813,-0.01975584216415882,0,0,-1000,1,2,-19,-1,3,-152,300000.0
05:10:16.302,AUTO,-35.363262,149.1652366,23484,0.003135276958346367,0.0035172109492123127,-0.25347423553466797,0.001057736575603485,0.0013789674267172813,-0.01975584216415882,0,0,-1000,1,2,-19,-1,3,-152,300000.0
05:10:16.504,AUTO,-35.363262,149.1652367,24651,0.002315876539796591,0.002719029551371932,-0.2671270966529846,-0.002924762200564146,-0.00024663645308464766,-0.018943311646580696,0,0,-1000,-1,0,-19,-1,3,-152,300000.0
05:10:16.705,AUTO,-35.363262,149.1652367,25040,0.00010124638356501237,0.002948333276435733,-0.2711910605430603,-0.07714924961328506,0.009777705185115337,0.00028216413920745254,0,-3,-982,-76,10,0,-1,3,-151,300000.0
05:10:16.907,AUTO,-35.363262,149.1652368,25430,-0.010827308520674706,0.006049540359526873,-0.26914238929748535,-0.005415524356067181,0.00655231112614274,0.01555565744638443,0,0,-1002,-4,7,15,-2,1,-151,300000.0
05:10:17.108,AUTO,-35.3632621,149.1652367,25818,-0.00472731189802289,0.006231129169464111,-0.26456356048583984,0.035134609788656235,-0.003711527679115534,0.021548431366682053,0,0,-1004,35,-2,21,-4,0,-152,300000.0
05:10:17.310,AUTO,-35.3632621,149.1652367,25818,-0.00472731189802289,0.006231129169464111,-0.26456356048583984,0.035134609788656235,-0.003711527679115534,0.021548431366682053,0,0,-1004,35,-2,21,-4,0,-152,300000.0
05:10:17.511,AUTO,-35.3632622,149.1652367,26207,0.0031033458653837442,0.005194821860641241,-0.2582952380180359,0.02768815867602825,-0.004693213384598494,0.027740715071558952,0,0,-1001,28,-4,27,-5,0,-152,300000.0
05:10:17.713,AUTO,-35.3632622,149.1652367,26596,0.008032213896512985,0.004030287731438875,-0.2511121332645416,0.012302323244512081,-0.002304765162989497,0.029410678893327713,0,0,-999,12,-1,29,-5,0,-152,300000.0
05:10:17.926,AUTO,-35.3632622,149.1652367,26596,0.008032213896512985,0.004030287731438875,-0.2511121332645416,0.012302323244512081,-0.002304765162989497,0.029410678893327713,0,0,-999,12,-1,29,-5,0,-152,300000.0
05:10:18.128,AUTO,-35.3632622,149.1652367,26596,0.008032213896512985,0.004030287731438875,-0.2511121332645416,0.012302323244512081,-0.002304765162989497,0.029410678893327713,0,0,-999,12,-1,29,-5,0,-152,300000.0
05:10:18.330,AUTO,-35.3632624,149.1652367,27757,0.008958222344517708,0.0016695052618160844,-0.23146212100982666,-0.005871160887181759,-0.001837799558416009,0.024071432650089264,0,0,-999,-4,-1,23,-3,6,-152,300000.0
05:10:18.532,AUTO,-35.3632624,149.1652367,27757,0.008958222344517708,0.0016695052618160844,-0.23146212100982666,-0.005871160887181759,-0.001837799558416009,0.024071432650089264,0,0,-999,-4,-1,23,-3,6,-152,300000.0
05:10:18.733,AUTO,-35.3632624,149.1652369,28146,0.0075214216485619545,0.0015151540283113718,-0.2256457656621933,-0.005359020084142685,0.0028039508033543825,0.021483493968844414,0,0,-1000,-4,3,21,-2,7,-152,300000.0
05:10:18.935,AUTO,-35.3632624,149.165237,28533,0.005691869650036097,0.0016759233549237251,-0.2201623171567917,-0.010228321887552738,-0.0003555464791134,0.022262459620833397,1,-1,-1000,-9,0,22,-1,8,-152,300000.0
05:10:19.136,AUTO,-35.3632624,149.1652372,28920,0.003671038430184126,0.0014057145453989506,-0.21494261920452118,-0.010550282895565033,-0.002247490920126438,0.02047237567603588,1,-1,-1000,-9,-1,20,-1,8,-152,300000.0
05:10:19.338,AUTO,-35.3632624,149.1652374,29309,0.0018365592695772648,0.0013449281686916947,-0.2098999321460724,-0.004991030320525169,0.00048025528667494655,0.021087471395730972,1,-1,-1000,-4,1,20,0,8,-152,300000.0
05:10:19.540,AUTO,-35.3632624,149.1652374,29309,0.0018365592695772648,0.0013449281686916947,-0.2098999321460724,-0.004991030320525169,0.00048025528667494655,0.021087471395730972,1,-1,-1000,-4,1,20,0,8,-152,300000.0
05:10:19.741,AUTO,-35.3632624,149.1652376,29696,0.0004480891511775553,0.001548178493976593,-0.20494742691516876,-0.005642080679535866,0.001308227190747857,0.020851152017712593,0,-1,-1000,-4,2,20,0,8,-152,300000.0
05:10:19.943,AUTO,-35.3632624,149.1652376,29696,0.0004480891511775553,0.001548178493976593,-0.20494742691516876,-0.005642080679535866,0.001308227190747857,0.020851152017712593,0,-1,-1000,-4,2,20,0,8,-152,300000.0
05:10:20.146,AUTO,-35.3632624,149.1652376,29696,0.0004480891511775553,0.001548178493976593,-0.20494742691516876,-0.005642080679535866,0.001308227190747857,0.020851152017712593,0,-1,-1000,-4,2,20,0,8,-152,100153.0
05:10:20.348,AUTO,-35.3632624,149.165238,30861,-0.0014587081968784332,0.0013601992977783084,-0.1915125846862793,-0.0022465060465037823,-0.000441848358605057,0.018466738983988762,0,0,-1000,-1,0,18,0,5,-152,100153.0
05:10:20.549,AUTO,-35.3632624,149.165238,30861,-0.0014587081968784332,0.0013601992977783084,-0.1915125846862793,-0.0022465060465037823,-0.000441848358605057,0.018466738983988762,0,0,-1000,-1,0,18,0,5,-152,100153.0
05:10:20.751,AUTO,-35.3632624,149.1652381,31249,-0.0014210899826139212,0.0012529381783679128,-0.187236487865448,0.0043386053293943405,4.614749923348427e-05,0.01748708449304104,0,0,-1000,5,0,17,0,4,-152,100153.0
05:10:20.953,AUTO,-35.3632624,149.1652381,31637,-0.0011795954778790474,0.0012159073958173394,-0.18319503962993622,-0.0013286067405715585,-0.00045606488129124045,0.015352413058280945,0,0,-1000,0,0,15,0,3,-152,100153.0
05:10:21.154,AUTO,-35.3632624,149.1652381,32025,-0.0008383305976167321,0.0012246782425791025,-0.17924655973911285,4.1121034882962704e-05,-0.0015046517364680767,0.014985972084105015,0,0,-1000,1,0,14,0,2,-152,100153.0
05:10:21.356,AUTO,-35.3632624,149.1652381,32414,-0.0004532400344032794,0.0010959996143355966,-0.175492063164711,0.003112295875325799,-0.0013405757490545511,0.014046862721443176,0,0,-1001,4,0,13,0,1,-152,100153.0
05:10:21.558,AUTO,-35.3632624,149.1652381,32414,-0.0004532400344032794,0.0010959996143355966,-0.175492063164711,0.003112295875325799,-0.0013405757490545511,0.014046862721443176,0,0,-1001,4,0,13,0,1,-152,100153.0
05:10:21.760,AUTO,-35.3632623,149.1652381,32802,-9.025387407746166e-05,0.0009648861014284194,-0.17188026010990143,-0.0005007603904232383,0.0011104571167379618,0.015864061191678047,0,0,-999,0,2,15,0,1,-152,100153.0
05:10:21.962,AUTO,-35.3632623,149.1652381,32802,-9.025387407746166e-05,0.0009648861014284194,-0.17188026010990143,-0.0005007603904232383,0.0011104571167379618,0.015864061191678047,0,0,-999,0,2,15,0,1,-152,100153.0
05:10:22.164,AUTO,-35.3632623,149.1652381,32802,-9.025387407746166e-05,0.0009648861014284194,-0.17188026010990143,-0.0005007603904232383,0.0011104571167379618,0.015864061191678047,0,0,-999,0,2,15,0,1,-152,100153.0
05:10:22.365,AUTO,-35.3632623,149.1652381,33968,0.0009181499481201172,0.000947345222812146,-0.1614767611026764,-0.0010344644542783499,0.0018839375115931034,0.01360385399311781,0,0,-999,0,2,13,0,0,-152,100153.0
05:10:22.567,AUTO,-35.3632623,149.1652381,33968,0.0009181499481201172,0.000947345222812146,-0.1614767611026764,-0.0010344644542783499,0.0018839375115931034,0.01360385399311781,0,0,-999,0,2,13,0,0,-152,100153.0
05:10:22.769,AUTO,-35.3632623,149.1652381,34357,0.0010950443102046847,0.001300764735788107,-0.15833593904972076,0.004317778628319502,0.0011532045900821686,0.011854722164571285,0,0,-1001,5,2,11,0,0,-152,100153.0
05:10:22.970,AUTO,-35.3632623,149.1652381,34750,0.0012153040152043104,0.00127260887529701,-0.15520688891410828,0.000783568131737411,0.0009308024309575558,0.014185716398060322,0,0,-1000,1,2,13,0,0,-152,100153.0
05:10:23.171,AUTO,-35.3632623,149.165238,35138,0.0010617689695209265,0.0012915261322632432,-0.15236221253871918,-0.003663498442620039,-0.0010098062921315432,0.012984706088900566,0,0,-1000,-2,0,13,0,0,-152,100153.0
05:10:23.373,AUTO,-35.3632622,149.165238,35525,0.001031339867040515,0.0012007144978269935,-0.1495371013879776,0.004658331163227558,0.00011260167229920626,0.01276300847530365,0,0,-1000,5,1,12,0,0,-152,100153.0
05:10:23.575,AUTO,-35.3632622,149.165238,35914,0.0011484547285363078,0.0012785391882061958,-0.14686693251132965,0.001788570312783122,0.0015487485798075795,0.010920829139649868,0,0,-1000,2,2,10,0,0,-152,100153.0
05:10:23.776,AUTO,-35.3632622,149.165238,35914,0.0011484547285363078,0.0012785391882061958,-0.14686693251132965,0.001788570312783122,0.0015487485798075795,0.010920829139649868,0,0,-1000,2,2,10,0,0,-152,100153.0
05:10:23.978,AUTO,-35.3632622,149.165238,35914,0.0011484547285363078,0.0012785391882061958,-0.14686693251132965,0.001788570312783122,0.0015487485798075795,0.010920829139649868,0,0,-1000,2,2,10,0,0,-152,100153.0
05:10:24.180,AUTO,-35.3632622,149.165238,35914,0.0011484547285363078,0.0012785391882061958,-0.14686693251132965,0.001788570312783122,0.0015487485798075795,0.010920829139649868,0,0,-1000,2,2,10,0,0,-152,93200.0
05:10:24.381,AUTO,-35.3632622,149.165238,35914,0.0011484547285363078,0.0012785391882061958,-0.14686693251132965,0.001788570312783122,0.0015487485798075795,0.010920829139649868,0,0,-1000,2,2,10,0,0,-152,93200.0
05:10:24.583,AUTO,-35.3632622,149.1652378,37235,0.0015976735157892108,0.0009627551771700382,-0.1383352279663086,0.0015387805178761482,-0.0007590901805087924,0.009224986657500267,0,0,-1001,2,0,8,0,0,-152,93200.0
05:10:24.785,AUTO,-35.3632622,149.1652378,37623,0.0018295904155820608,0.0012478084536269307,-0.13596870005130768,-0.00045787973795086145,0.00025376008125022054,0.009618484415113926,0,0,-1000,0,1,9,0,0,-152,93200.0
05:10:24.986,AUTO,-35.3632622,149.1652378,38012,0.0017703549237921834,0.0013988082064315677,-0.13375172019004822,-0.0025421450845897198,-0.000667172425892204,0.009973177686333656,0,0,-1000,-1,0,9,0,0,-152,93200.0
05:10:25.188,AUTO,-35.3632622,149.1652377,38400,0.0019600021187216043,0.0014694093260914087,-0.1314862072467804,0.004531731829047203,0.0022988300770521164,0.010043136775493622,0,0,-1000,5,3,9,0,0,-152,93200.0
05:10:25.389,AUTO,-35.3632622,149.1652377,38400,0.0019600021187216043,0.0014694093260914087,-0.1314862072467804,0.004531731829047203,0.0022988300770521164,0.010043136775493622,0,0,-1000,5,3,9,0,0,-152,93200.0
05:10:25.592,AUTO,-35.3632621,149.1652377,38789,0.0020946080330759287,0.0016482110368087888,-0.12937889993190765,0.000363588216714561,0.001237688586115837,0.006315392907708883,0,0,-1000,1,2,6,0,0,-152,93200.0
05:10:25.794,AUTO,-35.3632621,149.1652376,39176,0.0022041976917535067,0.0017362564103677869,-0.12732771039009094,0.002503066323697567,0.0013778515858575702,0.009724052622914314,0,0,-1000,3,2,9,0,0,-152,93200.0
05:10:25.995,AUTO,-35.3632621,149.1652376,39176,0.0022041976917535067,0.0017362564103677869,-0.12732771039009094,0.002503066323697567,0.0013778515858575702,0.009724052622914314,0,0,-1000,3,2,9,0,0,-152,93200.0
05:10:26.197,AUTO,-35.3632621,149.1652376,39176,0.0022041976917535067,0.0017362564103677869,-0.12732771039009094,0.002503066323697567,0.0013778515858575702,0.009724052622914314,0,0,-1000,3,2,9,0,0,-152,93200.0
05:10:26.399,AUTO,-35.3632621,149.1652376,39176,0.0022041976917535067,0.0017362564103677869,-0.12732771039009094,0.002503066323697567,0.0013778515858575702,0.009724052622914314,0,0,-1000,3,2,9,0,0,-152,93200.0
05:10:26.601,AUTO,-35.3632621,149.1652376,40341,0.0018664997769519687,0.0016667187446728349,-0.12161968648433685,-0.001533174654468894,-0.0008841828093864024,0.006748360116034746,0,0,-1000,0,0,6,0,0,-152,93200.0
05:10:26.802,AUTO,-35.3632621,149.1652376,40730,0.0016876517329365015,0.0014972747303545475,-0.11978662759065628,-0.001434036297723651,0.0005646331701427698,0.009052456356585026,0,0,-1000,0,1,9,0,0,-152,93200.0
05:10:27.003,AUTO,-35.3632621,149.1652375,41118,0.0018017588881775737,0.0014376082690432668,-0.11801943928003311,0.0016992561286315322,0.0003962836926802993,0.009919879026710987,0,0,-999,2,1,9,0,0,-152,93200.0
05:10:27.205,AUTO,-35.3632621,149.1652375,41506,0.0017549629556015134,0.0018181094201281667,-0.11616060137748718,0.0031454223208129406,0.0022637322545051575,0.00948338769376278,0,0,-1000,4,3,9,-1,1,-152,93200.0
05:10:27.407,AUTO,-35.3632621,149.1652375,41506,0.0017549629556015134,0.0018181094201281667,-0.11616060137748718,0.0031454223208129406,0.0022637322545051575,0.00948338769376278,0,0,-1000,4,3,9,-1,1,-152,93200.0
05:10:27.609,AUTO,-35.3632621,149.1652375,41898,0.0015925647458061576,0.0016912206774577498,-0.11461541056632996,-0.0006008517229929566,0.0007869236869737506,0.007951896637678146,0,0,-999,0,1,8,-1,1,-152,93200.0
05:10:27.810,AUTO,-35.363262,149.1652375,42286,0.0014612233499065042,0.0017209519864991307,-0.11323349922895432,0.0004958293866366148,0.0008355105528607965,0.005413624458014965,0,0,-1000,1,2,5,-1,1,-152,93200.0
05:10:28.012,AUTO,-35.363262,149.1652375,42286,0.0014612233499065042,0.0017209519864991307,-0.11323349922895432,0.0004958293866366148,0.0008355105528607965,0.005413624458014965,0,0,-1000,1,2,5,-1,1,-152,93200.0
05:10:28.214,AUTO,-35.363262,149.1652375,42286,0.0014612233499065042,0.0017209519864991307,-0.11323349922895432,0.0004958293866366148,0.0008355105528607965,0.005413624458014965,0,0,-1000,1,2,5,-1,1,-152,130018.0
05:10:28.416,AUTO,-35.363262,149.1652375,42286,0.0014612233499065042,0.0017209519864991307,-0.11323349922895432,0.0004958293866366148,0.0008355105528607965,0.005413624458014965,0,0,-1000,1,2,5,-1,1,-152,130018.0
05:10:28.618,AUTO,-35.363262,149.1652375,43447,0.0012888285564258695,0.0014761523343622684,-0.10828442126512527,0.001633104053325951,0.00033905403688549995,0.005837473552674055,0,0,-1001,2,1,5,-1,1,-152,130018.0
05:10:28.819,AUTO,-35.363262,149.1652375,43835,0.001389627461321652,0.0015537467552348971,-0.10701122134923935,0.0037679262459278107,-0.000769125996157527,0.00528961094096303,0,0,-1001,4,0,5,-1,0,-152,130018.0
05:10:29.021,AUTO,-35.363262,149.1652375,44223,0.0016431552357971668,0.0014427828136831522,-0.10547570884227753,0.0010129335569217801,-9.008269989863038e-05,0.005966335069388151,0,0,-1000,2,0,6,-1,0,-152,130018.0
05:10:29.223,AUTO,-35.363262,149.1652375,44611,0.0016613478073850274,0.0013821030734106898,-0.10392586886882782,-0.0004921287181787193,0.0010707543697208166,0.007978962734341621,0,0,-999,0,2,7,-1,1,-152,130018.0
05:10:29.424,AUTO,-35.363262,149.1652375,45000,0.0017037327634170651,0.0012625815579667687,-0.1025548204779625,0.002014036290347576,0.0004254289669916034,0.005006491206586361,0,0,-1000,2,1,5,-1,1,-152,130018.0
05:10:29.626,AUTO,-35.363262,149.1652375,45000,0.0017037327634170651,0.0012625815579667687,-0.1025548204779625,0.002014036290347576,0.0004254289669916034,0.005006491206586361,0,0,-1000,2,1,5,-1,1,-152,130018.0
05:10:29.828,AUTO,-35.363262,149.1652374,45388,0.0017800182104110718,0.0010792374378070235,-0.10089879482984543,0.0011193648679181933,-0.0005822431994602084,0.008235866203904152,0,0,-1000,2,0,8,-1,1,-152,130018.0
05:10:30.032,AUTO,-35.363262,149.1652374,45388,0.0017800182104110718,0.0010792374378070235,-0.10089879482984543,0.0011193648679181933,-0.0005822431994602084,0.008235866203904152,0,0,-1000,2,0,8,-1,1,-152,130018.0
05:10:30.234,AUTO,-35.363262,149.1652374,45388,0.0017800182104110718,0.0010792374378070235,-0.10089879482984543,0.0011193648679181933,-0.0005822431994602084,0.008235866203904152,0,0,-1000,2,0,8,-1,1,-152,130018.0
05:10:30.435,AUTO,-35.363262,149.1652374,46554,0.0003185375244356692,0.0019040241604670882,-0.09515790641307831,-0.027489356696605682,0.020159095525741577,0.054059211164712906,0,0,-986,-26,21,54,-1,1,-151,130018.0
05:10:30.637,AUTO,-35.363262,149.1652374,46554,0.0003185375244356692,0.0019040241604670882,-0.09515790641307831,-0.027489356696605682,0.020159095525741577,0.054059211164712906,0,0,-986,-26,21,54,-1,1,-151,130018.0
05:10:30.838,AUTO,-35.363262,149.1652374,46931,-0.02020135708153248,0.023284761235117912,-0.04787968099117279,-0.11852846294641495,0.120219387114048,0.3075350224971771,0,0,-970,-117,121,308,-3,-1,-144,130018.0
05:10:31.040,AUTO,-35.3632621,149.1652372,47289,-0.051843952387571335,0.060418035835027695,0.06537128984928131,-0.16745969653129578,0.12799401581287384,0.5852935314178467,0,1,-974,-166,129,585,-13,-10,-137,130018.0
05:10:31.241,AUTO,-35.3632625,149.1652367,47624,-0.05981883406639099,0.06394173204898834,0.18708784878253937,0.028068386018276215,-0.14704744517803192,0.3687565326690674,3,5,-939,29,-145,368,-26,-25,-124,130018.0
05:10:31.443,AUTO,-35.3632632,149.1652359,47922,-0.03496807813644409,0.01633456163108349,0.2547813653945923,0.11630892008543015,-0.20582731068134308,0.18866866827011108,3,10,-942,117,-204,188,-32,-36,-109,130018.0
05:10:31.644,AUTO,-35.3632632,149.1652359,47922,-0.03496807813644409,0.01633456163108349,0.2547813653945923,0.11630892008543015,-0.20582731068134308,0.18866866827011108,3,10,-942,117,-204,188,-32,-36,-109,130018.0
05:10:31.846,AUTO,-35.3632638,149.1652348,48183,-0.006885862443596125,-0.02550588734447956,0.2867867350578308,0.10563647747039795,-0.1326601803302765,0.08649511635303497,4,10,-950,106,-131,86,-28,-37,-95,130018.0
05:10:32.048,AUTO,-35.3632638,149.1652348,48183,-0.006885862443596125,-0.02550588734447956,0.2867867350578308,0.10563647747039795,-0.1326601803302765,0.08649511635303497,4,10,-950,106,-131,86,-28,-37,-95,130018.0
05:10:32.250,AUTO,-35.3632638,149.1652348,48183,-0.006885862443596125,-0.02550588734447956,0.2867867350578308,0.10563647747039795,-0.1326601803302765,0.08649511635303497,4,10,-950,106,-131,86,-28,-37,-95,129795.0
05:10:32.452,AUTO,-35.3632648,149.1652326,48794,0.03817050904035568,-0.05363249033689499,0.291662335395813,0.006862806621938944,0.021339960396289825,-0.026653960347175598,0,1,-967,7,22,-26,0,-8,-65,129795.0
05:10:32.654,AUTO,-35.3632648,149.1652326,48794,0.03817050904035568,-0.05363249033689499,0.291662335395813,0.006862806621938944,0.021339960396289825,-0.026653960347175598,0,1,-967,7,22,-26,0,-8,-65,129795.0
05:10:32.855,AUTO,-35.3632647,149.1652324,48950,0.04018549248576164,-0.045271120965480804,0.283496618270874,-0.0018929153447970748,0.040532585233449936,-0.034588515758514404,-2,0,-973,0,41,-34,8,3,-57,129795.0
05:10:33.057,AUTO,-35.3632645,149.1652325,49087,0.03890008479356766,-0.03375183790922165,0.27437466382980347,0.03190317004919052,0.04684479534626007,-0.0357883982360363,-2,-1,-976,32,47,-35,14,13,-51,129795.0
05:10:33.259,AUTO,-35.3632642,149.1652329,49211,0.03030845895409584,-0.022035205736756325,0.2651379704475403,-0.1710398942232132,0.04351299628615379,-0.03370555490255356,-3,-12,-979,-169,44,-33,18,22,-45,129795.0
05:10:33.461,AUTO,-35.3632637,149.1652335,49319,0.029069362208247185,-0.012097354978322983,0.25616347789764404,0.3012699484825134,0.03452067822217941,-0.03041645511984825,-3,12,-981,302,35,-30,20,28,-40,129795.0
05:10:33.664,AUTO,-35.3632637,149.1652335,49319,0.029069362208247185,-0.012097354978322983,0.25616347789764404,0.3012699484825134,0.03452067822217941,-0.03041645511984825,-3,12,-981,302,35,-30,20,28,-40,129795.0
05:10:33.866,AUTO,-35.3632632,149.1652343,49411,0.02523951046168804,-0.0030156890861690044,0.24725916981697083,0.10290245711803436,0.03674222528934479,-0.03566786274313927,-2,-17,-976,102,37,-35,21,30,-33,129795.0
05:10:34.068,AUTO,-35.3632632,149.1652343,49411,0.02523951046168804,-0.0030156890861690044,0.24725916981697083,0.10290245711803436,0.03674222528934479,-0.03566786274313927,-2,-17,-976,102,37,-35,21,30,-33,129795.0
05:10:34.270,AUTO,-35.3632632,149.1652343,49411,0.02523951046168804,-0.0030156890861690044,0.24725916981697083,0.10290245711803436,0.03674222528934479,-0.03566786274313927,-2,-17,-976,102,37,-35,21,30,-33,129795.0
05:10:34.472,AUTO,-35.3632618,149.1652366,49599,0.005292713176459074,0.014665208756923676,0.22295884788036346,0.4239862859249115,0.013232866302132607,-0.02423730306327343,-1,24,-980,425,14,-23,15,29,-17,129795.0
05:10:34.674,AUTO,-35.3632615,149.1652373,49633,0.008765962906181812,0.016321374103426933,0.21660107374191284,0.5243810415267944,0.003508725669234991,-0.020548729225993156,-1,8,-972,525,4,-20,11,25,-10,129795.0
05:10:34.875,AUTO,-35.3632615,149.1652373,49633,0.008765962906181812,0.016321374103426933,0.21660107374191284,0.5243810415267944,0.003508725669234991,-0.020548729225993156,-1,8,-972,525,4,-20,11,25,-10,129795.0
05:10:35.077,AUTO,-35.3632612,149.1652379,49649,-0.003306873608380556,0.01649685762822628,0.21143844723701477,-0.3201039731502533,0.0018376559019088745,-0.022507255896925926,0,-37,-959,-319,3,-22,8,21,-4,129795.0
05:10:35.279,AUTO,-35.363261,149.1652384,49642,-0.04048928618431091,0.03825373202562332,0.19824211299419403,-1.0641189813613892,0.09746769815683365,-0.026358196511864662,0,-45,-925,-1063,98,-26,4,15,9,129795.0
05:10:35.481,AUTO,-35.363261,149.1652387,49602,-0.04077417403459549,0.03566034510731697,0.19579334557056427,-0.6188386678695679,-0.09117884188890457,-0.027118615806102753,1,-12,-1003,-617,-89,-26,-3,6,17,129795.0
05:10:35.683,AUTO,-35.3632611,149.1652387,49557,-0.014732487499713898,0.004430963657796383,0.19214077293872833,0.03897694870829582,-0.11278841644525528,-0.028685489669442177,1,19,-1009,41,-111,-28,-6,1,16,129795.0
05:10:35.884,AUTO,-35.3632611,149.1652387,49557,-0.014732487499713898,0.004430963657796383,0.19214077293872833,0.03897694870829582,-0.11278841644525528,-0.028685489669442177,1,19,-1009,41,-111,-28,-6,1,16,129795.0
05:10:36.086,AUTO,-35.3632611,149.1652387,49557,-0.014732487499713898,0.004430963657796383,0.19214077293872833,0.03897694870829582,-0.11278841644525528,-0.028685489669442177,1,19,-1009,41,-111,-28,-6,1,16,129795.0
05:10:36.288,AUTO,-35.3632611,149.1652387,49557,-0.014732487499713898,0.004430963657796383,0.19214077293872833,0.03897694870829582,-0.11278841644525528,-0.028685489669442177,1,19,-1009,41,-111,-28,-6,1,16,159785.0
05:10:36.489,AUTO,-35.363261,149.165239,49453,0.04795049503445625,-0.05151858925819397,0.17917226254940033,0.12748461961746216,-0.05342226102948189,-0.011874264106154442,-1,-20,-1008,127,-52,-11,12,15,8,159785.0
05:10:36.691,AUTO,-35.3632606,149.1652396,49429,0.04904200881719589,-0.06177612766623497,0.17394483089447021,-0.5679996013641357,-0.04066528007388115,-0.013157036155462265,0,-48,-992,-567,-39,-12,23,27,7,159785.0
05:10:36.892,AUTO,-35.3632606,149.1652396,49429,0.04904200881719589,-0.06177612766623497,0.17394483089447021,-0.5679996013641357,-0.04066528007388115,-0.013157036155462265,0,-48,-992,-567,-39,-12,23,27,7,159785.0
05:10:37.094,AUTO,-35.36326,149.1652405,49403,0.047522660344839096,-0.07121000438928604,0.18737760186195374,-0.5466854572296143,-0.03553847223520279,0.21822991967201233,-5,-22,-1000,-544,-34,218,36,42,8,159785.0
05:10:37.296,AUTO,-35.3632591,149.1652419,49377,0.04560805857181549,-0.0868268832564354,0.3156040906906128,0.1518491506576538,-0.03881452977657318,0.7514682412147522,-8,14,-966,154,-37,751,50,57,9,159785.0
05:10:37.499,AUTO,-35.3632578,149.1652436,49343,0.04900209605693817,-0.10567151755094528,0.5178402662277222,0.6887277960777283,-0.02073163166642189,0.8323264718055725,-16,14,-1024,690,-19,832,66,71,9,159785.0
05:10:37.701,AUTO,-35.3632561,149.1652458,49307,0.035964541137218475,-0.12416333705186844,0.731776237487793,0.43184441328048706,-0.04205675795674324,0.8434156775474548,-24,-13,-981,432,-40,843,83,87,14,159785.0
