time_stamp,RTL_ALT,roll,pitch,yaw,rollspeed,pitchspeed,yawspeed,MODE,xacc,yacc,zacc,xgyro,ygyro,zgyro,lat,lon,relative_alt,vx,vy,vz
18:03:24,1500.0,-0.0010015347506850958,0.001053759828209877,0.025793911889195442,0.00019715219968929887,0.00020051051978953183,0.002061445266008377,STABILIZE,0.0,1.0,-1000.0,0.0,0.0,0.0,-35.3632622,149.1652375,0.0,-1.0,1.0,0.0
18:03:36,1500.0,-0.001129915937781334,0.0011344344820827246,0.02231825515627861,0.0003661996452137828,0.00029006501426920295,0.0013778428547084332,AUTO,0.0,2.0,-1000.0,1.0,0.0,1.0,-35.3632622,149.1652375,14.0,0.0,0.0,-1.0
18:03:38,1500.0,-0.0005086867604404688,0.0016818547155708075,0.021770602092146873,0.00035590375773608685,0.00022617151262238622,0.0014204515609890223,AUTO,0.0,1.0,-1000.0,0.0,0.0,0.0,-35.3632622,149.1652375,23.0,0.0,0.0,-2.0
18:03:40,1500.0,0.030395910143852234,-0.002084840089082718,0.021422915160655975,0.04596004635095596,-0.00739445211365819,0.002766883699223399,AUTO,0.0,0.0,-1009.0,46.0,-6.0,2.0,-35.363262,149.1652376,1681.0,1.0,9.0,-148.0
18:03:42,1500.0,-0.043902263045310974,0.018279312178492546,-0.08951863646507263,-0.06334886699914932,-0.052748970687389374,-0.014439794234931469,AUTO,4.0,-5.0,-1001.0,-62.0,-52.0,-14.0,-35.363261,149.1652455,4729.0,-5.0,30.0,-150.0
18:03:44,1500.0,0.0019216923974454403,-0.003563603386282921,-0.08043156564235687,0.06524405628442764,0.01689937151968479,0.00397962611168623,AUTO,-8.0,10.0,-1003.0,66.0,17.0,3.0,-35.3632614,149.1652391,7811.0,2.0,-60.0,-152.0
18:03:46,1500.0,0.01123716589063406,0.005163393449038267,-0.08935032784938812,-0.07387370616197586,-0.0331432931125164,0.00797203928232193,AUTO,5.0,-2.0,-1001.0,-73.0,-32.0,7.0,-35.363262,149.1652348,10924.0,-11.0,26.0,-149.0
18:03:48,1500.0,-0.004318720661103725,-0.003750451374799013,-0.12438660860061646,0.016160059720277786,0.008611086755990982,-0.024983014911413193,AUTO,-2.0,0.0,-1000.0,16.0,9.0,-25.0,-35.3632625,149.1652368,14032.0,4.0,-6.0,-153.0
18:03:50,1500.0,0.008637134917080402,0.007233134470880032,-0.16256868839263916,-0.0033529349602758884,-0.00011109956540167332,-0.011441443115472794,AUTO,0.0,0.0,-999.0,-2.0,0.0,-11.0,-35.3632617,149.1652355,17161.0,0.0,1.0,-153.0
18:03:52,1500.0,0.0022243233397603035,0.0037868614308536053,-0.1913968324661255,-0.00012632436119019985,-0.00039440675755031407,-0.016458895057439804,AUTO,0.0,0.0,-1000.0,0.0,0.0,-16.0,-35.3632616,149.165236,20278.0,-3.0,6.0,-153.0
18:03:54,1500.0,0.0015041427686810493,0.003202585969120264,-0.23078592121601105,0.0008445382118225098,-0.0005189863732084632,-0.017324287444353104,AUTO,0.0,0.0,-1000.0,1.0,0.0,-17.0,-35.3632617,149.1652366,23414.0,-3.0,3.0,-153.0
18:03:56,1500.0,0.007598917931318283,0.004199432209134102,-0.24394282698631287,0.021336864680051804,-0.0033734962344169617,0.023718710988759995,AUTO,0.0,1.0,-999.0,22.0,-2.0,23.0,-35.363262,149.1652365,26527.0,-5.0,-1.0,-153.0
18:03:58,1500.0,0.0011855640914291143,0.0017367216059938073,-0.19850991666316986,-0.006882770918309689,0.0032619955018162727,0.022044802084565163,AUTO,1.0,-1.0,-1000.0,-6.0,4.0,22.0,-35.3632624,149.1652373,29641.0,0.0,8.0,-153.0
18:04:00,1500.0,-0.0007018913747742772,0.0013294138479977846,-0.16346728801727295,0.0010882536880671978,0.0006863311282359064,0.014203364960849285,AUTO,0.0,0.0,-1000.0,2.0,1.0,13.0,-35.3632623,149.165238,32763.0,0.0,1.0,-153.0
18:04:02,1500.0,0.0010898759355768561,0.000973649206571281,-0.13775953650474548,0.0029284697957336903,-0.0006983089260756969,0.01184498518705368,AUTO,0.0,0.0,-1001.0,3.0,0.0,11.0,-35.3632622,149.1652379,35880.0,0.0,0.0,-153.0
18:04:04,1500.0,0.002155333524569869,0.0015872345538809896,-0.11839253455400467,-0.0014051375910639763,0.0009695782791823149,0.00959683395922184,AUTO,0.0,0.0,-999.0,0.0,2.0,9.0,-35.3632621,149.1652376,38995.0,0.0,0.0,-153.0
18:04:06,1500.0,0.0016495287418365479,0.0016670746263116598,-0.10366523265838623,-0.0032869819551706314,-0.0006003828020766377,0.006668697111308575,AUTO,0.0,0.0,-1000.0,-2.0,0.0,6.0,-35.3632621,149.1652374,42114.0,-1.0,1.0,-153.0
18:04:08,1500.0,0.0012179712066426873,0.0014663817128166556,-0.09127287566661835,-0.0019251641351729631,0.0014667754294350743,0.007509672548621893,AUTO,0.0,0.0,-999.0,0.0,2.0,7.0,-35.363262,149.1652374,45225.0,-1.0,1.0,-153.0
18:04:10,1500.0,-0.04965848848223686,0.044317785650491714,0.23305821418762207,0.0865047499537468,-0.20501923561096191,0.27784663438796997,AUTO,4.0,8.0,-941.0,87.0,-204.0,278.0,-35.3632628,149.1652362,48215.0,-29.0,-31.0,-119.0
18:04:12,1500.0,0.023243408650159836,-0.017932744696736336,0.27173754572868347,-0.30187365412712097,0.03980914503335953,-0.031587399542331696,AUTO,-2.0,-3.0,-973.0,-299.0,40.0,-31.0,-35.3632639,149.1652331,49756.0,19.0,25.0,-44.0
18:04:14,1500.0,-0.021336190402507782,0.04223698750138283,0.21153521537780762,0.5539456605911255,0.0469852015376091,-0.007447025738656521,AUTO,2.0,4.0,-944.0,551.0,48.0,-6.0,-35.363261,149.1652386,50164.0,2.0,11.0,12.0
18:04:16,1500.0,0.06454179435968399,-0.06532573699951172,0.21206553280353546,-0.3499310612678528,-0.07687245309352875,0.3533911108970642,BRAKE,1.0,-44.0,-1002.0,-352.0,-75.0,353.0,-35.3632603,149.1652416,49954.0,32.0,47.0,-1.0
18:04:18,1500.0,-0.014991863630712032,0.035250768065452576,0.7426075339317322,-0.7317948937416077,-0.026202013716101646,-0.07396063208580017,BRAKE,-4.0,-31.0,-996.0,-729.0,-24.0,-73.0,-35.3632525,149.1652572,49970.0,23.0,38.0,-1.0
18:04:20,1500.0,0.00248240539804101,0.0018207223620265722,0.7052887678146362,0.6465523838996887,-0.008260391652584076,-0.008186097256839275,ALT_HOLD,0.0,36.0,-1003.0,650.0,-7.0,-7.0,-35.363251,149.1652607,49968.0,8.0,3.0,-2.0
18:04:22,1500.0,-0.02006286196410656,-0.00033526899642311037,0.6867097020149231,-1.2219656705856323,-0.002665855921804905,-0.0026580337435007095,AUTO,-1.0,1.0,-923.0,-1214.0,-1.0,-2.0,-35.3632507,149.1652618,48940.0,3.0,5.0,165.0
18:04:24,1500.0,0.011887897737324238,-0.022320881485939026,0.6742807626724243,-0.35506564378738403,0.0018875744426622987,-0.006958916317671537,AUTO,-1.0,-44.0,-1070.0,-358.0,3.0,-6.0,-35.3632501,149.1652645,46208.0,11.0,25.0,37.0
18:04:26,1500.0,-0.020693549886345863,-0.08201636373996735,1.1422616243362427,-0.5821123123168945,-0.081775963306427,0.04997701942920685,AUTO,-20.0,-27.0,-1004.0,-580.0,-80.0,50.0,-35.3632462,149.1652753,45972.0,52.0,64.0,-2.0
18:04:28,1500.0,0.01683083362877369,-0.18003597855567932,1.0757713317871094,-0.20171856880187988,0.010335792787373066,-0.006005092523992062,AUTO,-75.0,-58.0,-1013.0,-202.0,11.0,-6.0,-35.3632266,149.1653125,46024.0,195.0,258.0,-6.0
18:04:30,1500.0,0.061943378299474716,-0.21314260363578796,1.0567280054092407,0.07605860382318497,0.15700024366378784,-0.011576811783015728,AUTO,-102.0,-36.0,-1008.0,76.0,158.0,-11.0,-35.3631824,149.1653927,46193.0,297.0,445.0,-7.0
18:04:32,1500.0,0.074436254799366,-0.1666443645954132,1.0502794981002808,0.010130031034350395,0.012630068697035313,-0.005591981578618288,AUTO,-128.0,-75.0,-990.0,10.0,13.0,-5.0,-35.3631231,149.1655056,46515.0,356.0,558.0,-21.0
18:04:34,1500.0,0.09367494285106659,0.07017563283443451,1.0468573570251465,0.8525590300559998,-0.09296483546495438,0.01915460266172886,AUTO,-85.0,-43.0,-953.0,851.0,-91.0,20.0,-35.3630622,149.1656247,47136.0,266.0,422.0,-3.0
18:04:36,1500.0,0.04730553552508354,0.03925062343478203,1.0445523262023926,0.42841702699661255,-0.11568482220172882,0.04073655605316162,AUTO,-57.0,-36.0,-1001.0,425.0,-114.0,41.0,-35.3630261,149.1656982,47067.0,158.0,239.0,0.0
18:04:38,1500.0,0.06886168569326401,-0.02600494585931301,1.0324722528457642,0.08021918684244156,0.40937620401382446,-0.02343016117811203,AUTO,-93.0,-53.0,-1065.0,79.0,411.0,-22.0,-35.3629909,149.165761,47057.0,244.0,375.0,-32.0
18:04:40,1500.0,0.07635162025690079,-0.10416977107524872,1.0256344079971313,0.014259273186326027,0.34889429807662964,-0.022233787924051285,AUTO,-127.0,-70.0,-1073.0,15.0,350.0,-21.0,-35.3629432,149.1658491,47277.0,298.0,489.0,-28.0
18:04:42,1500.0,0.1012236624956131,0.2086554765701294,1.0513899326324463,-0.18017514050006866,0.31581175327301025,0.017501505091786385,BRAKE,-120.0,-80.0,-1000.0,-179.0,317.0,18.0,-35.3628838,149.1659642,47814.0,294.0,473.0,-71.0
18:04:44,1500.0,-0.0038765561766922474,0.031975992023944855,1.0560954809188843,-0.27738121151924133,-0.0739046260714531,0.02450522966682911,BRAKE,-19.0,-54.0,-1010.0,-281.0,-71.0,25.0,-35.3628595,149.1660191,47830.0,56.0,99.0,11.0
18:04:46,1500.0,-0.015383709222078323,-0.007088290061801672,1.0549670457839966,-0.6954805850982666,0.0005330212879925966,-0.0040117297321558,ALT_HOLD,-17.0,0.0,-823.0,-690.0,2.0,-2.0,-35.3628506,149.1660355,47709.0,53.0,51.0,46.0
18:04:48,1500.0,0.02810274064540863,0.016102448105812073,1.0528510808944702,0.2547200620174408,-0.07519588619470596,0.008975978940725327,AUTO,-14.0,-33.0,-1232.0,249.0,-73.0,10.0,-35.3628417,149.1660459,44739.0,37.0,25.0,116.0
18:04:50,1500.0,0.024357866495847702,-0.029749371111392975,1.0300965309143066,0.5007543563842773,-0.05091842636466026,-0.05785442888736725,AUTO,-12.0,4.0,-1015.0,499.0,-48.0,-56.0,-35.3628362,149.1660529,43925.0,25.0,38.0,0.0
18:04:52,1500.0,0.03754158318042755,-0.18907974660396576,1.01295804977417,0.2805444002151489,-0.022040212526917458,-0.007678687572479248,AUTO,-44.0,-11.0,-1017.0,282.0,-19.0,-5.0,-35.3628237,149.1660736,44038.0,113.0,195.0,-10.0
18:04:54,1500.0,0.0573396198451519,-0.1958945095539093,1.0090560913085938,-0.015873899683356285,-0.02376789227128029,0.001328061567619443,AUTO,-94.0,-44.0,-1004.0,-15.0,-21.0,3.0,-35.3627893,149.1661395,44448.0,241.0,397.0,-27.0
18:04:56,1500.0,0.08309835940599442,-0.10217490792274475,0.9640747904777527,0.0656852200627327,0.2500387132167816,0.10501895844936371,AUTO,-119.0,-85.0,-1042.0,66.0,252.0,106.0,-35.3627356,149.166244,45233.0,335.0,519.0,-59.0
18:04:58,1500.0,0.0648045539855957,0.03369494900107384,1.016587257385254,0.6518332362174988,0.0015720592346042395,0.00035447871778160334,AUTO,-75.0,-35.0,-993.0,651.0,3.0,2.0,-35.3626875,149.1663395,46162.0,198.0,330.0,-10.0
18:05:00,1500.0,0.01534508541226387,0.08422122895717621,1.0161153078079224,-0.6486057043075562,0.029886260628700256,0.013761298730969429,AUTO,-34.0,-65.0,-1006.0,-650.0,32.0,15.0,-35.3626615,149.1663925,46340.0,87.0,147.0,-6.0
18:05:02,1500.0,0.0065409899689257145,-0.25316962599754333,1.0132102966308594,0.3026317059993744,-0.005390719044953585,-0.0023016121704131365,AUTO,-45.0,-15.0,-1033.0,304.0,-3.0,0.0,-35.3626495,149.1664183,46391.0,137.0,191.0,-3.0
18:05:04,1500.0,0.04844161495566368,-0.1768670529127121,1.007167935371399,-0.05531338229775429,-0.058556731790304184,-0.0014042011462152004,AUTO,-89.0,-56.0,-994.0,-54.0,-56.0,0.0,-35.3626133,149.1664845,46822.0,259.0,371.0,-29.0
18:05:06,1500.0,0.07964139431715012,-0.14160871505737305,0.898136556148529,-0.035440824925899506,0.07241550832986832,-0.1335608810186386,AUTO,-124.0,-85.0,-1030.0,-34.0,74.0,-131.0,-35.3625586,149.166585,47492.0,345.0,519.0,-47.0
18:05:08,1500.0,0.09033267199993134,0.22216857969760895,1.060193657875061,-0.7426170110702515,0.29547685384750366,0.00022648775484412909,BRAKE,-100.0,-109.0,-929.0,-746.0,298.0,1.0,-35.3624996,149.1666983,48802.0,225.0,420.0,-53.0
18:05:10,1500.0,0.009931868873536587,0.008857703767716885,1.0551472902297974,0.6839650273323059,-0.056942276656627655,-0.013574013486504555,BRAKE,-21.0,15.0,-1032.0,684.0,-54.0,-12.0,-35.36248,149.1667433,48775.0,52.0,85.0,5.0
18:05:12,1500.0,-0.008726296247914433,-0.011532544158399105,1.0522202849388123,-0.5567126423120499,0.0004962467355653644,-0.008077165111899376,ALT_HOLD,-19.5,-2.5,-838.0,-551.0,2.5,-5.5,-35.3624693,149.16675705,48725.0,46.0,59.5,42.0
18:05:14,1500.0,0.04158215597271919,0.02020283555611968,1.0483362674713135,0.47636479139328003,-0.05625902861356735,0.012271856656298041,AUTO,-11.0,-26.0,-1127.0,469.5,-53.5,13.5,-35.3624589,149.166767,45812.0,30.5,33.5,126.0
18:05:16,1500.0,0.0035303997838127543,-0.02012028731405735,1.0524460077285767,0.2550714537501335,-0.04587282985448837,0.023965767119079828,AUTO,-7.0,-8.5,-1026.5,254.5,-43.0,25.0,-35.362455,149.16677525,45051.5,20.5,37.0,-11.0
18:05:18,1500.0,0.015850470401346684,-0.12484730407595634,1.0556888580322266,0.05778122693300247,0.08639066107571125,-0.006470950320363045,AUTO,-38.5,-23.0,-1035.0,58.5,88.5,-4.5,-35.362445750000006,149.1667953,45657.5,105.5,160.0,-56.0
18:05:20,1500.0,0.034215474501252174,0.027072218246757984,1.0552873015403748,0.17770027928054333,-0.01417337916791439,-0.0012487059575505555,AUTO,-31.0,-7.5,-975.0,180.0,-11.0,0.5,-35.36242625,149.16683375000002,47104.5,77.5,136.0,-60.5
18:05:22,1500.0,0.015290718991309404,0.022919812239706516,1.055163562297821,0.29599650390446186,0.0146235809661448,-0.0008810607250779867,AUTO,-15.5,8.5,-991.0,298.5,17.0,0.5,-35.36241595,149.1668567,47927.5,35.0,73.0,-20.5
18:05:24,1500.0,-0.0016718260012567043,0.016438146121799946,1.053539216518402,-0.34200198762118816,-0.07158008217811584,0.003597164584789425,BRAKE,0.0,-33.0,-991.5,-344.0,-68.5,4.5,-35.3624125,149.1668654,48105.0,0.0,5.5,3.0
18:05:26,1500.0,0.0033186323707923293,0.006816851673647761,1.05299973487854,0.3584500253200531,-0.002203326497692615,0.0013660371187143028,BRAKE,-0.5,28.0,-1007.0,362.5,0.5,2.5,-35.36241205,149.1668665,48083.0,-0.5,0.0,0.0
18:05:28,1500.0,0.009105902398005128,0.004778165835887194,1.052483081817627,0.213465828448534,0.0010001451009884477,-0.0005885964492335916,ALT_HOLD,-1.0,-6.5,-996.0,211.5,3.0,1.0,-35.3624118,149.1668666,48095.5,-3.5,-1.0,0.0
18:05:30,1500.0,-0.008421127567999065,0.00039661844493821263,1.0501844882965088,0.20284390449523926,0.003912168089300394,-0.006469622137956321,AUTO,-1.0,64.5,-926.0,214.5,6.5,-4.5,-35.362411050000006,149.16686665,46798.5,0.0,2.5,172.0
18:05:32,1500.0,-0.002054341312032193,-0.0033292692387476563,1.0506485104560852,0.4339491277933121,0.010133529547601938,0.0046952179982326925,AUTO,-2.0,30.0,-1060.0,438.0,13.0,6.0,-35.362410350000005,149.16686865,44421.0,5.5,12.5,16.5
18:05:34,1500.0,-0.004141649726079777,-0.004314174264436588,1.0497400164604187,-0.35194525122642517,0.030310936272144318,-0.0016823246842250228,AUTO,-6.0,-20.0,-1008.5,-351.5,33.0,0.0,-35.3624088,149.16687275,44612.0,17.0,13.5,-28.0
18:05:36,1500.0,0.009586769388988614,0.01422777445986867,1.0489514470100403,0.12641554325819016,0.005005444050766528,-0.0016888972604647279,AUTO,-2.0,-9.0,-981.5,125.0,7.5,0.0,-35.362406750000005,149.1668756,45066.5,3.5,1.5,-11.0
18:05:38,1500.0,-0.0024062515003606677,-0.027971885167062283,1.0484440326690674,-0.19892245531082153,-0.010036006569862366,0.0036369016161188483,AUTO,-3.5,2.5,-1020.5,-195.5,-7.0,5.0,-35.3624063,149.16687610000002,45132.5,5.5,12.5,-9.0
18:05:40,1500.0,-0.001977109437575564,0.021281138062477112,1.0567371845245361,-0.04688861966133118,0.0373931135982275,0.012950831092894077,AUTO,-6.0,-0.5,-990.5,-44.0,40.0,14.5,-35.362403549999996,149.16688295,45692.5,16.0,27.5,-35.0
18:05:42,1500.0,-0.01303555816411972,-1.9487226381897926e-05,1.05625981092453,-0.32242551632225513,-0.02326200855895877,8.517527021467686e-05,BRAKE,1.5,-34.0,-988.0,-324.0,-19.5,1.5,-35.362403650000005,149.16688545,46003.0,3.0,-10.5,2.5
18:05:44,1500.0,-0.018926826771348715,0.004687587032094598,1.0568386912345886,-0.26589811220765114,-0.0015375111252069473,0.0034963719081133604,BRAKE,-1.0,3.5,-1002.5,-262.5,1.0,5.5,-35.36240415,149.1668855,45975.0,12.0,-9.5,0.0
18:05:46,1500.0,0.01695199590176344,0.00021274176833685488,1.0558439493179321,0.46210040897130966,-0.0013010564725846052,0.003288300009444356,ALT_HOLD,-2.0,14.5,-994.5,461.5,2.0,5.0,-35.362402849999995,149.1668842,45990.0,4.5,-7.0,0.0
18:05:48,1500.0,-0.023624039255082607,0.00012550752217066474,1.0570068955421448,-1.5558423399925232,-0.013997308444231749,0.03759224805980921,AUTO,0.0,-32.0,-940.0,-1551.0,-10.5,39.5,-35.36240075,149.1668828,44711.5,4.5,-3.5,172.5
18:05:50,1500.0,-0.007769234711304307,-0.001330758648691699,1.0555396676063538,-0.3028620183467865,0.00942696025595069,0.005227077635936439,AUTO,-3.0,1.5,-1060.0,-299.0,12.5,7.0,-35.362399749999994,149.16688345,42341.0,5.5,5.5,16.5
18:05:52,1500.0,-0.001271979184821248,0.007579789264127612,1.055587351322174,-0.20787199214100838,0.0018381488043814898,-4.9513764679431915e-06,AUTO,-1.0,-18.0,-996.5,-210.0,5.0,2.0,-35.362398850000005,149.1668858,42553.0,5.5,1.5,-22.0
18:05:54,1500.0,0.004455025453353301,0.00426699360832572,1.055430293083191,0.44473497569561005,0.0014221386518329382,0.0019563379464671016,BRAKE,0.0,21.0,-998.0,446.5,4.5,4.0,-35.3623984,149.1668862,42839.0,0.0,-3.0,-5.5
18:05:56,1500.0,-0.004537941116723232,0.0020465674460865557,1.0551918745040894,-0.5194006264209747,-0.004626478999853134,-0.00031530961859971285,BRAKE,0.0,-27.5,-996.0,-520.5,-0.5,1.5,-35.3623983,149.16688605000002,42924.5,0.5,-3.0,-2.0
18:05:58,1500.0,-0.0006146953674033284,0.0003770184557652101,1.0551820993423462,0.6188332512974739,0.0008885328425094485,0.00402517372276634,ALT_HOLD,-0.5,52.0,-861.0,624.5,4.0,5.5,-35.3623976,149.16688545,42881.0,-0.5,0.0,39.5
18:06:00,1500.0,-0.002134597540134564,-0.00030425580916926265,1.0549342632293701,-1.2175430059432983,-0.007337820949032903,-0.009311584522947669,AUTO,2.0,-79.5,-1097.0,-1221.5,-3.0,-6.5,-35.3623962,149.16688475,40001.5,0.0,1.0,124.5
18:06:02,1500.0,-0.01977039035409689,0.006478704744949937,1.0550110936164856,-0.38100337982177734,-0.0026253103278577328,-0.0007743969326838851,AUTO,0.0,-23.5,-1014.5,-381.0,0.5,2.0,-35.3623969,149.16688720000002,39356.5,9.5,0.5,-16.0
18:06:04,1500.0,0.0004643177235266194,0.00451108836568892,1.0543806552886963,0.2038823775947094,-0.0032885196851566434,-4.8427493311464787e-05,AUTO,-1.0,-6.0,-987.0,202.0,0.0,2.0,-35.36239655,149.1668882,39754.0,13.0,-8.5,-12.5
18:06:06,1500.0,-0.0013688065810129046,-0.004210543353110552,1.054752767086029,-0.18432916700839996,-0.012564512435346842,-0.0010464438237249851,AUTO,-1.5,8.5,-1008.0,-180.5,-8.5,1.0,-35.362395649999996,149.1668875,39831.0,4.5,-3.0,1.0
18:06:08,1500.0,0.0015772210899740458,0.00023680675076320767,1.0544421672821045,-0.2736024744808674,0.012597308959811926,0.001687816227786243,AUTO,-3.0,-17.0,-1008.0,-274.5,15.5,3.5,-35.36239475,149.16688905,40190.0,4.5,11.0,-34.0
18:06:10,1500.0,-0.0003005343023687601,0.008196393493562937,1.0550805926322937,-0.37713827565312386,-0.015450819861143827,-0.0032700265292078257,AUTO,0.5,-28.0,-978.5,-379.5,-11.5,-0.5,-35.36239415,149.1668906,40706.0,-2.5,-1.5,-2.0
18:06:12,1500.0,-0.0016850707470439374,-0.01091400533914566,1.0548936128616333,-0.009475767612457275,0.005891510751098394,0.0010151887545362115,AUTO,-1.0,8.0,-1032.0,-6.5,9.0,3.0,-35.3623942,149.16689094999998,40760.5,1.0,8.5,-18.0
18:06:14,1500.0,-0.006971455295570195,0.017083427403122187,1.0539751648902893,-0.09780361503362656,0.012103622313588858,0.0012637918116524816,AUTO,-1.5,3.0,-973.5,-95.5,15.5,3.5,-35.36239365,149.16689435,41554.5,5.0,7.0,-37.5
18:06:16,1500.0,0.003443858106038533,-0.0008759625197853893,1.0546302199363708,-0.023097306489944458,8.281937334686518e-05,-0.0005681801121681929,BRAKE,0.0,-18.5,-990.0,-26.5,3.5,1.5,-35.3623936,149.1668947,41779.0,2.5,-3.0,4.0
18:06:18,1500.0,-0.0031189610017463565,0.0038333504926413298,1.0545998811721802,-0.2260529100894928,0.0015959847951307893,0.003783385967835784,BRAKE,-2.0,8.0,-1000.0,-223.0,5.0,6.0,-35.36239315,149.1668946,41774.5,0.5,-1.0,0.0
18:06:20,1500.0,0.005754924000939354,0.0008676544821355492,1.054445207118988,-0.37830858305096626,0.002555143553763628,0.0017828077543526888,ALT_HOLD,-1.0,-26.0,-993.5,-380.5,6.0,3.5,-35.3623921,149.16689405,41792.5,0.0,0.0,-0.5
18:06:22,1500.0,-0.007207662682048976,0.00042778157512657344,1.0532654523849487,0.03378155827522278,-0.005680658505298197,0.017783784307539463,AUTO,-0.5,61.0,-938.0,45.0,-2.0,20.0,-35.3623906,149.1668936,40349.0,0.0,2.0,176.0
18:06:24,1500.0,-0.010867834091186523,0.005105527583509684,1.0547663569450378,0.3295268341898918,0.005098165012896061,0.0032045890111476183,AUTO,0.5,23.5,-1054.5,333.0,8.5,5.5,-35.362390649999995,149.16689480000002,38118.5,2.0,4.5,9.5
18:06:26,1500.0,-0.01949489675462246,0.005226243985816836,1.0546135902404785,-0.3748907223343849,-0.006258441251702607,0.00150024623144418,AUTO,0.0,-27.0,-996.5,-376.0,-2.5,4.0,-35.3623917,149.1668969,38399.0,17.5,-9.5,-21.0
18:06:28,1500.0,-0.00039094872772693634,0.0029007437406107783,1.0545591115951538,0.5232069790363312,-0.0003778180107474327,0.0012356970109976828,AUTO,-0.5,31.5,-997.0,525.0,3.5,3.5,-35.36239105,149.16689655,38656.0,13.0,-10.0,-0.5
18:06:30,1500.0,0.0010513481684029102,-0.004155117552727461,1.0547636151313782,-0.40252797305583954,0.001165075576864183,-0.00037966365925967693,AUTO,-2.5,-20.0,-1024.0,-404.0,4.5,2.0,-35.36239,149.16689624999998,38750.5,6.5,1.0,-19.5
18:06:32,1500.0,0.015544223599135876,0.009904664009809494,1.0540160536766052,0.07412189245223999,0.003769540460780263,0.002189489547163248,AUTO,-1.5,-6.0,-975.5,72.0,7.0,4.5,-35.3623885,149.16689745000002,39443.0,-2.5,6.0,-31.0
18:06:34,1500.0,0.0018120543390978128,0.000989572174148634,1.0542351007461548,-0.2525430917739868,-0.005065799690783024,0.004090258036740124,AUTO,0.0,8.0,-1001.5,-249.5,-1.0,6.5,-35.3623882,149.16689755,39642.0,-11.0,3.5,2.5
18:06:36,1500.0,0.012660979758948088,-0.0024685318348929286,1.053533911705017,0.07481417059898376,0.01001378707587719,-0.0009435602114535868,AUTO,-2.5,-5.0,-1025.5,74.0,13.5,1.5,-35.36238815,149.16689895000002,39992.5,-5.5,15.5,-44.5
18:06:38,1500.0,0.019382404163479805,0.009278395678848028,1.054513931274414,0.2697991617023945,-0.008151866029947996,0.0013953326269984245,BRAKE,-0.5,1.0,-963.0,268.0,-4.0,4.0,-35.3623874,149.1669005,40822.5,-11.5,4.0,-12.5
18:06:40,1500.0,0.008053194964304566,0.003370070131495595,1.0541884899139404,-0.5255961269140244,-0.0016816926654428244,-0.0008809869177639484,BRAKE,-1.0,-15.0,-1002.5,-523.5,2.0,2.0,-35.362387,149.1669,40889.0,-16.5,6.5,-1.0
18:06:42,1500.0,0.020683505572378635,0.004203792894259095,1.054630994796753,0.6098226010799408,0.004610629519447684,-0.0009143940405920148,ALT_HOLD,0.5,23.0,-1001.5,611.0,8.0,1.5,-35.362387,149.1669,40925.5,-15.5,6.0,-1.0
18:06:44,1500.0,-0.02485885377973318,0.0007996689237188548,1.053010642528534,-1.7651787996292114,-0.0055560574401170015,0.004100819467566907,AUTO,0.0,-50.0,-967.0,-1760.5,-1.5,6.5,-35.362387049999995,149.1669003,39536.5,-2.0,3.5,176.5
18:06:46,1500.0,-0.013179643079638481,0.005774311954155564,1.0548293590545654,-0.1897164061665535,0.0022743523586541414,0.004176336573436856,AUTO,0.5,3.5,-1067.5,-185.5,6.0,6.5,-35.3623872,149.16690160000002,37277.5,1.5,2.5,9.5
18:06:48,1500.0,-0.015618774574249983,0.005792610580101609,1.0541810989379883,-0.38343773782253265,-0.006155055016279221,-0.00018361490219831467,AUTO,0.5,-25.0,-992.0,-384.5,-1.5,2.0,-35.362388,149.1669032,37559.5,11.5,-7.5,-21.0
18:06:50,1500.0,0.005910315434448421,0.00173363700741902,1.0543216466903687,0.6172147989273071,-0.003974036313593388,0.0003170041600242257,AUTO,-1.0,30.0,-997.5,619.0,0.5,3.0,-35.36238745,149.16690265,37810.0,9.0,-8.0,0.0
18:06:52,1500.0,0.0012219147756695747,-0.0011517790262587368,1.0540462136268616,-0.3317073881626129,0.0028352660592645407,-0.0021537956781685352,AUTO,-1.5,-18.0,-1020.0,-332.0,6.5,1.0,-35.36238675,149.16690245,37913.0,4.0,1.5,-20.0
18:06:54,1500.0,0.003004229045473039,0.008157869335263968,1.0540831089019775,-0.365495964884758,-6.975815631449223e-05,0.0021053653908893466,AUTO,-1.0,-12.0,-974.0,-364.5,4.0,4.5,-35.362385950000004,149.1669035,38592.5,-1.5,2.0,-27.0
18:06:56,1500.0,0.017449533566832542,0.001031469029840082,1.0541732907295227,0.6639315485954285,-0.0022891478147357702,-0.001570509688463062,AUTO,0.0,29.5,-1015.5,665.0,2.0,1.5,-35.3623855,149.1669033,38740.5,-8.5,2.0,3.0
18:06:58,1500.0,0.0074822993483394384,0.0012156550146755762,1.0538939237594604,-0.27832361310720444,0.01124188769608736,-0.00027173792477697134,AUTO,-1.5,-14.0,-1018.5,-276.5,15.0,2.5,-35.3623853,149.16690425000002,39141.5,-8.5,13.0,-45.0
18:07:00,1500.0,-0.0006435193208744749,0.005838688230141997,1.054182231426239,-0.47887204587459564,-0.013793495949357748,0.003911121399141848,AUTO,0.0,-12.5,-972.0,-476.0,-9.0,7.0,-35.36238535,149.1669054,39856.0,-9.5,2.0,-5.0
18:07:02,1500.0,0.010866226628422737,-0.005874178139492869,1.0544816255569458,0.19126294925808907,-0.0025491241831332445,0.004174405010417104,BRAKE,0.0,18.5,-1038.5,195.5,2.0,7.0,-35.3623855,149.16690545,39882.5,-8.0,8.0,-15.0
18:07:04,1500.0,0.0026069811428897083,0.004697689088061452,1.054538607597351,-0.5686414837837219,-0.004182860255241394,0.001126486575230956,BRAKE,0.0,-28.0,-985.0,-567.5,0.5,4.5,-35.362385450000005,149.16690655000002,40347.0,-6.5,6.0,-11.5
18:07:06,1500.0,0.009583658305928111,0.004034721991047263,1.054455816745758,0.3826903700828552,-0.001245735795237124,0.0017557571409270167,ALT_HOLD,-0.5,25.0,-1003.0,387.0,2.5,4.5,-35.3623856,149.1669071,40486.0,-9.0,3.0,-3.0
18:07:08,1500.0,-0.0025551996659487486,0.000676432071486488,1.0519696474075317,-1.67055344581604,0.0037681227549910545,-0.009011888643726707,AUTO,-1.5,-98.5,-945.0,-1675.0,8.0,-5.5,-35.362385,149.1669071,39166.0,1.0,0.0,173.5
18:07:10,1500.0,-0.0006675874319626018,0.004230588558129966,1.0544732809066772,-0.5487010180950165,0.005110133904963732,0.0026619385462254286,AUTO,-1.5,-17.5,-1060.0,-545.5,9.0,5.5,-35.36238405,149.16690745,36880.5,-3.5,3.0,10.5
18:07:12,1500.0,-0.0009157895110547543,0.0074876039288938046,1.054124116897583,-0.0515919029712677,-1.6136327758431435e-06,-0.0021262220107018948,AUTO,1.0,-14.0,-993.0,-52.5,4.0,0.5,-35.3623843,149.16690845,37151.0,-3.5,-0.5,-21.0
18:07:14,1500.0,-0.0015074016992002726,0.0032476397464051843,1.0546171069145203,0.46980107575654984,-0.0039516371907666326,0.0013094437308609486,AUTO,0.0,31.5,-992.5,474.5,0.0,4.5,-35.362384950000006,149.1669088,37400.5,1.5,-5.0,0.0
18:07:16,1500.0,0.005334346788004041,-0.0011279269820079207,1.0540549755096436,-0.3650388643145561,-0.0009513269178569317,-0.00052174914162606,AUTO,-1.0,-20.5,-1017.0,-364.0,3.0,2.5,-35.3623846,149.16690845,37510.0,1.5,0.5,-21.5
18:07:18,1500.0,0.012901194160804152,0.005734844831749797,1.0540832877159119,-0.13484704494476318,-0.00042470055632293224,0.00038211920764297247,BRAKE,-1.5,-14.0,-977.0,-134.5,4.0,3.5,-35.3623836,149.1669089,38229.5,-5.5,4.5,-29.0
18:07:20,1500.0,0.015410472638905048,0.00352109398227185,1.054735243320465,0.5816592276096344,0.00032967375591397285,0.0002092849463224411,BRAKE,-0.5,28.5,-999.5,585.5,5.0,3.5,-35.3623833,149.1669091,38558.0,-11.0,5.0,-6.0
18:07:22,1500.0,0.0018784571147989482,0.0004808807134395465,1.0535730719566345,-0.38608989119529724,-0.0018149196403101087,0.0010577886132523417,ALT_HOLD,-0.5,-53.5,-828.5,-390.0,2.5,4.5,-35.3623835,149.1669094,38537.0,-3.5,2.5,48.0
18:07:24,1500.0,0.00955093209631741,0.005815532524138689,1.053929626941681,1.1766548156738281,-0.0013332811649888754,0.004022957175038755,AUTO,1.0,65.0,-1186.5,1182.5,3.0,7.5,-35.3623831,149.16690995,35615.0,2.5,1.5,115.0
18:07:26,1500.0,-0.006903444183990359,0.006268616300076246,1.0544546246528625,0.3696703314781189,0.0012948298826813698,-0.002251269994303584,AUTO,0.0,8.0,-1013.5,370.5,6.0,1.0,-35.3623839,149.1669114,35069.0,11.5,-7.5,-17.5
18:07:28,1500.0,-0.014564200304448605,0.002174536813981831,1.0551974773406982,-0.1119949147105217,-0.0027009346522390842,0.0040536802262067795,AUTO,-0.5,11.5,-984.5,-107.0,2.0,7.0,-35.3623839,149.16691145,35465.5,14.0,-10.5,-11.0
18:07:30,1500.0,0.009120300179347396,-0.00029700489540118724,1.0544970035552979,-0.022913306951522827,-0.0013147841673344374,0.0027202540077269077,AUTO,-2.0,-16.0,-1003.5,-24.5,3.0,6.0,-35.362383,149.16691064999998,35524.5,9.0,-6.0,1.0
18:07:32,1500.0,0.017198204062879086,0.0027773426845669746,1.0536841750144958,0.35345983505249023,0.004066854016855359,-0.00025514536537230015,AUTO,-1.5,14.5,-1011.5,355.0,8.5,3.0,-35.3623818,149.1669104,35881.0,-3.5,4.0,-34.0
18:07:34,1500.0,0.016304953955113888,0.0037065549986436963,1.054430902004242,0.46815668046474457,-0.0021836302476003766,0.0010563755640760064,AUTO,0.0,28.0,-985.0,472.5,2.5,4.0,-35.3623813,149.1669104,36413.0,-12.0,4.0,-3.5
18:07:36,1500.0,0.017213931307196617,-0.0004173463112238096,1.0544769763946533,-0.12185142934322357,0.00010041729547083378,-0.0009008456254377961,AUTO,0.0,-18.0,-1031.5,-122.0,4.5,2.5,-35.36238125,149.16691035000002,36454.5,-13.0,9.5,-16.0
18:07:38,1500.0,0.0011596221011132002,0.007038235431537032,1.0540589094161987,-0.06209439039230347,0.0015664799138903618,0.0003730445168912411,AUTO,0.5,-14.5,-973.0,-62.0,6.0,3.5,-35.3623821,149.1669118,37233.0,-10.0,8.0,-37.5
18:07:40,1500.0,0.00033434992656111717,0.0009161544876405969,1.0544544458389282,0.40628399699926376,-0.0030110457446426153,0.0010879297042265534,BRAKE,0.0,33.0,-997.0,412.0,1.5,5.0,-35.36238295,149.1669123,37466.0,-1.0,0.0,4.0
18:07:42,1500.0,0.011407134588807821,0.00094268933753483,1.0545836687088013,0.06394818425178528,0.00034199911169707775,-0.0011188489152118564,BRAKE,0.0,-13.5,-996.0,63.0,4.5,2.5,-35.3623828,149.16691205,37454.0,0.0,0.5,0.0
18:07:44,1500.0,-0.0045930210035294294,0.0021346897119656205,1.0547835230827332,-0.17315181344747543,0.0013819641899317503,0.0015304450644180179,ALT_HOLD,0.0,6.0,-1000.5,-167.5,6.0,4.5,-35.36238285,149.16691205,37469.0,-0.5,1.5,0.0
18:07:46,1500.0,0.012671476230025291,0.0007314933172892779,1.0550814270973206,-0.5767089389264584,0.001748119480907917,-0.002061804407276213,AUTO,0.5,-81.5,-925.0,-584.0,6.5,1.5,-35.3623831,149.16691255,36122.0,4.0,0.5,174.0
18:07:48,1500.0,-0.01928404252976179,0.006613606819882989,1.0548867583274841,-0.5026213079690933,0.0020418663043528795,-0.0031253851484507322,AUTO,1.5,-38.0,-1055.5,-503.0,6.5,0.5,-35.362384000000006,149.16691415,33807.0,7.0,-0.5,11.5
18:07:50,1500.0,-0.019786600023508072,0.003451137454248965,1.0543704628944397,0.4565139263868332,-0.0013698659604415298,0.0020285153295844793,AUTO,0.0,20.5,-997.0,459.0,3.0,5.5,-35.3623856,149.1669156,34082.5,25.5,-16.5,-20.5
18:07:52,1500.0,-0.021200429648160934,0.0002532477751628903,1.0543476343154907,-0.19068127125501633,-0.0034115451853722334,0.0023979843826964498,AUTO,-1.5,12.0,-985.0,-186.0,1.0,6.0,-35.362385149999994,149.16691494999998,34340.5,25.5,-15.0,0.5
18:07:54,1500.0,0.010369207710027695,-0.002866323688067496,1.0541331768035889,0.47027915716171265,0.0007820823229849339,0.00021782622206956148,AUTO,-2.5,26.5,-1023.0,472.0,5.0,3.5,-35.3623837,149.16691394999998,34420.0,14.0,-4.5,-19.0
18:07:56,1500.0,0.01286117872223258,0.001012656866805628,1.0539458394050598,0.0658445954322815,0.0015306328423321247,0.0011751833371818066,AUTO,-1.5,13.0,-979.5,69.0,5.5,4.5,-35.3623823,149.16691335000002,35117.5,-1.0,4.0,-33.5
18:07:58,1500.0,0.013476076070219278,-0.00023888491705292836,1.0542779564857483,-0.563865453004837,-0.0049189794808626175,0.0003143299836665392,AUTO,-1.0,-29.5,-993.5,-564.0,-0.5,4.0,-35.36238145,149.166913,35352.5,-10.5,7.5,2.5
18:08:00,1500.0,0.023895696736872196,0.00048386027265223674,1.0541132092475891,0.3049251064658165,0.0035136195365339518,-0.0007774624973535538,AUTO,-0.5,15.5,-1028.0,307.5,7.5,2.5,-35.36238095,149.16691305,35634.5,-19.0,15.5,-41.0
18:08:02,1500.0,0.0160874268040061,0.005913892528042197,1.0544302463531494,0.5014272481203079,-0.0012337570078670979,0.00014634779654443264,AUTO,0.5,19.0,-965.0,503.5,3.0,4.0,-35.36238145,149.16691405,36452.0,-17.5,10.5,-13.5
18:08:04,1500.0,-0.0018567751394584775,-6.84920814819634e-06,1.0548603534698486,-0.3653372675180435,-0.006317120045423508,0.0012431666254997253,BRAKE,0.0,-28.0,-1030.0,-365.0,-1.0,4.5,-35.3623828,149.16691485,36471.5,-6.5,4.0,-6.0
18:08:06,1500.0,0.0011172008671564981,0.003123760689049959,1.0548797845840454,0.44971802830696106,0.0009412388317286968,-0.0014347594697028399,BRAKE,1.0,12.5,-995.5,450.5,5.0,2.0,-35.36238385,149.16691585,36792.5,2.0,0.0,-9.5
18:08:08,1500.0,-0.010134246665984392,0.0005963520670775324,1.0543984770774841,-0.23955157026648521,-0.004119008779525757,0.0009574673604220152,ALT_HOLD,-0.5,2.5,-1001.5,-235.0,1.0,4.5,-35.3623846,149.1669163,36905.0,7.5,-3.0,-2.0
18:08:10,1500.0,0.03150834050029516,0.0007048139232210815,1.0515990853309631,0.3668473958969116,-0.006670435657724738,-0.0037248681765049696,AUTO,1.5,-50.0,-917.0,358.5,-2.0,0.5,-35.3623841,149.166916,35626.5,7.5,-2.0,173.0
18:08:12,1500.0,-0.012318993918597698,0.0006932868564035743,1.0547097325325012,-0.5925997197628021,-0.004096259828656912,-0.0022234420757740736,AUTO,0.0,-28.0,-1064.5,-591.5,0.0,1.0,-35.36238445,149.1669164,33304.5,7.0,0.0,13.0
18:08:14,1500.0,-0.005050798412412405,0.0006907901843078434,1.0541043877601624,0.15943718701601028,-0.0005080224946141243,-0.0003959402674809098,AUTO,-0.5,-2.0,-992.5,159.0,3.5,3.0,-35.362385149999994,149.1669169,33562.5,14.5,-4.5,-20.5
18:08:16,1500.0,0.0007895255112089217,-6.530967038997915e-05,1.0546934008598328,-0.2167021818459034,0.00021738815121352673,0.0018196408636868,AUTO,-2.0,9.5,-989.5,-213.0,4.0,5.5,-35.362384,149.16691635,33818.0,8.5,-2.5,-1.0
18:08:18,1500.0,0.010761289857327938,0.0008684036729391664,1.0547049045562744,0.14741156995296478,-9.97115857899189e-05,-0.0016860109753906727,AUTO,-1.0,-4.0,-1017.5,146.5,3.5,1.5,-35.3623833,149.16691605,33909.0,-1.0,3.0,-18.5
18:08:20,1500.0,0.009545273380354047,0.004043412045575678,1.0540536046028137,0.09506133943796158,0.0024990743258967996,-0.0025665254797786474,AUTO,0.0,-6.5,-977.5,94.0,6.5,1.0,-35.3623833,149.16691645,34602.5,-2.0,3.0,-30.0
18:08:22,1500.0,0.0004724221071228385,-9.4077673566062e-05,1.0547990202903748,-0.28657001396641135,-0.005634234752506018,0.005509724374860525,AUTO,-0.5,8.5,-994.5,-282.0,-0.5,8.5,-35.3623833,149.1669165,34801.5,-3.5,2.0,4.0
18:08:24,1500.0,0.017450992949306965,-0.001219629542902112,1.0542285442352295,-0.13285278901457787,0.00030965590849518776,-0.0008014853810891509,AUTO,0.0,-13.0,-1020.5,-133.0,4.5,2.5,-35.3623827,149.166916,35138.0,-7.5,8.5,-43.0
18:08:26,1500.0,0.014293062966316938,0.0023369030095636845,1.0547044277191162,0.01808162033557892,-0.005334837595000863,4.566728603094816e-05,AUTO,0.5,-15.5,-964.0,17.5,-1.0,3.5,-35.3623827,149.16691645,35928.0,-9.5,7.5,-11.5
18:08:28,1500.0,0.004887683317065239,-0.0007958962814882398,1.0548377633094788,-0.42370089143514633,-0.006027611903846264,-0.00048743863590061665,BRAKE,0.5,-12.5,-1032.0,-420.0,-1.5,2.5,-35.3623828,149.16691655,35940.5,-9.5,8.5,-7.0
18:08:30,1500.0,0.014306358527392149,0.001969851669855416,1.0545923113822937,0.0006697922945022583,-0.001070891274139285,-0.003383199335075915,BRAKE,0.0,-13.0,-991.5,0.0,2.5,0.5,-35.362383050000005,149.166917,36299.5,-8.0,8.0,-10.5
18:08:32,1500.0,0.004692639573477209,0.001407763222232461,1.0554170608520508,-0.013414084911346436,-0.0011410654988139868,0.0013698424445465207,ALT_HOLD,0.0,14.0,-995.5,-7.5,2.5,4.5,-35.3623834,149.1669174,36413.0,-7.5,6.0,-2.0
18:08:34,1500.0,0.018887965008616447,0.0009693525789771229,1.0528219938278198,-0.3445259928703308,-0.002827596850693226,-0.007455405662767589,AUTO,1.0,-68.5,-929.5,-352.5,1.5,-3.5,-35.36238324999999,149.1669175,35112.0,2.0,1.0,172.5
18:08:36,1500.0,0.003475962672382593,0.0024157232837751508,1.0546252131462097,-0.3505781963467598,0.0004344373010098934,-0.0011731168488040566,AUTO,0.0,-31.0,-1059.0,-350.5,4.0,2.0,-35.3623829,149.16691755,32787.5,-1.0,3.0,12.0
18:08:38,1500.0,0.0005857632495462894,0.003003701684065163,1.0545032024383545,0.06719465553760529,-0.002388798166066408,0.0005102381110191345,AUTO,-0.5,-10.0,-991.5,67.5,1.5,4.0,-35.3623834,149.1669183,33053.0,3.5,-1.5,-20.5
18:08:40,1500.0,0.003958459186833352,0.0015467036282643676,1.054578721523285,0.4106144979596138,0.004026611568406224,0.0014470084570348263,AUTO,0.0,23.5,-991.0,415.0,8.0,4.5,-35.362383449999996,149.1669182,33308.5,4.0,-1.5,-0.5
18:08:42,1500.0,0.004354766628239304,-4.3354133595130406e-05,1.05421382188797,-0.31954891607165337,-0.002586949383839965,-0.0010601069079712033,AUTO,0.0,-23.0,-1019.0,-319.0,1.0,2.0,-35.3623833,149.1669181,33396.5,3.5,0.0,-19.0
18:08:44,1500.0,0.0065896231681108475,0.0020601514261215925,1.0540318489074707,-0.07480771094560623,-0.0010295534739270806,-0.0016220083925873041,AUTO,-0.5,-14.0,-979.5,-75.0,2.5,1.5,-35.3623831,149.1669181,34100.5,0.5,2.0,-31.5
18:08:46,1500.0,0.013853984884917736,0.0003525750980770681,1.0550298690795898,0.6184888780117035,0.001981741050258279,-0.002204900374636054,AUTO,-1.0,29.5,-1003.0,621.5,6.0,1.5,-35.36238295,149.1669181,34325.0,-1.0,2.0,3.0
18:08:48,1500.0,0.00825777230784297,0.0002580487562227063,1.054219365119934,-0.31608064472675323,0.00040279561653733253,-0.000774723244830966,AUTO,0.0,-10.5,-1026.0,-313.5,4.0,2.5,-35.3623823,149.1669178,34609.5,-6.5,7.0,-41.0
18:08:50,1500.0,0.00015036395052447915,0.002591322408989072,1.0545517802238464,-0.5338952988386154,-0.0015671135624870658,0.0030561513267457485,AUTO,-0.5,-18.0,-958.5,-530.5,2.0,6.5,-35.3623824,149.1669182,35445.0,-7.0,6.0,-15.0
18:08:52,1500.0,0.010206355480477214,0.0013470660778693855,1.0547540783882141,0.5428002625703812,0.0008202018216252327,-0.0003891435917466879,AUTO,-1.0,29.5,-1032.0,547.5,4.5,2.5,-35.3623828,149.1669185,35467.5,-5.0,4.0,-3.0
18:08:54,1500.0,-0.006073834025301039,0.0034761399729177356,1.0540926456451416,0.07708164304494858,-0.0021259093191474676,0.0008789359126240015,BRAKE,0.5,9.0,-975.0,82.0,2.0,4.0,-35.36238365,149.16691935,36149.5,0.5,2.5,-42.5
18:08:56,1500.0,-0.013547391630709171,0.0021506570046767592,1.054627001285553,-0.4709785282611847,-0.004344190703704953,-0.0022747020702809095,BRAKE,0.0,-27.5,-987.0,-470.5,0.0,1.0,-35.3623846,149.16692024999998,36626.5,9.5,-3.0,-9.5
18:08:58,1500.0,0.009111490799114108,0.0006780473777325824,1.053973138332367,1.0466175079345703,0.0026778588071465492,0.00010805204510688782,ALT_HOLD,0.0,48.0,-861.0,1050.5,6.5,3.5,-35.3623845,149.1669202,36656.5,9.0,-3.0,38.0
18:09:00,1500.0,-0.01504251609245936,0.0016884718012685578,1.0540135304133098,-0.02000884711742401,0.0023730603667596975,0.0038980575433621802,AUTO,0.0,40.333333333333336,-1119.0,-10.0,6.0,7.0,-35.3623842,149.16691993333333,33798.0,2.0,0.3333333333333333,127.33333333333333
18:09:02,1500.0,-0.014217418618500233,0.0033830556397636733,1.0546937386194866,0.06243340174357096,-0.0007980082494517168,-0.0006133314842979113,AUTO,0.3333333333333333,5.333333333333333,-1012.0,65.0,2.6666666666666665,2.3333333333333335,-35.3623851,149.16692083333336,33137.666666666664,12.333333333333334,-5.0,-18.0
18:09:04,1500.0,-0.007686463883146644,-1.3807963114231825e-05,1.0546447038650513,-0.5008685290813446,-0.0032737263245508075,-0.0008366683032363653,AUTO,-1.5,-21.0,-986.0,-499.5,0.0,2.0,-35.36238485,149.16692065,33536.5,14.5,-7.5,-13.0
18:09:06,1500.0,0.007871351321227849,-0.0004346238129073754,1.0548084378242493,0.47522681951522827,0.0011650522937998176,-7.90553167462349e-05,AUTO,-0.5,31.5,-1014.0,478.5,4.5,3.0,-35.36238415,149.16692005,33606.0,7.5,-2.0,-1.5
18:09:08,1500.0,-0.004080640384927392,0.001879169896710664,1.0548338294029236,-0.4637880027294159,-0.00683919177390635,0.00013146852143108845,BRAKE,-0.5,-17.5,-981.5,-461.5,-2.5,3.0,-35.3623839,149.16692,33974.5,3.5,0.0,-22.0
18:09:10,1500.0,0.006662724859779701,0.001534679012062649,1.0547234217325847,0.13371551036834717,-0.0005787513218820095,-0.0034896590126057467,BRAKE,-0.3333333333333333,-3.0,-999.6666666666666,132.66666666666666,2.6666666666666665,-0.3333333333333333,-35.36238373333334,149.16692,34230.0,3.6666666666666665,0.0,-5.333333333333333
18:09:12,1500.0,-0.012155852435777584,0.000610660295933485,1.0542964935302734,-0.45904388030370075,-0.00024725132000943023,-0.00016435127084453902,ALT_HOLD,-1.6666666666666667,3.6666666666666665,-860.0,-453.3333333333333,3.0,2.6666666666666665,-35.36238326666667,149.16691996666668,34224.666666666664,4.0,0.0,34.333333333333336
18:09:14,1500.0,0.017894864082336426,-0.00033361078628028434,1.0535287062327068,-0.5949742744366328,-0.007636249220619599,0.002424659517904123,AUTO,0.0,-73.0,-1083.3333333333333,-601.0,-3.0,6.0,-35.36238169999999,149.1669186,31351.666666666668,3.0,-1.0,156.0
18:09:16,1500.0,-0.0012013229861622676,0.002484680541480581,1.055113951365153,-0.034339954455693565,0.0034173387102782726,-0.001956591149792075,AUTO,0.0,-13.0,-1022.6666666666666,-34.333333333333336,6.666666666666667,1.0,-35.362382,149.16691866666667,30322.666666666668,1.0,3.0,-12.666666666666666
18:09:18,1500.0,-0.007182874593127053,0.0016602985560894012,1.054537018140157,0.2883261578778426,-0.0013206074169526498,9.860843420028687e-05,AUTO,0.0,17.0,-989.3333333333334,290.6666666666667,2.0,3.0,-35.36238306666667,149.1669195,30715.0,10.333333333333334,-3.6666666666666665,-14.666666666666666
18:09:20,1500.0,-0.006533017382025719,-0.0008144675133128961,1.0546834468841553,-0.47306761145591736,-0.0013171854273726542,-0.0002735042944550514,BRAKE,-1.6666666666666667,-14.666666666666666,-997.6666666666666,-471.3333333333333,2.6666666666666665,2.3333333333333335,-35.36238269999999,149.16691916666664,30826.333333333332,11.0,-4.0,2.0
18:09:22,1500.0,0.004868598111594717,-2.3749185250683997e-05,1.0548752148946126,0.374316381290555,-0.0014448858176668484,0.0018306360580027103,BRAKE,-0.6666666666666666,14.666666666666666,-999.6666666666666,374.3333333333333,2.0,4.333333333333333,-35.36238219999999,149.1669188,30869.666666666668,5.333333333333333,0.0,-0.6666666666666666
18:09:24,1500.0,0.01028769121815761,-0.0008948700463709732,1.0546679496765137,-0.3294725666443507,-0.00319790894476076,0.0016623840977748234,ALT_HOLD,-1.0,-15.666666666666666,-994.0,-329.0,0.3333333333333333,4.0,-35.362381133333336,149.16691819999997,30898.0,2.0,1.0,0.0
18:09:26,1500.0,0.027057137961188953,0.0010200731145838897,1.0527414083480835,0.6029205818970998,-0.0008045209106057882,0.004146739064405362,AUTO,-1.0,-20.333333333333332,-928.3333333333334,595.3333333333334,2.6666666666666665,6.666666666666667,-35.362379733333334,149.1669173,29752.333333333332,7.333333333333333,-2.3333333333333335,166.66666666666666
18:09:28,1500.0,0.015378256949285666,-0.0007593923752817014,1.0545543432235718,-0.1309774617354075,-0.0020573019670943418,-0.0008021942727888624,AUTO,-0.3333333333333333,-15.0,-1066.0,-132.33333333333334,1.3333333333333333,2.0,-35.362378299999996,149.16691613333333,27297.666666666668,-1.0,3.0,19.333333333333332
18:09:30,1500.0,0.006606616390248139,0.0022699220183615885,1.0546351671218872,0.25553449615836143,0.001958223913485805,-0.0008912094247837862,AUTO,0.3333333333333333,10.666666666666666,-995.3333333333334,256.6666666666667,5.0,1.6666666666666667,-35.362378400000004,149.16691626666668,27511.333333333332,-3.0,4.666666666666667,-21.333333333333332
18:09:32,1500.0,-0.011483822794010242,0.0024588388235618672,1.0548564195632935,-0.43361683189868927,-0.002214465057477355,0.0007460263247291247,AUTO,1.0,-19.666666666666668,-985.3333333333334,-432.0,1.3333333333333333,3.6666666666666665,-35.362379366666666,149.16691696666666,27781.666666666668,4.0,0.0,-1.0
18:09:34,1500.0,-0.0031948991115010963,0.0023488889758785567,1.0546882549921672,0.4456053525209427,0.0012634112499654293,-0.0005593892807761828,BRAKE,1.0,13.333333333333334,-998.6666666666666,446.3333333333333,4.333333333333333,2.0,-35.362380333333334,149.16691763333333,27835.0,11.0,-4.0,-6.666666666666667
18:09:36,1500.0,-0.013120669095466534,0.0019380808807909489,1.0545652310053508,-0.41153210898240405,-0.0024904973494509854,0.00010624073911458254,BRAKE,0.0,-14.333333333333334,-995.0,-410.3333333333333,0.3333333333333333,2.3333333333333335,-35.362380933333334,149.16691806666665,27933.333333333332,14.333333333333334,-6.0,-0.6666666666666666
18:09:38,1500.0,0.0010919601966937382,0.0006526957828706751,1.0547139644622803,0.5995185375213623,0.001469402884443601,0.0025071182753890753,ALT_HOLD,-0.3333333333333333,48.0,-881.0,604.3333333333334,4.333333333333333,4.666666666666667,-35.3623813,149.1669183,27888.666666666668,11.0,-4.0,34.0
18:09:40,1500.0,-0.0014603129432847102,-0.00030678521337298054,1.0529150168100994,-1.08029439051946,-0.00877145336320003,0.0011039532255381346,AUTO,0.0,-77.0,-1088.0,-1086.3333333333333,-5.0,3.6666666666666665,-35.3623815,149.1669184,25105.0,3.6666666666666665,0.0,133.66666666666666
18:09:42,1500.0,0.008096348028630018,0.0012430265778675675,1.054588794708252,-0.3051198124885559,-0.0004651215858757496,-0.0018283979346354802,AUTO,-0.6666666666666666,-13.0,-1019.6666666666666,-305.6666666666667,3.0,1.0,-35.362381,149.16691823333332,24352.666666666668,0.6666666666666666,1.3333333333333333,-15.333333333333334
18:09:44,1500.0,0.019566087673107784,0.001259772611471514,1.0550942818323772,0.10852806766827901,0.003753946783641974,-0.0013742019267131884,AUTO,-1.3333333333333333,-2.3333333333333335,-985.6666666666666,107.0,6.666666666666667,1.6666666666666667,-35.3623801,149.16691773333332,24746.0,-7.333333333333333,5.0,-12.333333333333334
18:09:46,1500.0,0.006789880183835824,0.0018558147906636198,1.0548677444458008,-0.09717172384262085,0.0010161599299559991,-0.0010218396006772916,AUTO,0.0,7.0,-1004.3333333333334,-94.0,3.6666666666666665,1.6666666666666667,-35.3623801,149.1669177,24826.666666666668,-11.0,7.0,2.0
18:09:48,1500.0,0.001817841820108394,0.002479179296642542,1.0545547008514404,-0.09228226045767467,0.0013451303821057081,0.0007576497737318277,AUTO,0.6666666666666666,-4.0,-1012.0,-91.33333333333333,4.333333333333333,3.3333333333333335,-35.36238086666666,149.16691826666667,25138.0,-7.0,6.0,-33.0
18:09:50,1500.0,-0.006340097461361438,0.0023035112535580993,1.0542393624782562,-0.12021857779473066,-0.0012492440873757005,0.0001896728645078838,AUTO,0.25,-7.0,-973.0,-119.5,1.5,2.5,-35.36238195,149.16691905,25727.5,2.0,0.0,-12.0
18:09:52,1500.0,0.006663668134327357,-0.0007952215964905918,1.0542285839716594,0.32789379730820656,0.0007232100081940492,0.0002915676838407914,AUTO,-1.3333333333333333,13.666666666666666,-1025.6666666666667,328.0,3.3333333333333335,2.6666666666666665,-35.362382,149.166919,25783.0,6.0,-1.6666666666666667,-9.0
18:09:54,1500.0,0.018010957166552544,-0.0003104053600206195,1.0538809696833293,0.04430737594763438,3.8339290767908096e-05,-0.0007576950980971257,AUTO,-0.6666666666666666,4.0,-989.6666666666666,45.0,3.0,1.3333333333333333,-35.36238073333333,149.16691816666665,26504.0,-2.6666666666666665,4.666666666666667,-46.333333333333336
18:09:56,1500.0,0.009946777174870173,0.0010215817019343376,1.0550707976023357,0.059559417267640434,-0.0017964257470642526,-0.0004965488333255053,AUTO,0.0,16.666666666666668,-993.6666666666666,63.0,1.3333333333333333,1.6666666666666667,-35.3623803,149.166918,26914.333333333332,-10.666666666666666,8.666666666666666,2.3333333333333335
18:09:58,1500.0,0.007078359107254073,0.0019962727868308625,1.0546383460362752,-0.06139630824327469,-0.002362653302649657,-0.0012457650154829025,BRAKE,0.3333333333333333,-11.0,-985.3333333333334,-61.333333333333336,1.0,1.3333333333333333,-35.3623807,149.1669183333333,27063.666666666668,-8.666666666666666,8.333333333333334,-19.666666666666668
18:10:00,1500.0,0.0016017241093019645,0.002521957348411282,1.0549358526865642,0.3079285869995753,0.0026770465386410556,0.0009529918121794859,BRAKE,0.6666666666666666,18.0,-1000.3333333333334,310.6666666666667,5.333333333333333,3.6666666666666665,-35.36238186666667,149.16691926666667,27299.333333333332,-2.3333333333333335,4.666666666666667,-5.0
18:10:02,1500.0,-0.009914198036616048,0.0006431712148090204,1.0549099842707317,-0.7327637746930122,0.0008459272018323342,-0.005452028708532453,ALT_HOLD,0.0,-34.333333333333336,-877.0,-733.0,3.6666666666666665,-2.6666666666666665,-35.362382866666664,149.1669201,27295.0,5.666666666666667,0.0,30.333333333333332
18:10:04,1500.0,-0.0011763844328622024,0.005351079938312371,1.053718129793803,1.4215779304504395,0.002319923990095655,-0.004949090459073584,AUTO,2.0,73.0,-1102.6666666666667,1425.6666666666667,5.333333333333333,-2.3333333333333335,-35.36238453333333,149.16692203333332,24541.333333333332,0.3333333333333333,5.0,138.33333333333334
18:10:06,1500.0,0.002641692447165648,0.0014117034540201228,1.0548300743103027,0.3550764669974645,0.00013722285317877928,-0.0012891356988499563,AUTO,-0.6666666666666666,18.0,-1021.0,356.0,3.0,1.0,-35.36238483333333,149.16692266666666,23752.666666666668,10.0,-5.0,-15.666666666666666
18:10:08,1500.0,0.004188834902985643,0.0006217374951423457,1.054545243581136,0.027521274983882904,0.0011051383335143328,-0.0005281401875739297,BRAKE,0.0,11.0,-991.6666666666666,30.0,3.6666666666666665,1.3333333333333333,-35.36238396666666,149.16692196666668,24151.0,2.6666666666666665,-0.3333333333333333,-13.333333333333334
18:10:10,1500.0,-0.0030399707223599157,0.0024830406376471124,1.0549172163009644,0.19367200136184692,0.002610996443157395,-0.0016470823902636766,BRAKE,1.0,-3.3333333333333335,-995.6666666666666,192.33333333333334,5.333333333333333,0.6666666666666666,-35.3623845,149.1669223,24297.333333333332,4.666666666666667,-0.3333333333333333,-3.3333333333333335
18:10:12,1500.0,-0.01086094199369351,0.002162340640400847,1.0546526114145915,-0.4947855273882548,-0.002211958596793314,-0.0011908240461101134,ALT_HOLD,1.0,-19.666666666666668,-1001.6666666666666,-494.0,0.6666666666666666,1.0,-35.3623859,149.1669232,24354.666666666668,6.333333333333333,-2.0,-0.3333333333333333
18:10:14,1500.0,0.031303773944576584,0.0008465989764469365,1.052764614423116,0.7871138552824656,-0.0007116426713764668,-0.0021684616804122925,AUTO,2.6666666666666665,-21.0,-913.0,778.6666666666666,2.3333333333333335,0.3333333333333333,-35.3623876,149.16692433333333,23264.0,1.3333333333333333,3.0,164.66666666666666
18:10:16,1500.0,-0.009579806122928858,0.003062624561910828,1.0544434785842896,0.33234931031862897,0.0001303657190874219,-0.00014019870044042668,AUTO,0.6666666666666666,-0.6666666666666666,-1080.6666666666667,329.3333333333333,2.3333333333333335,1.6666666666666667,-35.362389799999995,149.16692636666667,20745.0,10.666666666666666,-2.0,20.666666666666668
18:10:18,1500.0,-0.011711759647975365,-0.0002675394874434763,1.0543147722880046,-0.18672391772270203,-0.0020612188382074237,-0.0018943881150335073,AUTO,-1.0,-0.3333333333333333,-999.6666666666666,-186.33333333333334,0.3333333333333333,0.3333333333333333,-35.36239013333333,149.16692659999998,20934.666666666668,20.0,-9.333333333333334,-22.333333333333332
18:10:20,1500.0,0.013709410093724728,-0.0010864968062378466,1.0550005435943604,0.084440012772878,0.0012669817854960759,-0.00011434173211455345,BRAKE,-1.6666666666666667,-6.0,-992.3333333333334,81.0,3.6666666666666665,2.0,-35.36238866666667,149.16692550000002,21215.0,10.666666666666666,-3.0,-3.3333333333333335
18:10:22,1500.0,0.0025135693916430077,-0.000573594191034014,1.0546160538991292,-0.45217366019884747,-0.0036236985276142755,-0.0007119746102641026,BRAKE,-1.3333333333333333,-10.0,-995.3333333333334,-452.0,-0.6666666666666666,1.6666666666666667,-35.3623877,149.1669249,21218.666666666668,1.0,1.3333333333333333,-0.6666666666666666
18:10:24,1500.0,0.011396189142639438,0.00022065497857208052,1.055133064587911,0.20309231678644815,-0.0009710479838152727,-0.00014958235745628676,ALT_HOLD,-1.6666666666666667,19.0,-1002.3333333333334,204.0,1.6666666666666667,2.3333333333333335,-35.36238633333334,149.16692403333334,21243.333333333332,-3.0,3.0,-0.6666666666666666
18:10:26,1500.0,-0.022840267047286034,0.0005467657465487719,1.0524444580078125,-1.6775137186050415,-0.007891425785298148,0.0009451860096305609,AUTO,-1.0,-51.0,-922.6666666666666,-1676.3333333333333,-4.333333333333333,3.3333333333333335,-35.36238436666667,149.1669225,20161.0,7.666666666666667,-3.6666666666666665,163.66666666666666
18:10:28,1500.0,-0.006354792121176918,0.0014515096166481574,1.0547217925389607,-0.4379768520593643,-0.001650227311377724,0.00105943251401186,AUTO,0.3333333333333333,-14.666666666666666,-1074.0,-437.3333333333333,0.6666666666666666,2.6666666666666665,-35.3623837,149.1669219,17636.333333333332,3.3333333333333335,0.0,21.666666666666668
18:10:30,1500.0,-0.002606247006042395,0.0014477112951378028,1.0547980070114136,0.09917085369427998,0.0010014277261992295,-0.0020133975970869264,AUTO,-0.6666666666666666,-3.0,-994.6666666666666,96.33333333333333,3.3333333333333335,0.0,-35.3623842,149.16692226666666,17828.666666666668,9.666666666666666,-3.6666666666666665,-21.333333333333332
18:10:32,1500.0,0.013580648616577188,-0.001011898818736275,1.0546486775080364,0.32456278800964355,0.002551816093424956,0.0013238561029235523,BRAKE,-1.6666666666666667,17.333333333333332,-989.0,324.3333333333333,4.666666666666667,3.0,-35.36238336666666,149.16692146666665,18115.0,5.333333333333333,-1.0,-1.6666666666666667
18:10:34,1500.0,0.011626869750519594,0.00010800836025737226,1.054436167081197,-0.12272986272970836,-0.00029013205009202164,-0.00023230627023925385,BRAKE,-0.6666666666666666,-13.333333333333334,-1001.0,-126.0,1.6666666666666667,1.3333333333333333,-35.36238253333334,149.1669208666667,18105.333333333332,-1.0,3.0,0.3333333333333333
18:10:36,1500.0,0.007550056480492155,0.0004921684934136769,1.0551083087921143,0.03815832858284315,-0.000989256426692009,-1.500787523885568e-05,ALT_HOLD,0.0,12.666666666666666,-998.3333333333334,39.666666666666664,1.3333333333333333,2.0,-35.3623813,149.16691996666665,18126.0,-2.6666666666666665,2.6666666666666665,0.0
18:10:38,1500.0,-0.016037592664361,0.0007375754454794029,1.0535591046015422,-1.8216166098912556,-0.004520871909335256,-0.0019484208896756172,AUTO,0.3333333333333333,-83.33333333333333,-922.0,-1824.0,-2.0,0.3333333333333333,-35.362380466666664,149.16691946666666,17055.0,5.666666666666667,-0.6666666666666666,163.0
18:10:40,1500.0,-0.0012838161395241816,0.0011003730663408835,1.0543506940205891,-0.5722864866256714,-0.0035981265051911273,0.0003868645677963893,AUTO,-0.3333333333333333,-23.666666666666668,-1072.3333333333333,-573.0,-0.3333333333333333,2.0,-35.36238,149.1669193,14540.333333333334,0.6666666666666666,1.0,24.0
18:10:42,1500.0,0.007167744198037933,0.0009735057828947902,1.054699460665385,-0.00889273484547933,0.00032966975898792345,-0.002789301642527183,AUTO,-1.0,-5.0,-999.6666666666666,-10.0,2.6666666666666665,-0.3333333333333333,-35.36237983333333,149.1669193,14731.666666666666,0.0,1.0,-20.666666666666668
18:10:44,1500.0,0.004801547310004632,0.0005321882005470494,1.0549107392628987,0.13498957951863608,-0.0010041632534315188,0.0005231026249627272,BRAKE,-0.3333333333333333,17.666666666666668,-990.3333333333334,136.66666666666666,1.3333333333333333,2.0,-35.3623797,149.16691916666664,15010.333333333334,-1.6666666666666667,2.6666666666666665,-1.3333333333333333
18:10:46,1500.0,0.014039120947321257,0.0005104034304774056,1.0547611713409424,0.13597333431243896,0.0024134290870279074,-0.00217528889576594,BRAKE,-0.3333333333333333,-2.0,-999.0,133.66666666666666,4.333333333333333,-0.3333333333333333,-35.362379466666674,149.1669188666667,15007.0,-3.0,3.0,0.3333333333333333
18:10:48,1500.0,0.00022382265888154507,0.0015347569909257193,1.054986794789632,-0.10282259434461594,0.0011653600571056206,-0.0008834193383033077,ALT_HOLD,0.3333333333333333,10.0,-1001.6666666666666,-100.0,3.3333333333333335,0.6666666666666666,-35.36237943333334,149.1669188333333,15018.333333333334,-3.0,4.0,0.0
18:10:50,1500.0,-0.0015293003525584936,0.0009104142081923783,1.0541632572809856,-1.1862969398498535,-0.001805398923655351,0.0007781701472898325,AUTO,2.0,-92.33333333333333,-912.3333333333334,-1194.6666666666667,0.0,2.3333333333333335,-35.36238023333333,149.16691973333334,13954.0,3.6666666666666665,2.3333333333333335,162.33333333333334
18:10:52,1500.0,-0.022697014423708122,0.0047286634022990865,1.0544661283493042,-0.5020866294701894,-0.003516816378881534,-0.00011711924647291501,AUTO,2.0,-28.333333333333332,-1074.6666666666667,-504.0,-1.0,1.3333333333333333,-35.362382000000004,149.1669217,11410.0,10.666666666666666,-2.3333333333333335,23.0
18:10:54,1500.0,-0.010367927607148886,0.00032858022314030677,1.054290811220805,0.1436502436796824,-0.0008836614433676004,-0.001061401388142258,AUTO,-0.6666666666666666,2.6666666666666665,-996.3333333333334,141.33333333333334,1.0,0.3333333333333333,-35.36238266666666,149.1669221,11595.0,21.333333333333332,-11.0,-22.0
18:10:56,1500.0,-0.0013788497696320217,-0.0013003185546646516,1.0545987685521443,-0.10742297768592834,0.0006018299609422684,0.00010671020330240329,AUTO,-1.6666666666666667,6.666666666666667,-983.3333333333334,-107.0,2.6666666666666665,1.3333333333333333,-35.362381633333335,149.16692120000002,11877.333333333334,15.666666666666666,-6.0,-2.6666666666666665
18:10:58,1500.0,0.012778026051819324,-0.0010626034733528893,1.05516521135966,0.10023167729377747,-0.000284313689917326,-0.0015441539774959285,AUTO,-1.6666666666666667,1.3333333333333333,-1020.6666666666666,97.66666666666667,2.0,0.6666666666666666,-35.36238056666667,149.16692049999997,11957.0,4.333333333333333,0.0,-17.333333333333332
18:11:00,1500.0,0.011607570263246695,0.001893399089264373,1.0538215637207031,0.038422796254356704,-0.0005005786661058664,0.0009334023343399167,AUTO,-0.3333333333333333,1.0,-982.3333333333334,37.0,1.3333333333333333,2.3333333333333335,-35.3623799,149.16692023333334,12712.333333333334,-4.0,4.666666666666667,-42.0
18:11:02,1500.0,0.010685109300538898,0.0016579149135698874,1.055095116297404,0.223472669099768,-0.00021106156054884195,-0.0008908122157057127,AUTO,0.0,5.0,-995.0,222.0,1.6666666666666667,1.0,-35.3623801,149.16692043333333,13067.0,-4.666666666666667,4.333333333333333,2.6666666666666665
18:11:04,1500.0,0.005275135161355138,0.0015512254709998767,1.0539326667785645,0.04221966490149498,-0.0013077221034715574,-0.00018133025150746107,AUTO,0.0,1.6666666666666667,-1039.3333333333333,40.666666666666664,1.3333333333333333,1.3333333333333333,-35.3623806,149.1669207,13395.333333333334,-2.0,2.3333333333333335,-48.666666666666664
18:11:06,1500.0,0.012016323395073414,0.0001098304152643929,1.053473711013794,0.0007432087635000547,-0.0013680576036373775,-0.001556203467771411,BRAKE,0.0,0.3333333333333333,-966.6666666666666,-0.3333333333333333,0.6666666666666666,0.0,-35.36238036666666,149.16692049999997,14691.333333333334,-2.6666666666666665,3.6666666666666665,-47.0
18:11:08,1500.0,0.012709280786414942,-0.0018157957432170708,1.0542534987131755,0.08631105224291484,-0.002091574133373797,0.0016960888557756941,BRAKE,-0.3333333333333333,8.0,-991.6666666666666,86.0,0.0,2.6666666666666665,-35.3623802,149.1669202,15202.0,-5.666666666666667,7.666666666666667,-8.0
18:11:10,1500.0,0.0055335470630476875,0.00018414809892419726,1.0548787514368694,0.3496716320514679,0.0009449445254479846,-0.0020651883290459714,ALT_HOLD,-0.3333333333333333,12.333333333333334,-873.6666666666666,348.6666666666667,2.6666666666666665,0.0,-35.3623799,149.1669199,15253.0,-3.3333333333333335,7.333333333333333,28.333333333333332
18:11:12,1500.0,0.02842631998161475,-0.00142230784210066,1.0545717080434163,0.5545421925683817,0.0003085704520344734,0.00025753599281112355,AUTO,0.6666666666666666,-15.666666666666666,-1156.0,546.6666666666666,2.0,1.6666666666666667,-35.362377966666664,149.16691813333333,12313.333333333334,7.0,-1.3333333333333333,144.0
18:11:14,1500.0,-0.004462204645581854,0.0017634557637696464,1.0547220706939697,0.018742988506952923,-0.0001614635499815146,-0.0001562520240743955,AUTO,0.0,0.6666666666666666,-1017.3333333333334,17.666666666666668,1.6666666666666667,1.0,-35.362378266666674,149.16691826666667,11517.666666666666,6.333333333333333,0.3333333333333333,-18.0
18:11:16,1500.0,-0.0009507637199324866,0.0009326555688555042,1.0547986427942913,-0.06594875454902649,-0.0027019844662087658,-0.0007639181179304918,AUTO,0.0,-3.0,-983.3333333333334,-67.0,-0.3333333333333333,0.6666666666666666,-35.3623784,149.1669185,11894.333333333334,9.333333333333334,-2.0,-10.0
18:11:18,1500.0,0.0032423428104569516,0.00040902429464040324,1.0548736651738484,-0.06565594673156738,-0.0017572504390651982,0.0008974485099315643,AUTO,-0.3333333333333333,-5.666666666666667,-1022.6666666666666,-67.33333333333333,0.3333333333333333,2.0,-35.3623782,149.1669184,11973.333333333334,7.666666666666667,-1.6666666666666667,-11.0
18:11:20,1500.0,0.0017477760229667183,0.0011766162351705134,1.0539184510707855,-0.052348216995596886,4.810269456356764e-05,-0.001401997113134712,AUTO,0.0,-1.25,-1002.0,-53.0,1.5,0.0,-35.3623781,149.1669183,12689.5,4.0,0.0,-52.75
18:11:22,1500.0,0.0035364189534448087,-8.679832535563037e-05,1.0547421872615814,0.10427979193627834,0.0009679649083409458,-0.00019216214423067868,AUTO,-0.75,5.0,-976.25,103.25,2.25,1.25,-35.3623782,149.166918325,13400.0,4.5,0.0,-5.5
