time_stamp,MODE,lat,lon,relative_alt,roll,pitch,yaw,rollspeed,pitchspeed,yawspeed,xacc,yacc,zacc,xgyro,ygyro,zgyro,vx,vy,vz,RTL_ALT
18:03:19.978,STABILIZE,-35.3632621,149.1652374,0,-0.00010028979158960283,0.0014885732671245933,0.028540706261992455,0.0002629525843076408,0.0002551485085859895,0.002435463247820735,0,1,-1000,0,0,0,-1,2,2,1500.0
18:03:20.178,STABILIZE,-35.3632621,149.1652375,0,-0.00017477167421020567,0.0015952723333612084,0.02798100933432579,0.00032628484768792987,0.0003102509072050452,0.00231214240193367,0,1,-1000,0,0,0,-1,2,2,1500.0
18:03:20.379,STABILIZE,-35.3632621,149.1652375,0,-0.00017477167421020567,0.0015952723333612084,0.02798100933432579,0.00032628484768792987,0.0003102509072050452,0.00231214240193367,0,1,-1000,0,0,0,-1,2,2,1500.0
18:03:20.580,STABILIZE,-35.3632621,149.1652375,0,-0.00017477167421020567,0.0015952723333612084,0.02798100933432579,0.00032628484768792987,0.0003102509072050452,0.00231214240193367,0,1,-1000,0,0,0,-1,2,2,1500.0
18:03:20.781,STABILIZE,-35.3632621,149.1652375,0,-0.00017477167421020567,0.0015952723333612084,0.02798100933432579,0.00032628484768792987,0.0003102509072050452,0.00231214240193367,0,1,-1000,0,0,0,-1,2,2,1500.0
18:03:20.981,STABILIZE,-35.3632621,149.1652375,0,-0.00017477167421020567,0.0015952723333612084,0.02798100933432579,0.00032628484768792987,0.0003102509072050452,0.00231214240193367,0,1,-1000,0,0,0,-1,2,2,1500.0
18:03:21.183,STABILIZE,-35.3632621,149.1652375,0,-0.00043418072164058685,0.001575660309754312,0.027321642264723778,0.0003221771330572665,0.00024642981588840485,0.0021780573297291994,0,1,-1000,0,0,0,-2,1,1,1500.0
18:03:21.383,STABILIZE,-35.3632621,149.1652375,0,-0.0005199334118515253,0.0015274363104254007,0.027200207114219666,0.00019386751228012145,0.00030286650871858,0.0022215284407138824,0,1,-1000,0,0,0,-2,1,0,1500.0
18:03:21.584,STABILIZE,-35.3632621,149.1652375,0,-0.0005199334118515253,0.0015274363104254007,0.027200207114219666,0.00019386751228012145,0.00030286650871858,0.0022215284407138824,0,1,-1000,0,0,0,-2,1,0,1500.0
18:03:21.785,STABILIZE,-35.3632621,149.1652375,0,-0.0006029512151144445,0.0014833440072834492,0.027034275233745575,0.00012188105029053986,0.0002554941165726632,0.0022278577089309692,0,2,-1000,1,0,0,-2,1,0,1500.0
18:03:21.986,STABILIZE,-35.3632622,149.1652375,0,-0.0006029512151144445,0.0014833440072834492,0.027034275233745575,0.00012188105029053986,0.0002554941165726632,0.0022278577089309692,0,1,-1000,0,0,0,-2,1,0,1500.0
18:03:22.186,STABILIZE,-35.3632622,149.1652375,0,-0.0007509706192649901,0.0013895508600398898,0.02677243761718273,0.00018070731312036514,0.00024258095072582364,0.0022865114733576775,0,1,-1000,0,0,0,-2,1,0,1500.0
18:03:22.387,STABILIZE,-35.3632622,149.1652375,0,-0.0007509706192649901,0.0013895508600398898,0.02677243761718273,0.00018070731312036514,0.00024258095072582364,0.0022865114733576775,0,1,-1000,0,0,0,-2,1,0,1500.0
18:03:22.589,STABILIZE,-35.3632622,149.1652375,0,-0.0007509706192649901,0.0013895508600398898,0.02677243761718273,0.00018070731312036514,0.00024258095072582364,0.0022865114733576775,0,1,-1000,0,0,0,-2,1,0,1500.0
18:03:22.790,STABILIZE,-35.3632622,149.1652375,0,-0.0007509706192649901,0.0013895508600398898,0.02677243761718273,0.00018070731312036514,0.00024258095072582364,0.0022865114733576775,0,1,-1000,0,0,0,-2,1,0,1500.0
18:03:22.991,STABILIZE,-35.3632622,149.1652375,0,-0.0007509706192649901,0.0013895508600398898,0.02677243761718273,0.00018070731312036514,0.00024258095072582364,0.0022865114733576775,0,1,-1000,0,0,0,-2,1,0,1500.0
18:03:23.192,STABILIZE,-35.3632622,149.1652375,0,-0.0007509706192649901,0.0013895508600398898,0.02677243761718273,0.00018070731312036514,0.00024258095072582364,0.0022865114733576775,0,1,-1000,0,0,0,-1,1,0,1500.0
18:03:23.393,STABILIZE,-35.3632622,149.1652375,0,-0.0007509706192649901,0.0013895508600398898,0.02677243761718273,0.00018070731312036514,0.00024258095072582364,0.0022865114733576775,0,1,-1000,0,0,0,-1,1,0,1500.0
18:03:23.594,STABILIZE,-35.3632622,149.1652375,0,-0.0007509706192649901,0.0013895508600398898,0.02677243761718273,0.00018070731312036514,0.00024258095072582364,0.0022865114733576775,0,1,-1000,0,0,0,-1,1,0,1500.0
18:03:23.794,STABILIZE,-35.3632622,149.1652375,0,-0.0007509706192649901,0.0013895508600398898,0.02677243761718273,0.00018070731312036514,0.00024258095072582364,0.0022865114733576775,0,1,-1000,0,1,0,-1,1,0,1500.0
18:03:23.995,STABILIZE,-35.3632622,149.1652375,0,-0.0007509706192649901,0.0013895508600398898,0.02677243761718273,0.00018070731312036514,0.00024258095072582364,0.0022865114733576775,0,1,-1000,0,1,0,-1,1,0,1500.0
18:03:24.196,STABILIZE,-35.3632622,149.1652375,0,-0.0010015347506850958,0.001053759828209877,0.025793911889195442,0.00019715219968929887,0.00020051051978953183,0.002061445266008377,0,1,-1000,0,0,0,-1,1,0,1500.0
18:03:24.397,STABILIZE,-35.3632622,149.1652375,0,-0.0010015347506850958,0.001053759828209877,0.025793911889195442,0.00019715219968929887,0.00020051051978953183,0.002061445266008377,0,1,-1000,0,0,0,-1,1,0,1500.0
18:03:24.599,STABILIZE,-35.3632622,149.1652375,0,-0.0010015347506850958,0.001053759828209877,0.025793911889195442,0.00019715219968929887,0.00020051051978953183,0.002061445266008377,0,1,-1000,0,0,0,-1,1,0,1500.0
18:03:24.799,STABILIZE,-35.3632622,149.1652375,0,-0.0010015347506850958,0.001053759828209877,0.025793911889195442,0.00019715219968929887,0.00020051051978953183,0.002061445266008377,0,1,-1000,0,0,0,-1,1,0,1500.0
18:03:25.001,STABILIZE,-35.3632622,149.1652375,0,-0.0010015347506850958,0.001053759828209877,0.025793911889195442,0.00019715219968929887,0.00020051051978953183,0.002061445266008377,0,1,-1000,0,0,0,-1,1,0,1500.0
18:03:25.202,STABILIZE,-35.3632622,149.1652375,0,-0.0011080498807132244,0.0009872236987575889,0.025373686105012894,0.00012812105705961585,0.0002908074820879847,0.0019728722982108593,0,1,-1000,0,1,0,-1,0,-1,1500.0
18:03:25.402,STABILIZE,-35.3632622,149.1652375,0,-0.0011080498807132244,0.0009872236987575889,0.025373686105012894,0.00012812105705961585,0.0002908074820879847,0.0019728722982108593,0,2,-1000,0,0,0,-1,0,-1,1500.0
18:03:25.603,STABILIZE,-35.3632622,149.1652375,0,-0.0011080498807132244,0.0009872236987575889,0.025373686105012894,0.00012812105705961585,0.0002908074820879847,0.0019728722982108593,0,2,-1000,0,0,0,-1,0,-1,1500.0
18:03:25.804,STABILIZE,-35.3632622,149.1652375,0,-0.0011348335538059473,0.0009714292245917022,0.02518533170223236,0.00015443697338923812,0.0002576752158347517,0.0017254302510991693,0,2,-1000,0,0,0,-1,0,-1,1500.0
18:03:26.005,STABILIZE,-35.3632622,149.1652375,0,-0.0011438861256465316,0.0009649734711274505,0.025081692263484,0.00022755371173843741,0.00023770667030476034,0.0019223869312554598,0,1,-1000,0,0,0,-1,0,-1,1500.0
18:03:26.205,STABILIZE,-35.3632622,149.1652375,0,-0.0011438861256465316,0.0009649734711274505,0.025081692263484,0.00022755371173843741,0.00023770667030476034,0.0019223869312554598,0,1,-1000,0,0,0,-1,0,-1,1500.0
18:03:26.407,STABILIZE,-35.3632622,149.1652375,0,-0.0011438861256465316,0.0009649734711274505,0.025081692263484,0.00022755371173843741,0.00023770667030476034,0.0019223869312554598,0,1,-1000,0,0,0,-1,0,-1,1500.0
18:03:26.608,STABILIZE,-35.3632622,149.1652375,0,-0.0011438861256465316,0.0009649734711274505,0.025081692263484,0.00022755371173843741,0.00023770667030476034,0.0019223869312554598,0,1,-1000,0,0,0,-1,0,-1,1500.0
18:03:26.809,STABILIZE,-35.3632622,149.1652375,0,-0.0011438861256465316,0.0009649734711274505,0.025081692263484,0.00022755371173843741,0.00023770667030476034,0.0019223869312554598,0,1,-1000,0,0,0,-1,0,-1,1500.0
18:03:27.010,STABILIZE,-35.3632622,149.1652375,0,-0.0011438861256465316,0.0009649734711274505,0.025081692263484,0.00022755371173843741,0.00023770667030476034,0.0019223869312554598,0,1,-1000,0,0,0,-1,0,-1,1500.0
18:03:27.211,STABILIZE,-35.3632622,149.1652375,0,-0.0010928538395091891,0.0009386468445882201,0.02460034005343914,0.00022735458333045244,0.00024018611293286085,0.0018197353929281235,0,2,-1000,0,0,0,-1,2,1,1500.0
18:03:27.412,STABILIZE,-35.3632622,149.1652375,0,-0.0010928538395091891,0.0009386468445882201,0.02460034005343914,0.00022735458333045244,0.00024018611293286085,0.0018197353929281235,0,2,-1000,0,0,0,-1,1,0,1500.0
18:03:27.612,STABILIZE,-35.3632622,149.1652375,0,-0.0010928538395091891,0.0009386468445882201,0.02460034005343914,0.00022735458333045244,0.00024018611293286085,0.0018197353929281235,0,2,-1000,0,0,0,-1,1,0,1500.0
18:03:27.813,STABILIZE,-35.3632622,149.1652375,0,-0.0010928538395091891,0.0009386468445882201,0.02460034005343914,0.00022735458333045244,0.00024018611293286085,0.0018197353929281235,0,2,-1000,0,0,0,-1,1,0,1500.0
18:03:28.014,STABILIZE,-35.3632622,149.1652375,0,-0.001210007700137794,0.0009295311756432056,0.024320440366864204,0.00015389733016490936,0.0002579501597210765,0.0018645697273314,0,1,-1000,0,0,0,-1,1,0,1500.0
18:03:28.215,STABILIZE,-35.3632622,149.1652375,0,-0.0012286531273275614,0.0009346568840555847,0.024242395535111427,0.0003007550840266049,0.00021386175649240613,0.0017009320436045527,0,1,-1000,0,0,0,-1,1,0,1500.0
18:03:28.419,STABILIZE,-35.3632622,149.1652375,0,-0.0012286531273275614,0.0009346568840555847,0.024242395535111427,0.0003007550840266049,0.00021386175649240613,0.0017009320436045527,0,1,-1000,0,0,0,-1,1,0,1500.0
18:03:28.619,STABILIZE,-35.3632622,149.1652375,0,-0.0012286531273275614,0.0009346568840555847,0.024242395535111427,0.0003007550840266049,0.00021386175649240613,0.0017009320436045527,0,1,-1000,0,0,0,-1,1,0,1500.0
18:03:28.820,STABILIZE,-35.3632622,149.1652375,0,-0.0012286531273275614,0.0009346568840555847,0.024242395535111427,0.0003007550840266049,0.00021386175649240613,0.0017009320436045527,0,1,-1000,0,0,0,-1,1,0,1500.0
18:03:29.024,STABILIZE,-35.3632622,149.1652375,0,-0.0012286531273275614,0.0009346568840555847,0.024242395535111427,0.0003007550840266049,0.00021386175649240613,0.0017009320436045527,0,1,-1000,0,0,0,-1,1,0,1500.0
18:03:29.224,STABILIZE,-35.3632622,149.1652375,0,-0.0013084907550364733,0.0009436453692615032,0.023927366361021996,0.0002837247448042035,0.00024352833861485124,0.0017617802368476987,0,1,-1000,1,0,1,-1,1,0,1500.0
18:03:29.425,STABILIZE,-35.3632622,149.1652375,0,-0.0013084907550364733,0.0009436453692615032,0.023927366361021996,0.0002837247448042035,0.00024352833861485124,0.0017617802368476987,0,1,-1000,1,0,0,-1,1,0,1500.0
18:03:29.626,STABILIZE,-35.3632622,149.1652375,0,-0.0013084907550364733,0.0009436453692615032,0.023927366361021996,0.0002837247448042035,0.00024352833861485124,0.0017617802368476987,0,1,-1000,0,0,0,-1,1,1,1500.0
18:03:29.828,STABILIZE,-35.3632622,149.1652375,0,-0.0013084907550364733,0.0009436453692615032,0.023927366361021996,0.0002837247448042035,0.00024352833861485124,0.0017617802368476987,0,1,-1000,0,0,0,-1,1,1,1500.0
18:03:30.028,STABILIZE,-35.3632622,149.1652375,0,-0.0011803663801401854,0.0009528771042823792,0.023713933303952217,0.00031012442195788026,0.0002942261635325849,0.0016271887579932809,0,1,-1000,0,0,0,-1,1,0,1500.0
18:03:30.229,STABILIZE,-35.3632622,149.1652375,0,-0.001214754767715931,0.000953385082539171,0.02362353354692459,0.00018838996766135097,9.98983159661293e-05,0.00168857560493052,0,1,-1000,0,0,0,-1,1,0,1500.0
18:03:30.430,STABILIZE,-35.3632622,149.1652375,0,-0.001214754767715931,0.000953385082539171,0.02362353354692459,0.00018838996766135097,9.98983159661293e-05,0.00168857560493052,0,1,-1000,0,0,0,-1,1,0,1500.0
18:03:30.631,STABILIZE,-35.3632622,149.1652375,0,-0.001214754767715931,0.000953385082539171,0.02362353354692459,0.00018838996766135097,9.98983159661293e-05,0.00168857560493052,0,1,-1000,0,0,0,-1,1,0,1500.0
18:03:30.831,STABILIZE,-35.3632622,149.1652375,0,-0.001214754767715931,0.000953385082539171,0.02362353354692459,0.00018838996766135097,9.98983159661293e-05,0.00168857560493052,0,1,-1000,0,0,0,-1,1,0,1500.0
18:03:31.031,STABILIZE,-35.3632622,149.1652375,0,-0.001214754767715931,0.000953385082539171,0.02362353354692459,0.00018838996766135097,9.98983159661293e-05,0.00168857560493052,0,1,-1000,0,0,0,-1,1,0,1500.0
18:03:31.232,STABILIZE,-35.3632622,149.1652375,0,-0.001214754767715931,0.000953385082539171,0.02362353354692459,0.00018838996766135097,9.98983159661293e-05,0.00168857560493052,0,1,-1000,0,0,0,-1,1,0,1500.0
18:03:31.433,STABILIZE,-35.3632622,149.1652375,0,-0.001214754767715931,0.000953385082539171,0.02362353354692459,0.00018838996766135097,9.98983159661293e-05,0.00168857560493052,0,1,-1000,0,0,0,-1,1,0,1500.0
18:03:31.634,STABILIZE,-35.3632622,149.1652375,0,-0.001214754767715931,0.000953385082539171,0.02362353354692459,0.00018838996766135097,9.98983159661293e-05,0.00168857560493052,0,1,-1000,0,0,0,-1,1,0,1500.0
18:03:31.834,STABILIZE,-35.3632622,149.1652375,0,-0.001214754767715931,0.000953385082539171,0.02362353354692459,0.00018838996766135097,9.98983159661293e-05,0.00168857560493052,0,1,-1000,0,0,0,-1,1,0,1500.0
18:03:32.035,STABILIZE,-35.3632622,149.1652375,0,-0.001214754767715931,0.000953385082539171,0.02362353354692459,0.00018838996766135097,9.98983159661293e-05,0.00168857560493052,0,1,-1000,0,1,0,-1,1,0,1500.0
18:03:32.236,STABILIZE,-35.3632622,149.1652375,0,-0.001214754767715931,0.000953385082539171,0.02362353354692459,0.00018838996766135097,9.98983159661293e-05,0.00168857560493052,0,2,-1000,0,0,0,-1,0,0,1500.0
18:03:32.437,STABILIZE,-35.3632622,149.1652375,0,-0.001214754767715931,0.000953385082539171,0.02362353354692459,0.00018838996766135097,9.98983159661293e-05,0.00168857560493052,0,2,-1000,0,0,0,-1,0,0,1500.0
18:03:32.639,STABILIZE,-35.3632622,149.1652375,0,-0.001214754767715931,0.000953385082539171,0.02362353354692459,0.00018838996766135097,9.98983159661293e-05,0.00168857560493052,0,2,-1000,0,0,0,-1,0,0,1500.0
18:03:32.840,STABILIZE,-35.3632622,149.1652375,0,-0.001214754767715931,0.000953385082539171,0.02362353354692459,0.00018838996766135097,9.98983159661293e-05,0.00168857560493052,0,2,-1000,0,0,0,-1,0,0,1500.0
18:03:33.040,STABILIZE,-35.3632622,149.1652375,0,-0.001214754767715931,0.000953385082539171,0.02362353354692459,0.00018838996766135097,9.98983159661293e-05,0.00168857560493052,0,2,-1000,0,0,0,-1,0,0,1500.0
18:03:33.241,STABILIZE,-35.3632622,149.1652375,0,-0.0013542801607400179,0.0009735391940921545,0.022923646494746208,0.00022906629601493478,0.00017765333177521825,0.0015403078868985176,0,1,-1000,1,0,0,-1,0,0,1500.0
18:03:33.442,STABILIZE,-35.3632622,149.1652375,0,-0.0013401596806943417,0.0009731199243105948,0.022855978459119797,0.00023150484776124358,0.00024950597435235977,0.001743460656143725,0,1,-1000,1,0,0,-1,0,0,1500.0
18:03:33.642,STABILIZE,-35.3632622,149.1652375,0,-0.001333383726887405,0.000974205497186631,0.022813202813267708,0.0003171281423419714,0.0002521620481275022,0.001588899176567793,0,1,-1000,1,0,0,-1,0,-1,1500.0
18:03:33.843,STABILIZE,-35.3632622,149.1652375,0,-0.001333383726887405,0.000974205497186631,0.022813202813267708,0.0003171281423419714,0.0002521620481275022,0.001588899176567793,0,1,-1000,1,0,0,-1,0,-1,1500.0
18:03:34.044,STABILIZE,-35.3632622,149.1652375,0,-0.001333383726887405,0.000974205497186631,0.022813202813267708,0.0003171281423419714,0.0002521620481275022,0.001588899176567793,0,2,-1000,0,1,0,-1,0,-1,1500.0
18:03:34.244,STABILIZE,-35.3632622,149.1652375,0,-0.0013147921999916434,0.0009767874144017696,0.02271033637225628,0.00023852341109886765,0.0002833288162946701,0.0015444126911461353,0,2,-1000,0,1,0,-1,0,-1,1500.0
18:03:34.446,STABILIZE,-35.3632622,149.1652375,0,-0.0013147921999916434,0.0009767874144017696,0.02271033637225628,0.00023852341109886765,0.0002833288162946701,0.0015444126911461353,0,2,-1000,0,1,0,-1,0,-1,1500.0
18:03:34.647,STABILIZE,-35.3632622,149.1652375,0,-0.0013147921999916434,0.0009767874144017696,0.02271033637225628,0.00023852341109886765,0.0002833288162946701,0.0015444126911461353,0,2,-1000,0,1,0,-1,0,-1,1500.0
18:03:34.848,AUTO,-35.3632622,149.1652375,0,-0.0013147921999916434,0.0009767874144017696,0.02271033637225628,0.00023852341109886765,0.0002833288162946701,0.0015444126911461353,0,2,-1000,0,1,0,-1,0,-1,1500.0
18:03:35.051,AUTO,-35.3632622,149.1652375,0,-0.0013147921999916434,0.0009767874144017696,0.02271033637225628,0.00023852341109886765,0.0002833288162946701,0.0015444126911461353,0,2,-1000,0,1,0,-1,0,-1,1500.0
18:03:35.252,AUTO,-35.3632622,149.1652375,10,-0.0012632637517526746,0.0010053004371002316,0.02252954989671707,0.0001490259892307222,0.00035763479536399245,0.0014570503262802958,0,1,-1000,1,0,1,-1,0,-1,1500.0
18:03:35.453,AUTO,-35.3632622,149.1652375,11,-0.0012458284618332982,0.0010159248486161232,0.022487642243504524,0.00026012788293883204,0.0002641304745338857,0.0015379264950752258,0,2,-1000,0,1,1,-1,0,-1,1500.0
18:03:35.654,AUTO,-35.3632622,149.1652375,12,-0.0012110546231269836,0.001038836780935526,0.02242003008723259,0.0002805722178891301,0.00019853090634569526,0.001580788753926754,0,2,-1000,1,1,0,0,0,-1,1500.0
18:03:35.855,AUTO,-35.3632622,149.1652375,12,-0.0012110546231269836,0.001038836780935526,0.02242003008723259,0.0002805722178891301,0.00019853090634569526,0.001580788753926754,0,2,-1000,1,1,0,0,0,-1,1500.0
18:03:36.056,AUTO,-35.3632622,149.1652375,13,-0.001175304059870541,0.0010769078508019447,0.022361377254128456,0.0003156500752083957,0.00025822105817496777,0.001593866152688861,0,1,-1000,0,0,0,0,0,-1,1500.0
18:03:36.258,AUTO,-35.3632622,149.1652375,14,-0.001129915937781334,0.0011344344820827246,0.02231825515627861,0.0003661996452137828,0.00029006501426920295,0.0013778428547084332,0,2,-1000,1,0,1,0,0,-1,1500.0
18:03:36.459,AUTO,-35.3632622,149.1652375,14,-0.001129915937781334,0.0011344344820827246,0.02231825515627861,0.0003661996452137828,0.00029006501426920295,0.0013778428547084332,0,2,-1000,1,0,1,0,0,-1,1500.0
18:03:36.660,AUTO,-35.3632622,149.1652375,14,-0.001129915937781334,0.0011344344820827246,0.02231825515627861,0.0003661996452137828,0.00029006501426920295,0.0013778428547084332,0,2,-1000,1,0,1,0,0,-1,1500.0
18:03:36.862,AUTO,-35.3632622,149.1652375,14,-0.001129915937781334,0.0011344344820827246,0.02231825515627861,0.0003661996452137828,0.00029006501426920295,0.0013778428547084332,0,2,-1000,1,0,1,0,0,-1,1500.0
18:03:37.064,AUTO,-35.3632622,149.1652375,14,-0.001129915937781334,0.0011344344820827246,0.02231825515627861,0.0003661996452137828,0.00029006501426920295,0.0013778428547084332,0,2,-1000,1,0,1,0,0,-1,1500.0
18:03:37.266,AUTO,-35.3632622,149.1652375,14,-0.001129915937781334,0.0011344344820827246,0.02231825515627861,0.0003661996452137828,0.00029006501426920295,0.0013778428547084332,0,2,-1000,1,0,1,0,0,-1,1500.0
18:03:37.468,AUTO,-35.3632622,149.1652374,22,-0.0007008942193351686,0.0014705776702612638,0.021990416571497917,0.0002821877133101225,0.00029673491371795535,0.0014444036642089486,0,1,-1000,1,1,1,0,0,-2,1500.0
18:03:37.670,AUTO,-35.3632622,149.1652375,23,-0.0006371736526489258,0.0015445108292624354,0.02192036248743534,0.00028332736110314727,0.00028920668410137296,0.0013977712951600552,0,1,-1000,1,1,0,0,0,-2,1500.0
18:03:37.871,AUTO,-35.3632622,149.1652375,23,-0.0006371736526489258,0.0015445108292624354,0.02192036248743534,0.00028332736110314727,0.00028920668410137296,0.0013977712951600552,0,1,-1000,1,1,0,0,0,-2,1500.0
18:03:38.072,AUTO,-35.3632622,149.1652375,23,-0.0005747004179283977,0.0016101899091154337,0.021855153143405914,0.0002712436835281551,0.00027220742776989937,0.0014784508384764194,0,1,-1000,1,0,0,0,0,-2,1500.0
18:03:38.273,AUTO,-35.3632622,149.1652375,23,-0.0005086867604404688,0.0016818547155708075,0.021770602092146873,0.00035590375773608685,0.00022617151262238622,0.0014204515609890223,0,1,-1000,0,0,0,0,0,-2,1500.0
18:03:38.474,AUTO,-35.3632622,149.1652375,23,-0.0005086867604404688,0.0016818547155708075,0.021770602092146873,0.00035590375773608685,0.00022617151262238622,0.0014204515609890223,0,1,-1000,0,0,0,0,0,-2,1500.0
18:03:38.675,AUTO,-35.3632622,149.1652375,23,-0.0005086867604404688,0.0016818547155708075,0.021770602092146873,0.00035590375773608685,0.00022617151262238622,0.0014204515609890223,0,1,-1000,0,0,0,0,0,-2,1500.0
18:03:38.876,AUTO,-35.3632622,149.1652375,23,-0.0005086867604404688,0.0016818547155708075,0.021770602092146873,0.00035590375773608685,0.00022617151262238622,0.0014204515609890223,0,1,-1000,0,0,0,0,0,-2,1500.0
18:03:39.077,AUTO,-35.3632622,149.1652375,23,-0.0005086867604404688,0.0016818547155708075,0.021770602092146873,0.00035590375773608685,0.00022617151262238622,0.0014204515609890223,0,1,-1000,0,0,0,0,0,-2,1500.0
18:03:39.279,AUTO,-35.3632621,149.1652375,365,0.0012962091714143753,0.0008910479373298585,0.021573450416326523,-0.0032945461571216583,0.0034943120554089546,0.0011489971075206995,0,0,-1116,-2,4,0,0,0,-94,1500.0
18:03:39.480,AUTO,-35.3632621,149.1652375,630,0.0008443931583315134,0.0015743609983474016,0.02164805680513382,-0.0011726609664037824,0.0017376504838466644,0.0014662699541077018,0,0,-1095,0,2,1,0,0,-119,1500.0
18:03:39.681,AUTO,-35.3632621,149.1652375,952,0.006853165570646524,0.0012340645771473646,0.021370403468608856,0.04599224776029587,-0.0047869374975562096,0.0011527544120326638,0,0,-1053,46,-4,0,0,1,-137,1500.0
18:03:39.882,AUTO,-35.3632621,149.1652375,1308,0.018761303275823593,-0.0002792058221530169,0.021309711039066315,0.04783748835325241,-0.0067761363461613655,0.0020387580152601004,0,0,-1023,48,-6,1,0,3,-145,1500.0
18:03:40.084,AUTO,-35.3632621,149.1652375,1308,0.018761303275823593,-0.0002792058221530169,0.021309711039066315,0.04783748835325241,-0.0067761363461613655,0.0020387580152601004,0,0,-1023,48,-6,1,0,3,-145,1500.0
18:03:40.285,AUTO,-35.363262,149.1652376,1681,0.030395910143852234,-0.002084840089082718,0.021422915160655975,0.04596004635095596,-0.00739445211365819,0.002766883699223399,0,0,-1009,46,-6,2,1,9,-148,1500.0
18:03:40.486,AUTO,-35.363262,149.1652376,1681,0.030395910143852234,-0.002084840089082718,0.021422915160655975,0.04596004635095596,-0.00739445211365819,0.002766883699223399,0,0,-1009,46,-6,2,1,9,-148,1500.0
18:03:40.687,AUTO,-35.363262,149.1652376,1681,0.030395910143852234,-0.002084840089082718,0.021422915160655975,0.04596004635095596,-0.00739445211365819,0.002766883699223399,0,0,-1009,46,-6,2,1,9,-148,1500.0
18:03:40.888,AUTO,-35.363262,149.1652376,1681,0.030395910143852234,-0.002084840089082718,0.021422915160655975,0.04596004635095596,-0.00739445211365819,0.002766883699223399,0,0,-1009,46,-6,2,1,9,-148,1500.0
18:03:41.089,AUTO,-35.363262,149.1652376,1681,0.030395910143852234,-0.002084840089082718,0.021422915160655975,0.04596004635095596,-0.00739445211365819,0.002766883699223399,0,0,-1009,46,-6,2,1,9,-148,1500.0
18:03:41.291,AUTO,-35.3632615,149.1652405,3211,0.05160694941878319,0.004222862888127565,-0.020813150331377983,-0.09428803622722626,0.10755501687526703,-0.10996263474225998,2,-9,-991,-93,108,-110,9,51,-147,1500.0
18:03:41.492,AUTO,-35.3632612,149.165242,3586,0.011361218057572842,0.02245209366083145,-0.0431918241083622,-0.184400275349617,0.02601381205022335,-0.08145418763160706,4,-11,-994,-183,26,-81,7,55,-145,1500.0
18:03:41.694,AUTO,-35.3632611,149.1652434,3962,-0.0196468997746706,0.025672700256109238,-0.06334394961595535,-0.07208825647830963,0.014243029057979584,-0.08525226265192032,3,-11,-1011,-71,15,-85,3,50,-147,1500.0
18:03:41.895,AUTO,-35.363261,149.1652446,4344,-0.030962519347667694,0.02616795338690281,-0.0811333954334259,-0.03493952378630638,-0.0032571908086538315,-0.06392017006874084,5,-7,-1006,-34,-2,-64,-1,41,-150,1500.0
18:03:42.095,AUTO,-35.363261,149.1652446,4344,-0.030962519347667694,0.02616795338690281,-0.0811333954334259,-0.03493952378630638,-0.0032571908086538315,-0.06392017006874084,5,-7,-1006,-34,-2,-64,-1,41,-150,1500.0
18:03:42.296,AUTO,-35.363261,149.1652455,4729,-0.043902263045310974,0.018279312178492546,-0.08951863646507263,-0.06334886699914932,-0.052748970687389374,-0.014439794234931469,4,-5,-1001,-62,-52,-14,-5,30,-150,1500.0
18:03:42.497,AUTO,-35.363261,149.1652455,4729,-0.043902263045310974,0.018279312178492546,-0.08951863646507263,-0.06334886699914932,-0.052748970687389374,-0.014439794234931469,4,-5,-1001,-62,-52,-14,-5,30,-150,1500.0
18:03:42.698,AUTO,-35.363261,149.1652455,4729,-0.043902263045310974,0.018279312178492546,-0.08951863646507263,-0.06334886699914932,-0.052748970687389374,-0.014439794234931469,4,-5,-1001,-62,-52,-14,-5,30,-150,1500.0
18:03:42.901,AUTO,-35.363261,149.1652455,4729,-0.043902263045310974,0.018279312178492546,-0.08951863646507263,-0.06334886699914932,-0.052748970687389374,-0.014439794234931469,4,-5,-1001,-62,-52,-14,-5,30,-150,1500.0
18:03:43.101,AUTO,-35.3632613,149.1652461,5882,-0.07240693271160126,-0.014935720711946487,-0.079123854637146,0.03860383853316307,0.003423960180953145,-0.003205637214705348,0,2,-1002,39,3,-3,-2,-22,-150,1500.0
18:03:43.302,AUTO,-35.3632613,149.1652452,6266,-0.06008104607462883,-0.014563709497451782,-0.07987672835588455,0.05514916405081749,0.0009304560371674597,0.0007396262371912599,-3,6,-1001,55,1,0,0,-38,-150,1500.0
18:03:43.503,AUTO,-35.3632614,149.1652439,6654,-0.045576438307762146,-0.013560987077653408,-0.08040258288383484,0.059561170637607574,0.006422691512852907,0.001953436527401209,-5,8,-1000,60,7,1,1,-50,-150,1500.0
18:03:43.704,AUTO,-35.3632613,149.1652424,7038,-0.03025279939174652,-0.01115813385695219,-0.08073028922080994,0.06229408085346222,0.011614426970481873,0.0029261757154017687,-7,10,-1002,63,12,2,2,-57,-150,1500.0
18:03:43.905,AUTO,-35.3632614,149.1652408,7423,-0.014281180687248707,-0.007666041608899832,-0.08078388124704361,0.06502223014831543,0.015249698422849178,0.003312081564217806,-8,11,-1003,65,15,2,2,-60,-151,1500.0
18:03:44.105,AUTO,-35.3632614,149.1652408,7423,-0.014281180687248707,-0.007666041608899832,-0.08078388124704361,0.06502223014831543,0.015249698422849178,0.003312081564217806,-8,11,-1003,65,15,2,2,-60,-151,1500.0
18:03:44.306,AUTO,-35.3632614,149.1652391,7811,0.0019216923974454403,-0.003563603386282921,-0.08043156564235687,0.06524405628442764,0.01689937151968479,0.00397962611168623,-8,10,-1003,66,17,3,2,-60,-152,1500.0
18:03:44.507,AUTO,-35.3632614,149.1652391,7811,0.0019216923974454403,-0.003563603386282921,-0.08043156564235687,0.06524405628442764,0.01689937151968479,0.00397962611168623,-8,10,-1003,66,17,3,2,-60,-152,1500.0
18:03:44.708,AUTO,-35.3632614,149.1652391,7811,0.0019216923974454403,-0.003563603386282921,-0.08043156564235687,0.06524405628442764,0.01689937151968479,0.00397962611168623,-8,10,-1003,66,17,3,2,-60,-152,1500.0
18:03:44.909,AUTO,-35.3632614,149.1652391,7811,0.0019216923974454403,-0.003563603386282921,-0.08043156564235687,0.06524405628442764,0.01689937151968479,0.00397962611168623,-8,10,-1003,66,17,3,2,-60,-152,1500.0
18:03:45.111,AUTO,-35.3632613,149.1652349,8983,0.0496135838329792,0.007496279198676348,-0.07762765139341354,0.06107553839683533,0.010470212437212467,0.004695805720984936,-5,7,-1003,61,11,4,-1,-34,-154,1500.0
18:03:45.312,AUTO,-35.3632613,149.1652341,9377,0.06366720795631409,0.009821061976253986,-0.07742981612682343,0.043704938143491745,0.015554211102426052,-0.009685243479907513,-4,6,-1000,44,16,-10,-3,-19,-154,1500.0
18:03:45.513,AUTO,-35.3632614,149.1652337,9769,0.06740011274814606,0.01980939321219921,-0.08531461656093597,-0.004323214292526245,0.04929878190159798,-0.03745400905609131,-1,2,-996,-3,49,-37,-5,-2,-153,1500.0
18:03:45.714,AUTO,-35.3632616,149.1652338,10157,0.055060822516679764,0.023248370736837387,-0.09047774970531464,-0.0785711407661438,-0.017229460179805756,-0.007537663448601961,1,0,-993,-77,-16,-7,-9,12,-150,1500.0
18:03:45.915,AUTO,-35.3632618,149.1652342,10541,0.0324862003326416,0.014758038334548473,-0.09058914333581924,-0.09256833046674728,-0.03946235403418541,0.008708707056939602,3,0,-997,-91,-38,8,-11,22,-149,1500.0
18:03:46.116,AUTO,-35.3632618,149.1652342,10541,0.0324862003326416,0.014758038334548473,-0.09058914333581924,-0.09256833046674728,-0.03946235403418541,0.008708707056939602,3,0,-997,-91,-38,8,-11,22,-149,1500.0
18:03:46.317,AUTO,-35.363262,149.1652348,10924,0.01123716589063406,0.005163393449038267,-0.08935032784938812,-0.07387370616197586,-0.0331432931125164,0.00797203928232193,5,-2,-1001,-73,-32,7,-11,26,-149,1500.0
18:03:46.518,AUTO,-35.363262,149.1652348,10924,0.01123716589063406,0.005163393449038267,-0.08935032784938812,-0.07387370616197586,-0.0331432931125164,0.00797203928232193,5,-2,-1001,-73,-32,7,-11,26,-149,1500.0
18:03:46.719,AUTO,-35.363262,149.1652348,10924,0.01123716589063406,0.005163393449038267,-0.08935032784938812,-0.07387370616197586,-0.0331432931125164,0.00797203928232193,5,-2,-1001,-73,-32,7,-11,26,-149,1500.0
18:03:46.920,AUTO,-35.363262,149.1652348,10924,0.01123716589063406,0.005163393449038267,-0.08935032784938812,-0.07387370616197586,-0.0331432931125164,0.00797203928232193,5,-2,-1001,-73,-32,7,-11,26,-149,1500.0
18:03:47.122,AUTO,-35.3632626,149.1652366,12080,-0.01903071254491806,-0.008004792034626007,-0.09431876242160797,-0.012920222245156765,-0.0057222978211939335,-0.015030814334750175,3,-2,-1002,-12,-5,-15,-5,15,-152,1500.0
18:03:47.324,AUTO,-35.3632626,149.1652369,12470,-0.020014267414808273,-0.008602694608271122,-0.09939361363649368,0.001671078847721219,0.0005257757729850709,-0.021117165684700012,1,-1,-1002,2,1,-21,-2,9,-152,1500.0
18:03:47.525,AUTO,-35.3632626,149.165237,12859,-0.017656980082392693,-0.008137724362313747,-0.10542301833629608,0.01104387454688549,0.0031212791800498962,-0.02407810091972351,0,0,-1001,11,3,-24,0,3,-152,1500.0
18:03:47.726,AUTO,-35.3632626,149.165237,13250,-0.013871769420802593,-0.007219319231808186,-0.11168351769447327,0.0180174820125103,0.004694312810897827,-0.024114275351166725,0,0,-1001,18,5,-24,1,-1,-153,1500.0
18:03:47.927,AUTO,-35.3632626,149.165237,13641,-0.008878473192453384,-0.005729799624532461,-0.11809150874614716,0.019937731325626373,0.007348912768065929,-0.024956321343779564,-1,0,-1000,20,7,-25,3,-4,-153,1500.0
18:03:48.128,AUTO,-35.3632625,149.1652368,14032,-0.004318720661103725,-0.003750451374799013,-0.12438660860061646,0.016160059720277786,0.008611086755990982,-0.024983014911413193,-1,0,-1000,20,7,-25,4,-6,-153,1500.0
18:03:48.329,AUTO,-35.3632625,149.1652368,14032,-0.004318720661103725,-0.003750451374799013,-0.12438660860061646,0.016160059720277786,0.008611086755990982,-0.024983014911413193,-2,0,-1000,16,9,-25,4,-6,-153,1500.0
18:03:48.530,AUTO,-35.3632625,149.1652368,14032,-0.004318720661103725,-0.003750451374799013,-0.12438660860061646,0.016160059720277786,0.008611086755990982,-0.024983014911413193,-2,0,-1000,16,9,-25,4,-6,-153,1500.0
18:03:48.731,AUTO,-35.3632625,149.1652368,14032,-0.004318720661103725,-0.003750451374799013,-0.12438660860061646,0.016160059720277786,0.008611086755990982,-0.024983014911413193,-2,0,-1000,16,9,-25,4,-6,-153,1500.0
18:03:48.933,AUTO,-35.3632625,149.1652368,14032,-0.004318720661103725,-0.003750451374799013,-0.12438660860061646,0.016160059720277786,0.008611086755990982,-0.024983014911413193,-2,0,-1000,16,9,-25,4,-6,-153,1500.0
18:03:49.135,AUTO,-35.363262,149.1652359,15595,0.00865055713802576,0.0047483183443546295,-0.14705878496170044,0.007553732953965664,0.004712163936346769,-0.017398739233613014,-2,0,-1000,11,8,-21,3,-5,-153,1500.0
18:03:49.337,AUTO,-35.363262,149.1652359,15595,0.00865055713802576,0.0047483183443546295,-0.14705878496170044,0.007553732953965664,0.004712163936346769,-0.017398739233613014,-2,0,-1000,8,5,-17,3,-5,-153,1500.0
18:03:49.538,AUTO,-35.3632619,149.1652357,15989,0.009511345997452736,0.00598231190815568,-0.15147657692432404,0.0028372821398079395,0.005983658600598574,-0.013969667255878448,-2,0,-1000,3,6,-14,2,-3,-153,1500.0
18:03:49.740,AUTO,-35.3632618,149.1652356,16379,0.009738611057400703,0.0067903706803917885,-0.15549050271511078,0.0004041737411171198,0.0031150756403803825,-0.016376027837395668,-1,0,-1000,1,3,-16,2,-1,-153,1500.0
18:03:49.941,AUTO,-35.3632617,149.1652355,16770,0.009418884292244911,0.007129591424018145,-0.15912973880767822,-0.001029795384965837,0.0016354925464838743,-0.01424599252641201,-1,0,-1000,0,2,-14,1,0,-153,1500.0
18:03:50.142,AUTO,-35.3632617,149.1652355,17161,0.008637134917080402,0.007233134470880032,-0.16256868839263916,-0.0033529349602758884,-0.00011109956540167332,-0.011441443115472794,0,0,-999,-2,0,-11,0,1,-153,1500.0
18:03:50.343,AUTO,-35.3632617,149.1652355,17161,0.008637134917080402,0.007233134470880032,-0.16256868839263916,-0.0033529349602758884,-0.00011109956540167332,-0.011441443115472794,0,0,-999,-2,0,-11,0,1,-153,1500.0
18:03:50.544,AUTO,-35.3632617,149.1652355,17161,0.008637134917080402,0.007233134470880032,-0.16256868839263916,-0.0033529349602758884,-0.00011109956540167332,-0.011441443115472794,0,0,-999,-2,0,-11,0,1,-153,1500.0
18:03:50.745,AUTO,-35.3632617,149.1652355,17161,0.008637134917080402,0.007233134470880032,-0.16256868839263916,-0.0033529349602758884,-0.00011109956540167332,-0.011441443115472794,0,0,-999,-2,0,-11,0,1,-153,1500.0
18:03:50.946,AUTO,-35.3632617,149.1652355,17161,0.008637134917080402,0.007233134470880032,-0.16256868839263916,-0.0033529349602758884,-0.00011109956540167332,-0.011441443115472794,0,0,-999,-2,0,-11,0,1,-153,1500.0
18:03:51.147,AUTO,-35.3632616,149.1652356,18717,0.004894173238426447,0.005310408771038055,-0.17558178305625916,-0.0011541821295395494,-0.0012354052159935236,-0.013139124028384686,0,0,-1000,0,0,-13,-2,5,-153,1500.0
18:03:51.348,AUTO,-35.3632616,149.1652356,18717,0.004894173238426447,0.005310408771038055,-0.17558178305625916,-0.0011541821295395494,-0.0012354052159935236,-0.013139124028384686,0,0,-1000,0,0,-13,-2,5,-153,1500.0
18:03:51.549,AUTO,-35.3632616,149.1652357,19107,0.004250355530530214,0.004868627525866032,-0.17913448810577393,-0.002581000095233321,-0.002418018877506256,-0.011878938414156437,0,0,-1000,-1,-1,-12,-2,6,-153,1500.0
18:03:51.750,AUTO,-35.3632616,149.1652358,19497,0.0034534388687461615,0.004398832563310862,-0.18302220106124878,-0.0013975327601656318,-0.0003930100647266954,-0.0177276860922575,0,0,-1000,0,0,-18,-3,6,-153,1500.0
18:03:51.951,AUTO,-35.3632616,149.1652359,19887,0.0029229039791971445,0.004009207710623741,-0.18705978989601135,-8.941791020333767e-05,-7.686798926442862e-05,-0.01701485924422741,0,0,-1000,0,0,-17,-3,6,-153,1500.0
18:03:52.152,AUTO,-35.3632616,149.165236,20278,0.0022243233397603035,0.0037868614308536053,-0.1913968324661255,-0.00012632436119019985,-0.00039440675755031407,-0.016458895057439804,0,0,-1000,0,0,-16,-3,6,-153,1500.0
18:03:52.353,AUTO,-35.3632616,149.165236,20278,0.0022243233397603035,0.0037868614308536053,-0.1913968324661255,-0.00012632436119019985,-0.00039440675755031407,-0.016458895057439804,0,0,-1000,0,0,-16,-3,6,-153,1500.0
18:03:52.553,AUTO,-35.3632616,149.165236,20278,0.0022243233397603035,0.0037868614308536053,-0.1913968324661255,-0.00012632436119019985,-0.00039440675755031407,-0.016458895057439804,0,0,-1000,0,0,-16,-3,6,-153,1500.0
18:03:52.755,AUTO,-35.3632616,149.165236,20278,0.0022243233397603035,0.0037868614308536053,-0.1913968324661255,-0.00012632436119019985,-0.00039440675755031407,-0.016458895057439804,0,0,-1000,0,0,-16,-3,6,-153,1500.0
18:03:52.956,AUTO,-35.3632616,149.165236,20278,0.0022243233397603035,0.0037868614308536053,-0.1913968324661255,-0.00012632436119019985,-0.00039440675755031407,-0.016458895057439804,0,0,-1000,0,0,-16,-3,6,-153,1500.0
18:03:53.157,AUTO,-35.3632617,149.1652364,21844,0.0011666694190353155,0.003344601485878229,-0.21059498190879822,0.0015519277658313513,0.00013804773334413767,-0.020223405212163925,0,0,-1000,2,0,-20,-3,4,-153,1500.0
18:03:53.358,AUTO,-35.3632617,149.1652364,21844,0.0011666694190353155,0.003344601485878229,-0.21059498190879822,0.0015519277658313513,0.00013804773334413767,-0.020223405212163925,0,0,-1000,2,0,-20,-3,4,-153,1500.0
18:03:53.559,AUTO,-35.3632617,149.1652364,22235,0.0009317653020843863,0.003234403906390071,-0.2155516892671585,0.0019656866788864136,0.0004553265171125531,-0.018945297226309776,0,0,-1000,2,1,-19,-2,4,-153,1500.0
18:03:53.760,AUTO,-35.3632617,149.1652365,22625,0.0007756352424621582,0.003361846087500453,-0.2207435816526413,0.00011136807734146714,0.0012652057921513915,-0.023104725405573845,0,0,-1000,1,2,-23,-2,3,-153,1500.0
18:03:53.961,AUTO,-35.3632617,149.1652365,23023,0.0011327535612508655,0.0033273620065301657,-0.22586257755756378,0.0024708963464945555,-0.00015746086137369275,-0.020370235666632652,0,0,-1000,3,0,-20,-2,3,-153,1500.0
18:03:54.162,AUTO,-35.3632617,149.1652366,23414,0.0015041427686810493,0.003202585969120264,-0.23078592121601105,0.0008445382118225098,-0.0005189863732084632,-0.017324287444353104,0,0,-1000,1,0,-17,-3,3,-153,1500.0
18:03:54.363,AUTO,-35.3632617,149.1652366,23414,0.0015041427686810493,0.003202585969120264,-0.23078592121601105,0.0008445382118225098,-0.0005189863732084632,-0.017324287444353104,0,0,-1000,1,0,-17,-3,3,-153,1500.0
18:03:54.564,AUTO,-35.3632617,149.1652366,23414,0.0015041427686810493,0.003202585969120264,-0.23078592121601105,0.0008445382118225098,-0.0005189863732084632,-0.017324287444353104,0,0,-1000,1,0,-17,-3,3,-153,1500.0
18:03:54.765,AUTO,-35.3632617,149.1652366,23414,0.0015041427686810493,0.003202585969120264,-0.23078592121601105,0.0008445382118225098,-0.0005189863732084632,-0.017324287444353104,0,0,-1000,1,0,-17,-3,3,-153,1500.0
18:03:54.967,AUTO,-35.3632617,149.1652366,23414,0.0015041427686810493,0.003202585969120264,-0.23078592121601105,0.0008445382118225098,-0.0005189863732084632,-0.017324287444353104,0,0,-1000,1,0,-17,-3,3,-153,1500.0
18:03:55.168,AUTO,-35.3632618,149.1652367,24969,0.0018404088914394379,0.0028454898856580257,-0.25004786252975464,0.0026765670627355576,0.00024363980628550053,-0.019903814420104027,0,0,-1000,3,1,-20,-2,2,-153,1500.0
18:03:55.369,AUTO,-35.3632618,149.1652367,24969,0.0018404088914394379,0.0028454898856580257,-0.25004786252975464,0.0026765670627355576,0.00024363980628550053,-0.019903814420104027,0,0,-1000,3,1,-20,-2,2,-153,1500.0
18:03:55.570,AUTO,-35.3632618,149.1652367,25358,-0.013029676862061024,0.0037617813795804977,-0.2527415156364441,-0.03746890649199486,0.0055991667322814465,-0.005610504653304815,0,0,-1000,-36,6,-6,-3,1,-152,1500.0
18:03:55.771,AUTO,-35.3632619,149.1652366,25747,-0.009061197750270367,0.004816242028027773,-0.2523036599159241,0.03744567185640335,0.0025233442429453135,0.008190263994038105,0,0,-1004,38,3,7,-4,-2,-153,1500.0
18:03:55.972,AUTO,-35.3632619,149.1652366,26136,0.0006755725480616093,0.0050614443607628345,-0.24923250079154968,0.03619682788848877,-0.000434498128015548,0.015741921961307526,0,1,-1001,36,0,15,-5,-3,-153,1500.0
18:03:56.172,AUTO,-35.363262,149.1652365,26527,0.007598917931318283,0.004199432209134102,-0.24394282698631287,0.021336864680051804,-0.0033734962344169617,0.023718710988759995,0,1,-999,22,-2,23,-5,-1,-153,1500.0
18:03:56.373,AUTO,-35.363262,149.1652365,26527,0.007598917931318283,0.004199432209134102,-0.24394282698631287,0.021336864680051804,-0.0033734962344169617,0.023718710988759995,0,1,-999,22,-2,23,-5,-1,-153,1500.0
18:03:56.574,AUTO,-35.363262,149.1652365,26527,0.007598917931318283,0.004199432209134102,-0.24394282698631287,0.021336864680051804,-0.0033734962344169617,0.023718710988759995,0,1,-999,22,-2,23,-5,-1,-153,1500.0
18:03:56.775,AUTO,-35.363262,149.1652365,26527,0.007598917931318283,0.004199432209134102,-0.24394282698631287,0.021336864680051804,-0.0033734962344169617,0.023718710988759995,0,1,-999,22,-2,23,-5,-1,-153,1500.0
18:03:56.975,AUTO,-35.363262,149.1652365,26527,0.007598917931318283,0.004199432209134102,-0.24394282698631287,0.021336864680051804,-0.0033734962344169617,0.023718710988759995,0,1,-999,22,-2,23,-5,-1,-153,1500.0
18:03:57.176,AUTO,-35.3632623,149.1652365,28087,0.009416802786290646,0.0012077873107045889,-0.2195311337709427,-0.0055798678658902645,0.0008473887573927641,0.024512076750397682,1,0,-1000,-4,1,24,-2,7,-153,1500.0
18:03:57.378,AUTO,-35.3632624,149.1652367,28476,0.007173815742135048,0.0012247944250702858,-0.21385090053081512,-0.008618888445198536,-0.00011654163245111704,0.023966573178768158,1,0,-1000,-4,1,24,-2,8,-153,1500.0
18:03:57.579,AUTO,-35.3632624,149.1652367,28476,0.007173815742135048,0.0012247944250702858,-0.21385090053081512,-0.008618888445198536,-0.00011654163245111704,0.023966573178768158,1,-1,-1000,-8,0,23,-2,8,-153,1500.0
18:03:57.780,AUTO,-35.3632624,149.1652369,28864,0.004863888490945101,0.0011674505658447742,-0.20845678448677063,-0.0110356779769063,0.00011869793524965644,0.021957682445645332,1,-1,-999,-10,0,21,-1,9,-153,1500.0
18:03:57.981,AUTO,-35.3632624,149.1652371,29253,0.002838674932718277,0.00130104785785079,-0.20344209671020508,-0.00632346048951149,0.0023465058766305447,0.01896064355969429,0,-1,-1000,-5,3,18,0,9,-153,1500.0
18:03:58.183,AUTO,-35.3632624,149.1652373,29641,0.0011855640914291143,0.0017367216059938073,-0.19850991666316986,-0.006882770918309689,0.0032619955018162727,0.022044802084565163,1,-1,-1000,-6,4,22,0,8,-153,1500.0
18:03:58.384,AUTO,-35.3632624,149.1652373,29641,0.0011855640914291143,0.0017367216059938073,-0.19850991666316986,-0.006882770918309689,0.0032619955018162727,0.022044802084565163,1,-1,-1000,-6,4,22,0,8,-153,1500.0
18:03:58.585,AUTO,-35.3632624,149.1652373,29641,0.0011855640914291143,0.0017367216059938073,-0.19850991666316986,-0.006882770918309689,0.0032619955018162727,0.022044802084565163,1,-1,-1000,-6,4,22,0,8,-153,1500.0
18:03:58.786,AUTO,-35.3632624,149.1652373,29641,0.0011855640914291143,0.0017367216059938073,-0.19850991666316986,-0.006882770918309689,0.0032619955018162727,0.022044802084565163,1,-1,-1000,-6,4,22,0,8,-153,1500.0
18:03:58.988,AUTO,-35.3632624,149.1652373,29641,0.0011855640914291143,0.0017367216059938073,-0.19850991666316986,-0.006882770918309689,0.0032619955018162727,0.022044802084565163,1,-1,-1000,-6,4,22,0,8,-153,1500.0
18:03:59.190,AUTO,-35.3632624,149.1652379,31197,-0.0010897726751863956,0.0016173708718270063,-0.17952780425548553,0.0016690813936293125,0.00022730574710294604,0.01980813778936863,0,0,-1000,2,1,19,0,5,-153,1500.0
18:03:59.391,AUTO,-35.3632624,149.1652379,31586,-0.0012433078372851014,0.001454428886063397,-0.1751393973827362,0.000535033643245697,-0.00034143211087211967,0.01707128807902336,0,0,-1000,1,0,16,0,4,-153,1500.0
18:03:59.593,AUTO,-35.3632624,149.1652379,31586,-0.0012433078372851014,0.001454428886063397,-0.1751393973827362,0.000535033643245697,-0.00034143211087211967,0.01707128807902336,0,0,-1000,1,0,16,0,4,-153,1500.0
18:03:59.793,AUTO,-35.3632623,149.165238,31976,-0.0013461930211633444,0.001274231937713921,-0.17087869346141815,-0.0008110638591460884,-0.0016870878171175718,0.016842173412442207,0,0,-1000,0,0,16,0,3,-153,1500.0
18:03:59.994,AUTO,-35.3632623,149.165238,32373,-0.0010948734125122428,0.0012474780669435859,-0.167032852768898,0.0024683810770511627,0.0004928146954625845,0.01473919115960598,0,0,-1000,3,1,14,0,2,-153,1500.0
18:04:00.195,AUTO,-35.3632623,149.165238,32763,-0.0007018913747742772,0.0013294138479977846,-0.16346728801727295,0.0010882536880671978,0.0006863311282359064,0.014203364960849285,0,0,-1000,2,1,13,0,1,-153,1500.0
18:04:00.397,AUTO,-35.3632623,149.165238,32763,-0.0007018913747742772,0.0013294138479977846,-0.16346728801727295,0.0010882536880671978,0.0006863311282359064,0.014203364960849285,0,0,-1000,2,1,13,0,1,-153,1500.0
18:04:00.599,AUTO,-35.3632623,149.165238,32763,-0.0007018913747742772,0.0013294138479977846,-0.16346728801727295,0.0010882536880671978,0.0006863311282359064,0.014203364960849285,0,0,-1000,2,1,13,0,1,-153,1500.0
18:04:00.800,AUTO,-35.3632623,149.165238,32763,-0.0007018913747742772,0.0013294138479977846,-0.16346728801727295,0.0010882536880671978,0.0006863311282359064,0.014203364960849285,0,0,-1000,2,1,13,0,1,-153,1500.0
18:04:01.001,AUTO,-35.3632623,149.165238,32763,-0.0007018913747742772,0.0013294138479977846,-0.16346728801727295,0.0010882536880671978,0.0006863311282359064,0.014203364960849285,0,0,-1000,2,1,13,0,1,-153,1500.0
18:04:01.202,AUTO,-35.3632623,149.165238,34321,0.000749157858081162,0.0012433932861313224,-0.1498633325099945,0.0007558092474937439,0.00024029205087572336,0.013341533951461315,0,0,-1000,1,1,12,0,0,-153,1500.0
18:04:01.403,AUTO,-35.3632623,149.165238,34710,0.0009471525554545224,0.0013187334407120943,-0.14662177860736847,0.0008065970614552498,-8.99695442058146e-05,0.013003245927393436,0,0,-1000,2,0,13,0,0,-153,1500.0
18:04:01.604,AUTO,-35.3632623,149.165238,34710,0.0009471525554545224,0.0013187334407120943,-0.14662177860736847,0.0008065970614552498,-8.99695442058146e-05,0.013003245927393436,0,0,-1000,2,0,13,0,0,-153,1500.0
18:04:01.805,AUTO,-35.3632622,149.165238,35100,0.000956978474278003,0.0010012445272877812,-0.14362287521362305,0.0020129787735641003,-0.000720644136890769,0.014181318692862988,0,0,-999,3,0,14,0,0,-153,1500.0
18:04:02.006,AUTO,-35.3632622,149.1652379,35490,0.001030985382385552,0.0009636264876462519,-0.14058701694011688,-0.0005876040086150169,0.0016426346264779568,0.01256310660392046,0,0,-999,0,2,12,0,0,-153,1500.0
18:04:02.207,AUTO,-35.3632622,149.1652379,35880,0.0010898759355768561,0.000973649206571281,-0.13775953650474548,0.0029284697957336903,-0.0006983089260756969,0.01184498518705368,0,0,-1001,3,0,11,0,0,-153,1500.0
18:04:02.407,AUTO,-35.3632622,149.1652379,35880,0.0010898759355768561,0.000973649206571281,-0.13775953650474548,0.0029284697957336903,-0.0006983089260756969,0.01184498518705368,0,0,-1001,3,0,11,0,0,-153,1500.0
18:04:02.608,AUTO,-35.3632622,149.1652379,35880,0.0010898759355768561,0.000973649206571281,-0.13775953650474548,0.0029284697957336903,-0.0006983089260756969,0.01184498518705368,0,0,-1001,3,0,11,0,0,-153,1500.0
18:04:02.810,AUTO,-35.3632622,149.1652379,35880,0.0010898759355768561,0.000973649206571281,-0.13775953650474548,0.0029284697957336903,-0.0006983089260756969,0.01184498518705368,0,0,-1001,3,0,11,0,0,-153,1500.0
18:04:03.011,AUTO,-35.3632622,149.1652379,35880,0.0010898759355768561,0.000973649206571281,-0.13775953650474548,0.0029284697957336903,-0.0006983089260756969,0.01184498518705368,0,0,-1001,3,0,11,0,0,-153,1500.0
18:04:03.212,AUTO,-35.3632622,149.1652377,37437,0.0014051615726202726,0.0014939338434487581,-0.12755714356899261,-0.0016318814596161246,-4.751025699079037e-06,0.00902948621660471,0,0,-1000,0,1,9,0,0,-153,1500.0
18:04:03.413,AUTO,-35.3632622,149.1652377,37826,0.0017440777737647295,0.0014670116361230612,-0.12524215877056122,5.62864588573575e-05,-9.851879440248013e-06,0.008719821460545063,0,0,-1000,0,1,8,0,0,-153,1500.0
18:04:03.614,AUTO,-35.3632622,149.1652377,37826,0.0017440777737647295,0.0014670116361230612,-0.12524215877056122,5.62864588573575e-05,-9.851879440248013e-06,0.008719821460545063,0,0,-1000,0,1,8,0,0,-153,1500.0
18:04:03.815,AUTO,-35.3632621,149.1652376,38215,0.0021039238199591637,0.0016437334707006812,-0.12283564358949661,0.0015559722669422626,0.0007302104495465755,0.011398836970329285,0,0,-999,2,1,11,0,0,-153,1500.0
18:04:04.016,AUTO,-35.3632621,149.1652376,38605,0.0021623659413307905,0.0016499372432008386,-0.12061873823404312,-0.002166776917874813,-0.0008974735392257571,0.007297492120414972,0,0,-1000,-1,0,7,0,0,-153,1500.0
18:04:04.217,AUTO,-35.3632621,149.1652376,38995,0.002155333524569869,0.0015872345538809896,-0.11839253455400467,-0.0014051375910639763,0.0009695782791823149,0.00959683395922184,0,0,-999,0,2,9,0,0,-153,1500.0
18:04:04.418,AUTO,-35.3632621,149.1652376,38995,0.002155333524569869,0.0015872345538809896,-0.11839253455400467,-0.0014051375910639763,0.0009695782791823149,0.00959683395922184,0,0,-999,0,2,9,0,0,-153,1500.0
18:04:04.619,AUTO,-35.3632621,149.1652376,38995,0.002155333524569869,0.0015872345538809896,-0.11839253455400467,-0.0014051375910639763,0.0009695782791823149,0.00959683395922184,0,0,-999,0,2,9,0,0,-153,1500.0
18:04:04.821,AUTO,-35.3632621,149.1652376,38995,0.002155333524569869,0.0015872345538809896,-0.11839253455400467,-0.0014051375910639763,0.0009695782791823149,0.00959683395922184,0,0,-999,0,2,9,0,0,-153,1500.0
18:04:05.022,AUTO,-35.3632621,149.1652376,38995,0.002155333524569869,0.0015872345538809896,-0.11839253455400467,-0.0014051375910639763,0.0009695782791823149,0.00959683395922184,0,0,-999,0,2,9,0,0,-153,1500.0
18:04:05.224,AUTO,-35.3632621,149.1652375,40552,0.001844872022047639,0.00131625693757087,-0.11061187833547592,0.0036001913249492645,-0.0003750895266421139,0.007139573339372873,0,0,-1001,4,0,7,-1,0,-153,1500.0
18:04:05.454,AUTO,-35.3632621,149.1652374,40942,0.0018390646437183022,0.0014010631712153554,-0.10886653512716293,-0.001261517289094627,-0.00036879803519695997,0.0078056384809315205,0,0,-1000,0,0,8,-1,0,-153,1500.0
18:04:05.656,AUTO,-35.3632621,149.1652374,41331,0.0019125733524560928,0.001549735781736672,-0.1071157157421112,0.00330229289829731,-0.00031789124477654696,0.008391385897994041,0,0,-1001,4,0,8,-1,1,-153,1500.0
18:04:05.858,AUTO,-35.3632621,149.1652374,41331,0.0019125733524560928,0.001549735781736672,-0.1071157157421112,0.00330229289829731,-0.00031789124477654696,0.008391385897994041,0,0,-1001,4,0,8,-1,1,-153,1500.0
18:04:06.060,AUTO,-35.3632621,149.1652374,41724,0.0017654080875217915,0.0017004924593493342,-0.10527875274419785,-0.0009990116814151406,0.0015090343076735735,0.0072115506045520306,0,0,-999,0,2,7,-1,1,-153,1500.0
18:04:06.261,AUTO,-35.3632621,149.1652374,42114,0.0016495287418365479,0.0016670746263116598,-0.10366523265838623,-0.0032869819551706314,-0.0006003828020766377,0.006668697111308575,0,0,-1000,-2,0,6,-1,1,-153,1500.0
18:04:06.463,AUTO,-35.3632621,149.1652374,42114,0.0016495287418365479,0.0016670746263116598,-0.10366523265838623,-0.0032869819551706314,-0.0006003828020766377,0.006668697111308575,0,0,-1000,-2,0,6,-1,1,-153,1500.0
18:04:06.664,AUTO,-35.3632621,149.1652374,42114,0.0016495287418365479,0.0016670746263116598,-0.10366523265838623,-0.0032869819551706314,-0.0006003828020766377,0.006668697111308575,0,0,-1000,-2,0,6,-1,1,-153,1500.0
18:04:06.866,AUTO,-35.3632621,149.1652374,42114,0.0016495287418365479,0.0016670746263116598,-0.10366523265838623,-0.0032869819551706314,-0.0006003828020766377,0.006668697111308575,0,0,-1000,-2,0,6,-1,1,-153,1500.0
18:04:07.070,AUTO,-35.3632621,149.1652374,42114,0.0016495287418365479,0.0016670746263116598,-0.10366523265838623,-0.0032869819551706314,-0.0006003828020766377,0.006668697111308575,0,0,-1000,-2,0,6,-1,1,-153,1500.0
18:04:07.272,AUTO,-35.3632621,149.1652374,43278,0.0018315012566745281,0.0013115688925608993,-0.09877800941467285,0.0015394017100334167,-0.000511815189383924,0.0088345343247056,0,0,-1000,2,0,9,-1,1,-153,1500.0
18:04:07.473,AUTO,-35.363262,149.1652374,44058,0.0013007783563807607,0.0011048431042581797,-0.09552218019962311,-0.004203241318464279,-0.0011741601629182696,0.006093544419854879,0,0,-1000,-3,0,6,-1,1,-153,1500.0
18:04:07.674,AUTO,-35.363262,149.1652374,44447,0.0012437407858669758,0.001191896153613925,-0.0940534919500351,0.002743855118751526,-0.0005127062322571874,0.006137252785265446,0,0,-1001,4,0,6,-1,1,-153,1500.0
18:04:07.875,AUTO,-35.363262,149.1652374,44447,0.0012437407858669758,0.001191896153613925,-0.0940534919500351,0.002743855118751526,-0.0005127062322571874,0.006137252785265446,0,0,-1001,4,0,6,-1,1,-153,1500.0
18:04:08.076,AUTO,-35.363262,149.1652374,44836,0.0012370478361845016,0.0013547205599024892,-0.09266888350248337,0.0007560969097539783,0.0011330442503094673,0.007144661154597998,0,0,-1000,1,2,7,-1,1,-153,1500.0
18:04:08.277,AUTO,-35.363262,149.1652374,45225,0.0012179712066426873,0.0014663817128166556,-0.09127287566661835,-0.0019251641351729631,0.0014667754294350743,0.007509672548621893,0,0,-999,0,2,7,-1,1,-153,1500.0
18:04:08.478,AUTO,-35.363262,149.1652374,45225,0.0012179712066426873,0.0014663817128166556,-0.09127287566661835,-0.0019251641351729631,0.0014667754294350743,0.007509672548621893,0,0,-999,0,2,7,-1,1,-153,1500.0
18:04:08.679,AUTO,-35.363262,149.1652374,45225,0.0012179712066426873,0.0014663817128166556,-0.09127287566661835,-0.0019251641351729631,0.0014667754294350743,0.007509672548621893,0,0,-999,0,2,7,-1,1,-153,1500.0
18:04:08.881,AUTO,-35.363262,149.1652374,45225,0.0012179712066426873,0.0014663817128166556,-0.09127287566661835,-0.0019251641351729631,0.0014667754294350743,0.007509672548621893,0,0,-999,0,2,7,-1,1,-153,1500.0
18:04:09.082,AUTO,-35.363262,149.1652374,45225,0.0012179712066426873,0.0014663817128166556,-0.09127287566661835,-0.0019251641351729631,0.0014667754294350743,0.007509672548621893,0,0,-999,0,2,7,-1,1,-153,1500.0
18:04:09.283,AUTO,-35.363262,149.1652373,46782,0.0013173079350963235,0.0011746311793103814,-0.08579106628894806,0.0005592482630163431,-0.0004197403904981911,0.006696680095046759,0,0,-1000,1,0,7,-1,1,-153,1500.0
18:04:09.484,AUTO,-35.363262,149.1652373,47170,-0.006577892694622278,0.008311374112963676,-0.06869443506002426,-0.08115696907043457,0.07790421694517136,0.16663014888763428,0,0,-972,-80,79,166,-1,0,-149,1500.0
18:04:09.685,AUTO,-35.363262,149.1652373,47540,-0.03337172791361809,0.0383344404399395,0.005864676088094711,-0.13529357314109802,0.13141295313835144,0.4226289987564087,0,0,-972,-134,132,422,-7,-4,-142,1500.0
18:04:09.886,AUTO,-35.363262,149.1652373,47540,-0.03337172791361809,0.0383344404399395,0.005864676088094711,-0.13529357314109802,0.13141295313835144,0.4226289987564087,0,0,-972,-134,132,422,-7,-4,-142,1500.0
18:04:10.088,AUTO,-35.3632623,149.1652369,47893,-0.061425790190696716,0.07064272463321686,0.1378394514322281,-0.09211142361164093,0.01694267988204956,0.5111550688743591,2,3,-952,-90,17,511,-19,-16,-134,1500.0
18:04:10.289,AUTO,-35.3632628,149.1652362,48215,-0.04965848848223686,0.044317785650491714,0.23305821418762207,0.0865047499537468,-0.20501923561096191,0.27784663438796997,4,8,-941,87,-204,278,-29,-31,-119,1500.0
18:04:10.490,AUTO,-35.3632628,149.1652362,48215,-0.04965848848223686,0.044317785650491714,0.23305821418762207,0.0865047499537468,-0.20501923561096191,0.27784663438796997,4,8,-941,87,-204,278,-29,-31,-119,1500.0
18:04:10.691,AUTO,-35.3632628,149.1652362,48215,-0.04965848848223686,0.044317785650491714,0.23305821418762207,0.0865047499537468,-0.20501923561096191,0.27784663438796997,4,8,-941,87,-204,278,-29,-31,-119,1500.0
18:04:10.892,AUTO,-35.3632628,149.1652362,48215,-0.04965848848223686,0.044317785650491714,0.23305821418762207,0.0865047499537468,-0.20501923561096191,0.27784663438796997,4,8,-941,87,-204,278,-29,-31,-119,1500.0
18:04:11.093,AUTO,-35.3632628,149.1652362,48215,-0.04965848848223686,0.044317785650491714,0.23305821418762207,0.0865047499537468,-0.20501923561096191,0.27784663438796997,4,8,-941,87,-204,278,-29,-31,-119,1500.0
18:04:11.303,AUTO,-35.3632647,149.1652327,49172,0.034958600997924805,-0.05527722090482712,0.3064882159233093,0.029941009357571602,0.007701668422669172,-0.02056567184627056,0,3,-966,30,9,-20,-5,-15,-72,1500.0
18:04:11.505,AUTO,-35.3632647,149.1652324,49346,0.03918072208762169,-0.049605853855609894,0.29940858483314514,-0.03420893847942352,0.03180258348584175,-0.03242385759949684,-1,0,-969,-33,33,-31,3,-2,-64,1500.0
18:04:11.706,AUTO,-35.3632645,149.1652324,49500,0.04012911394238472,-0.04002714157104492,0.29071179032325745,0.07431365549564362,0.040647562593221664,-0.034017592668533325,-2,3,-974,75,41,-33,10,8,-56,1500.0
18:04:11.910,AUTO,-35.3632643,149.1652327,49637,0.03556899353861809,-0.028900057077407837,0.28105852007865906,-0.11655803769826889,0.043538544327020645,-0.03716455027461052,-2,-13,-976,-116,44,-36,16,17,-50,1500.0
18:04:12.113,AUTO,-35.3632643,149.1652327,49637,0.03556899353861809,-0.028900057077407837,0.28105852007865906,-0.11655803769826889,0.043538544327020645,-0.03716455027461052,-2,-13,-976,-116,44,-36,16,17,-50,1500.0
18:04:12.315,AUTO,-35.3632639,149.1652331,49756,0.023243408650159836,-0.017932744696736336,0.27173754572868347,-0.30187365412712097,0.03980914503335953,-0.031587399542331696,-2,-3,-973,-299,40,-31,19,25,-44,1500.0
18:04:12.517,AUTO,-35.3632639,149.1652331,49756,0.023243408650159836,-0.017932744696736336,0.27173754572868347,-0.30187365412712097,0.03980914503335953,-0.031587399542331696,-2,-3,-973,-299,40,-31,19,25,-44,1500.0
18:04:12.718,AUTO,-35.3632639,149.1652331,49756,0.023243408650159836,-0.017932744696736336,0.27173754572868347,-0.30187365412712097,0.03980914503335953,-0.031587399542331696,-2,-3,-973,-299,40,-31,19,25,-44,1500.0
18:04:12.920,AUTO,-35.3632639,149.1652331,49756,0.023243408650159836,-0.017932744696736336,0.27173754572868347,-0.30187365412712097,0.03980914503335953,-0.031587399542331696,-2,-3,-973,-299,40,-31,19,25,-44,1500.0
18:04:13.121,AUTO,-35.3632639,149.1652331,49756,0.023243408650159836,-0.017932744696736336,0.27173754572868347,-0.30187365412712097,0.03980914503335953,-0.031587399542331696,-2,-3,-973,-299,40,-31,19,25,-44,1500.0
18:04:13.323,AUTO,-35.363262,149.1652362,50082,-0.0021824915893375874,0.013110836036503315,0.23774220049381256,-0.5808597803115845,0.024118894711136818,-0.02697739005088806,-3,-37,-981,-581,25,-26,16,29,-24,1500.0
18:04:13.524,AUTO,-35.3632617,149.165237,50132,-0.010846843011677265,0.016176553443074226,0.23067417740821838,-0.4298722743988037,0.010345079936087132,-0.020370284095406532,0,-10,-972,-425,11,-19,13,27,-17,1500.0
18:04:13.725,AUTO,-35.3632613,149.1652376,50166,-0.006762015167623758,0.017261236906051636,0.22446824610233307,0.3829995393753052,0.0015842459397390485,-0.020390687510371208,0,24,-966,388,2,-20,10,24,-11,1500.0
18:04:13.926,AUTO,-35.3632611,149.1652382,50179,0.0003226397675462067,0.01691996306180954,0.2186596840620041,0.8180853128433228,-0.0009807739406824112,-0.01687663607299328,-1,33,-982,821,0,-16,7,19,-2,1500.0
18:04:14.127,AUTO,-35.3632611,149.1652382,50179,0.0003226397675462067,0.01691996306180954,0.2186596840620041,0.8180853128433228,-0.0009807739406824112,-0.01687663607299328,-1,33,-982,821,0,-16,7,19,-2,1500.0
18:04:14.328,AUTO,-35.363261,149.1652386,50164,-0.021336190402507782,0.04223698750138283,0.21153521537780762,0.5539456605911255,0.0469852015376091,-0.007447025738656521,2,4,-944,551,48,-6,2,11,12,1500.0
18:04:14.529,AUTO,-35.363261,149.1652386,50164,-0.021336190402507782,0.04223698750138283,0.21153521537780762,0.5539456605911255,0.0469852015376091,-0.007447025738656521,2,4,-944,551,48,-6,2,11,12,1500.0
18:04:14.731,AUTO,-35.363261,149.1652386,50164,-0.021336190402507782,0.04223698750138283,0.21153521537780762,0.5539456605911255,0.0469852015376091,-0.007447025738656521,2,4,-944,551,48,-6,2,11,12,1500.0
18:04:14.933,AUTO,-35.363261,149.1652386,50164,-0.021336190402507782,0.04223698750138283,0.21153521537780762,0.5539456605911255,0.0469852015376091,-0.007447025738656521,2,4,-944,551,48,-6,2,11,12,1500.0
18:04:15.133,AUTO,-35.3632612,149.1652388,50034,0.003575984388589859,-0.015606395900249481,0.19808772206306458,-0.7482984066009521,-0.044931672513484955,-0.01976776495575905,1,-33,-1018,-747,-43,-19,-4,0,11,1500.0
18:04:15.336,AUTO,-35.3632613,149.1652389,50005,0.013544904999434948,-0.025017939507961273,0.1930638700723648,-0.3552600145339966,-0.029013242572546005,-0.019532425329089165,1,0,-1011,-350,-27,-19,0,6,7,1500.0
18:04:15.538,AUTO,-35.3632612,149.1652391,49986,0.027945997193455696,-0.03265039622783661,0.1876671016216278,0.33300790190696716,-0.028304560109972954,-0.021362170577049255,0,29,-1003,338,-26,-21,5,14,4,1500.0
18:04:15.740,AUTO,-35.3632612,149.1652396,49972,0.04907279089093208,-0.04047812521457672,0.18247820436954498,0.8021222949028015,-0.03134269267320633,-0.019063740968704224,0,33,-1007,805,-30,-18,12,23,2,1500.0
18:04:15.942,AUTO,-35.3632608,149.1652404,49960,0.06482245028018951,-0.05005441978573799,0.17764347791671753,0.627164363861084,-0.040684692561626434,-0.011581722646951675,0,0,-1020,627,-39,-11,21,33,0,1500.0
18:04:16.145,AUTO,-35.3632603,149.1652416,49954,0.06454179435968399,-0.06532573699951172,0.21206553280353546,-0.3499310612678528,-0.07687245309352875,0.3533911108970642,0,0,-1020,627,-39,-11,32,47,-1,1500.0
18:04:16.347,AUTO,-35.3632603,149.1652416,49954,0.06454179435968399,-0.06532573699951172,0.21206553280353546,-0.3499310612678528,-0.07687245309352875,0.3533911108970642,1,-44,-1002,-352,-75,353,32,47,-1,1500.0
18:04:16.549,AUTO,-35.3632603,149.1652416,49954,0.06454179435968399,-0.06532573699951172,0.21206553280353546,-0.3499310612678528,-0.07687245309352875,0.3533911108970642,1,-44,-1002,-352,-75,353,32,47,-1,1500.0
18:04:16.750,AUTO,-35.3632603,149.1652416,49954,0.06454179435968399,-0.06532573699951172,0.21206553280353546,-0.3499310612678528,-0.07687245309352875,0.3533911108970642,1,-44,-1002,-352,-75,353,32,47,-1,1500.0
18:04:16.951,BRAKE,-35.3632603,149.1652416,49954,0.06454179435968399,-0.06532573699951172,0.21206553280353546,-0.3499310612678528,-0.07687245309352875,0.3533911108970642,1,-44,-1002,-352,-75,353,32,47,-1,1500.0
