time_stamp,MODE,lat,lon,relative_alt,roll,pitch,yaw,rollspeed,pitchspeed,yawspeed,xacc,yacc,zacc,xgyro,ygyro,zgyro,vx,vy,vz,RTL_ALT
13:06:03.565,STABILIZE,-35.3632621,149.1652374,0,-0.0002027816226473078,0.0015331057365983725,0.029120473191142082,0.00010929213021881878,0.00021572023979388177,0.0023606871254742146,0,1,-1000,0,0,0,-1,0,0,1500.0
13:06:03.766,STABILIZE,-35.3632621,149.1652374,0,-0.00018704832473304123,0.0015726161655038595,0.02895943634212017,0.00021289713913574815,0.00030742003582417965,0.002406225772574544,0,1,-1000,0,0,0,-1,0,0,1500.0
13:06:03.966,STABILIZE,-35.3632621,149.1652374,0,-0.00017411453882232308,0.0015943077160045505,0.02876550704240799,0.0002983758458867669,0.00027095130644738674,0.0024398607201874256,0,1,-1000,0,0,0,-1,1,0,1500.0
13:06:04.167,STABILIZE,-35.3632621,149.1652374,0,-0.00017411453882232308,0.0015943077160045505,0.02876550704240799,0.0002983758458867669,0.00027095130644738674,0.0024398607201874256,0,1,-1000,0,0,0,-1,1,0,1500.0
13:06:04.368,STABILIZE,-35.3632621,149.1652374,0,-0.00017411453882232308,0.0015943077160045505,0.02876550704240799,0.0002983758458867669,0.00027095130644738674,0.0024398607201874256,0,1,-1000,0,0,0,-1,1,0,1500.0
13:06:04.568,STABILIZE,-35.3632621,149.1652374,0,-0.00017411453882232308,0.0015943077160045505,0.02876550704240799,0.0002983758458867669,0.00027095130644738674,0.0024398607201874256,0,1,-1000,0,0,0,-1,1,0,1500.0
13:06:04.769,STABILIZE,-35.3632621,149.1652374,0,-0.00017411453882232308,0.0015943077160045505,0.02876550704240799,0.0002983758458867669,0.00027095130644738674,0.0024398607201874256,0,1,-1000,0,0,0,-1,1,0,1500.0
13:06:04.970,STABILIZE,-35.3632621,149.1652374,0,-0.00017411453882232308,0.0015943077160045505,0.02876550704240799,0.0002983758458867669,0.00027095130644738674,0.0024398607201874256,0,1,-1000,0,0,0,-1,1,0,1500.0
13:06:05.171,STABILIZE,-35.3632621,149.1652374,0,-0.00017411453882232308,0.0015943077160045505,0.02876550704240799,0.0002983758458867669,0.00027095130644738674,0.0024398607201874256,0,1,-1000,0,0,0,-1,1,0,1500.0
13:06:05.372,STABILIZE,-35.3632621,149.1652374,1,-0.0001430782285751775,0.0015212714206427336,0.02794727310538292,0.00029213220113888383,0.00028092777938582003,0.0022001026663929224,0,4,-995,0,0,0,-1,-1,-5,1500.0
13:06:05.573,STABILIZE,-35.3632621,149.1652374,1,-0.0001430782285751775,0.0015212714206427336,0.02794727310538292,0.00029213220113888383,0.00028092777938582003,0.0022001026663929224,0,1,-1000,1,0,0,-1,-1,-5,1500.0
13:06:05.774,STABILIZE,-35.3632621,149.1652374,1,-0.0001430782285751775,0.0015212714206427336,0.02794727310538292,0.00029213220113888383,0.00028092777938582003,0.0022001026663929224,0,1,-1000,1,0,0,-1,-1,-5,1500.0
13:06:05.976,STABILIZE,-35.3632622,149.1652374,26,6.900988955749199e-05,0.001363809104077518,0.027512328699231148,0.00022742498549632728,0.000319078128086403,0.0022241580300033092,0,1,-1000,0,0,0,-1,0,-5,1500.0
13:06:06.177,STABILIZE,-35.3632622,149.1652374,26,6.900988955749199e-05,0.001363809104077518,0.027512328699231148,0.00022742498549632728,0.000319078128086403,0.0022241580300033092,0,1,-1000,0,0,0,-1,0,-5,1500.0
13:06:06.379,STABILIZE,-35.3632622,149.1652374,26,6.900988955749199e-05,0.001363809104077518,0.027512328699231148,0.00022742498549632728,0.000319078128086403,0.0022241580300033092,0,1,-1000,0,0,0,-1,0,-5,1500.0
13:06:06.580,STABILIZE,-35.3632622,149.1652374,26,6.900988955749199e-05,0.001363809104077518,0.027512328699231148,0.00022742498549632728,0.000319078128086403,0.0022241580300033092,0,1,-1000,0,0,0,-1,0,-5,1500.0
13:06:06.782,STABILIZE,-35.3632622,149.1652374,26,6.900988955749199e-05,0.001363809104077518,0.027512328699231148,0.00022742498549632728,0.000319078128086403,0.0022241580300033092,0,1,-1000,0,0,0,-1,0,-5,1500.0
13:06:06.984,STABILIZE,-35.3632622,149.1652374,26,0.0002637981087900698,0.0011598835699260235,0.026866991072893143,0.0002347132540307939,0.00022733418154530227,0.00212566158734262,0,1,-1000,0,0,0,-1,0,-5,1500.0
13:06:07.185,STABILIZE,-35.3632622,149.1652374,26,0.0002637981087900698,0.0011598835699260235,0.026866991072893143,0.0002347132540307939,0.00022733418154530227,0.00212566158734262,0,1,-1000,0,0,0,-1,0,-5,1500.0
13:06:07.386,STABILIZE,-35.3632622,149.1652374,39,0.00026143764262087643,0.0011132300132885575,0.02671506628394127,0.0002794838510453701,0.00021558123989962041,0.0020546470768749714,0,1,-1000,0,1,1,-1,1,-3,1500.0
13:06:07.588,STABILIZE,-35.3632622,149.1652374,39,0.00026143764262087643,0.0011132300132885575,0.02671506628394127,0.0002794838510453701,0.00021558123989962041,0.0020546470768749714,0,1,-1000,0,1,1,-1,1,-3,1500.0
13:06:07.789,STABILIZE,-35.3632622,149.1652374,42,0.00026143764262087643,0.0011132300132885575,0.02671506628394127,0.0002794838510453701,0.00021558123989962041,0.0020546470768749714,0,1,-1000,0,0,0,-1,1,-3,1500.0
13:06:07.991,STABILIZE,-35.3632622,149.1652374,42,0.00026143764262087643,0.0011132300132885575,0.02671506628394127,0.0002794838510453701,0.00021558123989962041,0.0020546470768749714,0,1,-1000,0,0,0,-1,1,-3,1500.0
13:06:08.192,STABILIZE,-35.3632622,149.1652374,42,0.00026143764262087643,0.0011132300132885575,0.02671506628394127,0.0002794838510453701,0.00021558123989962041,0.0020546470768749714,0,1,-1000,0,0,0,-1,1,-3,1500.0
13:06:08.394,STABILIZE,-35.3632622,149.1652374,42,0.00026143764262087643,0.0011132300132885575,0.02671506628394127,0.0002794838510453701,0.00021558123989962041,0.0020546470768749714,0,1,-1000,0,0,0,-1,1,-3,1500.0
13:06:08.595,STABILIZE,-35.3632622,149.1652374,42,0.00026143764262087643,0.0011132300132885575,0.02671506628394127,0.0002794838510453701,0.00021558123989962041,0.0020546470768749714,0,1,-1000,0,0,0,-1,1,-3,1500.0
13:06:08.797,STABILIZE,-35.3632621,149.1652375,42,0.00035381613997742534,0.0009734393679536879,0.025729656219482422,0.00019783125026151538,0.0002720240445341915,0.0019023078493773937,0,1,-1000,0,0,0,-1,3,0,1500.0
13:06:08.998,STABILIZE,-35.3632621,149.1652375,42,0.00035381613997742534,0.0009734393679536879,0.025729656219482422,0.00019783125026151538,0.0002720240445341915,0.0019023078493773937,0,1,-1000,0,0,0,-1,3,0,1500.0
13:06:09.199,STABILIZE,-35.3632621,149.1652375,42,0.00035381613997742534,0.0009734393679536879,0.025729656219482422,0.00019783125026151538,0.0002720240445341915,0.0019023078493773937,0,1,-1000,0,0,0,-1,3,0,1500.0
13:06:09.400,STABILIZE,-35.3632621,149.1652375,37,0.00016480055637657642,0.0009554688585922122,0.02540910616517067,0.00013351626694202423,0.0003117157320957631,0.0020207148045301437,0,1,-1000,0,0,0,-1,3,0,1500.0
13:06:09.602,STABILIZE,-35.3632621,149.1652375,37,0.00016480055637657642,0.0009554688585922122,0.02540910616517067,0.00013351626694202423,0.0003117157320957631,0.0020207148045301437,0,1,-1000,0,0,0,-1,3,0,1500.0
13:06:09.803,STABILIZE,-35.3632621,149.1652376,34,-8.891728612070438e-06,0.0009530393872410059,0.025135666131973267,0.0002134449896402657,0.00021457448019646108,0.001788776251487434,0,1,-1000,0,0,0,-1,3,0,1500.0
13:06:10.005,STABILIZE,-35.3632621,149.1652376,33,-9.071215754374862e-05,0.0009487565839663148,0.024980593472719193,0.0002508952748030424,0.00021022206055931747,0.0019687660969793797,0,1,-1000,0,0,0,-1,2,0,1500.0
13:06:10.206,STABILIZE,-35.3632621,149.1652376,33,-9.071215754374862e-05,0.0009487565839663148,0.024980593472719193,0.0002508952748030424,0.00021022206055931747,0.0019687660969793797,0,1,-1000,0,0,0,-1,2,0,1500.0
13:06:10.408,STABILIZE,-35.3632621,149.1652376,33,-9.071215754374862e-05,0.0009487565839663148,0.024980593472719193,0.0002508952748030424,0.00021022206055931747,0.0019687660969793797,0,1,-1000,0,0,0,-1,2,0,1500.0
13:06:10.609,STABILIZE,-35.3632621,149.1652376,33,-9.071215754374862e-05,0.0009487565839663148,0.024980593472719193,0.0002508952748030424,0.00021022206055931747,0.0019687660969793797,0,1,-1000,0,0,0,-1,2,0,1500.0
13:06:10.811,STABILIZE,-35.3632621,149.1652376,29,-0.000335072836605832,0.000945677631534636,0.02460174821317196,0.0002453552442602813,0.00019022086053155363,0.0018379160901531577,0,1,-1000,0,0,0,-1,2,0,1500.0
13:06:11.013,STABILIZE,-35.3632621,149.1652376,29,-0.000335072836605832,0.000945677631534636,0.02460174821317196,0.0002453552442602813,0.00019022086053155363,0.0018379160901531577,0,1,-1000,0,0,0,-1,2,0,1500.0
13:06:11.215,STABILIZE,-35.3632621,149.1652376,29,-0.000335072836605832,0.000945677631534636,0.02460174821317196,0.0002453552442602813,0.00019022086053155363,0.0018379160901531577,0,1,-1000,0,0,0,-1,2,0,1500.0
13:06:11.416,STABILIZE,-35.3632621,149.1652376,29,-0.000335072836605832,0.000945677631534636,0.02460174821317196,0.0002453552442602813,0.00019022086053155363,0.0018379160901531577,0,1,-1000,0,0,0,-1,2,0,1500.0
13:06:11.618,STABILIZE,-35.3632621,149.1652376,29,-0.000335072836605832,0.000945677631534636,0.02460174821317196,0.0002453552442602813,0.00019022086053155363,0.0018379160901531577,0,1,-1000,0,0,0,-1,2,0,1500.0
13:06:11.819,STABILIZE,-35.3632621,149.1652375,24,-0.0005883144331164658,0.000926789129152894,0.02416067011654377,0.0003454263787716627,0.00025918736355379224,0.0018284327816218138,0,1,-1000,0,0,0,-1,2,0,1500.0
13:06:12.021,STABILIZE,-35.3632621,149.1652375,24,-0.0005883144331164658,0.000926789129152894,0.02416067011654377,0.0003454263787716627,0.00025918736355379224,0.0018284327816218138,0,1,-1000,0,0,0,-1,2,0,1500.0
13:06:12.228,STABILIZE,-35.3632621,149.1652375,24,-0.0005883144331164658,0.000926789129152894,0.02416067011654377,0.0003454263787716627,0.00025918736355379224,0.0018284327816218138,0,1,-1000,0,0,0,-1,2,0,1500.0
13:06:12.430,STABILIZE,-35.3632621,149.1652375,24,-0.0005883144331164658,0.000926789129152894,0.02416067011654377,0.0003454263787716627,0.00025918736355379224,0.0018284327816218138,0,1,-1000,0,0,0,-1,2,0,1500.0
13:06:12.631,STABILIZE,-35.3632621,149.1652375,24,-0.0005883144331164658,0.000926789129152894,0.02416067011654377,0.0003454263787716627,0.00025918736355379224,0.0018284327816218138,0,1,-1000,0,0,0,-1,2,0,1500.0
13:06:12.833,STABILIZE,-35.3632621,149.1652375,19,-0.0006069452501833439,0.000940116704441607,0.023777835071086884,0.00027772231260314584,0.00029836740577593446,0.0018718866631388664,0,1,-1000,0,1,0,-1,1,0,1500.0
13:06:13.034,STABILIZE,-35.3632621,149.1652375,19,-0.0006069452501833439,0.000940116704441607,0.023777835071086884,0.00027772231260314584,0.00029836740577593446,0.0018718866631388664,0,1,-1000,0,0,0,-1,1,0,1500.0
13:06:13.235,STABILIZE,-35.3632621,149.1652375,17,-0.0006069452501833439,0.000940116704441607,0.023777835071086884,0.00027772231260314584,0.00029836740577593446,0.0018718866631388664,0,1,-1000,0,0,0,-1,1,0,1500.0
13:06:13.437,STABILIZE,-35.3632621,149.1652375,17,-0.0006069452501833439,0.000940116704441607,0.023777835071086884,0.00027772231260314584,0.00029836740577593446,0.0018718866631388664,0,1,-1000,0,0,0,-1,1,0,1500.0
13:06:13.638,STABILIZE,-35.3632621,149.1652375,17,-0.0006069452501833439,0.000940116704441607,0.023777835071086884,0.00027772231260314584,0.00029836740577593446,0.0018718866631388664,0,2,-1000,0,1,0,-1,1,0,1500.0
13:06:13.839,STABILIZE,-35.3632621,149.1652375,17,-0.0006069452501833439,0.000940116704441607,0.023777835071086884,0.00027772231260314584,0.00029836740577593446,0.0018718866631388664,0,2,-1000,0,1,0,-1,1,0,1500.0
13:06:14.041,STABILIZE,-35.3632622,149.1652375,14,-0.0008089260081760585,0.0009571919217705727,0.02336948923766613,0.00029552559135481715,0.00032105192076414824,0.0015316170174628496,0,1,-1000,0,0,0,-1,1,0,1500.0
13:06:14.242,STABILIZE,-35.3632622,149.1652375,14,-0.0008089260081760585,0.0009571919217705727,0.02336948923766613,0.00029552559135481715,0.00032105192076414824,0.0015316170174628496,0,1,-1000,0,0,0,-1,1,0,1500.0
13:06:14.444,STABILIZE,-35.3632622,149.1652375,14,-0.0008089260081760585,0.0009571919217705727,0.02336948923766613,0.00029552559135481715,0.00032105192076414824,0.0015316170174628496,0,1,-1000,0,0,0,-1,1,0,1500.0
13:06:14.645,STABILIZE,-35.3632622,149.1652375,14,-0.0008089260081760585,0.0009571919217705727,0.02336948923766613,0.00029552559135481715,0.00032105192076414824,0.0015316170174628496,0,1,-1000,0,0,0,-1,1,0,1500.0
13:06:14.847,STABILIZE,-35.3632622,149.1652375,14,-0.0008089260081760585,0.0009571919217705727,0.02336948923766613,0.00029552559135481715,0.00032105192076414824,0.0015316170174628496,0,1,-1000,0,0,0,-1,1,0,1500.0
13:06:15.048,STABILIZE,-35.3632622,149.1652375,11,-0.0008089260081760585,0.0009571919217705727,0.02336948923766613,0.00029552559135481715,0.00032105192076414824,0.0015316170174628496,0,1,-1000,0,0,0,-1,1,0,1500.0
13:06:15.250,STABILIZE,-35.3632622,149.1652375,11,-0.0008089260081760585,0.0009571919217705727,0.02336948923766613,0.00029552559135481715,0.00032105192076414824,0.0015316170174628496,0,1,-1000,0,0,0,-1,1,0,1500.0
13:06:15.451,STABILIZE,-35.3632622,149.1652375,11,-0.0008089260081760585,0.0009571919217705727,0.02336948923766613,0.00029552559135481715,0.00032105192076414824,0.0015316170174628496,0,1,-1000,0,0,0,-1,1,0,1500.0
13:06:15.653,STABILIZE,-35.3632622,149.1652375,10,-0.0009875334799289703,0.00096173956990242,0.022936537861824036,0.0002761211362667382,0.00018572271801531315,0.0016319819260388613,0,1,-1000,1,0,1,-1,1,0,1500.0
13:06:15.854,STABILIZE,-35.3632622,149.1652375,10,-0.0009875334799289703,0.00096173956990242,0.022936537861824036,0.0002761211362667382,0.00018572271801531315,0.0016319819260388613,0,1,-1000,1,0,1,-1,1,0,1500.0
13:06:16.055,STABILIZE,-35.3632622,149.1652375,10,-0.0009875334799289703,0.00096173956990242,0.022936537861824036,0.0002761211362667382,0.00018572271801531315,0.0016319819260388613,0,1,-1000,1,0,1,-1,1,0,1500.0
13:06:16.257,STABILIZE,-35.3632622,149.1652375,10,-0.0009875334799289703,0.00096173956990242,0.022936537861824036,0.0002761211362667382,0.00018572271801531315,0.0016319819260388613,0,1,-1000,1,0,1,-1,1,0,1500.0
13:06:16.458,STABILIZE,-35.3632622,149.1652375,10,-0.0009875334799289703,0.00096173956990242,0.022936537861824036,0.0002761211362667382,0.00018572271801531315,0.0016319819260388613,0,1,-1000,1,0,1,-1,1,0,1500.0
13:06:16.660,STABILIZE,-35.3632622,149.1652375,10,-0.0009875334799289703,0.00096173956990242,0.022936537861824036,0.0002761211362667382,0.00018572271801531315,0.0016319819260388613,0,1,-1000,1,0,1,-1,1,0,1500.0
13:06:16.861,STABILIZE,-35.3632622,149.1652375,7,-0.0010570089798420668,0.000956611183937639,0.022617151960730553,0.00022808194626122713,0.00020866579143330455,0.0016373172402381897,0,1,-1000,0,0,0,-1,1,0,1500.0
13:06:17.062,STABILIZE,-35.3632622,149.1652375,7,-0.0010570089798420668,0.000956611183937639,0.022617151960730553,0.00022808194626122713,0.00020866579143330455,0.0016373172402381897,0,1,-1000,0,0,0,-1,1,0,1500.0
13:06:17.264,STABILIZE,-35.3632622,149.1652375,7,-0.0010822524782270193,0.0009608432883396745,0.022522540763020515,0.00016976433107629418,0.00019180745584890246,0.001582867233082652,0,1,-1000,0,1,0,-1,1,0,1500.0
13:06:17.465,STABILIZE,-35.3632622,149.1652375,7,-0.0010822524782270193,0.0009608432883396745,0.022522540763020515,0.00016976433107629418,0.00019180745584890246,0.001582867233082652,0,1,-1000,0,1,0,-1,1,0,1500.0
13:06:17.667,STABILIZE,-35.3632622,149.1652375,6,-0.0010836893925443292,0.0009659284842200577,0.02244504727423191,0.0003140495391562581,0.00037605955731123686,0.0016476309392601252,0,1,-1000,0,0,0,-1,1,0,1500.0
13:06:17.868,STABILIZE,-35.3632622,149.1652375,6,-0.0010836893925443292,0.0009659284842200577,0.02244504727423191,0.0003140495391562581,0.00037605955731123686,0.0016476309392601252,0,2,-1000,0,1,0,-1,1,0,1500.0
13:06:18.070,STABILIZE,-35.3632622,149.1652375,5,-0.0010836893925443292,0.0009659284842200577,0.02244504727423191,0.0003140495391562581,0.00037605955731123686,0.0016476309392601252,0,2,-1000,0,0,0,-1,1,0,1500.0
13:06:18.272,AUTO,-35.3632622,149.1652375,5,-0.0010836893925443292,0.0009659284842200577,0.02244504727423191,0.0003140495391562581,0.00037605955731123686,0.0016476309392601252,0,2,-1000,0,0,0,-1,1,0,1500.0
13:06:18.480,AUTO,-35.3632622,149.1652375,5,-0.0010836893925443292,0.0009659284842200577,0.02244504727423191,0.0003140495391562581,0.00037605955731123686,0.0016476309392601252,0,2,-1000,0,0,0,-1,1,0,109757.0
13:06:18.682,AUTO,-35.3632622,149.1652375,5,-0.0010836893925443292,0.0009659284842200577,0.02244504727423191,0.0003140495391562581,0.00037605955731123686,0.0016476309392601252,0,2,-1000,0,0,0,-1,1,0,109757.0
13:06:18.883,AUTO,-35.3632622,149.1652375,5,-0.001111915335059166,0.0009870638605207205,0.02217843011021614,0.0004291131626814604,0.00024075584951788187,0.0015337420627474785,0,2,-1000,0,1,0,-1,1,0,109757.0
13:06:19.085,AUTO,-35.3632622,149.1652375,4,-0.0011050441535189748,0.000989827560260892,0.02213989943265915,0.0001878515467979014,0.0002740756026469171,0.0015011080540716648,0,1,-1000,0,1,0,-1,0,0,109757.0
13:06:19.286,AUTO,-35.3632621,149.1652375,7,-0.0011024827836081386,0.0010158595396205783,0.02208821289241314,0.00010593549814075232,0.00025161157827824354,0.0015467025805264711,0,2,-1000,0,0,0,0,0,-1,109757.0
13:06:19.488,AUTO,-35.3632621,149.1652375,9,-0.0010643359273672104,0.0010460605844855309,0.02203250862658024,0.00020287372171878815,0.0002496343804523349,0.0015232334844768047,0,1,-1000,1,0,0,0,0,0,109757.0
13:06:19.689,AUTO,-35.3632621,149.1652375,9,-0.0010643359273672104,0.0010460605844855309,0.02203250862658024,0.00020287372171878815,0.0002496343804523349,0.0015232334844768047,0,1,-1000,1,0,0,0,0,0,109757.0
13:06:19.891,AUTO,-35.3632621,149.1652375,9,-0.0010129953734576702,0.0010926314862444997,0.021985305473208427,0.00037407822674140334,0.00022373668616637588,0.0015148656675592065,0,1,-1000,0,1,1,0,0,0,109757.0
13:06:20.093,AUTO,-35.3632621,149.1652375,10,-0.0009669275023043156,0.001151048461906612,0.02192610874772072,0.0003326614387333393,0.0002862309920601547,0.001577691175043583,0,1,-1000,0,0,0,0,0,0,109757.0
13:06:20.294,AUTO,-35.3632621,149.1652375,10,-0.0009669275023043156,0.001151048461906612,0.02192610874772072,0.0003326614387333393,0.0002862309920601547,0.001577691175043583,0,1,-1000,0,0,0,0,0,0,109757.0
13:06:20.496,AUTO,-35.3632621,149.1652375,10,-0.0009669275023043156,0.001151048461906612,0.02192610874772072,0.0003326614387333393,0.0002862309920601547,0.001577691175043583,0,1,-1000,0,0,0,0,0,0,109757.0
13:06:20.699,AUTO,-35.3632621,149.1652375,10,-0.0009669275023043156,0.001151048461906612,0.02192610874772072,0.0003326614387333393,0.0002862309920601547,0.001577691175043583,0,1,-1000,0,0,0,0,0,0,109757.0
13:06:20.900,AUTO,-35.3632621,149.1652375,11,-0.0008035778300836682,0.0013620975660160184,0.021768322214484215,0.0003241105005145073,0.00028331036446616054,0.0014587766490876675,0,1,-1000,1,1,1,0,0,0,109757.0
13:06:21.101,AUTO,-35.3632621,149.1652375,11,-0.000745487108360976,0.0014296970330178738,0.021698573604226112,0.00028522260254248977,0.00023589655756950378,0.0015095178969204426,0,1,-1000,1,0,0,0,0,0,109757.0
13:06:21.303,AUTO,-35.3632621,149.1652375,11,-0.0006857500993646681,0.001507198321633041,0.021647989749908447,0.00029046559939160943,0.000346825341694057,0.0014011499006301165,0,1,-1000,0,0,0,0,0,0,58095.0
13:06:21.504,AUTO,-35.3632621,149.1652375,11,-0.0006277952343225479,0.0015826276503503323,0.02157321572303772,0.0002676465082913637,0.0003147392999380827,0.001439043553546071,0,1,-1000,0,1,0,0,0,0,58095.0
13:06:21.706,AUTO,-35.3632621,149.1652375,11,-0.0006277952343225479,0.0015826276503503323,0.02157321572303772,0.0002676465082913637,0.0003147392999380827,0.001439043553546071,0,1,-1000,0,1,0,0,0,0,58095.0
13:06:21.908,AUTO,-35.3632621,149.1652375,10,-0.0005613533430732787,0.0016601887764409184,0.02148587256669998,0.0003186975955031812,0.000295860692858696,0.0013793245889246464,0,1,-1000,0,1,1,0,0,0,58095.0
13:06:22.109,AUTO,-35.3632621,149.1652375,10,-0.0004985513514839113,0.001729268697090447,0.021420523524284363,0.0002575382823124528,0.0003046143101528287,0.0014735363656654954,0,1,-1000,1,0,0,0,0,0,58095.0
13:06:22.311,AUTO,-35.3632621,149.1652375,10,-0.0004985513514839113,0.001729268697090447,0.021420523524284363,0.0002575382823124528,0.0003046143101528287,0.0014735363656654954,0,1,-1000,1,0,0,0,0,0,58095.0
13:06:22.513,AUTO,-35.3632621,149.1652375,10,-0.0004985513514839113,0.001729268697090447,0.021420523524284363,0.0002575382823124528,0.0003046143101528287,0.0014735363656654954,0,1,-1000,1,0,0,0,0,0,58095.0
13:06:22.714,AUTO,-35.3632621,149.1652375,10,-0.0004985513514839113,0.001729268697090447,0.021420523524284363,0.0002575382823124528,0.0003046143101528287,0.0014735363656654954,0,1,-1000,1,0,0,0,0,0,58095.0
13:06:22.916,AUTO,-35.3632621,149.1652375,208,0.0023074543569236994,0.0002674900460988283,0.021265823394060135,0.006011826917529106,0.005007509142160416,0.0025715043302625418,0,0,-1130,6,5,2,0,1,-72,58095.0
13:06:23.117,AUTO,-35.3632621,149.1652375,425,0.00146393571048975,0.001116087893024087,0.0211161021143198,-0.007256298791617155,0.0023995493538677692,0.001857795869000256,0,0,-1108,-6,2,1,0,1,-101,58095.0
13:06:23.319,AUTO,-35.3632621,149.1652375,709,0.0013258944964036345,0.0015491789672523737,0.020979667082428932,0.0061653307639062405,0.00018236832693219185,-0.000318762322422117,0,0,-1087,6,0,0,0,0,-124,58095.0
13:06:23.521,AUTO,-35.3632621,149.1652375,1048,0.011048463173210621,0.0005483838031068444,0.02067216858267784,0.04791989177465439,-0.006299499422311783,0.0012319167144596577,0,0,-1040,48,-5,1,0,1,-139,58095.0
13:06:23.722,AUTO,-35.363262,149.1652375,1413,0.02290898934006691,-0.0011128189507871866,0.020650191232562065,0.04696465656161308,-0.006787411402910948,0.0021709194406867027,0,0,-1017,47,-5,1,1,5,-145,58095.0
13:06:23.925,AUTO,-35.363262,149.1652375,1413,0.02290898934006691,-0.0011128189507871866,0.020650191232562065,0.04696465656161308,-0.006787411402910948,0.0021709194406867027,0,0,-1017,47,-5,1,1,5,-145,58095.0
13:06:24.128,AUTO,-35.363262,149.1652377,1790,0.03435422107577324,-0.002982734702527523,0.02075953595340252,0.04501194506883621,-0.007457795552909374,0.0028020059689879417,0,-1,-1007,45,-6,2,1,12,-147,58095.0
13:06:24.330,AUTO,-35.363262,149.1652377,1790,0.03435422107577324,-0.002982734702527523,0.02075953595340252,0.04501194506883621,-0.007457795552909374,0.0028020059689879417,0,-1,-1007,45,-6,2,1,12,-147,60684.0
13:06:24.535,AUTO,-35.363262,149.1652377,1790,0.03435422107577324,-0.002982734702527523,0.02075953595340252,0.04501194506883621,-0.007457795552909374,0.0028020059689879417,0,-1,-1007,45,-6,2,1,12,-147,60684.0
13:06:24.738,AUTO,-35.3632616,149.1652397,2941,0.06199362128973007,-0.008892366662621498,-0.008432046510279179,-0.01607215777039528,0.025181015953421593,-0.04518824443221092,1,-8,-992,-15,26,-45,8,44,-147,60684.0
13:06:24.939,AUTO,-35.3632616,149.1652397,2941,0.06199362128973007,-0.008892366662621498,-0.008432046510279179,-0.01607215777039528,0.025181015953421593,-0.04518824443221092,1,-8,-992,-15,26,-45,8,44,-147,60684.0
13:06:25.140,AUTO,-35.3632613,149.165241,3320,0.04042257368564606,0.013854632154107094,-0.031689681112766266,-0.1409275233745575,0.09739026427268982,-0.10309699922800064,4,-12,-991,-140,97,-103,9,53,-145,60684.0
13:06:25.342,AUTO,-35.3632611,149.1652425,3695,-0.0027798875235021114,0.024051014333963394,-0.05094577744603157,-0.14610308408737183,-0.007161859888583422,-0.05591946840286255,5,-11,-1007,-145,-6,-56,6,54,-144,60684.0
13:06:25.544,AUTO,-35.363261,149.1652438,4072,-0.023443246260285378,0.014319569803774357,-0.05859263986349106,-0.04769282788038254,-0.045310139656066895,-0.027996191754937172,5,-11,-1010,-46,-44,-28,3,47,-147,60684.0
13:06:25.746,AUTO,-35.3632609,149.1652449,4455,-0.03151753544807434,0.005315662361681461,-0.06362497806549072,-0.03587808087468147,-0.01971581019461155,-0.03243841230869293,4,-10,-1004,-35,-19,-33,2,37,-148,60684.0
13:06:25.948,AUTO,-35.3632609,149.1652449,4455,-0.03151753544807434,0.005315662361681461,-0.06362497806549072,-0.03587808087468147,-0.01971581019461155,-0.03243841230869293,4,-10,-1004,-35,-19,-33,2,37,-148,60684.0
13:06:26.150,AUTO,-35.3632608,149.1652458,4840,-0.04542824998497963,0.002983040874823928,-0.07151656597852707,-0.07263471186161041,0.00031725369626656175,-0.039831940084695816,4,-8,-1000,-72,0,-40,2,25,-149,60684.0
13:06:26.352,AUTO,-35.3632608,149.1652458,4840,-0.04542824998497963,0.002983040874823928,-0.07151656597852707,-0.07263471186161041,0.00031725369626656175,-0.039831940084695816,4,-8,-1000,-72,0,-40,2,25,-149,60684.0
13:06:26.554,AUTO,-35.3632608,149.1652458,4840,-0.04542824998497963,0.002983040874823928,-0.07151656597852707,-0.07263471186161041,0.00031725369626656175,-0.039831940084695816,4,-8,-1000,-72,0,-40,2,25,-149,60684.0
13:06:26.756,AUTO,-35.3632607,149.1652458,5990,-0.0707302987575531,0.0025344013702124357,-0.09893379360437393,0.050828102976083755,-0.003395363222807646,-0.02194543555378914,-1,3,-1002,51,-2,-22,-2,-28,-148,60684.0
13:06:26.957,AUTO,-35.3632607,149.1652458,5990,-0.0707302987575531,0.0025344013702124357,-0.09893379360437393,0.050828102976083755,-0.003395363222807646,-0.02194543555378914,-1,3,-1002,51,-2,-22,-2,-28,-148,60684.0
13:06:27.159,AUTO,-35.3632608,149.1652449,6373,-0.0571555569767952,0.002109535038471222,-0.1036921963095665,0.05715026706457138,0.001818790566176176,-0.014910952188074589,-3,6,-1000,57,2,-15,-5,-42,-148,60684.0
13:06:27.361,AUTO,-35.3632609,149.1652436,6756,-0.042232804000377655,0.003017402719706297,-0.10701747238636017,0.06214486435055733,0.006142693571746349,-0.009921952150762081,-6,9,-1001,62,6,-10,-7,-52,-148,235754.0
13:06:27.562,AUTO,-35.3632611,149.165242,7143,-0.026168031617999077,0.004886160604655743,-0.10898711532354355,0.0649842619895935,0.009175293147563934,-0.005455370061099529,-5,11,-1002,65,9,-6,-10,-58,-149,235754.0
13:06:27.764,AUTO,-35.3632613,149.1652404,7529,-0.009593727067112923,0.007333952002227306,-0.11003905534744263,0.06767331063747406,0.009832344949245453,-0.0019569210708141327,-7,13,-1003,68,10,-2,-13,-60,-150,235754.0
13:06:27.966,AUTO,-35.3632613,149.1652404,7529,-0.009593727067112923,0.007333952002227306,-0.11003905534744263,0.06767331063747406,0.009832344949245453,-0.0019569210708141327,-7,13,-1003,68,10,-2,-13,-60,-150,235754.0
13:06:28.168,AUTO,-35.3632617,149.1652387,7916,0.007356239017099142,0.009764773771166801,-0.11019057035446167,0.0684177428483963,0.009220683947205544,0.0002217149012722075,-6,13,-1004,68,9,0,-16,-57,-150,235754.0
13:06:28.370,AUTO,-35.3632617,149.1652387,7916,0.007356239017099142,0.009764773771166801,-0.11019057035446167,0.0684177428483963,0.009220683947205544,0.0002217149012722075,-6,13,-1004,68,9,0,-16,-57,-150,235754.0
13:06:28.572,AUTO,-35.3632617,149.1652387,7916,0.007356239017099142,0.009764773771166801,-0.11019057035446167,0.0684177428483963,0.009220683947205544,0.0002217149012722075,-6,13,-1004,68,9,0,-16,-57,-150,235754.0
13:06:28.774,AUTO,-35.363263,149.1652349,9085,0.05695625767111778,0.012791143730282784,-0.10729487240314484,0.06353341042995453,-0.00240363203920424,0.003929764963686466,-1,8,-1002,64,-1,3,-22,-25,-152,235754.0
13:06:28.975,AUTO,-35.3632635,149.1652344,9477,0.06838168203830719,0.008305958472192287,-0.10254962742328644,0.005185349378734827,-0.049547698348760605,0.05040936544537544,1,6,-995,5,-48,50,-23,-8,-152,235754.0
13:06:29.177,AUTO,-35.3632635,149.1652344,9477,0.06838168203830719,0.008305958472192287,-0.10254962742328644,0.005185349378734827,-0.049547698348760605,0.05040936544537544,1,6,-995,5,-48,50,-23,-8,-152,235754.0
13:06:29.379,AUTO,-35.3632639,149.1652343,9867,0.06177355721592903,-0.015431047417223454,-0.0838446319103241,-0.03641783446073532,-0.10971532762050629,0.09972070157527924,4,3,-997,-35,-108,99,-19,7,-150,235754.0
13:06:29.581,AUTO,-35.3632643,149.1652346,10253,0.050903964787721634,-0.04585932567715645,-0.05614033713936806,-0.050173070281744,-0.12399228662252426,0.13736116886138916,5,0,-998,-49,-123,137,-9,20,-149,235754.0
13:06:29.782,AUTO,-35.3632643,149.1652351,10636,0.028208846226334572,-0.06481251120567322,-0.0355212464928627,-0.11930321902036667,0.0033979013096541166,0.032081954181194305,3,-4,-994,-118,4,31,6,27,-148,235754.0
13:06:29.984,AUTO,-35.3632641,149.1652358,11016,-0.00026336443261243403,-0.04862840473651886,-0.04133745655417442,-0.10075268149375916,0.09429465234279633,-0.05295717716217041,0,-6,-1001,-100,94,-53,21,28,-147,235754.0
13:06:30.186,AUTO,-35.3632641,149.1652358,11016,-0.00026336443261243403,-0.04862840473651886,-0.04133745655417442,-0.10075268149375916,0.09429465234279633,-0.05295717716217041,0,-6,-1001,-100,94,-53,21,28,-147,235754.0
13:06:30.388,AUTO,-35.3632641,149.1652358,11016,-0.00026336443261243403,-0.04862840473651886,-0.04133745655417442,-0.10075268149375916,0.09429465234279633,-0.05295717716217041,0,-6,-1001,-100,94,-53,21,28,-147,226480.0
13:06:30.589,AUTO,-35.3632641,149.1652358,11016,-0.00026336443261243403,-0.04862840473651886,-0.04133745655417442,-0.10075268149375916,0.09429465234279633,-0.05295717716217041,0,-6,-1001,-100,94,-53,21,28,-147,226480.0
13:06:30.791,AUTO,-35.363262,149.1652372,12168,-0.02961731143295765,0.004531276412308216,-0.10608308017253876,0.004444308113306761,0.04451855272054672,-0.08234186470508575,-5,-7,-1005,5,45,-82,32,4,-150,226480.0
13:06:30.993,AUTO,-35.3632614,149.1652372,12557,-0.026385769248008728,0.012924938462674618,-0.12589740753173828,0.020119482651352882,0.03088589385151863,-0.07127930223941803,-5,-4,-1003,20,31,-71,28,-4,-151,226480.0
13:06:31.194,AUTO,-35.3632614,149.1652372,12557,-0.026385769248008728,0.012924938462674618,-0.12589740753173828,0.020119482651352882,0.03088589385151863,-0.07127930223941803,-5,-4,-1003,20,31,-71,28,-4,-151,226480.0
13:06:31.396,AUTO,-35.3632608,149.165237,12947,-0.01969810202717781,0.018781334161758423,-0.14196093380451202,0.035802341997623444,0.020358480513095856,-0.05437648668885231,-6,-2,-1002,36,21,-54,22,-10,-152,226480.0
13:06:31.598,AUTO,-35.3632603,149.1652367,13337,-0.01099424622952938,0.022907335311174393,-0.15428882837295532,0.03795574605464935,0.01404915563762188,-0.0399075448513031,-6,-1,-1001,38,14,-40,15,-14,-152,226480.0
13:06:31.800,AUTO,-35.36326,149.1652362,13728,-0.001631681458093226,0.025291478261351585,-0.16285713016986847,0.03615642338991165,0.006426663603633642,-0.02489464543759823,-5,1,-1000,36,6,-24,8,-15,-152,226480.0
13:06:32.002,AUTO,-35.3632599,149.1652358,14124,0.006341549567878246,0.025449849665164948,-0.16766594350337982,0.028854288160800934,-0.0017102581914514303,-0.013180635869503021,-3,1,-1000,29,0,-13,2,-13,-152,226480.0
13:06:32.203,AUTO,-35.3632599,149.1652358,14124,0.006341549567878246,0.025449849665164948,-0.16766594350337982,0.028854288160800934,-0.0017102581914514303,-0.013180635869503021,-3,1,-1000,29,0,-13,2,-13,-152,226480.0
13:06:32.405,AUTO,-35.3632599,149.1652358,14124,0.006341549567878246,0.025449849665164948,-0.16766594350337982,0.028854288160800934,-0.0017102581914514303,-0.013180635869503021,-3,1,-1000,29,0,-13,2,-13,-152,226480.0
13:06:32.607,AUTO,-35.3632599,149.1652358,14124,0.006341549567878246,0.025449849665164948,-0.16766594350337982,0.028854288160800934,-0.0017102581914514303,-0.013180635869503021,-3,1,-1000,29,0,-13,2,-13,-152,226480.0
13:06:32.809,AUTO,-35.36326,149.165235,15291,0.016500601544976234,0.017436770722270012,-0.16730451583862305,0.001112140715122223,-0.013973759487271309,0.004125540144741535,0,2,-999,1,-13,3,-11,-1,-151,226480.0
13:06:33.012,AUTO,-35.3632602,149.1652349,15680,0.015503467060625553,0.013620966114103794,-0.16527241468429565,-0.00631301524117589,-0.015180934220552444,0.0064230370335280895,1,1,-999,-5,-14,5,-13,2,-151,226480.0
13:06:33.213,AUTO,-35.3632602,149.1652349,15680,0.015503467060625553,0.013620966114103794,-0.16527241468429565,-0.00631301524117589,-0.015180934220552444,0.0064230370335280895,1,1,-999,-5,-14,5,-13,2,-151,226480.0
13:06:33.416,AUTO,-35.3632605,149.1652349,16068,0.012927170842885971,0.009915739297866821,-0.16377165913581848,-0.01112245861440897,-0.014632981270551682,0.004580185282975435,2,1,-999,-10,-13,4,-14,5,-151,121490.0
13:06:33.618,AUTO,-35.3632608,149.1652351,16457,0.009715777821838856,0.006596860475838184,-0.16317065060138702,-0.013119837269186974,-0.012464404106140137,-0.0001830482215154916,2,0,-1000,-12,-11,0,-14,8,-151,121490.0
13:06:33.819,AUTO,-35.363261,149.1652352,16845,0.00707666901871562,0.0034734101500362158,-0.16335883736610413,-0.008199760690331459,-0.01199327688664198,-0.0036200855392962694,2,0,-1000,-7,-11,-4,-14,9,-151,121490.0
13:06:34.021,AUTO,-35.3632613,149.1652355,17233,0.002706727245822549,0.0010853201383724809,-0.1649315059185028,-0.04400676116347313,-0.007622823119163513,-0.008998652920126915,2,0,-996,-43,-6,-9,-12,10,-151,121490.0
13:06:34.223,AUTO,-35.3632613,149.1652355,17233,0.002706727245822549,0.0010853201383724809,-0.1649315059185028,-0.04400676116347313,-0.007622823119163513,-0.008998652920126915,2,0,-996,-43,-6,-9,-12,10,-151,121490.0
13:06:34.430,AUTO,-35.3632613,149.1652355,17233,0.002706727245822549,0.0010853201383724809,-0.1649315059185028,-0.04400676116347313,-0.007622823119163513,-0.008998652920126915,2,0,-996,-43,-6,-9,-12,10,-151,121490.0
13:06:34.634,AUTO,-35.3632613,149.1652355,17233,0.002706727245822549,0.0010853201383724809,-0.1649315059185028,-0.04400676116347313,-0.007622823119163513,-0.008998652920126915,2,0,-996,-43,-6,-9,-12,10,-151,121490.0
13:06:34.836,AUTO,-35.363262,149.1652353,18376,-0.06829759478569031,0.019833067432045937,-0.1338295340538025,-0.02495753765106201,0.11944574117660522,0.2898998260498047,0,3,-977,-24,120,289,-14,-17,-143,121490.0
13:06:35.037,AUTO,-35.3632624,149.1652347,18739,-0.0612228699028492,0.04811183735728264,-0.03493516519665718,0.08510003983974457,-0.007291512563824654,0.3815593719482422,0,7,-954,85,-6,381,-24,-32,-135,121490.0
13:06:35.239,AUTO,-35.363263,149.1652336,19070,-0.022718507796525955,0.021656541153788567,0.03406396880745888,0.1673544943332672,-0.1685299277305603,0.17812803387641907,0,12,-949,167,-167,177,-32,-40,-122,121490.0
13:06:35.441,AUTO,-35.363263,149.1652336,19070,-0.022718507796525955,0.021656541153788567,0.03406396880745888,0.1673544943332672,-0.1685299277305603,0.17812803387641907,0,12,-949,167,-167,177,-32,-40,-122,121490.0
13:06:35.643,AUTO,-35.3632637,149.1652325,19369,0.017768168821930885,-0.016105493530631065,0.05764610320329666,0.14483782649040222,-0.12179642170667648,0.031516894698143005,0,11,-952,145,-121,31,-31,-38,-110,121490.0
13:06:35.845,AUTO,-35.3632643,149.1652315,19640,0.04661564901471138,-0.03597477078437805,0.05550124868750572,0.08934479206800461,-0.047389376908540726,-0.03098875842988491,1,11,-957,89,-46,-31,-24,-27,-99,121490.0
13:06:36.047,AUTO,-35.3632647,149.1652309,19883,0.06204704940319061,-0.04100990667939186,0.04600055143237114,0.045182082802057266,-0.005551310256123543,-0.0392514206469059,0,6,-961,45,-4,-39,-15,-13,-89,121490.0
13:06:36.249,AUTO,-35.3632647,149.1652309,19883,0.06204704940319061,-0.04100990667939186,0.04600055143237114,0.045182082802057266,-0.005551310256123543,-0.0392514206469059,0,6,-961,45,-4,-39,-15,-13,-89,121490.0
13:06:36.451,AUTO,-35.3632647,149.1652309,19883,0.06204704940319061,-0.04100990667939186,0.04600055143237114,0.045182082802057266,-0.005551310256123543,-0.0392514206469059,0,6,-961,45,-4,-39,-15,-13,-89,157998.0
13:06:36.656,AUTO,-35.3632647,149.1652309,19883,0.06204704940319061,-0.04100990667939186,0.04600055143237114,0.045182082802057266,-0.005551310256123543,-0.0392514206469059,0,6,-961,45,-4,-39,-15,-13,-89,157998.0
13:06:36.858,AUTO,-35.3632648,149.1652313,20463,0.05047779530286789,-0.024056613445281982,0.03149590268731117,-0.04633480682969093,0.036711014807224274,-0.0025934402365237474,0,-5,-973,-45,37,-2,9,28,-63,157998.0
13:06:37.060,AUTO,-35.3632646,149.1652321,20617,0.03847021237015724,-0.014892938546836376,0.030841108411550522,-0.04254131391644478,0.03612236678600311,0.0023571085184812546,0,-8,-975,-41,37,2,14,36,-57,157998.0
13:06:37.262,AUTO,-35.3632642,149.165233,20755,0.02637915499508381,-0.006334478966891766,0.030399227514863014,-0.049369797110557556,0.03248145803809166,0.001973738893866539,0,-10,-977,-48,33,1,17,41,-51,157998.0
13:06:37.463,AUTO,-35.3632642,149.165233,20755,0.02637915499508381,-0.006334478966891766,0.030399227514863014,-0.049369797110557556,0.03248145803809166,0.001973738893866539,0,-10,-977,-48,33,1,17,41,-51,157998.0
13:06:37.665,AUTO,-35.3632638,149.1652341,20878,0.014852805063128471,0.0011718583991751075,0.03020111657679081,-0.04579402506351471,0.027674924582242966,0.003634572261944413,0,-10,-978,-45,28,3,19,42,-45,157998.0
13:06:37.867,AUTO,-35.3632633,149.1652352,20987,0.005683915223926306,0.007220373023301363,0.029778404161334038,-0.027072660624980927,0.021016452461481094,0.0031135447788983583,0,-10,-978,-26,21,2,18,41,-40,157998.0
13:06:38.069,AUTO,-35.3632629,149.1652362,21084,-0.0015119252493605018,0.011314589530229568,0.02938877046108246,-0.020426152274012566,0.017318837344646454,0.0009350073523819447,1,-10,-978,-19,17,0,17,38,-34,157998.0
13:06:38.271,AUTO,-35.3632629,149.1652362,21084,-0.0015119252493605018,0.011314589530229568,0.02938877046108246,-0.020426152274012566,0.017318837344646454,0.0009350073523819447,1,-10,-978,-19,17,0,17,38,-34,157998.0
13:06:38.473,AUTO,-35.3632629,149.1652362,21084,-0.0015119252493605018,0.011314589530229568,0.02938877046108246,-0.020426152274012566,0.017318837344646454,0.0009350073523819447,1,-10,-978,-19,17,0,17,38,-34,157998.0
13:06:38.674,AUTO,-35.3632629,149.1652362,21084,-0.0015119252493605018,0.011314589530229568,0.02938877046108246,-0.020426152274012566,0.017318837344646454,0.0009350073523819447,1,-10,-978,-19,17,0,17,38,-34,157998.0
13:06:38.876,AUTO,-35.3632618,149.1652387,21278,-0.012196297757327557,0.015735480934381485,0.027543170377612114,0.0249825119972229,-0.0004922827938571572,-0.00029305333737283945,0,-5,-973,25,0,0,9,24,-16,157998.0
13:06:39.077,AUTO,-35.3632616,149.1652393,21309,-0.013865054585039616,0.015007594600319862,0.026938721537590027,-0.05539584904909134,-0.0032480480149388313,-0.0015568468952551484,0,-8,-969,-54,-2,-1,6,19,-9,157998.0
13:06:39.279,AUTO,-35.3632614,149.1652397,21321,-0.016816722229123116,0.014452719129621983,0.026315368711948395,-0.11722981929779053,0.027939679101109505,-0.0009865288157016039,-1,-4,-961,-115,29,-1,4,14,0,157998.0
13:06:39.481,AUTO,-35.3632614,149.1652397,21321,-0.016816722229123116,0.014452719129621983,0.026315368711948395,-0.11722981929779053,0.027939679101109505,-0.0009865288157016039,-1,-4,-961,-115,29,-1,4,14,0,267767.0
13:06:39.682,AUTO,-35.3632613,149.16524,21298,-0.050093747675418854,0.02757411263883114,0.024536127224564552,0.07795623689889908,-0.012364680878818035,-0.004198768176138401,1,-6,-965,78,-11,-4,0,3,14,267767.0
13:06:39.884,AUTO,-35.3632614,149.1652399,21249,-0.05318392068147659,0.018833203241229057,0.024344513192772865,-0.815705418586731,-0.036890801042318344,-0.007236221339553595,-1,-35,-985,-815,-35,-7,-5,-9,21,267767.0
13:06:40.086,AUTO,-35.3632615,149.1652395,21191,-0.054400354623794556,0.010848074220120907,0.023561308160424232,-0.6546981930732727,-0.021414918825030327,-0.008248585276305676,-1,-12,-1021,-653,-20,-8,-8,-19,20,267767.0
13:06:40.288,AUTO,-35.3632615,149.1652395,21191,-0.054400354623794556,0.010848074220120907,0.023561308160424232,-0.6546981930732727,-0.021414918825030327,-0.008248585276305676,-1,-12,-1021,-653,-20,-8,-8,-19,20,267767.0
13:06:40.490,AUTO,-35.3632615,149.1652395,21191,-0.054400354623794556,0.010848074220120907,0.023561308160424232,-0.6546981930732727,-0.021414918825030327,-0.008248585276305676,-1,-12,-1021,-653,-20,-8,-8,-19,20,267767.0
13:06:40.691,AUTO,-35.3632615,149.1652395,21191,-0.054400354623794556,0.010848074220120907,0.023561308160424232,-0.6546981930732727,-0.021414918825030327,-0.008248585276305676,-1,-12,-1021,-653,-20,-8,-8,-19,20,267767.0
13:06:40.893,AUTO,-35.363262,149.1652368,21083,-0.04230089858174324,-0.0018898595590144396,0.020850704982876778,0.48754170536994934,-0.010562384501099586,-0.010336535051465034,-4,59,-1010,489,-9,-10,-11,-43,4,267767.0
13:06:41.094,AUTO,-35.3632622,149.1652354,21074,-0.043405260890722275,-0.00452066445723176,0.02045414410531521,0.3732075095176697,-0.005302686709910631,-0.005844704806804657,-3,21,-1026,373,-4,-5,-11,-54,0,267767.0
13:06:41.296,AUTO,-35.3632625,149.1652336,21075,-0.051524825394153595,-0.005360906943678856,0.01892269216477871,-0.3681165874004364,0.0013322856975719333,-0.03809334337711334,-7,-9,-1012,-368,2,-38,-11,-64,-3,267767.0
13:06:41.498,AUTO,-35.3632627,149.1652316,21082,-0.0631791278719902,-0.010425540618598461,-0.04774954542517662,-0.6168006062507629,0.02158230170607567,-0.5249316096305847,-13,-9,-1014,-616,22,-525,-11,-74,-5,267767.0
13:06:41.699,AUTO,-35.3632627,149.1652316,21082,-0.0631791278719902,-0.010425540618598461,-0.04774954542517662,-0.6168006062507629,0.02158230170607567,-0.5249316096305847,-13,-9,-1014,-616,22,-525,-11,-74,-5,267767.0
13:06:41.901,AUTO,-35.363263,149.1652291,21095,-0.059289708733558655,-0.025552179664373398,-0.2653129994869232,-0.0790075734257698,-0.0039698462933301926,-1.1665819883346558,-15,29,-1011,-77,-3,-1166,-11,-85,-8,267767.0
13:06:42.104,AUTO,-35.3632633,149.1652263,21113,-0.043290875852108,-0.05144217237830162,-0.643788754940033,0.4875514805316925,-0.08248283714056015,-1.8228116035461426,-16,40,-1008,489,-81,-1822,-11,-96,-9,267767.0
13:06:42.306,AUTO,-35.3632633,149.1652263,21113,-0.043290875852108,-0.05144217237830162,-0.643788754940033,0.4875514805316925,-0.08248283714056015,-1.8228116035461426,-16,40,-1008,489,-81,-1822,-11,-96,-9,267767.0
13:06:42.509,AUTO,-35.3632633,149.1652263,21113,-0.043290875852108,-0.05144217237830162,-0.643788754940033,0.4875514805316925,-0.08248283714056015,-1.8228116035461426,-16,40,-1008,489,-81,-1822,-11,-96,-9,127869.0
13:06:42.712,AUTO,-35.3632633,149.1652263,21113,-0.043290875852108,-0.05144217237830162,-0.643788754940033,0.4875514805316925,-0.08248283714056015,-1.8228116035461426,-16,40,-1008,489,-81,-1822,-11,-96,-9,127869.0
13:06:42.914,AUTO,-35.3632642,149.1652155,21186,0.01382152084261179,-0.1044507846236229,-1.6560250520706177,-0.05533450096845627,-0.03360086306929588,-0.33724096417427063,-33,-10,-1013,-53,-32,-337,-15,-147,-13,127869.0
13:06:43.116,AUTO,-35.3632646,149.1652109,21218,0.03221597149968147,-0.11397416144609451,-1.7037745714187622,0.4504989683628082,-0.03826802223920822,-0.07024411857128143,-33,-8,-1011,452,-37,-70,-17,-168,-15,127869.0
13:06:43.318,AUTO,-35.3632651,149.1652057,21254,0.03810872882604599,-0.12876781821250916,-1.6910368204116821,0.19049294292926788,-0.050867483019828796,0.12792764604091644,-39,-31,-1005,191,-49,127,-19,-191,-16,127869.0
13:06:43.519,AUTO,-35.3632656,149.1651997,21292,0.03224324807524681,-0.14502842724323273,-1.6581695079803467,-0.32754001021385193,-0.05465049669146538,0.1400231122970581,-45,-45,-1009,-326,-53,140,-20,-217,-17,127869.0
13:06:43.722,AUTO,-35.3632656,149.1651997,21292,0.03224324807524681,-0.14502842724323273,-1.6581695079803467,-0.32754001021385193,-0.05465049669146538,0.1400231122970581,-45,-45,-1009,-326,-53,140,-20,-217,-17,127869.0
13:06:43.924,AUTO,-35.3632661,149.1651931,21334,0.035234484821558,-0.1554095447063446,-1.6332693099975586,-0.02896878868341446,-0.014181271195411682,0.07422922551631927,-47,-21,-1013,-27,-13,74,-21,-246,-18,127869.0
13:06:44.126,AUTO,-35.3632667,149.1651857,21382,0.038771528750658035,-0.15722216665744781,-1.6217564344406128,0.24545203149318695,-0.0021862476132810116,0.02149946242570877,-46,-26,-1015,246,-1,21,-21,-274,-21,127869.0
13:06:44.336,AUTO,-35.3632667,149.1651857,21382,0.038771528750658035,-0.15722216665744781,-1.6217564344406128,0.24545203149318695,-0.0021862476132810116,0.02149946242570877,-46,-26,-1015,246,-1,21,-21,-274,-21,127869.0
13:06:44.540,AUTO,-35.3632667,149.1651857,21382,0.038771528750658035,-0.15722216665744781,-1.6217564344406128,0.24545203149318695,-0.0021862476132810116,0.02149946242570877,-46,-26,-1015,246,-1,21,-21,-274,-21,127869.0
13:06:44.742,AUTO,-35.3632685,149.1651593,21564,0.04610121622681618,-0.16046103835105896,-1.626064419746399,0.04920328035950661,0.038354527205228806,-0.010907144285738468,-86,-36,-1019,50,39,-11,-24,-351,-28,127869.0
13:06:44.944,AUTO,-35.3632685,149.1651593,21564,0.04610121622681618,-0.16046103835105896,-1.626064419746399,0.04920328035950661,0.038354527205228806,-0.010907144285738468,-86,-36,-1019,50,39,-11,-24,-351,-28,127869.0
13:06:45.146,AUTO,-35.3632692,149.1651492,21639,0.0489576980471611,-0.14862008392810822,-1.62721848487854,0.059024982154369354,0.023352470248937607,-0.003972649574279785,-74,-36,-1015,60,24,-3,-25,-374,-32,127869.0
13:06:45.347,AUTO,-35.3632698,149.1651386,21724,0.047817058861255646,-0.1454257220029831,-1.6274330615997314,-0.03489023074507713,0.0017970229964703321,0.0006307488074526191,-85,-43,-1007,-33,2,0,-25,-393,-35,127869.0
13:06:45.549,AUTO,-35.3632705,149.1651274,21817,0.04965676739811897,-0.1444399505853653,-1.6278449296951294,0.024986613541841507,0.014610255137085915,-0.002044178079813719,-86,-46,-1009,26,15,-2,-27,-411,-36,78666.0
13:06:45.752,AUTO,-35.3632711,149.1651159,21912,0.05118974670767784,-0.1462841033935547,-1.6281720399856567,0.023968257009983063,-0.004728779662400484,0.0007304169121198356,-83,-48,-999,25,-3,0,-28,-427,-38,78666.0
13:06:45.954,AUTO,-35.3632711,149.1651159,21912,0.05118974670767784,-0.1462841033935547,-1.6281720399856567,0.023968257009983063,-0.004728779662400484,0.0007304169121198356,-83,-48,-999,25,-3,0,-28,-427,-38,78666.0
13:06:46.156,AUTO,-35.3632718,149.165104,22011,0.051001787185668945,-0.14251139760017395,-1.6281942129135132,-0.029683917760849,0.025108974426984787,0.0001437057217117399,-86,-44,-1003,-28,26,0,-29,-442,-39,78666.0
13:06:46.358,AUTO,-35.3632718,149.165104,22011,0.051001787185668945,-0.14251139760017395,-1.6281942129135132,-0.029683917760849,0.025108974426984787,0.0001437057217117399,-86,-44,-1003,-28,26,0,-29,-442,-39,78666.0
13:06:46.560,AUTO,-35.3632718,149.165104,22011,0.051001787185668945,-0.14251139760017395,-1.6281942129135132,-0.029683917760849,0.025108974426984787,0.0001437057217117399,-86,-44,-1003,-28,26,0,-29,-442,-39,78666.0
13:06:46.762,AUTO,-35.3632739,149.1650659,22330,0.05097439885139465,-0.1319926530122757,-1.6286633014678955,0.02140541560947895,0.023469753563404083,-0.00010372305405326188,-100,-52,-1004,22,24,0,-32,-478,-42,78666.0
13:06:46.963,AUTO,-35.3632739,149.1650659,22330,0.05097439885139465,-0.1319926530122757,-1.6286633014678955,0.02140541560947895,0.023469753563404083,-0.00010372305405326188,-100,-52,-1004,22,24,0,-32,-478,-42,78666.0
13:06:47.165,AUTO,-35.3632746,149.1650525,22440,0.05221031606197357,-0.12445633113384247,-1.6290024518966675,-0.02007373236119747,0.02756049484014511,0.001571205910295248,-104,-52,-1002,-18,28,1,-34,-488,-43,78666.0
13:06:47.367,AUTO,-35.3632754,149.1650389,22554,0.05300687998533249,-0.11944326013326645,-1.6295281648635864,0.012020631693303585,0.011419364251196384,-0.0032333494164049625,-95,-54,-994,13,12,-3,-35,-494,-44,78666.0
13:06:47.569,AUTO,-35.3632762,149.1650253,22670,0.05570611357688904,-0.11676005274057388,-1.630393385887146,0.009681020863354206,-0.002096470445394516,-0.0024355982895940542,-95,-58,-992,11,-1,-2,-36,-500,-44,78666.0
13:06:47.771,AUTO,-35.363277,149.1650115,22784,0.054856233298778534,-0.11319026350975037,-1.6306750774383545,-0.014635767787694931,0.0308721661567688,0.005662811920046806,-101,-62,-994,-13,31,5,-36,-504,-43,78666.0
13:06:47.973,AUTO,-35.363277,149.1650115,22784,0.054856233298778534,-0.11319026350975037,-1.6306750774383545,-0.014635767787694931,0.0308721661567688,0.005662811920046806,-101,-62,-994,-13,31,5,-36,-504,-43,78666.0
13:06:48.175,AUTO,-35.3632778,149.1649976,22899,0.05589379742741585,-0.10196562111377716,-1.6307179927825928,0.005214539356529713,0.04181930795311928,-6.251463491935283e-05,-101,-58,-997,6,42,0,-37,-507,-44,78666.0
13:06:48.378,AUTO,-35.3632778,149.1649976,22899,0.05589379742741585,-0.10196562111377716,-1.6307179927825928,0.005214539356529713,0.04181930795311928,-6.251463491935283e-05,-101,-58,-997,6,42,0,-37,-507,-44,78666.0
13:06:48.580,AUTO,-35.3632778,149.1649976,22899,0.05589379742741585,-0.10196562111377716,-1.6307179927825928,0.005214539356529713,0.04181930795311928,-6.251463491935283e-05,-101,-58,-997,6,42,0,-37,-507,-44,222770.0
13:06:48.782,AUTO,-35.3632802,149.1649559,23243,0.058564409613609314,-0.1019492968916893,-1.6312098503112793,-0.008074577897787094,-0.034881237894296646,-0.0020740365143865347,-100,-61,-979,-7,-34,-2,-38,-505,-41,222770.0
13:06:48.984,AUTO,-35.3632811,149.1649419,23348,0.060881778597831726,-0.09866687655448914,-1.6316180229187012,-0.0031008219812065363,0.050464533269405365,-0.003740709275007248,-100,-61,-979,-7,-34,-2,-39,-506,-39,222770.0
13:06:49.186,AUTO,-35.3632811,149.1649419,23348,0.060881778597831726,-0.09866687655448914,-1.6316180229187012,-0.0031008219812065363,0.050464533269405365,-0.003740709275007248,-100,-60,-992,-1,51,-3,-39,-506,-39,222770.0
13:06:49.388,AUTO,-35.3632819,149.1649279,23453,0.061308763921260834,-0.08074076473712921,-1.6316055059432983,0.011443207040429115,0.07126417011022568,0.0009687576675787568,-82,-72,-996,12,72,0,-39,-504,-40,222770.0
13:06:49.590,AUTO,-35.3632827,149.1649141,23562,0.05916272848844528,-0.06426989287137985,-1.6317002773284912,-0.030390724539756775,0.043458472937345505,-0.0012081750901415944,-102,-57,-996,-29,44,-1,-37,-498,-42,222770.0
13:06:49.792,AUTO,-35.3632835,149.1649005,23672,0.05760714411735535,-0.05587737634778023,-1.632001280784607,-0.011875048279762268,0.037821102887392044,-0.005539553239941597,-102,-51,-989,-10,38,-5,-36,-489,-41,222770.0
13:06:49.994,AUTO,-35.3632842,149.1648872,23779,0.05524550378322601,-0.04476539418101311,-1.6321141719818115,-0.0059285033494234085,0.06122632324695587,-8.563860319554806e-06,-101,-47,-991,-4,62,0,-35,-478,-40,222770.0
13:06:50.196,AUTO,-35.3632842,149.1648872,23779,0.05524550378322601,-0.04476539418101311,-1.6321141719818115,-0.0059285033494234085,0.06122632324695587,-8.563860319554806e-06,-101,-47,-991,-4,62,0,-35,-478,-40,222770.0
13:06:50.398,AUTO,-35.3632842,149.1648872,23779,0.05524550378322601,-0.04476539418101311,-1.6321141719818115,-0.0059285033494234085,0.06122632324695587,-8.563860319554806e-06,-101,-47,-991,-4,62,0,-35,-478,-40,222770.0
13:06:50.600,AUTO,-35.3632842,149.1648872,23779,0.05524550378322601,-0.04476539418101311,-1.6321141719818115,-0.0059285033494234085,0.06122632324695587,-8.563860319554806e-06,-101,-47,-991,-4,62,0,-35,-478,-40,222770.0
13:06:50.802,AUTO,-35.3632865,149.1648491,24082,0.0557318739593029,-0.0035396567545831203,-1.6314811706542969,-0.043060604482889175,0.05583442375063896,-7.09587984601967e-05,-83,-55,-988,-41,56,0,-33,-432,-35,222770.0
13:06:51.004,AUTO,-35.3632872,149.1648374,24173,0.05451001971960068,0.0076647414825856686,-1.6311613321304321,0.004418110474944115,0.03852253779768944,6.091490649851039e-05,-84,-46,-987,5,39,0,-31,-412,-33,222770.0
13:06:51.206,AUTO,-35.3632872,149.1648374,24173,0.05451001971960068,0.0076647414825856686,-1.6311613321304321,0.004418110474944115,0.03852253779768944,6.091490649851039e-05,-84,-46,-987,5,39,0,-31,-412,-33,222770.0
13:06:51.408,AUTO,-35.3632878,149.1648261,24258,0.05369295924901962,0.021066736429929733,-1.6309751272201538,0.02758355624973774,0.061460722237825394,0.001545604201965034,-69,-49,-987,28,62,1,-29,-390,-30,194532.0
13:06:51.610,AUTO,-35.3632884,149.1648156,24336,0.05045481398701668,0.034484729170799255,-1.6310089826583862,-0.06436635553836823,0.042382556945085526,0.0013546885456889868,-78,-60,-990,-63,43,1,-27,-366,-27,194532.0
13:06:51.812,AUTO,-35.363289,149.1648058,24407,0.050053201615810394,0.04424722120165825,-1.6310675144195557,-0.03966768458485603,0.03520496189594269,-0.0002687296364456415,-68,-43,-987,-38,36,0,-24,-340,-24,194532.0
13:06:52.014,AUTO,-35.3632895,149.1647968,24469,0.04753522574901581,0.055854856967926025,-1.6307857036590576,0.14248895645141602,0.058181580156087875,-0.002383805112913251,-63,-38,-991,143,59,-2,-21,-313,-21,194532.0
13:06:52.216,AUTO,-35.3632895,149.1647968,24469,0.04753522574901581,0.055854856967926025,-1.6307857036590576,0.14248895645141602,0.058181580156087875,-0.002383805112913251,-63,-38,-991,143,59,-2,-21,-313,-21,194532.0
13:06:52.418,AUTO,-35.3632895,149.1647968,24469,0.04753522574901581,0.055854856967926025,-1.6307857036590576,0.14248895645141602,0.058181580156087875,-0.002383805112913251,-63,-38,-991,143,59,-2,-21,-313,-21,194532.0
13:06:52.620,AUTO,-35.3632895,149.1647968,24469,0.04753522574901581,0.055854856967926025,-1.6307857036590576,0.14248895645141602,0.058181580156087875,-0.002383805112913251,-63,-38,-991,143,59,-2,-21,-313,-21,194532.0
13:06:52.822,AUTO,-35.3632905,149.1647744,24603,0.02702379785478115,0.08927945047616959,-1.6310083866119385,-0.18752743303775787,-0.0031030878890305758,-0.013368286192417145,-43,-25,-987,-185,-2,-13,-12,-223,-8,194532.0
13:06:53.024,AUTO,-35.3632908,149.1647687,24628,0.030406489968299866,0.08586861938238144,-1.63120436668396,0.4552963972091675,-0.0014693222474306822,-0.01832897774875164,-37,11,-985,457,0,-18,-9,-192,-5,194532.0
13:06:53.226,AUTO,-35.3632908,149.1647687,24628,0.030406489968299866,0.08586861938238144,-1.63120436668396,0.4552963972091675,-0.0014693222474306822,-0.01832897774875164,-37,11,-985,457,0,-18,-9,-192,-5,194532.0
13:06:53.428,AUTO,-35.363291,149.1647637,24646,0.032680533826351166,0.08648604899644852,-1.6311463117599487,0.6865777969360352,-0.004184452351182699,-0.005587059538811445,-34,4,-1010,687,-3,-5,-7,-163,-4,194532.0
13:06:53.630,AUTO,-35.3632913,149.1647595,24661,0.026217026636004448,0.08058233559131622,-1.630507230758667,-0.05540560558438301,-0.03553508594632149,0.013275724835693836,-28,-39,-986,-55,-34,13,-7,-136,-3,194532.0
13:06:53.832,AUTO,-35.3632915,149.164756,24673,0.011746348813176155,0.0686100572347641,-1.6306792497634888,-0.6741018891334534,-0.04671034216880798,0.004421127960085869,-22,-43,-995,-673,-45,4,-4,-113,-2,194532.0
13:06:54.033,AUTO,-35.3632917,149.1647532,24682,0.01448395662009716,0.05919719859957695,-1.6310007572174072,0.09151012450456619,-0.030261414125561714,-0.0063400655053555965,-20,7,-998,93,-29,-6,-2,-93,-1,194532.0
13:06:54.236,AUTO,-35.3632917,149.1647532,24682,0.01448395662009716,0.05919719859957695,-1.6310007572174072,0.09151012450456619,-0.030261414125561714,-0.0063400655053555965,-20,7,-998,93,-29,-6,-2,-93,-1,194532.0
13:06:54.442,AUTO,-35.3632917,149.1647532,24682,0.01448395662009716,0.05919719859957695,-1.6310007572174072,0.09151012450456619,-0.030261414125561714,-0.0063400655053555965,-20,7,-998,93,-29,-6,-2,-93,-1,87201.0
13:06:54.647,AUTO,-35.3632917,149.1647532,24682,0.01448395662009716,0.05919719859957695,-1.6310007572174072,0.09151012450456619,-0.030261414125561714,-0.0063400655053555965,-20,7,-998,93,-29,-6,-2,-93,-1,87201.0
13:06:54.849,AUTO,-35.3632921,149.1647473,24696,0.008644742891192436,0.04330188035964966,-1.6326953172683716,-0.4437919855117798,-0.01571390964090824,0.0020776058081537485,-9,-34,-1003,-443,-14,1,0,-48,0,87201.0
13:06:55.050,AUTO,-35.3632922,149.1647462,24698,0.0017904648557305336,0.04010015353560448,-1.6330204010009766,-0.514599084854126,-0.009020159021019936,-0.004491650033742189,-7,-14,-999,-512,-8,-4,1,-37,0,87201.0
13:06:55.252,AUTO,-35.3632923,149.1647453,24699,0.004696373362094164,0.036860350519418716,-1.6333199739456177,0.19968090951442719,-0.011934162117540836,-0.0017998972907662392,-4,25,-1004,201,-10,-1,3,-27,0,87201.0
13:06:55.454,AUTO,-35.3632923,149.1647453,24699,0.004696373362094164,0.036860350519418716,-1.6333199739456177,0.19968090951442719,-0.011934162117540836,-0.0017998972907662392,-4,25,-1004,201,-10,-1,3,-27,0,87201.0
13:06:55.656,AUTO,-35.3632923,149.1647447,24701,0.01224023848772049,0.03297168016433716,-1.6334729194641113,0.4533616304397583,-0.01567281410098076,0.0005716342711821198,-2,8,-1000,454,-14,0,2,-18,0,87201.0
13:06:55.858,AUTO,-35.3632923,149.1647443,24701,0.0022258765529841185,0.028219271451234818,-1.6338964700698853,-0.31816565990448,-0.021673332899808884,-0.0031122639775276184,0,-31,-987,-317,-20,-3,2,-11,1,87201.0
13:06:56.060,AUTO,-35.3632922,149.1647441,24698,-0.008622103370726109,0.02283310517668724,-1.6344332695007324,-0.5959832668304443,-0.026404378935694695,0.000611038994975388,0,-23,-1006,-595,-25,0,2,-5,2,87201.0
13:06:56.262,AUTO,-35.3632922,149.1647441,24698,-0.008622103370726109,0.02283310517668724,-1.6344332695007324,-0.5959832668304443,-0.026404378935694695,0.000611038994975388,0,-23,-1006,-595,-25,0,2,-5,2,87201.0
13:06:56.464,AUTO,-35.3632922,149.1647441,24698,-0.008622103370726109,0.02283310517668724,-1.6344332695007324,-0.5959832668304443,-0.026404378935694695,0.000611038994975388,0,-23,-1006,-595,-25,0,2,-5,2,87201.0
13:06:56.666,AUTO,-35.3632922,149.1647441,24698,-0.008622103370726109,0.02283310517668724,-1.6344332695007324,-0.5959832668304443,-0.026404378935694695,0.000611038994975388,0,-23,-1006,-595,-25,0,2,-5,2,87201.0
13:06:56.868,AUTO,-35.3632921,149.1647441,24688,0.002936973934993148,0.0027593134436756372,-1.6342673301696777,0.5635890960693359,-0.029932962730526924,0.003879201365634799,1,11,-999,564,-28,3,0,2,2,87201.0
13:06:57.070,AUTO,-35.363292,149.1647442,24684,-0.006588289514183998,-0.0053209466859698296,-1.6342554092407227,-0.2323123663663864,-0.025590194389224052,-0.0012760094832628965,0,-24,-1004,-232,-24,-1,-1,1,1,87201.0
13:06:57.272,RTL,-35.3632919,149.1647443,24682,-0.01354188472032547,-0.0053285458125174046,-1.634348750114441,-0.5719486474990845,0.018706392496824265,-0.0025591368321329355,1,-16,-1003,-570,19,-2,-2,0,0,87201.0
13:06:57.474,RTL,-35.3632919,149.1647443,24682,-0.01354188472032547,-0.0053285458125174046,-1.634348750114441,-0.5719486474990845,0.018706392496824265,-0.0025591368321329355,1,-16,-1003,-570,19,-2,-2,0,0,214658.0
13:06:57.675,RTL,-35.3632919,149.1647443,24680,-0.0070215254090726376,-0.0016818695003166795,-1.6353387832641602,0.03694448620080948,0.02000332809984684,0.001264839549548924,0,21,-995,39,20,1,-2,-2,1,214658.0
13:06:57.877,RTL,-35.3632919,149.1647443,24678,0.003172005759552121,0.0012697235215455294,-1.635979413986206,0.6495150923728943,0.004526512231677771,-0.0036049606278538704,0,28,-1014,651,5,-3,-2,-2,0,214658.0
13:06:58.079,RTL,-35.363292,149.1647443,24682,0.004151149187237024,0.0008971622446551919,-1.6362818479537964,0.1553797423839569,0.004583308473229408,0.0045200311578810215,0,-12,-1003,155,5,4,-4,-2,-2,214658.0
13:06:58.281,RTL,-35.363292,149.1647443,24682,0.004151149187237024,0.0008971622446551919,-1.6362818479537964,0.1553797423839569,0.004583308473229408,0.0045200311578810215,0,-12,-1003,155,5,4,-4,-2,-2,214658.0
13:06:58.484,RTL,-35.363292,149.1647443,24682,0.004151149187237024,0.0008971622446551919,-1.6362818479537964,0.1553797423839569,0.004583308473229408,0.0045200311578810215,0,-12,-1003,155,5,4,-4,-2,-2,214658.0
13:06:58.686,RTL,-35.363292,149.1647443,24682,0.004151149187237024,0.0008971622446551919,-1.6362818479537964,0.1553797423839569,0.004583308473229408,0.0045200311578810215,0,-12,-1003,155,5,4,-4,-2,-2,214658.0
13:06:58.888,RTL,-35.3632923,149.1647444,24795,0.009802362881600857,-0.0010468554683029652,-1.6369677782058716,0.389171302318573,-0.0019779696594923735,0.0016372043173760176,-1,10,-1022,389,-1,2,-2,-1,-25,214658.0
13:06:59.089,RTL,-35.3632925,149.1647445,24872,0.008072840049862862,-0.0006471964879892766,-1.6374952793121338,-0.1688752919435501,0.001954813487827778,-0.0010622328845784068,0,-17,-1043,-168,2,0,-1,-2,-37,214658.0
13:06:59.291,RTL,-35.3632925,149.1647445,24872,0.008072840049862862,-0.0006471964879892766,-1.6374952793121338,-0.1688752919435501,0.001954813487827778,-0.0010622328845784068,0,-17,-1043,-168,2,0,-1,-2,-37,214658.0
13:06:59.493,RTL,-35.3632926,149.1647445,24979,0.00583008024841547,-0.00059876823797822,-1.638056993484497,-0.27300113439559937,-0.0006055069388821721,0.002924157539382577,-1,-17,-1049,-272,0,2,0,-2,-48,214658.0
13:06:59.695,RTL,-35.3632927,149.1647445,25117,0.007860753685235977,-0.0007988712168298662,-1.6386734247207642,-0.024752074852585793,-0.0014291615225374699,0.00221014441922307,-1,5,-1125,-23,0,2,1,-2,-64,214658.0
13:06:59.897,RTL,-35.3632929,149.1647446,25305,0.010781248100101948,-0.0007376894354820251,-1.638957142829895,0.1369209587574005,0.00031747191678732634,0.0034495226573199034,-1,5,-1039,137,1,3,3,-2,-80,214658.0
