time_stamp,MODE,lat,lon,alt,relative_alt,roll,pitch,yaw,rollspeed,pitchspeed,yawspeed,xacc,yacc,zacc,xgyro,ygyro,zgyro,vx,vy,vz
11:32:47.867,STABILIZE,-35.3632621,149.1652374,583950,0,-0.0003702455433085561,0.0015638683689758182,0.027862073853611946,0.0003428439376875758,0.0003368199395481497,0.0024827290326356888,0,1,-1000,0,0,0,-1,1,0
11:32:48.075,STABILIZE,-35.3632621,149.1652374,583950,0,-0.0003702455433085561,0.0015638683689758182,0.027862073853611946,0.0003428439376875758,0.0003368199395481497,0.0024827290326356888,0,1,-1000,0,0,0,-1,1,0
11:32:48.278,STABILIZE,-35.3632621,149.1652374,583950,0,-0.0003702455433085561,0.0015638683689758182,0.027862073853611946,0.0003428439376875758,0.0003368199395481497,0.0024827290326356888,0,1,-1000,0,0,0,-1,1,0
11:32:48.480,STABILIZE,-35.3632621,149.1652374,583950,0,-0.0003702455433085561,0.0015638683689758182,0.027862073853611946,0.0003428439376875758,0.0003368199395481497,0.0024827290326356888,0,1,-1000,0,0,0,-1,1,0
11:32:48.682,STABILIZE,-35.3632621,149.1652374,583950,0,-0.0003702455433085561,0.0015638683689758182,0.027862073853611946,0.0003428439376875758,0.0003368199395481497,0.0024827290326356888,0,1,-1000,0,0,0,-1,1,0
11:32:48.885,STABILIZE,-35.3632621,149.1652374,583950,0,-0.0003702455433085561,0.0015638683689758182,0.027862073853611946,0.0003428439376875758,0.0003368199395481497,0.0024827290326356888,0,1,-1000,0,0,0,-1,1,0
11:32:49.092,STABILIZE,-35.3632621,149.1652374,583950,0,-0.0003702455433085561,0.0015638683689758182,0.027862073853611946,0.0003428439376875758,0.0003368199395481497,0.0024827290326356888,0,1,-1000,0,0,0,-1,1,0
11:32:49.293,STABILIZE,-35.3632621,149.1652374,583960,0,-0.00041526107816025615,0.001589668565429747,0.027286674827337265,0.0002628981019370258,0.00028139969799667597,0.0024711836595088243,0,1,-1000,0,0,0,-2,1,0
11:32:49.499,STABILIZE,-35.3632622,149.1652375,583960,0,-0.0005991818616166711,0.0014435118064284325,0.02675427682697773,0.000209890422411263,0.00032323921914212406,0.002230465179309249,0,1,-1000,0,0,0,-2,1,0
11:32:49.702,STABILIZE,-35.3632622,149.1652375,583960,0,-0.0005991818616166711,0.0014435118064284325,0.02675427682697773,0.000209890422411263,0.00032323921914212406,0.002230465179309249,0,0,-1003,0,0,0,-2,1,0
11:32:49.906,STABILIZE,-35.3632622,149.1652375,583960,0,-0.0005991818616166711,0.0014435118064284325,0.02675427682697773,0.000209890422411263,0.00032323921914212406,0.002230465179309249,0,0,-1003,0,0,0,-2,1,0
11:32:50.108,STABILIZE,-35.3632622,149.1652375,583960,0,-0.0005991818616166711,0.0014435118064284325,0.02675427682697773,0.000209890422411263,0.00032323921914212406,0.002230465179309249,0,0,-1003,0,0,0,-2,1,0
11:32:50.311,STABILIZE,-35.3632622,149.1652375,583960,0,-0.0005991818616166711,0.0014435118064284325,0.02675427682697773,0.000209890422411263,0.00032323921914212406,0.002230465179309249,0,0,-1003,0,0,0,-2,1,0
11:32:50.519,STABILIZE,-35.3632622,149.1652375,583960,0,-0.0005991818616166711,0.0014435118064284325,0.02675427682697773,0.000209890422411263,0.00032323921914212406,0.002230465179309249,0,0,-1003,0,0,0,-2,1,0
11:32:50.722,STABILIZE,-35.3632622,149.1652375,583960,0,-0.0005991818616166711,0.0014435118064284325,0.02675427682697773,0.000209890422411263,0.00032323921914212406,0.002230465179309249,0,0,-1003,0,0,0,-2,1,0
11:32:50.925,STABILIZE,-35.3632622,149.1652375,583960,0,-0.0005991818616166711,0.0014435118064284325,0.02675427682697773,0.000209890422411263,0.00032323921914212406,0.002230465179309249,0,0,-1003,0,0,0,-2,1,0
11:32:51.126,STABILIZE,-35.3632622,149.1652375,583960,0,-0.0005991818616166711,0.0014435118064284325,0.02675427682697773,0.000209890422411263,0.00032323921914212406,0.002230465179309249,0,0,-1003,0,0,0,-2,1,0
11:32:51.329,STABILIZE,-35.3632622,149.1652375,583960,0,-0.0005991818616166711,0.0014435118064284325,0.02675427682697773,0.000209890422411263,0.00032323921914212406,0.002230465179309249,0,0,-1003,0,0,0,-2,1,0
11:32:51.532,STABILIZE,-35.3632622,149.1652374,583970,0,-0.0007148031727410853,0.0011893333867192268,0.026165282353758812,0.0002666081127244979,0.0001698108681011945,0.002195979468524456,0,0,-1003,0,0,0,-1,0,-1
11:32:51.735,STABILIZE,-35.3632622,149.1652374,583980,0,-0.0007668574107810855,0.0010540421353653073,0.025746040046215057,0.00019525480456650257,0.0002584580215625465,0.002081209095194936,0,2,-1000,0,0,1,-1,1,-1
11:32:51.937,STABILIZE,-35.3632622,149.1652374,583980,0,-0.0007668574107810855,0.0010540421353653073,0.025746040046215057,0.00019525480456650257,0.0002584580215625465,0.002081209095194936,0,2,-1000,0,0,1,-1,1,-1
11:32:52.139,STABILIZE,-35.3632622,149.1652374,583980,0,-0.0007668574107810855,0.0010540421353653073,0.025746040046215057,0.00019525480456650257,0.0002584580215625465,0.002081209095194936,0,2,-1000,0,0,1,-1,1,-1
11:32:52.344,STABILIZE,-35.3632622,149.1652374,583980,0,-0.0007668574107810855,0.0010540421353653073,0.025746040046215057,0.00019525480456650257,0.0002584580215625465,0.002081209095194936,0,2,-1000,0,0,1,-1,1,-1
11:32:52.546,STABILIZE,-35.3632622,149.1652374,583980,0,-0.0007668574107810855,0.0010540421353653073,0.025746040046215057,0.00019525480456650257,0.0002584580215625465,0.002081209095194936,0,2,-1000,0,0,1,-1,1,-1
11:32:52.751,STABILIZE,-35.3632622,149.1652374,583980,0,-0.0007668574107810855,0.0010540421353653073,0.025746040046215057,0.00019525480456650257,0.0002584580215625465,0.002081209095194936,0,2,-1000,0,0,1,-1,1,-1
11:32:52.953,STABILIZE,-35.3632622,149.1652374,583980,0,-0.0007668574107810855,0.0010540421353653073,0.025746040046215057,0.00019525480456650257,0.0002584580215625465,0.002081209095194936,0,2,-1000,0,0,1,-1,1,-1
11:32:53.162,STABILIZE,-35.3632622,149.1652374,583980,0,-0.0007668574107810855,0.0010540421353653073,0.025746040046215057,0.00019525480456650257,0.0002584580215625465,0.002081209095194936,0,2,-1000,0,0,1,-1,1,-1
11:32:53.367,STABILIZE,-35.3632622,149.1652374,583980,0,-0.0007668574107810855,0.0010540421353653073,0.025746040046215057,0.00019525480456650257,0.0002584580215625465,0.002081209095194936,0,2,-1000,0,0,1,-1,1,-1
11:32:53.573,STABILIZE,-35.3632622,149.1652374,583980,0,-0.0008335261954925954,0.0009819632396101952,0.025326929986476898,0.00027379364473745227,0.000290911877527833,0.001883435994386673,0,2,-1000,0,0,0,-1,1,0
11:32:53.777,STABILIZE,-35.3632622,149.1652374,583980,0,-0.0008335261954925954,0.0009819632396101952,0.025326929986476898,0.00027379364473745227,0.000290911877527833,0.001883435994386673,0,1,-1000,0,0,0,-1,0,-2
11:32:53.980,STABILIZE,-35.3632622,149.1652374,583980,0,-0.0008335261954925954,0.0009819632396101952,0.025326929986476898,0.00027379364473745227,0.000290911877527833,0.001883435994386673,0,1,-1000,0,0,0,-1,0,-2
11:32:54.182,STABILIZE,-35.3632622,149.1652374,583980,0,-0.0008335261954925954,0.0009819632396101952,0.025326929986476898,0.00027379364473745227,0.000290911877527833,0.001883435994386673,0,1,-1000,0,0,0,-1,0,-2
11:32:54.385,STABILIZE,-35.3632622,149.1652374,583980,0,-0.0008335261954925954,0.0009819632396101952,0.025326929986476898,0.00027379364473745227,0.000290911877527833,0.001883435994386673,0,1,-1000,0,0,0,-1,0,-2
11:32:54.590,STABILIZE,-35.3632622,149.1652374,583980,0,-0.0008335261954925954,0.0009819632396101952,0.025326929986476898,0.00027379364473745227,0.000290911877527833,0.001883435994386673,0,1,-1000,0,0,0,-1,0,-2
11:32:54.796,STABILIZE,-35.3632622,149.1652374,583980,0,-0.0008335261954925954,0.0009819632396101952,0.025326929986476898,0.00027379364473745227,0.000290911877527833,0.001883435994386673,0,1,-1000,0,0,0,-1,0,-2
11:32:55.006,STABILIZE,-35.3632622,149.1652374,583980,0,-0.0008335261954925954,0.0009819632396101952,0.025326929986476898,0.00027379364473745227,0.000290911877527833,0.001883435994386673,0,1,-1000,0,0,0,-1,0,-2
11:32:55.209,STABILIZE,-35.3632622,149.1652374,583980,0,-0.0008335261954925954,0.0009819632396101952,0.025326929986476898,0.00027379364473745227,0.000290911877527833,0.001883435994386673,0,1,-1000,0,0,0,-1,0,-2
11:32:55.414,STABILIZE,-35.3632622,149.1652374,583980,0,-0.0008335261954925954,0.0009819632396101952,0.025326929986476898,0.00027379364473745227,0.000290911877527833,0.001883435994386673,0,1,-1000,0,0,0,-1,0,-2
11:32:55.621,STABILIZE,-35.3632622,149.1652374,583990,5,-0.0007420554175041616,0.000924223568290472,0.024585358798503876,0.0002760862116701901,0.00019758590497076511,0.001880932948552072,0,1,-1000,0,0,0,-1,1,-1
11:32:55.823,STABILIZE,-35.3632622,149.1652375,583990,5,-0.0007420554175041616,0.000924223568290472,0.024585358798503876,0.0002760862116701901,0.00019758590497076511,0.001880932948552072,0,1,-1000,0,0,0,-1,1,0
11:32:56.029,STABILIZE,-35.3632622,149.1652375,583990,5,-0.0007420554175041616,0.000924223568290472,0.024585358798503876,0.0002760862116701901,0.00019758590497076511,0.001880932948552072,0,1,-1000,0,0,0,-1,1,0
11:32:56.232,STABILIZE,-35.3632622,149.1652375,583990,5,-0.0007420554175041616,0.000924223568290472,0.024585358798503876,0.0002760862116701901,0.00019758590497076511,0.001880932948552072,0,1,-1000,0,0,0,-1,1,0
11:32:56.436,STABILIZE,-35.3632622,149.1652375,583990,5,-0.0007420554175041616,0.000924223568290472,0.024585358798503876,0.0002760862116701901,0.00019758590497076511,0.001880932948552072,0,1,-1000,0,0,0,-1,1,0
11:32:56.644,STABILIZE,-35.3632622,149.1652375,583990,5,-0.0007420554175041616,0.000924223568290472,0.024585358798503876,0.0002760862116701901,0.00019758590497076511,0.001880932948552072,0,1,-1000,0,0,0,-1,1,0
11:32:56.850,STABILIZE,-35.3632622,149.1652375,583990,5,-0.0007420554175041616,0.000924223568290472,0.024585358798503876,0.0002760862116701901,0.00019758590497076511,0.001880932948552072,0,1,-1000,0,0,0,-1,1,0
11:32:57.055,STABILIZE,-35.3632622,149.1652375,583990,5,-0.0007420554175041616,0.000924223568290472,0.024585358798503876,0.0002760862116701901,0.00019758590497076511,0.001880932948552072,0,1,-1000,0,0,0,-1,1,0
11:32:57.260,STABILIZE,-35.3632622,149.1652375,583990,5,-0.0007420554175041616,0.000924223568290472,0.024585358798503876,0.0002760862116701901,0.00019758590497076511,0.001880932948552072,0,1,-1000,0,0,0,-1,1,0
11:32:57.463,STABILIZE,-35.3632622,149.1652375,583990,3,-0.0006967773078940809,0.0009315548231825233,0.023836765438318253,0.00031716382363811135,0.0002798314089886844,0.001800055499188602,0,2,-1000,0,0,0,-1,1,0
11:32:57.666,STABILIZE,-35.3632622,149.1652375,583990,2,-0.0007222098647616804,0.0009360112017020583,0.023578902706503868,0.0003799595288001001,0.00021921651205047965,0.001711366232484579,0,2,-1000,0,0,0,-1,1,0
11:32:57.868,STABILIZE,-35.3632622,149.1652375,583990,2,-0.0007222098647616804,0.0009360112017020583,0.023578902706503868,0.0003799595288001001,0.00021921651205047965,0.001711366232484579,0,1,-1000,0,0,0,-1,1,0
11:32:58.071,STABILIZE,-35.3632622,149.1652375,583990,2,-0.0007222098647616804,0.0009360112017020583,0.023578902706503868,0.0003799595288001001,0.00021921651205047965,0.001711366232484579,0,1,-1000,0,0,0,-1,1,0
11:32:58.274,STABILIZE,-35.3632622,149.1652375,583990,2,-0.0007222098647616804,0.0009360112017020583,0.023578902706503868,0.0003799595288001001,0.00021921651205047965,0.001711366232484579,0,1,-1000,0,0,0,-1,1,0
11:32:58.480,STABILIZE,-35.3632622,149.1652375,583990,2,-0.0007222098647616804,0.0009360112017020583,0.023578902706503868,0.0003799595288001001,0.00021921651205047965,0.001711366232484579,0,1,-1000,0,0,0,-1,1,0
11:32:58.685,STABILIZE,-35.3632622,149.1652375,583990,2,-0.0007222098647616804,0.0009360112017020583,0.023578902706503868,0.0003799595288001001,0.00021921651205047965,0.001711366232484579,0,1,-1000,0,0,0,-1,1,0
11:32:58.889,STABILIZE,-35.3632622,149.1652375,583990,2,-0.0007222098647616804,0.0009360112017020583,0.023578902706503868,0.0003799595288001001,0.00021921651205047965,0.001711366232484579,0,1,-1000,0,0,0,-1,1,0
11:32:59.091,STABILIZE,-35.3632622,149.1652375,583990,2,-0.0007222098647616804,0.0009360112017020583,0.023578902706503868,0.0003799595288001001,0.00021921651205047965,0.001711366232484579,0,1,-1000,0,0,0,-1,1,0
11:32:59.295,STABILIZE,-35.3632622,149.1652375,583990,2,-0.0007222098647616804,0.0009360112017020583,0.023578902706503868,0.0003799595288001001,0.00021921651205047965,0.001711366232484579,0,1,-1000,0,0,0,-1,1,0
11:32:59.498,STABILIZE,-35.3632622,149.1652375,583980,0,-0.0007844982901588082,0.0009532012045383453,0.023177504539489746,0.0003575023147277534,0.0003100615576840937,0.001655791187658906,0,1,-1000,0,0,1,-1,1,0
11:32:59.699,STABILIZE,-35.3632622,149.1652375,583980,0,-0.0008079734980128706,0.000951732974499464,0.023014310747385025,0.0004618531675077975,0.0003011520020663738,0.0017175748944282532,0,1,-1000,0,0,0,-1,1,0
11:32:59.901,STABILIZE,-35.3632622,149.1652375,583980,0,-0.0008079734980128706,0.000951732974499464,0.023014310747385025,0.0004618531675077975,0.0003011520020663738,0.0017175748944282532,0,1,-1000,0,0,0,-1,1,0
11:33:00.105,STABILIZE,-35.3632622,149.1652375,583980,0,-0.0008079734980128706,0.000951732974499464,0.023014310747385025,0.0004618531675077975,0.0003011520020663738,0.0017175748944282532,0,1,-1000,0,0,0,-1,1,0
11:33:00.307,STABILIZE,-35.3632622,149.1652375,583980,0,-0.0008079734980128706,0.000951732974499464,0.023014310747385025,0.0004618531675077975,0.0003011520020663738,0.0017175748944282532,0,1,-1000,0,0,0,-1,1,0
11:33:00.510,STABILIZE,-35.3632622,149.1652375,583980,0,-0.0008079734980128706,0.000951732974499464,0.023014310747385025,0.0004618531675077975,0.0003011520020663738,0.0017175748944282532,0,1,-1000,0,0,0,-1,1,0
11:33:00.714,STABILIZE,-35.3632622,149.1652375,583980,0,-0.0008079734980128706,0.000951732974499464,0.023014310747385025,0.0004618531675077975,0.0003011520020663738,0.0017175748944282532,0,1,-1000,0,0,0,-1,1,0
11:33:00.922,STABILIZE,-35.3632622,149.1652375,583980,0,-0.0008079734980128706,0.000951732974499464,0.023014310747385025,0.0004618531675077975,0.0003011520020663738,0.0017175748944282532,0,1,-1000,0,0,0,-1,1,0
11:33:01.127,STABILIZE,-35.3632622,149.1652375,583980,0,-0.0008079734980128706,0.000951732974499464,0.023014310747385025,0.0004618531675077975,0.0003011520020663738,0.0017175748944282532,0,1,-1000,0,0,0,-1,1,0
11:33:01.330,STABILIZE,-35.3632622,149.1652375,583980,0,-0.0008079734980128706,0.000951732974499464,0.023014310747385025,0.0004618531675077975,0.0003011520020663738,0.0017175748944282532,0,1,-1000,0,0,0,-1,1,0
11:33:01.534,STABILIZE,-35.3632622,149.1652375,583970,0,-0.0007392021943815053,0.0009593815775588155,0.022692255675792694,0.00022241793340072036,0.00023250584490597248,0.0016615765634924173,0,1,-1000,1,0,1,-1,2,1
11:33:03.105,AUTO,-35.3632622,149.1652375,583970,0,-0.0008912303601391613,0.0009691386367194355,0.022434134036302567,0.0002321497886441648,0.0003454549005255103,0.0016511359717696905,0,1,-1000,0,1,0,-1,1,1
11:33:03.308,AUTO,-35.3632622,149.1652375,583970,0,-0.0008912303601391613,0.0009691386367194355,0.022434134036302567,0.0002321497886441648,0.0003454549005255103,0.0016511359717696905,0,1,-1000,0,1,0,-1,1,1
11:33:03.512,AUTO,-35.3632622,149.1652375,583970,0,-0.0008912303601391613,0.0009691386367194355,0.022434134036302567,0.0002321497886441648,0.0003454549005255103,0.0016511359717696905,0,1,-1000,0,1,0,-1,1,1
11:33:03.723,AUTO,-35.3632622,149.1652375,583970,0,-0.0008912303601391613,0.0009691386367194355,0.022434134036302567,0.0002321497886441648,0.0003454549005255103,0.0016511359717696905,0,1,-1000,0,1,0,-1,1,1
11:33:03.925,AUTO,-35.3632622,149.1652375,583970,0,-0.0008912303601391613,0.0009691386367194355,0.022434134036302567,0.0002321497886441648,0.0003454549005255103,0.0016511359717696905,0,1,-1000,0,1,0,-1,1,1
11:33:04.129,AUTO,-35.3632622,149.1652375,583970,0,-0.0008912303601391613,0.0009691386367194355,0.022434134036302567,0.0002321497886441648,0.0003454549005255103,0.0016511359717696905,0,1,-1000,0,1,0,-1,1,1
11:33:04.335,AUTO,-35.3632622,149.1652375,583970,0,-0.0008912303601391613,0.0009691386367194355,0.022434134036302567,0.0002321497886441648,0.0003454549005255103,0.0016511359717696905,0,1,-1000,0,1,0,-1,1,1
11:33:04.542,AUTO,-35.3632622,149.1652375,583970,0,-0.0008912303601391613,0.0009691386367194355,0.022434134036302567,0.0002321497886441648,0.0003454549005255103,0.0016511359717696905,0,1,-1000,0,1,0,-1,1,1
11:33:04.746,AUTO,-35.3632622,149.1652375,583970,0,-0.0008912303601391613,0.0009691386367194355,0.022434134036302567,0.0002321497886441648,0.0003454549005255103,0.0016511359717696905,0,1,-1000,0,1,0,-1,1,1
11:33:04.952,AUTO,-35.3632622,149.1652375,583960,0,-0.0008996600518003106,0.0011001616949215531,0.02210168167948723,0.00030849757604300976,0.00030576426070183516,0.0016236396040767431,0,2,-1000,0,0,0,0,0,1
11:33:05.158,AUTO,-35.3632622,149.1652375,583960,0,-0.00031940164626576006,0.0012137779267504811,0.021979063749313354,0.001797579461708665,0.00025651644682511687,0.0016202221158891916,0,40,-941,2,0,1,0,1,4
11:33:05.360,AUTO,-35.3632622,149.1652375,583960,0,-0.00031940164626576006,0.0012137779267504811,0.021979063749313354,0.001797579461708665,0.00025651644682511687,0.0016202221158891916,0,40,-941,2,0,1,0,1,4
11:33:05.564,AUTO,-35.3632622,149.1652375,583960,0,-0.00031940164626576006,0.0012137779267504811,0.021979063749313354,0.001797579461708665,0.00025651644682511687,0.0016202221158891916,0,40,-941,2,0,1,0,1,4
11:33:05.768,AUTO,-35.3632622,149.1652375,583960,0,-0.00031940164626576006,0.0012137779267504811,0.021979063749313354,0.001797579461708665,0.00025651644682511687,0.0016202221158891916,0,40,-941,2,0,1,0,1,4
11:33:05.972,AUTO,-35.3632622,149.1652375,583960,0,-0.00031940164626576006,0.0012137779267504811,0.021979063749313354,0.001797579461708665,0.00025651644682511687,0.0016202221158891916,0,40,-941,2,0,1,0,1,4
11:33:06.176,AUTO,-35.3632622,149.1652375,583960,0,-0.00031940164626576006,0.0012137779267504811,0.021979063749313354,0.001797579461708665,0.00025651644682511687,0.0016202221158891916,0,40,-941,2,0,1,0,1,4
11:33:06.380,AUTO,-35.3632622,149.1652375,583960,0,-0.00031940164626576006,0.0012137779267504811,0.021979063749313354,0.001797579461708665,0.00025651644682511687,0.0016202221158891916,0,40,-941,2,0,1,0,1,4
11:33:06.584,AUTO,-35.3632622,149.1652375,583960,0,-0.00031940164626576006,0.0012137779267504811,0.021979063749313354,0.001797579461708665,0.00025651644682511687,0.0016202221158891916,0,40,-941,2,0,1,0,1,4
11:33:06.788,AUTO,-35.3632622,149.1652375,583960,0,-0.00031940164626576006,0.0012137779267504811,0.021979063749313354,0.001797579461708665,0.00025651644682511687,0.0016202221158891916,0,40,-941,2,0,1,0,1,4
11:33:06.991,AUTO,-35.3632622,149.1652375,583950,0,0.00012750412861350924,0.0017247037030756474,0.021423568949103355,0.0003391234786249697,0.000351523922290653,0.0014699730090796947,0,2,-1000,0,0,1,0,0,2
11:33:07.194,AUTO,-35.3632622,149.1652375,583950,0,0.0010572384344413877,0.001629523583687842,0.021410170942544937,0.02852480858564377,-0.0065972646698355675,0.0035873425658792257,0,1,-1035,29,-5,2,0,0,0
11:33:07.397,AUTO,-35.3632622,149.1652375,583950,0,0.0010572384344413877,0.001629523583687842,0.021410170942544937,0.02852480858564377,-0.0065972646698355675,0.0035873425658792257,0,1,-1035,29,-5,2,0,0,0
11:33:07.601,AUTO,-35.3632622,149.1652375,583950,0,0.0010572384344413877,0.001629523583687842,0.021410170942544937,0.02852480858564377,-0.0065972646698355675,0.0035873425658792257,0,1,-1035,29,-5,2,0,0,0
11:33:07.805,AUTO,-35.3632622,149.1652375,583950,0,0.0010572384344413877,0.001629523583687842,0.021410170942544937,0.02852480858564377,-0.0065972646698355675,0.0035873425658792257,0,1,-1035,29,-5,2,0,0,0
11:33:08.008,AUTO,-35.3632622,149.1652375,583950,0,0.0010572384344413877,0.001629523583687842,0.021410170942544937,0.02852480858564377,-0.0065972646698355675,0.0035873425658792257,0,1,-1035,29,-5,2,0,0,0
11:33:08.210,AUTO,-35.3632622,149.1652375,583950,0,0.0010572384344413877,0.001629523583687842,0.021410170942544937,0.02852480858564377,-0.0065972646698355675,0.0035873425658792257,0,1,-1035,29,-5,2,0,0,0
11:33:08.412,AUTO,-35.3632622,149.1652375,583950,0,0.0010572384344413877,0.001629523583687842,0.021410170942544937,0.02852480858564377,-0.0065972646698355675,0.0035873425658792257,0,1,-1035,29,-5,2,0,0,0
11:33:08.618,AUTO,-35.3632622,149.1652375,583950,0,0.0010572384344413877,0.001629523583687842,0.021410170942544937,0.02852480858564377,-0.0065972646698355675,0.0035873425658792257,0,1,-1035,29,-5,2,0,0,0
11:33:08.821,AUTO,-35.3632621,149.1652375,584320,355,0.003133100224658847,0.0010198525851592422,0.021352093666791916,3.07155423797667e-05,0.0030710548162460327,3.858649870380759e-05,0,0,-1110,0,3,0,0,1,-93
11:33:09.022,AUTO,-35.363262,149.1652377,585650,1687,0.030881782993674278,-0.0022902938071638346,0.020764293149113655,0.044999875128269196,-0.007819419726729393,0.002537254709750414,0,-1,-1009,45,-7,1,1,9,-146
11:33:09.224,AUTO,-35.3632619,149.1652381,586040,2071,0.04188840836286545,-0.004474010318517685,0.02091652899980545,0.04293447732925415,-0.00904325395822525,0.003160442691296339,0,-2,-1003,43,-8,2,2,17,-147
11:33:09.426,AUTO,-35.3632619,149.1652381,586040,2071,0.04188840836286545,-0.004474010318517685,0.02091652899980545,0.04293447732925415,-0.00904325395822525,0.003160442691296339,0,-2,-1003,43,-8,2,2,17,-147
11:33:09.628,AUTO,-35.3632619,149.1652381,586040,2071,0.04188840836286545,-0.004474010318517685,0.02091652899980545,0.04293447732925415,-0.00904325395822525,0.003160442691296339,0,-2,-1003,43,-8,2,2,17,-147
11:33:09.831,AUTO,-35.3632619,149.1652381,586040,2071,0.04188840836286545,-0.004474010318517685,0.02091652899980545,0.04293447732925415,-0.00904325395822525,0.003160442691296339,0,-2,-1003,43,-8,2,2,17,-147
11:33:10.033,AUTO,-35.3632619,149.1652381,586040,2071,0.04188840836286545,-0.004474010318517685,0.02091652899980545,0.04293447732925415,-0.00904325395822525,0.003160442691296339,0,-2,-1003,43,-8,2,2,17,-147
11:33:10.234,AUTO,-35.3632619,149.1652381,586040,2071,0.04188840836286545,-0.004474010318517685,0.02091652899980545,0.04293447732925415,-0.00904325395822525,0.003160442691296339,0,-2,-1003,43,-8,2,2,17,-147
11:33:10.436,AUTO,-35.3632619,149.1652381,586040,2071,0.04188840836286545,-0.004474010318517685,0.02091652899980545,0.04293447732925415,-0.00904325395822525,0.003160442691296339,0,-2,-1003,43,-8,2,2,17,-147
11:33:10.638,AUTO,-35.3632619,149.1652381,586040,2071,0.04188840836286545,-0.004474010318517685,0.02091652899980545,0.04293447732925415,-0.00904325395822525,0.003160442691296339,0,-2,-1003,43,-8,2,2,17,-147
11:33:10.841,AUTO,-35.363261,149.1652436,587950,3981,-0.03381221741437912,0.010428253561258316,-0.06651178002357483,-0.024937430396676064,-0.02680068649351597,-0.03287111967802048,5,-11,-1013,-71,-33,-42,4,49,-146
11:33:11.043,AUTO,-35.3632608,149.1652457,588720,4751,-0.03821992129087448,0.0048768967390060425,-0.07300315052270889,-0.027003485709428787,-0.014033068902790546,-0.030243918299674988,3,-7,-1001,-26,-13,-30,1,27,-149
11:33:11.245,AUTO,-35.3632608,149.1652463,589100,5139,-0.05050284415483475,0.00239787669852376,-0.08054456114768982,-0.06588180363178253,-0.003099939553067088,-0.03349633142352104,2,-4,-998,-65,-2,-33,1,14,-149
11:33:11.449,AUTO,-35.3632608,149.1652463,589100,5139,-0.05050284415483475,0.00239787669852376,-0.08054456114768982,-0.06588180363178253,-0.003099939553067088,-0.03349633142352104,2,-4,-998,-65,-2,-33,1,14,-149
11:33:11.653,AUTO,-35.3632608,149.1652463,589100,5139,-0.05050284415483475,0.00239787669852376,-0.08054456114768982,-0.06588180363178253,-0.003099939553067088,-0.03349633142352104,2,-4,-998,-65,-2,-33,1,14,-149
11:33:11.856,AUTO,-35.3632608,149.1652463,589100,5139,-0.05050284415483475,0.00239787669852376,-0.08054456114768982,-0.06588180363178253,-0.003099939553067088,-0.03349633142352104,2,-4,-998,-65,-2,-33,1,14,-149
11:33:12.061,AUTO,-35.3632608,149.1652463,589100,5139,-0.05050284415483475,0.00239787669852376,-0.08054456114768982,-0.06588180363178253,-0.003099939553067088,-0.03349633142352104,2,-4,-998,-65,-2,-33,1,14,-149
11:33:12.264,AUTO,-35.3632608,149.1652463,589100,5139,-0.05050284415483475,0.00239787669852376,-0.08054456114768982,-0.06588180363178253,-0.003099939553067088,-0.03349633142352104,2,-4,-998,-65,-2,-33,1,14,-149
11:33:12.468,AUTO,-35.3632608,149.1652463,589100,5139,-0.05050284415483475,0.00239787669852376,-0.08054456114768982,-0.06588180363178253,-0.003099939553067088,-0.03349633142352104,2,-4,-998,-65,-2,-33,1,14,-149
11:33:12.675,AUTO,-35.3632608,149.1652463,589100,5139,-0.05050284415483475,0.00239787669852376,-0.08054456114768982,-0.06588180363178253,-0.003099939553067088,-0.03349633142352104,2,-4,-998,-65,-2,-33,1,14,-149
11:33:12.878,AUTO,-35.3632612,149.1652413,591420,7455,-0.01545957662165165,0.004744799342006445,-0.10821590572595596,0.06634487956762314,0.010586006566882133,-0.0025011247489601374,-6,12,-1002,67,11,-2,-10,-59,-150
11:33:13.081,AUTO,-35.3632614,149.1652396,591810,7842,0.001247277483344078,0.007466362789273262,-0.10849208384752274,0.06818469613790512,0.01105869933962822,-0.00012173823779448867,-5,12,-1003,68,11,0,-12,-59,-151
11:33:13.284,AUTO,-35.3632617,149.165238,592200,8232,0.018130188807845116,0.00998479314148426,-0.10809508711099625,0.06696538627147675,0.008724919520318508,0.0020728271920233965,-7,15,-1004,67,9,1,-15,-53,-152
11:33:13.487,AUTO,-35.3632617,149.165238,592200,8232,0.018130188807845116,0.00998479314148426,-0.10809508711099625,0.06696538627147675,0.008724919520318508,0.0020728271920233965,-7,15,-1004,67,9,1,-15,-53,-152
11:33:13.694,AUTO,-35.3632617,149.165238,592200,8232,0.018130188807845116,0.00998479314148426,-0.10809508711099625,0.06696538627147675,0.008724919520318508,0.0020728271920233965,-7,15,-1004,67,9,1,-15,-53,-152
11:33:13.900,AUTO,-35.3632617,149.165238,592200,8232,0.018130188807845116,0.00998479314148426,-0.10809508711099625,0.06696538627147675,0.008724919520318508,0.0020728271920233965,-7,15,-1004,67,9,1,-15,-53,-152
11:33:14.107,AUTO,-35.3632617,149.165238,592200,8232,0.018130188807845116,0.00998479314148426,-0.10809508711099625,0.06696538627147675,0.008724919520318508,0.0020728271920233965,-7,15,-1004,67,9,1,-15,-53,-152
11:33:14.313,AUTO,-35.3632617,149.165238,592200,8232,0.018130188807845116,0.00998479314148426,-0.10809508711099625,0.06696538627147675,0.008724919520318508,0.0020728271920233965,-7,15,-1004,67,9,1,-15,-53,-152
11:33:14.518,AUTO,-35.3632617,149.165238,592200,8232,0.018130188807845116,0.00998479314148426,-0.10809508711099625,0.06696538627147675,0.008724919520318508,0.0020728271920233965,-7,15,-1004,67,9,1,-15,-53,-152
11:33:14.724,AUTO,-35.3632617,149.165238,592200,8232,0.018130188807845116,0.00998479314148426,-0.10809508711099625,0.06696538627147675,0.008724919520318508,0.0020728271920233965,-7,15,-1004,67,9,1,-15,-53,-152
11:33:14.929,AUTO,-35.3632638,149.1652356,594930,10966,0.006582820322364569,-0.046806856989860535,-0.04478742927312851,-0.1017242819070816,0.07307121902704239,-0.03287746012210846,2,-5,-1001,-101,73,-33,13,27,-148
11:33:15.132,AUTO,-35.3632635,149.1652363,595310,11349,-0.012283549644052982,-0.026813961565494537,-0.05993211269378662,-0.056977588683366776,0.07720966637134552,-0.06829045712947845,-1,-6,-1005,-56,77,-68,23,23,-149
11:33:15.335,AUTO,-35.3632635,149.1652363,595310,11349,-0.012283549644052982,-0.026813961565494537,-0.05993211269378662,-0.056977588683366776,0.07720966637134552,-0.06829045712947845,-1,-6,-1005,-56,77,-68,23,23,-149
11:33:15.537,AUTO,-35.3632635,149.1652363,595310,11349,-0.012283549644052982,-0.026813961565494537,-0.05993211269378662,-0.056977588683366776,0.07720966637134552,-0.06829045712947845,-1,-6,-1005,-56,77,-68,23,23,-149
11:33:15.740,AUTO,-35.3632635,149.1652363,595310,11349,-0.012283549644052982,-0.026813961565494537,-0.05993211269378662,-0.056977588683366776,0.07720966637134552,-0.06829045712947845,-1,-6,-1005,-56,77,-68,23,23,-149
11:33:15.942,AUTO,-35.3632635,149.1652363,595310,11349,-0.012283549644052982,-0.026813961565494537,-0.05993211269378662,-0.056977588683366776,0.07720966637134552,-0.06829045712947845,-1,-6,-1005,-56,77,-68,23,23,-149
11:33:16.146,AUTO,-35.3632635,149.1652363,595310,11349,-0.012283549644052982,-0.026813961565494537,-0.05993211269378662,-0.056977588683366776,0.07720966637134552,-0.06829045712947845,-1,-6,-1005,-56,77,-68,23,23,-149
11:33:16.349,AUTO,-35.3632635,149.1652363,595310,11349,-0.012283549644052982,-0.026813961565494537,-0.05993211269378662,-0.056977588683366776,0.07720966637134552,-0.06829045712947845,-1,-6,-1005,-56,77,-68,23,23,-149
11:33:16.552,AUTO,-35.3632635,149.1652363,595310,11349,-0.012283549644052982,-0.026813961565494537,-0.05993211269378662,-0.056977588683366776,0.07720966637134552,-0.06829045712947845,-1,-6,-1005,-56,77,-68,23,23,-149
11:33:16.755,AUTO,-35.3632635,149.1652363,595310,11349,-0.012283549644052982,-0.026813961565494537,-0.05993211269378662,-0.056977588683366776,0.07720966637134552,-0.06829045712947845,-1,-6,-1005,-56,77,-68,23,23,-149
11:33:16.958,AUTO,-35.3632603,149.165236,598050,14088,0.005154465790838003,0.021206405013799667,-0.16079343855381012,0.027553878724575043,0.002454156521707773,-0.01847418211400509,-3,1,-1000,28,3,-18,4,-12,-153
11:33:17.160,AUTO,-35.3632602,149.1652356,598450,14480,0.010499278083443642,0.020984014496207237,-0.1642158478498459,0.01653960719704628,-0.0038031311705708504,-0.01083461195230484,-2,1,-999,16,-3,-11,0,-9,-153
11:33:17.362,AUTO,-35.3632602,149.1652356,598450,14480,0.010499278083443642,0.020984014496207237,-0.1642158478498459,0.01653960719704628,-0.0038031311705708504,-0.01083461195230484,-2,1,-999,16,-3,-11,0,-9,-153
11:33:17.567,AUTO,-35.3632602,149.1652356,598450,14480,0.010499278083443642,0.020984014496207237,-0.1642158478498459,0.01653960719704628,-0.0038031311705708504,-0.01083461195230484,-2,1,-999,16,-3,-11,0,-9,-153
11:33:17.771,AUTO,-35.3632602,149.1652356,598450,14480,0.010499278083443642,0.020984014496207237,-0.1642158478498459,0.01653960719704628,-0.0038031311705708504,-0.01083461195230484,-2,1,-999,16,-3,-11,0,-9,-153
11:33:17.975,AUTO,-35.3632602,149.1652356,598450,14480,0.010499278083443642,0.020984014496207237,-0.1642158478498459,0.01653960719704628,-0.0038031311705708504,-0.01083461195230484,-2,1,-999,16,-3,-11,0,-9,-153
11:33:18.179,AUTO,-35.3632602,149.1652356,598450,14480,0.010499278083443642,0.020984014496207237,-0.1642158478498459,0.01653960719704628,-0.0038031311705708504,-0.01083461195230484,-2,1,-999,16,-3,-11,0,-9,-153
11:33:18.383,AUTO,-35.3632602,149.1652356,598450,14480,0.010499278083443642,0.020984014496207237,-0.1642158478498459,0.01653960719704628,-0.0038031311705708504,-0.01083461195230484,-2,1,-999,16,-3,-11,0,-9,-153
11:33:18.586,AUTO,-35.3632602,149.1652356,598450,14480,0.010499278083443642,0.020984014496207237,-0.1642158478498459,0.01653960719704628,-0.0038031311705708504,-0.01083461195230484,-2,1,-999,16,-3,-11,0,-9,-153
11:33:18.788,AUTO,-35.3632606,149.165235,600000,16038,0.01446440163999796,0.010526209138333797,-0.16327142715454102,-0.007125777658075094,-0.010960282757878304,0.0003949137753807008,1,1,-999,-6,-10,0,-11,4,-153
11:33:18.990,AUTO,-35.3632613,149.1652354,601170,17209,0.006515624467283487,0.0027438912075012922,-0.16510875523090363,-0.009558826684951782,-0.008537710644304752,-0.00660367589443922,2,0,-1000,-8,-7,-7,-11,9,-153
11:33:19.192,AUTO,-35.3632615,149.1652356,601560,17599,0.004553106613457203,0.0009167747921310365,-0.16766637563705444,-0.006664065178483725,-0.004262926522642374,-0.015700288116931915,2,0,-1000,-5,-3,-16,-10,9,-153
11:33:19.397,AUTO,-35.3632615,149.1652356,601560,17599,0.004553106613457203,0.0009167747921310365,-0.16766637563705444,-0.006664065178483725,-0.004262926522642374,-0.015700288116931915,2,0,-1000,-5,-3,-16,-10,9,-153
11:33:19.599,AUTO,-35.3632615,149.1652356,601560,17599,0.004553106613457203,0.0009167747921310365,-0.16766637563705444,-0.006664065178483725,-0.004262926522642374,-0.015700288116931915,2,0,-1000,-5,-3,-16,-10,9,-153
11:33:19.804,AUTO,-35.3632615,149.1652356,601560,17599,0.004553106613457203,0.0009167747921310365,-0.16766637563705444,-0.006664065178483725,-0.004262926522642374,-0.015700288116931915,2,0,-1000,-5,-3,-16,-10,9,-153
11:33:20.007,AUTO,-35.3632615,149.1652356,601560,17599,0.004553106613457203,0.0009167747921310365,-0.16766637563705444,-0.006664065178483725,-0.004262926522642374,-0.015700288116931915,2,0,-1000,-5,-3,-16,-10,9,-153
11:33:20.212,AUTO,-35.3632615,149.1652356,601560,17599,0.004553106613457203,0.0009167747921310365,-0.16766637563705444,-0.006664065178483725,-0.004262926522642374,-0.015700288116931915,2,0,-1000,-5,-3,-16,-10,9,-153
11:33:20.417,AUTO,-35.3632615,149.1652356,601560,17599,0.004553106613457203,0.0009167747921310365,-0.16766637563705444,-0.006664065178483725,-0.004262926522642374,-0.015700288116931915,2,0,-1000,-5,-3,-16,-10,9,-153
11:33:20.621,AUTO,-35.3632615,149.1652356,601560,17599,0.004553106613457203,0.0009167747921310365,-0.16766637563705444,-0.006664065178483725,-0.004262926522642374,-0.015700288116931915,2,0,-1000,-5,-3,-16,-10,9,-153
11:33:20.826,AUTO,-35.363262,149.1652363,603370,19405,0.00026825632085092366,-0.0009197078761644661,-0.19056805968284607,0.0007732269586995244,0.0014027064898982644,-0.025508739054203033,1,0,-1000,0,2,-22,-4,5,-153
11:33:21.029,AUTO,-35.3632621,149.1652364,604150,20187,0.001603487296961248,-0.0003670698788482696,-0.20298948884010315,0.0034652231261134148,0.004654477816075087,-0.02624860405921936,0,0,-1000,4,5,-26,-2,3,-154
11:33:21.230,AUTO,-35.3632621,149.1652364,604540,20579,0.0021427245810627937,0.0005474981153383851,-0.20947085320949554,0.003810153342783451,0.006020861677825451,-0.02679620310664177,0,0,-1000,4,6,-27,-1,3,-154
11:33:21.433,AUTO,-35.3632621,149.1652364,604540,20579,0.0021427245810627937,0.0005474981153383851,-0.20947085320949554,0.003810153342783451,0.006020861677825451,-0.02679620310664177,0,0,-1000,4,6,-27,-1,3,-154
11:33:21.637,AUTO,-35.3632621,149.1652364,604540,20579,0.0021427245810627937,0.0005474981153383851,-0.20947085320949554,0.003810153342783451,0.006020861677825451,-0.02679620310664177,0,0,-1000,4,6,-27,-1,3,-154
11:33:21.841,AUTO,-35.3632621,149.1652364,604540,20579,0.0021427245810627937,0.0005474981153383851,-0.20947085320949554,0.003810153342783451,0.006020861677825451,-0.02679620310664177,0,0,-1000,4,6,-27,-1,3,-154
11:33:22.044,AUTO,-35.3632621,149.1652364,604540,20579,0.0021427245810627937,0.0005474981153383851,-0.20947085320949554,0.003810153342783451,0.006020861677825451,-0.02679620310664177,0,0,-1000,4,6,-27,-1,3,-154
11:33:22.246,AUTO,-35.3632621,149.1652364,604540,20579,0.0021427245810627937,0.0005474981153383851,-0.20947085320949554,0.003810153342783451,0.006020861677825451,-0.02679620310664177,0,0,-1000,4,6,-27,-1,3,-154
11:33:22.448,AUTO,-35.3632621,149.1652364,604540,20579,0.0021427245810627937,0.0005474981153383851,-0.20947085320949554,0.003810153342783451,0.006020861677825451,-0.02679620310664177,0,0,-1000,4,6,-27,-1,3,-154
11:33:22.651,AUTO,-35.3632621,149.1652364,604540,20579,0.0021427245810627937,0.0005474981153383851,-0.20947085320949554,0.003810153342783451,0.006020861677825451,-0.02679620310664177,0,0,-1000,4,6,-27,-1,3,-154
11:33:22.857,AUTO,-35.3632621,149.1652365,606500,22535,0.004105950240045786,0.00345898000523448,-0.23941156268119812,0.0007357215508818626,0.0005678926245309412,-0.021088916808366776,0,0,-1000,3,2,-23,-1,2,-154
11:33:23.063,AUTO,-35.3632621,149.1652366,607290,23321,0.004207831807434559,0.003468175884336233,-0.24957092106342316,0.0036009037867188454,0.0003813219955191016,-0.01930505596101284,0,0,-1001,4,1,-19,-1,3,-154
11:33:23.269,AUTO,-35.3632621,149.1652366,607680,23713,0.004119605291634798,0.0033699399791657925,-0.2543116509914398,-0.0016455620061606169,0.0007584545528516173,-0.01847795583307743,0,0,-999,0,1,-18,-1,3,-154
11:33:23.471,AUTO,-35.3632621,149.1652366,607680,23713,0.004119605291634798,0.0033699399791657925,-0.2543116509914398,-0.0016455620061606169,0.0007584545528516173,-0.01847795583307743,0,0,-999,0,1,-18,-1,3,-154
11:33:23.674,AUTO,-35.3632621,149.1652366,607680,23713,0.004119605291634798,0.0033699399791657925,-0.2543116509914398,-0.0016455620061606169,0.0007584545528516173,-0.01847795583307743,0,0,-999,0,1,-18,-1,3,-154
11:33:23.876,AUTO,-35.3632621,149.1652366,607680,23713,0.004119605291634798,0.0033699399791657925,-0.2543116509914398,-0.0016455620061606169,0.0007584545528516173,-0.01847795583307743,0,0,-999,0,1,-18,-1,3,-154
11:33:24.083,AUTO,-35.3632621,149.1652366,607680,23713,0.004119605291634798,0.0033699399791657925,-0.2543116509914398,-0.0016455620061606169,0.0007584545528516173,-0.01847795583307743,0,0,-999,0,1,-18,-1,3,-154
11:33:24.288,AUTO,-35.3632621,149.1652366,607680,23713,0.004119605291634798,0.0033699399791657925,-0.2543116509914398,-0.0016455620061606169,0.0007584545528516173,-0.01847795583307743,0,0,-999,0,1,-18,-1,3,-154
11:33:24.498,AUTO,-35.3632621,149.1652366,607680,23713,0.004119605291634798,0.0033699399791657925,-0.2543116509914398,-0.0016455620061606169,0.0007584545528516173,-0.01847795583307743,0,0,-999,0,1,-18,-1,3,-154
11:33:24.700,AUTO,-35.3632622,149.1652367,608860,24890,0.00426478823646903,-0.0011604804312810302,-0.2642538845539093,0.0007160737295635045,0.006294684950262308,-0.020771274343132973,0,0,-1001,1,7,-21,-1,4,-154
11:33:24.904,AUTO,-35.3632622,149.1652368,610420,26450,-0.0009692095336504281,0.009165576659142971,-0.2527301013469696,0.00043940608156844974,0.02201062999665737,0.02518140897154808,0,0,-997,1,22,24,-2,0,-153
11:33:25.106,AUTO,-35.3632619,149.165237,610810,26848,-0.0014808389823883772,0.012739035300910473,-0.24556121230125427,-0.007782336324453354,0.015634089708328247,0.023038430139422417,0,0,-1001,-7,16,22,-3,0,-154
11:33:25.309,AUTO,-35.3632619,149.165237,610810,26848,-0.0014808389823883772,0.012739035300910473,-0.24556121230125427,-0.007782336324453354,0.015634089708328247,0.023038430139422417,0,0,-1001,-7,16,22,-3,0,-154
11:33:25.514,AUTO,-35.3632619,149.165237,610810,26848,-0.0014808389823883772,0.012739035300910473,-0.24556121230125427,-0.007782336324453354,0.015634089708328247,0.023038430139422417,0,0,-1001,-7,16,22,-3,0,-154
11:33:25.717,AUTO,-35.3632619,149.165237,610810,26848,-0.0014808389823883772,0.012739035300910473,-0.24556121230125427,-0.007782336324453354,0.015634089708328247,0.023038430139422417,0,0,-1001,-7,16,22,-3,0,-154
11:33:25.921,AUTO,-35.3632619,149.165237,610810,26848,-0.0014808389823883772,0.012739035300910473,-0.24556121230125427,-0.007782336324453354,0.015634089708328247,0.023038430139422417,0,0,-1001,-7,16,22,-3,0,-154
11:33:26.124,AUTO,-35.3632619,149.165237,610810,26848,-0.0014808389823883772,0.012739035300910473,-0.24556121230125427,-0.007782336324453354,0.015634089708328247,0.023038430139422417,0,0,-1001,-7,16,22,-3,0,-154
11:33:26.326,AUTO,-35.3632619,149.165237,610810,26848,-0.0014808389823883772,0.012739035300910473,-0.24556121230125427,-0.007782336324453354,0.015634089708328247,0.023038430139422417,0,0,-1001,-7,16,22,-3,0,-154
11:33:26.533,AUTO,-35.3632619,149.165237,610810,26848,-0.0014808389823883772,0.012739035300910473,-0.24556121230125427,-0.007782336324453354,0.015634089708328247,0.023038430139422417,0,0,-1001,-7,16,22,-3,0,-154
11:33:26.741,AUTO,-35.3632616,149.1652373,611990,28029,0.0017600650899112225,0.012806386686861515,-0.2248477041721344,-0.00024352833861485124,-0.015740271657705307,0.021604817360639572,0,1,-1001,0,-14,21,-7,3,-154
11:33:26.946,AUTO,-35.3632616,149.1652376,613540,29575,0.004318121820688248,0.005759111605584621,-0.2013026475906372,-0.0007540940423496068,-0.03272968530654907,0.028207076713442802,2,2,-998,0,-31,27,-9,5,-154
11:33:27.149,AUTO,-35.3632616,149.1652378,613930,29962,-0.00034667059662751853,0.002721514320001006,-0.19672611355781555,-0.016548871994018555,0.011776698753237724,0.008659501560032368,3,2,-999,-15,12,8,-7,6,-153
11:33:27.352,AUTO,-35.3632616,149.1652378,613930,29962,-0.00034667059662751853,0.002721514320001006,-0.19672611355781555,-0.016548871994018555,0.011776698753237724,0.008659501560032368,3,2,-999,-15,12,8,-7,6,-153
11:33:27.556,AUTO,-35.3632616,149.1652378,613930,29962,-0.00034667059662751853,0.002721514320001006,-0.19672611355781555,-0.016548871994018555,0.011776698753237724,0.008659501560032368,3,2,-999,-15,12,8,-7,6,-153
11:33:27.759,AUTO,-35.3632616,149.1652378,613930,29962,-0.00034667059662751853,0.002721514320001006,-0.19672611355781555,-0.016548871994018555,0.011776698753237724,0.008659501560032368,3,2,-999,-15,12,8,-7,6,-153
11:33:27.961,AUTO,-35.3632616,149.1652378,613930,29962,-0.00034667059662751853,0.002721514320001006,-0.19672611355781555,-0.016548871994018555,0.011776698753237724,0.008659501560032368,3,2,-999,-15,12,8,-7,6,-153
11:33:28.166,AUTO,-35.3632616,149.1652378,613930,29962,-0.00034667059662751853,0.002721514320001006,-0.19672611355781555,-0.016548871994018555,0.011776698753237724,0.008659501560032368,3,2,-999,-15,12,8,-7,6,-153
11:33:28.369,AUTO,-35.3632616,149.1652378,613930,29962,-0.00034667059662751853,0.002721514320001006,-0.19672611355781555,-0.016548871994018555,0.011776698753237724,0.008659501560032368,3,2,-999,-15,12,8,-7,6,-153
11:33:28.574,AUTO,-35.3632616,149.1652378,613930,29962,-0.00034667059662751853,0.002721514320001006,-0.19672611355781555,-0.016548871994018555,0.011776698753237724,0.008659501560032368,3,2,-999,-15,12,8,-7,6,-153
11:33:28.779,AUTO,-35.3632616,149.1652378,613930,29962,-0.00034667059662751853,0.002721514320001006,-0.19672611355781555,-0.016548871994018555,0.011776698753237724,0.008659501560032368,3,2,-999,-15,12,8,-7,6,-153
11:33:28.981,AUTO,-35.3632657,149.1652375,616240,32277,0.021565807983279228,-0.04462428763508797,-0.14295580983161926,0.008195375092327595,-0.033386800438165665,0.05651702731847763,0,-1,-999,9,-32,56,4,10,-153
11:33:29.187,AUTO,-35.363266,149.1652377,617030,33062,0.014841238968074322,-0.04918139427900314,-0.12611697614192963,-0.023493964225053787,0.01699838601052761,0.01296971645206213,-4,-6,-998,-22,17,12,23,12,-152
11:33:29.392,AUTO,-35.363266,149.1652377,617030,33062,0.014841238968074322,-0.04918139427900314,-0.12611697614192963,-0.023493964225053787,0.01699838601052761,0.01296971645206213,-4,-6,-998,-22,17,12,23,12,-152
11:33:29.595,AUTO,-35.363266,149.1652377,617030,33062,0.014841238968074322,-0.04918139427900314,-0.12611697614192963,-0.023493964225053787,0.01699838601052761,0.01296971645206213,-4,-6,-998,-22,17,12,23,12,-152
11:33:29.801,AUTO,-35.363266,149.1652377,617030,33062,0.014841238968074322,-0.04918139427900314,-0.12611697614192963,-0.023493964225053787,0.01699838601052761,0.01296971645206213,-4,-6,-998,-22,17,12,23,12,-152
11:33:30.013,AUTO,-35.363266,149.1652377,617030,33062,0.014841238968074322,-0.04918139427900314,-0.12611697614192963,-0.023493964225053787,0.01699838601052761,0.01296971645206213,-4,-6,-998,-22,17,12,23,12,-152
11:33:30.216,AUTO,-35.363266,149.1652377,617030,33062,0.014841238968074322,-0.04918139427900314,-0.12611697614192963,-0.023493964225053787,0.01699838601052761,0.01296971645206213,-4,-6,-998,-22,17,12,23,12,-152
11:33:30.421,AUTO,-35.363266,149.1652377,617030,33062,0.014841238968074322,-0.04918139427900314,-0.12611697614192963,-0.023493964225053787,0.01699838601052761,0.01296971645206213,-4,-6,-998,-22,17,12,23,12,-152
11:33:30.626,AUTO,-35.363266,149.1652377,617030,33062,0.014841238968074322,-0.04918139427900314,-0.12611697614192963,-0.023493964225053787,0.01699838601052761,0.01296971645206213,-4,-6,-998,-22,17,12,23,12,-152
11:33:30.831,AUTO,-35.3632617,149.1652375,619130,35160,0.009670949541032314,0.02904372289776802,-0.12997905910015106,0.03010641783475876,0.03520200029015541,-0.006998308002948761,-8,-4,-1005,30,36,-6,21,-5,-148
11:33:31.033,AUTO,-35.3632611,149.1652377,619500,35538,0.009783058427274227,0.03636496141552925,-0.12925076484680176,-0.028867267072200775,0.0006275596097111702,0.02184014581143856,-7,-4,-998,-27,1,21,13,-2,-147
11:33:31.236,AUTO,-35.3632605,149.1652376,619890,35920,0.007090072613209486,0.033777497708797455,-0.12365860491991043,0.02173374593257904,0.009320365265011787,0.0045439316891133785,-6,-4,-1003,22,10,4,5,0,-147
11:33:31.443,AUTO,-35.3632605,149.1652376,619890,35920,0.007090072613209486,0.033777497708797455,-0.12365860491991043,0.02173374593257904,0.009320365265011787,0.0045439316891133785,-6,-4,-1003,22,10,4,5,0,-147
11:33:31.650,AUTO,-35.3632605,149.1652376,619890,35920,0.007090072613209486,0.033777497708797455,-0.12365860491991043,0.02173374593257904,0.009320365265011787,0.0045439316891133785,-6,-4,-1003,22,10,4,5,0,-147
11:33:31.853,AUTO,-35.3632605,149.1652376,619890,35920,0.007090072613209486,0.033777497708797455,-0.12365860491991043,0.02173374593257904,0.009320365265011787,0.0045439316891133785,-6,-4,-1003,22,10,4,5,0,-147
11:33:32.056,AUTO,-35.3632605,149.1652376,619890,35920,0.007090072613209486,0.033777497708797455,-0.12365860491991043,0.02173374593257904,0.009320365265011787,0.0045439316891133785,-6,-4,-1003,22,10,4,5,0,-147
11:33:32.261,AUTO,-35.3632605,149.1652376,619890,35920,0.007090072613209486,0.033777497708797455,-0.12365860491991043,0.02173374593257904,0.009320365265011787,0.0045439316891133785,-6,-4,-1003,22,10,4,5,0,-147
11:33:32.468,AUTO,-35.3632605,149.1652376,619890,35920,0.007090072613209486,0.033777497708797455,-0.12365860491991043,0.02173374593257904,0.009320365265011787,0.0045439316891133785,-6,-4,-1003,22,10,4,5,0,-147
11:33:32.670,AUTO,-35.3632605,149.1652376,619890,35920,0.007090072613209486,0.033777497708797455,-0.12365860491991043,0.02173374593257904,0.009320365265011787,0.0045439316891133785,-6,-4,-1003,22,10,4,5,0,-147
11:33:32.873,AUTO,-35.3632595,149.1652375,621860,37892,0.0034270500764250755,0.02192162349820137,-0.10679049044847488,0.021336615085601807,-0.01844792068004608,0.015592529438436031,1,0,-997,-40,-27,24,-20,5,-148
11:33:33.077,AUTO,-35.3632599,149.1652377,622670,38700,-0.0028765001334249973,0.011275844648480415,-0.10243801027536392,-0.0018297695787623525,-0.026511069387197495,0.0011873113689944148,3,1,-1002,0,-25,0,-22,5,-149
11:33:33.279,AUTO,-35.36326,149.1652377,623070,39107,-0.0026243103202432394,0.0071335737593472,-0.10213396698236465,-0.008567214012145996,-0.005261667538434267,-0.008657610975205898,4,1,-1000,-7,-4,-8,-21,4,-150
11:33:33.482,AUTO,-35.36326,149.1652377,623070,39107,-0.0026243103202432394,0.0071335737593472,-0.10213396698236465,-0.008567214012145996,-0.005261667538434267,-0.008657610975205898,4,1,-1000,-7,-4,-8,-21,4,-150
11:33:33.686,AUTO,-35.36326,149.1652377,623070,39107,-0.0026243103202432394,0.0071335737593472,-0.10213396698236465,-0.008567214012145996,-0.005261667538434267,-0.008657610975205898,4,1,-1000,-7,-4,-8,-21,4,-150
11:33:33.896,AUTO,-35.36326,149.1652377,623070,39107,-0.0026243103202432394,0.0071335737593472,-0.10213396698236465,-0.008567214012145996,-0.005261667538434267,-0.008657610975205898,4,1,-1000,-7,-4,-8,-21,4,-150
11:33:34.104,AUTO,-35.36326,149.1652377,623070,39107,-0.0026243103202432394,0.0071335737593472,-0.10213396698236465,-0.008567214012145996,-0.005261667538434267,-0.008657610975205898,4,1,-1000,-7,-4,-8,-21,4,-150
11:33:34.306,AUTO,-35.36326,149.1652377,623070,39107,-0.0026243103202432394,0.0071335737593472,-0.10213396698236465,-0.008567214012145996,-0.005261667538434267,-0.008657610975205898,4,1,-1000,-7,-4,-8,-21,4,-150
11:33:34.509,AUTO,-35.36326,149.1652377,623070,39107,-0.0026243103202432394,0.0071335737593472,-0.10213396698236465,-0.008567214012145996,-0.005261667538434267,-0.008657610975205898,4,1,-1000,-7,-4,-8,-21,4,-150
11:33:34.712,AUTO,-35.36326,149.1652377,623070,39107,-0.0026243103202432394,0.0071335737593472,-0.10213396698236465,-0.008567214012145996,-0.005261667538434267,-0.008657610975205898,4,1,-1000,-7,-4,-8,-21,4,-150
11:33:34.915,AUTO,-35.3632232,149.1652803,624660,40690,-0.006508310791105032,-0.004590051714330912,-0.11377763003110886,0.0001035280292853713,-0.011785021983087063,-0.014624835923314095,4,1,-1000,0,-12,-14,-14,-3,-151
11:33:35.118,AUTO,-35.3632237,149.16528,625830,41864,-0.0008713145507499576,-0.009416709654033184,-0.12413405627012253,0.01690518483519554,0.005663238000124693,-0.0008440703968517482,2,2,-999,18,7,0,-5,-7,-151
11:33:36.719,AUTO,-35.3632238,149.1652799,626220,42253,0.0031762172002345324,-0.007313243113458157,-0.12380368262529373,0.01326177828013897,0.005792152602225542,0.007024819031357765,1,1,-1000,14,7,7,-3,-6,-151
11:33:36.922,AUTO,-35.3632238,149.1652799,626220,42253,0.0031762172002345324,-0.007313243113458157,-0.12380368262529373,0.01326177828013897,0.005792152602225542,0.007024819031357765,1,1,-1000,14,7,7,-3,-6,-151
11:33:37.127,AUTO,-35.3632238,149.1652799,626220,42253,0.0031762172002345324,-0.007313243113458157,-0.12380368262529373,0.01326177828013897,0.005792152602225542,0.007024819031357765,1,1,-1000,14,7,7,-3,-6,-151
11:33:37.329,AUTO,-35.3632238,149.1652799,626220,42253,0.0031762172002345324,-0.007313243113458157,-0.12380368262529373,0.01326177828013897,0.005792152602225542,0.007024819031357765,1,1,-1000,14,7,7,-3,-6,-151
11:33:37.536,AUTO,-35.3632238,149.1652799,626220,42253,0.0031762172002345324,-0.007313243113458157,-0.12380368262529373,0.01326177828013897,0.005792152602225542,0.007024819031357765,1,1,-1000,14,7,7,-3,-6,-151
11:33:37.740,AUTO,-35.3632238,149.1652799,626220,42253,0.0031762172002345324,-0.007313243113458157,-0.12380368262529373,0.01326177828013897,0.005792152602225542,0.007024819031357765,1,1,-1000,14,7,7,-3,-6,-151
11:33:37.944,AUTO,-35.3632238,149.1652799,626220,42253,0.0031762172002345324,-0.007313243113458157,-0.12380368262529373,0.01326177828013897,0.005792152602225542,0.007024819031357765,1,1,-1000,14,7,7,-3,-6,-151
11:33:38.150,AUTO,-35.3632238,149.1652799,626220,42253,0.0031762172002345324,-0.007313243113458157,-0.12380368262529373,0.01326177828013897,0.005792152602225542,0.007024819031357765,1,1,-1000,14,7,7,-3,-6,-151
11:33:38.355,AUTO,-35.3632344,149.165285,628540,44577,0.0007646539597772062,-0.06495635956525803,-0.04967807978391647,-0.014096863567829132,-0.039930567145347595,0.08959231525659561,-4,-2,-998,-13,-39,89,9,11,-150
11:33:38.559,AUTO,-35.363237,149.1652867,629320,45358,-0.010004389099776745,-0.07422805577516556,-0.014764032326638699,-0.012429771013557911,-0.010714568197727203,0.08281304687261581,-8,-4,-997,-13,-20,83,30,6,-148
11:33:38.762,AUTO,-35.363237,149.1652867,629320,45358,-0.010004389099776745,-0.07422805577516556,-0.014764032326638699,-0.012429771013557911,-0.010714568197727203,0.08281304687261581,-11,-5,-997,-11,-10,83,30,6,-148
11:33:38.966,AUTO,-35.363237,149.1652867,629320,45358,-0.010004389099776745,-0.07422805577516556,-0.014764032326638699,-0.012429771013557911,-0.010714568197727203,0.08281304687261581,-11,-5,-997,-11,-10,83,30,6,-148
11:33:39.171,AUTO,-35.363237,149.1652867,629320,45358,-0.010004389099776745,-0.07422805577516556,-0.014764032326638699,-0.012429771013557911,-0.010714568197727203,0.08281304687261581,-11,-5,-997,-11,-10,83,30,6,-148
11:33:39.374,AUTO,-35.363237,149.1652867,629320,45358,-0.010004389099776745,-0.07422805577516556,-0.014764032326638699,-0.012429771013557911,-0.010714568197727203,0.08281304687261581,-11,-5,-997,-11,-10,83,30,6,-148
11:33:39.578,AUTO,-35.363237,149.1652867,629320,45358,-0.010004389099776745,-0.07422805577516556,-0.014764032326638699,-0.012429771013557911,-0.010714568197727203,0.08281304687261581,-11,-5,-997,-11,-10,83,30,6,-148
11:33:39.782,AUTO,-35.363237,149.1652867,629320,45358,-0.010004389099776745,-0.07422805577516556,-0.014764032326638699,-0.012429771013557911,-0.010714568197727203,0.08281304687261581,-11,-5,-997,-11,-10,83,30,6,-148
11:33:39.985,AUTO,-35.363237,149.1652867,629320,45358,-0.010004389099776745,-0.07422805577516556,-0.014764032326638699,-0.012429771013557911,-0.010714568197727203,0.08281304687261581,-11,-5,-997,-11,-10,83,30,6,-148
11:33:40.188,AUTO,-35.363237,149.1652867,629320,45358,-0.010004389099776745,-0.07422805577516556,-0.014764032326638699,-0.012429771013557911,-0.010714568197727203,0.08281304687261581,-11,-5,-997,-11,-10,83,30,6,-148
11:33:40.390,AUTO,-35.3632338,149.1652846,631860,47897,-0.05762193351984024,-0.0392526350915432,0.10386241972446442,-0.22059249877929688,0.010335028171539307,0.11014831811189651,-31,-3,-978,-219,10,110,77,-41,-143
11:33:40.592,AUTO,-35.3632323,149.1652823,632260,48297,-0.12149817496538162,-0.029201796278357506,0.11734852939844131,-0.10988462716341019,0.11701567471027374,0.26021358370780945,-41,5,-965,-108,117,260,79,-69,-137
11:33:40.795,AUTO,-35.3632323,149.1652823,632260,48297,-0.12149817496538162,-0.029201796278357506,0.11734852939844131,-0.10988462716341019,0.11701567471027374,0.26021358370780945,-41,5,-965,-108,117,260,79,-69,-137
11:33:41.002,AUTO,-35.3632323,149.1652823,632260,48297,-0.12149817496538162,-0.029201796278357506,0.11734852939844131,-0.10988462716341019,0.11701567471027374,0.26021358370780945,-41,5,-965,-108,117,260,79,-69,-137
11:33:41.205,AUTO,-35.3632323,149.1652823,632260,48297,-0.12149817496538162,-0.029201796278357506,0.11734852939844131,-0.10988462716341019,0.11701567471027374,0.26021358370780945,-41,5,-965,-108,117,260,79,-69,-137
11:33:41.409,AUTO,-35.3632323,149.1652823,632260,48297,-0.12149817496538162,-0.029201796278357506,0.11734852939844131,-0.10988462716341019,0.11701567471027374,0.26021358370780945,-41,5,-965,-108,117,260,79,-69,-137
11:33:41.615,AUTO,-35.3632323,149.1652823,632260,48297,-0.12149817496538162,-0.029201796278357506,0.11734852939844131,-0.10988462716341019,0.11701567471027374,0.26021358370780945,-41,5,-965,-108,117,260,79,-69,-137
11:33:41.821,AUTO,-35.3632323,149.1652823,632260,48297,-0.12149817496538162,-0.029201796278357506,0.11734852939844131,-0.10988462716341019,0.11701567471027374,0.26021358370780945,-41,5,-965,-108,117,260,79,-69,-137
11:33:42.026,AUTO,-35.3632323,149.1652823,632260,48297,-0.12149817496538162,-0.029201796278357506,0.11734852939844131,-0.10988462716341019,0.11701567471027374,0.26021358370780945,-41,5,-965,-108,117,260,79,-69,-137
11:33:42.230,AUTO,-35.3632231,149.1652731,633340,49370,0.10892230272293091,0.017198972404003143,0.26577597856521606,-0.1905391663312912,0.11180561035871506,0.013032651506364346,-36,14,-976,114,51,54,24,-24,-64
11:33:42.434,AUTO,-35.3632195,149.1652742,633550,49583,0.09308448433876038,0.055212248116731644,0.2726331949234009,0.22849896550178528,0.05400373786687851,-0.04924029856920242,-17,6,-988,227,54,-48,-4,19,-55
11:33:42.636,AUTO,-35.3632179,149.1652748,633650,49689,0.0735924169421196,0.06789926439523697,0.26233407855033875,-0.39484310150146484,0.058327991515398026,-0.043371621519327164,-12,-19,-990,-395,59,-42,-18,30,-52
11:33:42.842,AUTO,-35.3632179,149.1652748,633650,49689,0.0735924169421196,0.06789926439523697,0.26233407855033875,-0.39484310150146484,0.058327991515398026,-0.043371621519327164,-12,-19,-990,-395,59,-42,-18,30,-52
11:33:43.045,AUTO,-35.3632179,149.1652748,633650,49689,0.0735924169421196,0.06789926439523697,0.26233407855033875,-0.39484310150146484,0.058327991515398026,-0.043371621519327164,-12,-19,-990,-395,59,-42,-18,30,-52
11:33:43.248,AUTO,-35.3632179,149.1652748,633650,49689,0.0735924169421196,0.06789926439523697,0.26233407855033875,-0.39484310150146484,0.058327991515398026,-0.043371621519327164,-12,-19,-990,-395,59,-42,-18,30,-52
11:33:43.453,AUTO,-35.3632179,149.1652748,633650,49689,0.0735924169421196,0.06789926439523697,0.26233407855033875,-0.39484310150146484,0.058327991515398026,-0.043371621519327164,-12,-19,-990,-395,59,-42,-18,30,-52
11:33:43.656,AUTO,-35.3632179,149.1652748,633650,49689,0.0735924169421196,0.06789926439523697,0.26233407855033875,-0.39484310150146484,0.058327991515398026,-0.043371621519327164,-12,-19,-990,-395,59,-42,-18,30,-52
11:33:43.858,AUTO,-35.3632179,149.1652748,633650,49689,0.0735924169421196,0.06789926439523697,0.26233407855033875,-0.39484310150146484,0.058327991515398026,-0.043371621519327164,-12,-19,-990,-395,59,-42,-18,30,-52
11:33:44.064,AUTO,-35.3632179,149.1652748,633650,49689,0.0735924169421196,0.06789926439523697,0.26233407855033875,-0.39484310150146484,0.058327991515398026,-0.043371621519327164,-12,-19,-990,-395,59,-42,-18,30,-52
11:33:44.268,AUTO,-35.3632159,149.165275,634180,50218,0.06591302156448364,0.04367143660783768,0.2289678007364273,-0.45547372102737427,-0.027956198900938034,-0.05205528065562248,10,-32,-967,-460,-15,-62,-69,62,-9
11:33:44.471,LOITER,-35.363217,149.1652767,634130,50168,0.03962310776114464,0.04058556258678436,0.20950955152511597,0.7769723534584045,0.03159850463271141,-0.02961066924035549,19,32,-944,781,33,-29,-72,71,10
11:33:44.674,LOITER,-35.3632183,149.1652783,634070,50106,0.021614190191030502,0.03323185071349144,0.2006804347038269,0.5146766304969788,-0.10583589226007462,-0.00584870669990778,23,4,-952,513,-104,-5,-74,71,24
11:33:44.880,LOITER,-35.3632183,149.1652783,634070,50106,0.021614190191030502,0.03323185071349144,0.2006804347038269,0.5146766304969788,-0.10583589226007462,-0.00584870669990778,23,4,-952,513,-104,-5,-74,71,24
11:33:45.082,LOITER,-35.3632183,149.1652783,634070,50106,0.021614190191030502,0.03323185071349144,0.2006804347038269,0.5146766304969788,-0.10583589226007462,-0.00584870669990778,23,4,-952,513,-104,-5,-74,71,24
11:33:45.286,LOITER,-35.3632183,149.1652783,634070,50106,0.021614190191030502,0.03323185071349144,0.2006804347038269,0.5146766304969788,-0.10583589226007462,-0.00584870669990778,23,4,-952,513,-104,-5,-74,71,24
11:33:45.488,LOITER,-35.3632183,149.1652783,634070,50106,0.021614190191030502,0.03323185071349144,0.2006804347038269,0.5146766304969788,-0.10583589226007462,-0.00584870669990778,23,4,-952,513,-104,-5,-74,71,24
11:33:45.695,LOITER,-35.3632183,149.1652783,634070,50106,0.021614190191030502,0.03323185071349144,0.2006804347038269,0.5146766304969788,-0.10583589226007462,-0.00584870669990778,23,4,-952,513,-104,-5,-74,71,24
11:33:45.899,LOITER,-35.3632183,149.1652783,634070,50106,0.021614190191030502,0.03323185071349144,0.2006804347038269,0.5146766304969788,-0.10583589226007462,-0.00584870669990778,23,4,-952,513,-104,-5,-74,71,24
11:33:46.105,LOITER,-35.3632183,149.1652783,634070,50106,0.021614190191030502,0.03323185071349144,0.2006804347038269,0.5146766304969788,-0.10583589226007462,-0.00584870669990778,23,4,-952,513,-104,-5,-74,71,24
11:33:46.310,LOITER,-35.3632223,149.1652798,633350,49387,0.04050179198384285,-0.024129947647452354,0.1868450939655304,1.2489454746246338,-0.0018606482772156596,-0.027623705565929413,20,0,-857,1244,0,-27,-39,26,153
11:33:46.515,LOITER,-35.3632112,149.1652715,631650,47688,0.1556972861289978,0.17957176268100739,0.190165176987648,0.008509510196745396,0.0474117174744606,0.022622371092438698,36,86,-994,1517,295,72,-58,66,201
11:33:46.718,LOITER,-35.3632112,149.1652715,631650,47688,0.1556972861289978,0.17957176268100739,0.190165176987648,0.008509510196745396,0.0474117174744606,0.022622371092438698,52,46,-977,20,49,23,-58,66,201
11:33:46.921,LOITER,-35.3632112,149.1652715,631650,47688,0.1556972861289978,0.17957176268100739,0.190165176987648,0.008509510196745396,0.0474117174744606,0.022622371092438698,52,46,-977,20,49,23,-58,66,201
11:33:47.124,LOITER,-35.3632112,149.1652715,631650,47688,0.1556972861289978,0.17957176268100739,0.190165176987648,0.008509510196745396,0.0474117174744606,0.022622371092438698,52,46,-977,20,49,23,-58,66,201
11:33:47.328,LOITER,-35.3632112,149.1652715,631650,47688,0.1556972861289978,0.17957176268100739,0.190165176987648,0.008509510196745396,0.0474117174744606,0.022622371092438698,52,46,-977,20,49,23,-58,66,201
11:33:47.532,LOITER,-35.3632112,149.1652715,631650,47688,0.1556972861289978,0.17957176268100739,0.190165176987648,0.008509510196745396,0.0474117174744606,0.022622371092438698,52,46,-977,20,49,23,-58,66,201
11:33:47.736,LOITER,-35.3632112,149.1652715,631650,47688,0.1556972861289978,0.17957176268100739,0.190165176987648,0.008509510196745396,0.0474117174744606,0.022622371092438698,52,46,-977,20,49,23,-58,66,201
11:33:47.941,LOITER,-35.3632112,149.1652715,631650,47688,0.1556972861289978,0.17957176268100739,0.190165176987648,0.008509510196745396,0.0474117174744606,0.022622371092438698,52,46,-977,20,49,23,-58,66,201
11:33:48.144,LOITER,-35.3632112,149.1652715,631650,47688,0.1556972861289978,0.17957176268100739,0.190165176987648,0.008509510196745396,0.0474117174744606,0.022622371092438698,52,46,-977,20,49,23,-58,66,201
