time_stamp,MODE,lat,lon,relative_alt,roll,pitch,yaw,rollspeed,pitchspeed,yawspeed,xacc,yacc,zacc,xgyro,ygyro,zgyro,vx,vy,vz,RTL_ALT
07:23:07.086,STABILIZE,-35.3632621,149.1652374,48,-0.00022341091244015843,0.0015758146764710546,0.028750838711857796,0.0002187187783420086,0.0002355908800382167,0.0023365214001387358,0,1,-1000,0,0,0,0,0,-3,1500.0
07:23:07.286,STABILIZE,-35.3632621,149.1652374,48,-0.00022341091244015843,0.0015758146764710546,0.028750838711857796,0.0002187187783420086,0.0002355908800382167,0.0023365214001387358,0,1,-1000,0,0,0,0,0,-3,1500.0
07:23:07.487,STABILIZE,-35.3632621,149.1652374,48,-0.00022341091244015843,0.0015758146764710546,0.028750838711857796,0.0002187187783420086,0.0002355908800382167,0.0023365214001387358,0,1,-1000,0,0,0,0,0,-3,1500.0
07:23:07.688,STABILIZE,-35.3632621,149.1652374,48,-0.00022341091244015843,0.0015758146764710546,0.028750838711857796,0.0002187187783420086,0.0002355908800382167,0.0023365214001387358,0,1,-1000,0,0,0,0,0,-3,1500.0
07:23:07.889,STABILIZE,-35.3632621,149.1652374,36,-0.00022341091244015843,0.0015758146764710546,0.028750838711857796,0.0002187187783420086,0.0002355908800382167,0.0023365214001387358,0,14,-980,0,0,0,-2,2,0,1500.0
07:23:08.091,STABILIZE,-35.3632621,149.1652374,36,-0.00022341091244015843,0.0015758146764710546,0.028750838711857796,0.0002187187783420086,0.0002355908800382167,0.0023365214001387358,0,14,-980,0,0,0,-2,2,0,1500.0
07:23:08.293,STABILIZE,-35.3632621,149.1652374,36,-0.00022341091244015843,0.0015758146764710546,0.028750838711857796,0.0002187187783420086,0.0002355908800382167,0.0023365214001387358,0,14,-980,0,0,0,-2,2,0,1500.0
07:23:08.494,STABILIZE,-35.3632621,149.1652374,36,-0.00022341091244015843,0.0015758146764710546,0.028750838711857796,0.0002187187783420086,0.0002355908800382167,0.0023365214001387358,0,14,-980,0,0,0,-2,2,0,1500.0
07:23:08.696,STABILIZE,-35.3632621,149.1652374,36,-0.00022341091244015843,0.0015758146764710546,0.028750838711857796,0.0002187187783420086,0.0002355908800382167,0.0023365214001387358,0,14,-980,0,0,0,-2,2,0,1500.0
07:23:08.898,STABILIZE,-35.3632622,149.1652375,26,-0.00040718994569033384,0.0013944446109235287,0.027461551129817963,0.0002864768903236836,0.00017474745982326567,0.0022283943835645914,0,1,-1000,0,0,0,-2,2,0,1500.0
07:23:09.099,STABILIZE,-35.3632622,149.1652375,26,-0.00040718994569033384,0.0013944446109235287,0.027461551129817963,0.0002864768903236836,0.00017474745982326567,0.0022283943835645914,0,1,-1000,0,0,0,-2,2,0,1500.0
07:23:09.301,STABILIZE,-35.3632622,149.1652375,26,-0.00040718994569033384,0.0013944446109235287,0.027461551129817963,0.0002864768903236836,0.00017474745982326567,0.0022283943835645914,0,1,-1000,0,0,0,-2,2,0,1500.0
07:23:09.503,STABILIZE,-35.3632622,149.1652375,26,-0.00040718994569033384,0.0013944446109235287,0.027461551129817963,0.0002864768903236836,0.00017474745982326567,0.0022283943835645914,0,1,-1000,0,0,0,-2,2,0,1500.0
07:23:09.705,STABILIZE,-35.3632622,149.1652375,26,-0.00040718994569033384,0.0013944446109235287,0.027461551129817963,0.0002864768903236836,0.00017474745982326567,0.0022283943835645914,0,1,-1000,0,0,0,-2,2,0,1500.0
07:23:09.907,STABILIZE,-35.3632622,149.1652375,22,-0.00040718994569033384,0.0013944446109235287,0.027461551129817963,0.0002864768903236836,0.00017474745982326567,0.0022283943835645914,0,1,-1000,0,0,0,-1,1,0,1500.0
07:23:10.109,STABILIZE,-35.3632622,149.1652375,20,-0.0007863015634939075,0.0011360965436324477,0.026826271787285805,0.00025507714599370956,0.00025236496003344655,0.002097110729664564,0,1,-1000,0,0,0,-1,1,0,1500.0
07:23:10.310,STABILIZE,-35.3632622,149.1652375,20,-0.0007863015634939075,0.0011360965436324477,0.026826271787285805,0.00025507714599370956,0.00025236496003344655,0.002097110729664564,0,1,-1000,0,0,0,-1,1,0,1500.0
07:23:10.512,STABILIZE,-35.3632622,149.1652375,19,-0.0007863015634939075,0.0011360965436324477,0.026826271787285805,0.00025507714599370956,0.00025236496003344655,0.002097110729664564,0,1,-1000,0,0,0,-1,1,0,1500.0
07:23:10.714,STABILIZE,-35.3632622,149.1652375,19,-0.0007863015634939075,0.0011360965436324477,0.026826271787285805,0.00025507714599370956,0.00025236496003344655,0.002097110729664564,0,1,-1000,0,0,0,-1,1,0,1500.0
07:23:10.916,STABILIZE,-35.3632622,149.1652375,18,-0.0008986587054096162,0.0010269596241414547,0.026500143110752106,0.00035870642750523984,0.00016611936734989285,0.0020164933521300554,0,1,-1000,0,0,0,-1,1,0,1500.0
07:23:11.117,STABILIZE,-35.3632622,149.1652375,18,-0.0008986587054096162,0.0010269596241414547,0.026500143110752106,0.00035870642750523984,0.00016611936734989285,0.0020164933521300554,0,1,-1000,0,0,0,-1,1,0,1500.0
07:23:11.319,STABILIZE,-35.3632622,149.1652375,18,-0.0008986587054096162,0.0010269596241414547,0.026500143110752106,0.00035870642750523984,0.00016611936734989285,0.0020164933521300554,0,1,-1000,0,0,0,-1,1,0,1500.0
07:23:11.529,STABILIZE,-35.3632622,149.1652375,18,-0.0008986587054096162,0.0010269596241414547,0.026500143110752106,0.00035870642750523984,0.00016611936734989285,0.0020164933521300554,0,1,-1000,0,0,0,-1,1,0,1500.0
07:23:11.736,STABILIZE,-35.3632622,149.1652375,18,-0.0008986587054096162,0.0010269596241414547,0.026500143110752106,0.00035870642750523984,0.00016611936734989285,0.0020164933521300554,0,1,-1000,0,0,0,-1,1,0,1500.0
07:23:11.938,STABILIZE,-35.3632622,149.1652375,18,-0.0008986587054096162,0.0010269596241414547,0.026500143110752106,0.00035870642750523984,0.00016611936734989285,0.0020164933521300554,0,1,-1000,0,0,0,-1,1,0,1500.0
07:23:12.140,STABILIZE,-35.3632622,149.1652375,18,-0.0008986587054096162,0.0010269596241414547,0.026500143110752106,0.00035870642750523984,0.00016611936734989285,0.0020164933521300554,0,1,-1000,0,0,0,-1,1,0,1500.0
07:23:12.342,STABILIZE,-35.3632622,149.1652375,18,-0.0008986587054096162,0.0010269596241414547,0.026500143110752106,0.00035870642750523984,0.00016611936734989285,0.0020164933521300554,0,1,-1000,0,0,0,-1,1,0,1500.0
07:23:12.543,STABILIZE,-35.3632621,149.1652375,0,-0.0008858016226440668,0.0009078530129045248,0.025713913142681122,0.00018555257702246308,0.0003060964518226683,0.002057731384411454,0,1,-1000,0,1,0,-1,2,3,1500.0
07:23:12.745,STABILIZE,-35.3632621,149.1652375,0,-0.0008858016226440668,0.0009078530129045248,0.025713913142681122,0.00018555257702246308,0.0003060964518226683,0.002057731384411454,0,1,-1000,0,1,0,-1,2,3,1500.0
07:23:12.946,STABILIZE,-35.3632621,149.1652375,0,-0.0008858016226440668,0.0009078530129045248,0.025713913142681122,0.00018555257702246308,0.0003060964518226683,0.002057731384411454,0,1,-1000,0,1,0,-1,2,3,1500.0
07:23:13.147,STABILIZE,-35.3632621,149.1652375,0,-0.0008858016226440668,0.0009078530129045248,0.025713913142681122,0.00018555257702246308,0.0003060964518226683,0.002057731384411454,0,1,-1000,0,1,0,-1,2,3,1500.0
07:23:13.348,STABILIZE,-35.3632621,149.1652375,0,-0.0008858016226440668,0.0009078530129045248,0.025713913142681122,0.00018555257702246308,0.0003060964518226683,0.002057731384411454,0,1,-1000,0,1,0,-1,2,3,1500.0
07:23:13.549,STABILIZE,-35.3632621,149.1652375,0,-0.0011216974817216396,0.0009051493834704161,0.025326339527964592,0.00013914768351241946,0.00021238555200397968,0.001900689210742712,0,1,-1000,0,0,0,-1,1,2,1500.0
07:23:13.751,STABILIZE,-35.3632621,149.1652375,0,-0.0011216974817216396,0.0009051493834704161,0.025326339527964592,0.00013914768351241946,0.00021238555200397968,0.001900689210742712,0,1,-1000,0,0,0,-1,1,2,1500.0
07:23:13.952,STABILIZE,-35.3632621,149.1652375,0,-0.0011216974817216396,0.0009051493834704161,0.025326339527964592,0.00013914768351241946,0.00021238555200397968,0.001900689210742712,0,1,-1000,0,0,0,-1,1,2,1500.0
07:23:14.153,STABILIZE,-35.3632621,149.1652375,0,-0.0011216974817216396,0.0009051493834704161,0.025326339527964592,0.00013914768351241946,0.00021238555200397968,0.001900689210742712,0,1,-1000,0,0,0,-1,1,2,1500.0
07:23:14.354,STABILIZE,-35.3632621,149.1652375,0,-0.0011216974817216396,0.0009051493834704161,0.025326339527964592,0.00013914768351241946,0.00021238555200397968,0.001900689210742712,0,1,-1000,0,0,0,-1,1,2,1500.0
07:23:14.556,STABILIZE,-35.3632621,149.1652375,0,-0.0011216974817216396,0.0009051493834704161,0.025326339527964592,0.00013914768351241946,0.00021238555200397968,0.001900689210742712,0,1,-1000,0,0,0,-1,0,1,1500.0
07:23:14.757,STABILIZE,-35.3632621,149.1652375,0,-0.0011216974817216396,0.0009051493834704161,0.025326339527964592,0.00013914768351241946,0.00021238555200397968,0.001900689210742712,0,1,-1000,0,0,0,-1,0,1,1500.0
07:23:14.959,STABILIZE,-35.3632621,149.1652375,0,-0.0009545016218908131,0.0009116379078477621,0.02494947984814644,0.00014673738041892648,0.00018578331219032407,0.0018341272370889783,0,1,-1000,0,0,0,-1,0,1,1500.0
07:23:15.163,STABILIZE,-35.3632621,149.1652375,0,-0.0009545016218908131,0.0009116379078477621,0.02494947984814644,0.00014673738041892648,0.00018578331219032407,0.0018341272370889783,0,1,-1000,0,0,0,-1,0,1,1500.0
07:23:15.364,STABILIZE,-35.3632621,149.1652375,0,-0.0009545016218908131,0.0009116379078477621,0.02494947984814644,0.00014673738041892648,0.00018578331219032407,0.0018341272370889783,0,1,-1000,0,0,0,-1,0,1,1500.0
07:23:15.566,STABILIZE,-35.3632621,149.1652375,0,-0.0009545016218908131,0.0009116379078477621,0.02494947984814644,0.00014673738041892648,0.00018578331219032407,0.0018341272370889783,0,1,-1000,0,0,0,-1,0,1,1500.0
07:23:15.767,STABILIZE,-35.3632621,149.1652375,0,-0.0009545016218908131,0.0009116379078477621,0.02494947984814644,0.00014673738041892648,0.00018578331219032407,0.0018341272370889783,0,1,-1000,1,0,0,-1,0,1,1500.0
07:23:15.968,STABILIZE,-35.3632621,149.1652375,0,-0.0012307466240599751,0.0009011270594783127,0.024615198373794556,0.0001504342071712017,0.0002475446090102196,0.0017421458614990115,0,1,-1000,0,0,0,-1,1,3,1500.0
07:23:16.170,STABILIZE,-35.3632621,149.1652375,0,-0.0012307466240599751,0.0009011270594783127,0.024615198373794556,0.0001504342071712017,0.0002475446090102196,0.0017421458614990115,0,1,-1000,0,0,0,-1,1,3,1500.0
07:23:16.371,STABILIZE,-35.3632621,149.1652375,0,-0.0013292744988575578,0.0009119830210693181,0.024498427286744118,0.00013135839253664017,0.00026662577874958515,0.001789748203009367,0,1,-1000,0,0,0,-1,1,2,1500.0
07:23:16.572,STABILIZE,-35.3632621,149.1652375,0,-0.0013292744988575578,0.0009119830210693181,0.024498427286744118,0.00013135839253664017,0.00026662577874958515,0.001789748203009367,0,1,-1000,0,0,0,-1,1,2,1500.0
07:23:16.774,STABILIZE,-35.3632621,149.1652375,0,-0.0013292744988575578,0.0009119830210693181,0.024498427286744118,0.00013135839253664017,0.00026662577874958515,0.001789748203009367,0,1,-1000,0,0,0,-1,1,2,1500.0
07:23:16.975,STABILIZE,-35.3632621,149.1652375,0,-0.0013292744988575578,0.0009119830210693181,0.024498427286744118,0.00013135839253664017,0.00026662577874958515,0.001789748203009367,0,1,-1000,0,0,0,-1,1,2,1500.0
07:23:17.176,STABILIZE,-35.3632621,149.1652375,0,-0.0013292744988575578,0.0009119830210693181,0.024498427286744118,0.00013135839253664017,0.00026662577874958515,0.001789748203009367,0,1,-1000,0,0,0,-1,1,2,1500.0
07:23:17.378,STABILIZE,-35.3632621,149.1652375,0,-0.0013292744988575578,0.0009119830210693181,0.024498427286744118,0.00013135839253664017,0.00026662577874958515,0.001789748203009367,0,1,-1000,0,0,0,-1,1,2,1500.0
07:23:17.580,STABILIZE,-35.3632621,149.1652375,0,-0.0014582427684217691,0.0009331437759101391,0.02419322170317173,0.00015203160000965,0.0003210591967217624,0.0016924672527238727,0,1,-1000,0,0,0,-1,0,1,1500.0
07:23:17.782,STABILIZE,-35.3632621,149.1652375,0,-0.0014684235211461782,0.0009367330931127071,0.02412477880716324,0.0001577360089868307,0.000333427160512656,0.0017375964671373367,0,1,-1000,0,0,0,-1,0,1,1500.0
07:23:17.983,STABILIZE,-35.3632621,149.1652375,0,-0.0014684235211461782,0.0009367330931127071,0.02412477880716324,0.0001577360089868307,0.000333427160512656,0.0017375964671373367,0,1,-1000,0,0,0,-1,0,1,1500.0
07:23:18.184,STABILIZE,-35.3632622,149.1652375,0,-0.0014760717749595642,0.0009503716137260199,0.024064213037490845,0.00011620204895734787,0.0002297142636962235,0.0017279685707762837,0,2,-1000,0,0,0,-1,0,1,1500.0
07:23:18.386,STABILIZE,-35.3632622,149.1652375,0,-0.0011630883673205972,0.0009448671480640769,0.02402471750974655,0.00020294281421229243,0.00031449878588318825,0.0016602349933236837,0,1,-1000,0,0,0,-1,1,2,1500.0
07:23:18.587,STABILIZE,-35.3632622,149.1652375,0,-0.0011630883673205972,0.0009448671480640769,0.02402471750974655,0.00020294281421229243,0.00031449878588318825,0.0016602349933236837,0,1,-1000,0,0,0,-1,1,2,1500.0
07:23:18.789,STABILIZE,-35.3632622,149.1652375,0,-0.0011630883673205972,0.0009448671480640769,0.02402471750974655,0.00020294281421229243,0.00031449878588318825,0.0016602349933236837,0,2,-1000,0,0,0,-1,1,2,1500.0
07:23:18.990,STABILIZE,-35.3632622,149.1652375,0,-0.0011630883673205972,0.0009448671480640769,0.02402471750974655,0.00020294281421229243,0.00031449878588318825,0.0016602349933236837,0,2,-1000,0,0,0,-1,1,2,1500.0
07:23:19.192,STABILIZE,-35.3632622,149.1652375,0,-0.0011630883673205972,0.0009448671480640769,0.02402471750974655,0.00020294281421229243,0.00031449878588318825,0.0016602349933236837,0,2,-1000,0,0,0,-1,1,2,1500.0
07:23:19.394,STABILIZE,-35.3632622,149.1652375,0,-0.0011630883673205972,0.0009448671480640769,0.02402471750974655,0.00020294281421229243,0.00031449878588318825,0.0016602349933236837,0,2,-1000,0,0,0,-1,1,2,1500.0
07:23:19.596,STABILIZE,-35.3632622,149.1652375,0,-0.0011630883673205972,0.0009448671480640769,0.02402471750974655,0.00020294281421229243,0.00031449878588318825,0.0016602349933236837,0,2,-1000,0,0,0,-1,1,2,1500.0
07:23:19.798,STABILIZE,-35.3632622,149.1652375,0,-0.0012782554840669036,0.0009642940713092685,0.023634333163499832,0.00020619016140699387,0.0003365500597283244,0.0016221068799495697,0,2,-1000,0,0,0,-1,1,1,1500.0
07:23:19.999,STABILIZE,-35.3632622,149.1652375,0,-0.0012782554840669036,0.0009642940713092685,0.023634333163499832,0.00020619016140699387,0.0003365500597283244,0.0016221068799495697,0,2,-1000,0,0,0,-1,1,1,1500.0
07:23:20.201,STABILIZE,-35.3632622,149.1652375,0,-0.0012782554840669036,0.0009642940713092685,0.023634333163499832,0.00020619016140699387,0.0003365500597283244,0.0016221068799495697,0,2,-1000,0,0,0,-1,1,1,1500.0
07:23:20.403,STABILIZE,-35.3632622,149.1652375,0,-0.001298809889703989,0.000965087441727519,0.023514827713370323,0.00020466605201363564,0.00027131184469908476,0.0016054935986176133,0,1,-1000,0,0,0,-1,1,0,1500.0
07:23:20.604,STABILIZE,-35.3632622,149.1652375,0,-0.001298809889703989,0.000965087441727519,0.023514827713370323,0.00020466605201363564,0.00027131184469908476,0.0016054935986176133,0,2,-1000,0,0,0,-1,1,0,1500.0
07:23:20.806,STABILIZE,-35.3632622,149.1652375,0,-0.001298809889703989,0.000965087441727519,0.023514827713370323,0.00020466605201363564,0.00027131184469908476,0.0016054935986176133,0,2,-1000,1,1,0,-1,1,0,1500.0
07:23:21.008,STABILIZE,-35.3632622,149.1652375,0,-0.001298809889703989,0.000965087441727519,0.023514827713370323,0.00020466605201363564,0.00027131184469908476,0.0016054935986176133,0,2,-1000,1,1,0,-1,1,0,1500.0
07:23:21.209,STABILIZE,-35.3632622,149.1652375,0,-0.001298809889703989,0.000965087441727519,0.023514827713370323,0.00020466605201363564,0.00027131184469908476,0.0016054935986176133,0,2,-1000,1,1,0,-1,1,0,1500.0
07:23:21.410,STABILIZE,-35.3632622,149.1652375,0,-0.001298809889703989,0.000965087441727519,0.023514827713370323,0.00020466605201363564,0.00027131184469908476,0.0016054935986176133,0,2,-1000,1,1,0,-1,1,0,1500.0
07:23:21.612,STABILIZE,-35.3632622,149.1652375,0,-0.001298809889703989,0.000965087441727519,0.023514827713370323,0.00020466605201363564,0.00027131184469908476,0.0016054935986176133,0,2,-1000,1,1,0,-1,1,0,1500.0
07:23:21.813,STABILIZE,-35.3632622,149.1652375,0,-0.0008195457048714161,0.0009837619727477431,0.023196877911686897,0.01460933405905962,0.0002104990417137742,0.0015432476066052914,0,88,-870,15,1,1,-1,3,4,1500.0
07:23:22.015,STABILIZE,-35.3632622,149.1652375,0,-0.0008195457048714161,0.0009837619727477431,0.023196877911686897,0.01460933405905962,0.0002104990417137742,0.0015432476066052914,0,1,-1000,0,0,0,-1,3,4,1500.0
07:23:22.216,STABILIZE,-35.3632622,149.1652376,0,-0.0008195457048714161,0.0009837619727477431,0.023196877911686897,0.01460933405905962,0.0002104990417137742,0.0015432476066052914,0,1,-1000,0,0,0,-1,3,3,1500.0
07:23:22.417,STABILIZE,-35.3632622,149.1652376,0,-0.0009821037529036403,0.0009980228496715426,0.02298092097043991,0.00020423729438334703,0.0002869424060918391,0.001500248908996582,0,1,-1000,0,0,0,-1,3,3,1500.0
07:23:22.619,STABILIZE,-35.3632622,149.1652376,0,-0.0009821037529036403,0.0009980228496715426,0.02298092097043991,0.00020423729438334703,0.0002869424060918391,0.001500248908996582,0,1,-1000,0,0,0,-1,3,3,1500.0
07:23:22.821,STABILIZE,-35.3632622,149.1652376,0,-0.0009821037529036403,0.0009980228496715426,0.02298092097043991,0.00020423729438334703,0.0002869424060918391,0.001500248908996582,0,1,-1000,0,0,0,-1,3,3,1500.0
07:23:23.023,STABILIZE,-35.3632622,149.1652376,0,-0.001177379977889359,0.0009976682486012578,0.022846050560474396,0.0002882673288695514,0.00025622989051043987,0.0015248691197484732,0,1,-1000,0,1,0,-1,2,2,1500.0
07:23:23.226,STABILIZE,-35.3632622,149.1652376,0,-0.001177379977889359,0.0009976682486012578,0.022846050560474396,0.0002882673288695514,0.00025622989051043987,0.0015248691197484732,0,1,-1000,0,1,0,-1,2,2,1500.0
07:23:23.441,STABILIZE,-35.3632622,149.1652376,0,-0.001177379977889359,0.0009976682486012578,0.022846050560474396,0.0002882673288695514,0.00025622989051043987,0.0015248691197484732,0,1,-1000,0,1,0,-1,2,2,1500.0
07:23:23.642,STABILIZE,-35.3632622,149.1652376,0,-0.001177379977889359,0.0009976682486012578,0.022846050560474396,0.0002882673288695514,0.00025622989051043987,0.0015248691197484732,0,1,-1000,0,1,0,-1,2,2,1500.0
07:23:23.844,STABILIZE,-35.3632622,149.1652376,0,-0.001177379977889359,0.0009976682486012578,0.022846050560474396,0.0002882673288695514,0.00025622989051043987,0.0015248691197484732,0,1,-1000,0,1,0,-1,2,2,1500.0
07:23:24.045,STABILIZE,-35.3632622,149.1652376,0,-0.001177379977889359,0.0009976682486012578,0.022846050560474396,0.0002882673288695514,0.00025622989051043987,0.0015248691197484732,0,1,-1000,0,1,0,-1,2,2,1500.0
07:23:24.246,STABILIZE,-35.3632622,149.1652376,0,-0.001177379977889359,0.0009976682486012578,0.022846050560474396,0.0002882673288695514,0.00025622989051043987,0.0015248691197484732,0,1,-1000,0,1,0,-1,2,2,1500.0
07:23:24.448,STABILIZE,-35.3632622,149.1652375,0,-0.001177379977889359,0.0009976682486012578,0.022846050560474396,0.0002882673288695514,0.00025622989051043987,0.0015248691197484732,0,2,-1000,1,1,0,-1,1,0,1500.0
07:23:24.649,STABILIZE,-35.3632622,149.1652375,0,-0.001177379977889359,0.0009976682486012578,0.022846050560474396,0.0002882673288695514,0.00025622989051043987,0.0015248691197484732,0,2,-1000,1,1,0,-1,1,0,1500.0
07:23:24.850,STABILIZE,-35.3632622,149.1652375,0,-0.001177379977889359,0.0009976682486012578,0.022846050560474396,0.0002882673288695514,0.00025622989051043987,0.0015248691197484732,0,2,-1000,1,1,0,-1,1,0,1500.0
07:23:25.052,STABILIZE,-35.3632622,149.1652375,0,-0.001538673765026033,0.0010049357078969479,0.02249571681022644,0.00016361073357984424,0.0002298132167197764,0.0015333329793065786,0,2,-1000,1,1,0,-1,1,0,1500.0
07:23:25.254,AUTO,-35.3632622,149.1652375,0,-0.001538673765026033,0.0010049357078969479,0.02249571681022644,0.00016361073357984424,0.0002298132167197764,0.0015333329793065786,0,2,-1000,1,1,0,-1,1,0,1500.0
07:23:25.455,AUTO,-35.3632622,149.1652375,0,-0.001538673765026033,0.0010049357078969479,0.02249571681022644,0.00016361073357984424,0.0002298132167197764,0.0015333329793065786,0,2,-1000,1,1,0,-1,1,0,1500.0
07:23:25.661,AUTO,-35.3632622,149.1652375,14,-0.0013236134545877576,0.0010303183225914836,0.022401349619030952,0.00019847048679366708,0.0003760164254345,0.0014311583945527673,0,1,-1000,0,0,0,-1,0,-3,1500.0
07:23:25.863,AUTO,-35.3632622,149.1652375,14,-0.0013236134545877576,0.0010303183225914836,0.022401349619030952,0.00019847048679366708,0.0003760164254345,0.0014311583945527673,0,1,-1000,0,0,0,-1,0,-3,1500.0
07:23:26.065,AUTO,-35.3632622,149.1652375,17,-0.0012545872014015913,0.0010380810126662254,0.022355228662490845,0.00033347640419378877,0.00029812828870490193,0.001350246137008071,0,1,-1000,0,0,0,-1,0,-3,1500.0
07:23:26.266,AUTO,-35.3632621,149.1652375,20,-0.001201100181788206,0.0010579315712675452,0.022321462631225586,0.00025289435870945454,0.00023214495740830898,0.001496456447057426,0,2,-1000,0,0,1,0,0,-3,1500.0
07:23:26.469,AUTO,-35.3632621,149.1652375,22,-0.0011508010793477297,0.0010944863315671682,0.022282978519797325,0.00027560925809666514,0.0002583162859082222,0.0014192272210493684,0,2,-1000,0,0,0,0,0,-2,200.0
07:23:26.672,AUTO,-35.3632621,149.1652375,24,-0.001111388555727899,0.0011498918756842613,0.02222384698688984,0.0002934127114713192,0.0003186037647537887,0.0014241229509934783,0,1,-1000,0,0,0,0,0,-2,200.0
07:23:26.875,AUTO,-35.3632621,149.1652375,24,-0.001111388555727899,0.0011498918756842613,0.02222384698688984,0.0002934127114713192,0.0003186037647537887,0.0014241229509934783,0,1,-1000,0,0,0,0,0,-2,200.0
07:23:27.076,AUTO,-35.3632621,149.1652375,26,-0.0010651156771928072,0.0012054948601871729,0.02218165248632431,0.0003217935445718467,0.000335800985340029,0.0015533111291006207,0,1,-1000,0,1,0,0,0,-2,200.0
07:23:27.278,AUTO,-35.3632621,149.1652375,26,-0.0010651156771928072,0.0012054948601871729,0.02218165248632431,0.0003217935445718467,0.000335800985340029,0.0015533111291006207,0,1,-1000,0,1,0,0,0,-2,200.0
07:23:27.480,AUTO,-35.3632621,149.1652375,26,-0.0010651156771928072,0.0012054948601871729,0.02218165248632431,0.0003217935445718467,0.000335800985340029,0.0015533111291006207,0,1,-1000,0,1,0,0,0,-2,200.0
07:23:27.682,AUTO,-35.3632621,149.1652375,30,-0.000931176298763603,0.0014250833773985505,0.022035466507077217,0.00023055856581777334,0.00033194059506058693,0.0014497218653559685,0,2,-1000,1,0,1,0,0,-2,200.0
07:23:27.883,AUTO,-35.3632621,149.1652375,31,-0.0008860582602210343,0.001492355833761394,0.02198251709342003,0.00016854290151968598,0.00027588196098804474,0.0014582362491637468,0,1,-1000,1,1,0,0,0,-2,200.0
07:23:28.085,AUTO,-35.3632621,149.1652375,31,-0.0008860582602210343,0.001492355833761394,0.02198251709342003,0.00016854290151968598,0.00027588196098804474,0.0014582362491637468,0,1,-1000,1,1,0,0,0,-2,200.0
07:23:28.287,AUTO,-35.3632621,149.1652375,32,-0.0008346186368726194,0.0015685382531955838,0.02192644216120243,0.00032005959656089544,0.00031128322007134557,0.0013745652977377176,0,2,-1000,0,0,0,0,0,-2,200.0
07:23:28.489,AUTO,-35.3632621,149.1652375,33,-0.0007775118574500084,0.0016469963593408465,0.02185220830142498,0.00033095828257501125,0.0003478415892459452,0.0014246918726712465,0,1,-1000,0,1,0,0,0,-2,200.0
07:23:28.691,AUTO,-35.3632621,149.1652375,35,-0.0007149535231292248,0.0017191373044624925,0.021800745278596878,0.0003025050973519683,0.000266673625446856,0.0014690428506582975,0,1,-1000,0,0,1,0,0,-2,200.0
07:23:28.893,AUTO,-35.3632621,149.1652375,35,-0.0005985014722682536,0.0017965607112273574,0.021739987656474113,0.0003627969417721033,0.0003174224984832108,0.001378233777359128,0,0,-1002,1,0,0,0,0,-2,200.0
07:23:29.095,AUTO,-35.3632621,149.1652375,35,-0.0005985014722682536,0.0017965607112273574,0.021739987656474113,0.0003627969417721033,0.0003174224984832108,0.001378233777359128,0,0,-1002,1,0,0,0,0,-2,200.0
07:23:29.296,AUTO,-35.3632621,149.1652375,35,-0.0005985014722682536,0.0017965607112273574,0.021739987656474113,0.0003627969417721033,0.0003174224984832108,0.001378233777359128,0,0,-1002,1,0,0,0,0,-2,200.0
07:23:29.500,AUTO,-35.3632621,149.1652375,35,-0.0005985014722682536,0.0017965607112273574,0.021739987656474113,0.0003627969417721033,0.0003174224984832108,0.001378233777359128,0,0,-1002,1,0,0,0,0,-2,200.0
07:23:29.702,AUTO,-35.3632621,149.1652375,235,0.0022460927721112967,0.0002102128491969779,0.021603640168905258,-0.0019580000080168247,0.004040531348437071,0.0012603537179529667,0,0,-1131,-1,4,0,0,1,-74,200.0
07:23:29.904,AUTO,-35.3632621,149.1652375,452,0.0014328667894005775,0.0011507435701787472,0.021604981273412704,-0.0077637904323637486,0.002343985950574279,0.0013301881263032556,0,0,-1110,-6,2,0,0,1,-103,200.0
07:23:30.106,AUTO,-35.3632621,149.1652375,452,0.0014328667894005775,0.0011507435701787472,0.021604981273412704,-0.0077637904323637486,0.002343985950574279,0.0013301881263032556,0,0,-1110,-6,2,0,0,1,-103,200.0
07:23:30.307,AUTO,-35.3632621,149.1652375,744,0.001466667279601097,0.0016504143131896853,0.02144959755241871,0.009303705766797066,0.00030073506059125066,-0.0008345512906089425,0,0,-1087,10,1,-1,0,1,-127,196801.0
07:23:30.509,AUTO,-35.3632621,149.1652375,1085,0.011464455164968967,0.0006919902516528964,0.021147657185792923,0.0477447435259819,-0.005934715270996094,0.001151768141426146,0,0,-1039,48,-5,0,0,2,-141,196801.0
07:23:30.711,AUTO,-35.3632621,149.1652375,1450,0.023303641006350517,-0.0010016418527811766,0.021112553775310516,0.0467875674366951,-0.007304000202566385,0.002082816092297435,0,0,-1016,47,-6,1,1,6,-147,196801.0
07:23:30.913,AUTO,-35.363262,149.1652377,1829,0.034737128764390945,-0.0029261258896440268,0.021225186064839363,0.04502438008785248,-0.008045380935072899,0.0028964027296751738,0,-1,-1007,45,-7,2,1,12,-150,196801.0
07:23:31.114,AUTO,-35.363262,149.1652377,1829,0.034737128764390945,-0.0029261258896440268,0.021225186064839363,0.04502438008785248,-0.008045380935072899,0.0028964027296751738,0,-1,-1007,45,-7,2,1,12,-150,196801.0
07:23:31.316,AUTO,-35.363262,149.1652377,1829,0.034737128764390945,-0.0029261258896440268,0.021225186064839363,0.04502438008785248,-0.008045380935072899,0.0028964027296751738,0,-1,-1007,45,-7,2,1,12,-150,196801.0
07:23:31.519,AUTO,-35.363262,149.1652377,1829,0.034737128764390945,-0.0029261258896440268,0.021225186064839363,0.04502438008785248,-0.008045380935072899,0.0028964027296751738,0,-1,-1007,45,-7,2,1,12,-150,196801.0
07:23:31.721,AUTO,-35.3632616,149.1652398,2976,0.061824146658182144,-0.008604319766163826,-0.008151819929480553,-0.01735670305788517,0.025866353884339333,-0.052450332790613174,1,-7,-992,-16,26,-52,8,44,-149,196801.0
07:23:31.922,AUTO,-35.3632614,149.1652411,3356,0.03955027833580971,0.01382613554596901,-0.031062165275216103,-0.14645855128765106,0.0917428731918335,-0.09984568506479263,5,-14,-990,-145,92,-100,9,54,-147,196801.0
07:23:32.124,AUTO,-35.3632614,149.1652411,3356,0.03955027833580971,0.01382613554596901,-0.031062165275216103,-0.14645855128765106,0.0917428731918335,-0.09984568506479263,5,-14,-990,-145,92,-100,9,54,-147,196801.0
07:23:32.326,AUTO,-35.3632611,149.1652426,3731,-0.0033427644520998,0.02354479767382145,-0.05030876398086548,-0.1428697109222412,-0.003920622169971466,-0.061602216213941574,5,-12,-1007,-142,-3,-61,6,55,-146,196801.0
07:23:32.529,AUTO,-35.363261,149.1652439,4110,-0.0230155847966671,0.015605702996253967,-0.05984095484018326,-0.045326802879571915,-0.037123337388038635,-0.03635213524103165,5,-11,-1010,-44,-36,-36,3,48,-149,196801.0
07:23:32.731,AUTO,-35.3632609,149.1652451,4493,-0.032521504908800125,0.00743914395570755,-0.0660422071814537,-0.04761281982064247,-0.019675087183713913,-0.03335459530353546,5,-10,-1003,-46,-19,-33,2,38,-150,196801.0
07:23:32.933,AUTO,-35.3632608,149.165246,4878,-0.04921044781804085,0.004194654989987612,-0.0735594853758812,-0.08122610300779343,-0.005692265462130308,-0.03491251915693283,3,-7,-1000,-80,-4,-35,1,26,-150,196801.0
07:23:33.142,AUTO,-35.3632608,149.165246,4878,-0.04921044781804085,0.004194654989987612,-0.0735594853758812,-0.08122610300779343,-0.005692265462130308,-0.03491251915693283,3,-7,-1000,-80,-4,-35,1,26,-150,196801.0
07:23:33.344,AUTO,-35.3632608,149.165246,4878,-0.04921044781804085,0.004194654989987612,-0.0735594853758812,-0.08122610300779343,-0.005692265462130308,-0.03491251915693283,3,-7,-1000,-80,-4,-35,1,26,-150,196801.0
07:23:33.546,AUTO,-35.3632608,149.165246,4878,-0.04921044781804085,0.004194654989987612,-0.0735594853758812,-0.08122610300779343,-0.005692265462130308,-0.03491251915693283,3,-7,-1000,-80,-4,-35,1,26,-150,196801.0
07:23:33.749,AUTO,-35.3632608,149.1652458,6036,-0.06993270665407181,0.0007253105868585408,-0.0968339592218399,0.051703501492738724,-0.0032904159743338823,-0.019152704626321793,-2,3,-1002,52,-2,-19,-2,-29,-150,196801.0
07:23:33.951,AUTO,-35.3632608,149.1652449,6419,-0.056135646998882294,0.00046178005868569016,-0.10159486532211304,0.05768825486302376,0.0022262106649577618,-0.012623862363398075,-3,7,-1000,58,2,-12,-4,-43,-150,196801.0
07:23:34.153,AUTO,-35.3632609,149.1652436,6803,-0.0411788672208786,0.0015997153241187334,-0.10473117977380753,0.062231943011283875,0.006580404471606016,-0.008183840662240982,-5,9,-1001,63,7,-8,-7,-53,-150,196801.0
07:23:34.356,AUTO,-35.3632609,149.1652436,6803,-0.0411788672208786,0.0015997153241187334,-0.10473117977380753,0.062231943011283875,0.006580404471606016,-0.008183840662240982,-5,9,-1001,63,7,-8,-7,-53,-150,300000.0
07:23:34.559,AUTO,-35.3632611,149.165242,7188,-0.02524668723344803,0.0036829763557761908,-0.10668060183525085,0.06542481482028961,0.009603417478501797,-0.004875022452324629,-5,11,-1002,66,10,-5,-9,-59,-151,300000.0
07:23:34.761,AUTO,-35.3632614,149.1652403,7574,-0.008709452114999294,0.006322857458144426,-0.10781635344028473,0.06728734821081161,0.011008127592504025,-0.0022135290782898664,-6,13,-1003,67,11,-2,-11,-60,-151,300000.0
07:23:34.963,AUTO,-35.3632617,149.1652386,7962,0.008209580555558205,0.008913042023777962,-0.10796865820884705,0.06769879907369614,0.010165868327021599,0.0004523621464613825,-4,13,-1004,68,10,0,-14,-57,-152,300000.0
07:23:35.165,AUTO,-35.3632617,149.1652386,7962,0.008209580555558205,0.008913042023777962,-0.10796865820884705,0.06769879907369614,0.010165868327021599,0.0004523621464613825,-4,13,-1004,68,10,0,-14,-57,-152,300000.0
07:23:35.367,AUTO,-35.3632617,149.1652386,7962,0.008209580555558205,0.008913042023777962,-0.10796865820884705,0.06769879907369614,0.010165868327021599,0.0004523621464613825,-4,13,-1004,68,10,0,-14,-57,-152,300000.0
07:23:35.570,AUTO,-35.3632617,149.1652386,7962,0.008209580555558205,0.008913042023777962,-0.10796865820884705,0.06769879907369614,0.010165868327021599,0.0004523621464613825,-4,13,-1004,68,10,0,-14,-57,-152,300000.0
07:23:35.772,AUTO,-35.3632629,149.1652349,9137,0.057670872658491135,0.012392457574605942,-0.10520512610673904,0.06262904405593872,-0.0022450387477874756,0.004883979447185993,0,10,-1002,63,-1,4,-20,-25,-154,300000.0
07:23:35.974,AUTO,-35.3632633,149.1652343,9530,0.0704314336180687,0.009267307817935944,-0.10170809179544449,0.017844708636403084,-0.037012748420238495,0.04035292938351631,2,5,-996,18,-36,39,-21,-7,-153,300000.0
07:23:36.177,AUTO,-35.3632638,149.1652343,9923,0.06484831124544144,-0.012773917987942696,-0.08420819789171219,-0.042708203196525574,-0.11086682975292206,0.10139867663383484,3,2,-995,-42,-109,101,-18,9,-152,300000.0
07:23:36.379,AUTO,-35.3632638,149.1652343,9923,0.06484831124544144,-0.012773917987942696,-0.08420819789171219,-0.042708203196525574,-0.11086682975292206,0.10139867663383484,3,2,-995,-42,-109,101,-18,9,-152,300000.0
07:23:36.581,AUTO,-35.3632641,149.1652347,10309,0.048907652497291565,-0.047227125614881516,-0.054377395659685135,-0.07545037567615509,-0.13574135303497314,0.13020583987236023,4,-1,-996,-74,-134,129,-8,22,-150,300000.0
07:23:36.783,AUTO,-35.3632641,149.1652352,10691,0.02089681103825569,-0.05933009460568428,-0.039726704359054565,-0.12060382962226868,0.02769729681313038,0.012382266111671925,2,-4,-997,-119,28,12,7,28,-149,300000.0
07:23:36.985,AUTO,-35.3632639,149.1652359,11071,-0.005213339813053608,-0.04167367145419121,-0.04704654961824417,-0.08894230425357819,0.08986745774745941,-0.05707474797964096,0,-7,-1002,-88,90,-57,20,27,-149,300000.0
07:23:37.187,AUTO,-35.3632639,149.1652359,11071,-0.005213339813053608,-0.04167367145419121,-0.04704654961824417,-0.08894230425357819,0.08986745774745941,-0.05707474797964096,0,-7,-1002,-88,90,-57,20,27,-149,300000.0
07:23:37.391,AUTO,-35.3632639,149.1652359,11071,-0.005213339813053608,-0.04167367145419121,-0.04704654961824417,-0.08894230425357819,0.08986745774745941,-0.05707474797964096,0,-7,-1002,-88,90,-57,20,27,-149,300000.0
07:23:37.594,AUTO,-35.3632639,149.1652359,11071,-0.005213339813053608,-0.04167367145419121,-0.04704654961824417,-0.08894230425357819,0.08986745774745941,-0.05707474797964096,0,-7,-1002,-88,90,-57,20,27,-149,300000.0
07:23:37.798,AUTO,-35.363262,149.1652372,12219,-0.02880769409239292,0.004903644789010286,-0.10781591385602951,0.004816326312720776,0.03861115127801895,-0.07722822576761246,-4,-5,-1003,5,39,-77,28,3,-152,300000.0
07:23:37.999,AUTO,-35.3632614,149.1652372,12607,-0.025239169597625732,0.012089861556887627,-0.1259448379278183,0.022566163912415504,0.02436313033103943,-0.06443356722593307,-5,-4,-1003,23,24,-64,25,-4,-153,300000.0
07:23:38.202,AUTO,-35.3632609,149.1652371,12996,-0.018848193809390068,0.016994748264551163,-0.14046551287174225,0.03243834897875786,0.017945490777492523,-0.04857245832681656,-5,-2,-1002,33,18,-48,19,-10,-153,300000.0
07:23:38.404,AUTO,-35.3632605,149.1652367,13386,-0.01016325131058693,0.02042737603187561,-0.15158867835998535,0.037503909319639206,0.011308266781270504,-0.03607151284813881,-5,0,-1001,38,11,-36,13,-13,-153,118441.0
07:23:38.605,AUTO,-35.3632605,149.1652367,13386,-0.01016325131058693,0.02042737603187561,-0.15158867835998535,0.037503909319639206,0.011308266781270504,-0.03607151284813881,-5,0,-1001,38,11,-36,13,-13,-153,118441.0
07:23:38.807,AUTO,-35.3632602,149.1652363,13778,-0.0012335735373198986,0.022579723969101906,-0.15951642394065857,0.033000972121953964,0.00802413746714592,-0.02655080333352089,-4,0,-1000,33,8,-26,7,-14,-153,118441.0
07:23:39.010,AUTO,-35.3632601,149.1652359,14169,0.006340142339468002,0.023262660950422287,-0.16438910365104675,0.02707427367568016,-0.0014279016759246588,-0.01282419078052044,-3,1,-1000,28,0,-12,2,-13,-153,118441.0
07:23:39.212,AUTO,-35.3632601,149.1652359,14169,0.006340142339468002,0.023262660950422287,-0.16438910365104675,0.02707427367568016,-0.0014279016759246588,-0.01282419078052044,-3,1,-1000,28,0,-12,2,-13,-153,118441.0
07:23:39.414,AUTO,-35.3632601,149.1652359,14169,0.006340142339468002,0.023262660950422287,-0.16438910365104675,0.02707427367568016,-0.0014279016759246588,-0.01282419078052044,-3,1,-1000,28,0,-12,2,-13,-153,118441.0
07:23:39.616,AUTO,-35.3632601,149.1652359,14169,0.006340142339468002,0.023262660950422287,-0.16438910365104675,0.02707427367568016,-0.0014279016759246588,-0.01282419078052044,-3,1,-1000,28,0,-12,2,-13,-153,118441.0
07:23:39.818,AUTO,-35.3632602,149.1652351,15340,0.015433045104146004,0.016270583495497704,-0.16563555598258972,-0.0009910599328577518,-0.013284211046993732,0.005914946086704731,0,1,-999,0,-12,5,-10,-1,-153,118441.0
07:23:40.020,AUTO,-35.3632604,149.1652351,15728,0.014292731881141663,0.012619021348655224,-0.16419652104377747,-0.00761205842718482,-0.01530714612454176,0.007241711486130953,1,1,-999,-6,-14,6,-12,2,-152,118441.0
07:23:40.222,AUTO,-35.3632606,149.1652351,16117,0.01197291724383831,0.009101889096200466,-0.16314418613910675,-0.007829028181731701,-0.01318254042416811,0.002996707335114479,2,1,-1000,-6,-12,2,-13,5,-152,118441.0
07:23:40.424,AUTO,-35.3632609,149.1652351,16505,0.009267670102417469,0.00603834493085742,-0.16298282146453857,-0.01055266335606575,-0.00915372371673584,-0.0036325149703770876,2,0,-1000,-9,-8,-4,-13,7,-152,118441.0
07:23:40.626,AUTO,-35.3632609,149.1652351,16505,0.009267670102417469,0.00603834493085742,-0.16298282146453857,-0.01055266335606575,-0.00915372371673584,-0.0036325149703770876,2,0,-1000,-9,-8,-4,-13,7,-152,118441.0
07:23:40.828,AUTO,-35.3632611,149.1652353,16893,0.006572611629962921,0.0035107911098748446,-0.16388845443725586,-0.010545608587563038,-0.008319828659296036,-0.006695230025798082,2,0,-1000,-9,-7,-6,-12,8,-152,118441.0
07:23:41.030,AUTO,-35.3632613,149.1652355,17279,-0.005973988678306341,0.0013909443514421582,-0.16589750349521637,-0.08509839326143265,-0.00801891926676035,-0.008747613988816738,2,0,-995,-84,-7,-9,-11,8,-151,118441.0
07:23:41.232,AUTO,-35.3632613,149.1652355,17279,-0.005973988678306341,0.0013909443514421582,-0.16589750349521637,-0.08509839326143265,-0.00801891926676035,-0.008747613988816738,2,0,-995,-84,-7,-9,-11,8,-151,118441.0
07:23:41.448,AUTO,-35.3632613,149.1652355,17279,-0.005973988678306341,0.0013909443514421582,-0.16589750349521637,-0.08509839326143265,-0.00801891926676035,-0.008747613988816738,2,0,-995,-84,-7,-9,-11,8,-151,118441.0
07:23:41.650,AUTO,-35.363262,149.1652351,18416,-0.06413234025239944,0.030409276485443115,-0.10881227999925613,-0.001583917997777462,0.1131763607263565,0.37017834186553955,0,4,-979,0,113,369,-16,-23,-143,118441.0
07:23:41.851,AUTO,-35.363262,149.1652351,18416,-0.06413234025239944,0.030409276485443115,-0.10881227999925613,-0.001583917997777462,0.1131763607263565,0.37017834186553955,0,4,-979,0,113,369,-16,-23,-143,118441.0
07:23:42.053,AUTO,-35.3632625,149.1652343,18771,-0.04826226457953453,0.04491756483912468,-0.010764368809759617,0.11748245358467102,-0.07716061919927597,0.32496923208236694,0,9,-953,118,-76,324,-27,-35,-134,118441.0
07:23:42.254,AUTO,-35.3632631,149.1652332,19100,-0.008104448206722736,0.009934073314070702,0.045093610882759094,0.16934947669506073,-0.16387444734573364,0.12684808671474457,0,10,-952,170,-162,126,-32,-40,-122,118441.0
07:23:42.456,AUTO,-35.3632638,149.1652321,19397,0.028279894962906837,-0.023160617798566818,0.059020448476076126,0.12043625861406326,-0.09708570688962936,0.00430503161624074,1,11,-956,121,-96,3,-30,-34,-111,300000.0
07:23:42.659,AUTO,-35.3632644,149.1652313,19666,0.05239693447947502,-0.03777564316987991,0.05341527983546257,0.07289835810661316,-0.03246478736400604,-0.038191426545381546,1,9,-959,73,-31,-38,-22,-22,-100,300000.0
07:23:42.861,AUTO,-35.3632644,149.1652313,19666,0.05239693447947502,-0.03777564316987991,0.05341527983546257,0.07289835810661316,-0.03246478736400604,-0.038191426545381546,1,9,-959,73,-31,-38,-22,-22,-100,300000.0
07:23:43.063,AUTO,-35.3632647,149.1652308,19908,0.06343872845172882,-0.04019036516547203,0.04369647428393364,0.02252412773668766,0.0014968814793974161,-0.03865222632884979,0,5,-963,23,2,-38,-12,-7,-90,300000.0
07:23:43.265,AUTO,-35.3632647,149.1652308,19908,0.06343872845172882,-0.04019036516547203,0.04369647428393364,0.02252412773668766,0.0014968814793974161,-0.03865222632884979,0,5,-963,23,2,-38,-12,-7,-90,300000.0
07:23:43.467,AUTO,-35.3632647,149.1652308,19908,0.06343872845172882,-0.04019036516547203,0.04369647428393364,0.02252412773668766,0.0014968814793974161,-0.03865222632884979,0,5,-963,23,2,-38,-12,-7,-90,300000.0
07:23:43.669,AUTO,-35.3632647,149.1652315,20493,0.046317677944898605,-0.020915696397423744,0.03128994256258011,-0.05035451427102089,0.03670373931527138,4.533689934760332e-05,0,-6,-974,-49,37,0,10,31,-66,300000.0
07:23:43.871,AUTO,-35.3632647,149.1652315,20493,0.046317677944898605,-0.020915696397423744,0.03128994256258011,-0.05035451427102089,0.03670373931527138,4.533689934760332e-05,0,-6,-974,-49,37,0,10,31,-66,300000.0
07:23:44.074,AUTO,-35.3632644,149.1652324,20651,0.03377571329474449,-0.011485104449093342,0.03095194697380066,-0.048308342695236206,0.036501090973615646,0.002964525017887354,0,-9,-976,-47,37,2,15,38,-59,300000.0
07:23:44.276,AUTO,-35.363264,149.1652334,20794,0.021950464695692062,-0.003104215255007148,0.03072689287364483,-0.04467390105128288,0.03162761032581329,0.00276967603713274,0,-10,-977,-43,32,2,17,41,-53,300000.0
07:23:44.478,AUTO,-35.3632636,149.1652345,20922,0.011167695745825768,0.0033626758959144354,0.03036583587527275,-0.0430666022002697,0.026125743985176086,0.003999862354248762,1,-11,-977,-42,27,3,18,42,-48,300000.0
07:23:44.681,AUTO,-35.3632631,149.1652356,21035,0.00296807661652565,0.009481195360422134,0.029887810349464417,-0.027759628370404243,0.021231098100543022,0.002667068038135767,0,-10,-978,-26,21,2,17,40,-42,300000.0
07:23:44.884,AUTO,-35.3632627,149.1652366,21133,-0.0037085898220539093,0.012993395328521729,0.029429305344820023,-0.020747901871800423,0.008223620243370533,0.0016633380437269807,1,-10,-977,-19,9,1,16,37,-37,300000.0
07:23:45.085,AUTO,-35.3632627,149.1652366,21133,-0.0037085898220539093,0.012993395328521729,0.029429305344820023,-0.020747901871800423,0.008223620243370533,0.0016633380437269807,1,-10,-977,-19,9,1,16,37,-37,300000.0
07:23:45.287,AUTO,-35.3632627,149.1652366,21133,-0.0037085898220539093,0.012993395328521729,0.029429305344820023,-0.020747901871800423,0.008223620243370533,0.0016633380437269807,1,-10,-977,-19,9,1,16,37,-37,300000.0
07:23:45.490,AUTO,-35.3632627,149.1652366,21133,-0.0037085898220539093,0.012993395328521729,0.029429305344820023,-0.020747901871800423,0.008223620243370533,0.0016633380437269807,1,-10,-977,-19,9,1,16,37,-37,300000.0
07:23:45.694,AUTO,-35.3632617,149.165239,21341,-0.013358229771256447,0.015227362513542175,0.027757328003644943,0.022707272320985794,-0.0012106690555810928,-0.0010488356929272413,0,-4,-973,23,0,0,8,22,-18,300000.0
07:23:45.897,AUTO,-35.3632615,149.1652395,21376,-0.0144992396235466,0.01432760525494814,0.027121979743242264,-0.053762417286634445,-0.00500054657459259,-0.0026750860270112753,0,-7,-970,-52,-4,-3,5,17,-11,300000.0
07:23:46.099,AUTO,-35.3632615,149.1652395,21376,-0.0144992396235466,0.01432760525494814,0.027121979743242264,-0.053762417286634445,-0.00500054657459259,-0.0026750860270112753,0,-7,-970,-52,-4,-3,5,17,-11,300000.0
07:23:46.301,AUTO,-35.3632614,149.1652399,21391,-0.014784330502152443,0.012842100113630295,0.026539340615272522,0.0033545736223459244,-0.006156581919640303,-0.004202183801680803,0,0,-965,4,-5,-4,3,12,-3,300000.0
07:23:46.503,AUTO,-35.3632613,149.1652402,21375,-0.04277133196592331,0.025313621386885643,0.025032201781868935,0.5107247829437256,0.004769118968397379,-0.0031483592465519905,0,21,-953,512,5,-3,0,4,12,31084.0
07:23:46.705,AUTO,-35.3632613,149.1652401,21327,-0.021699456498026848,0.012195443734526634,0.024719517678022385,0.3820361793041229,-0.08220038563013077,0.0024326667189598083,0,-2,-970,381,-81,2,-4,-6,22,31084.0
07:23:46.907,AUTO,-35.3632613,149.1652399,21269,-0.0030452755745500326,-0.007920586504042149,0.024237584322690964,-0.29042062163352966,-0.08248768001794815,0.00030457956017926335,-1,-33,-1009,-291,-81,0,-4,-11,19,31084.0
07:23:47.109,AUTO,-35.3632613,149.1652399,21269,-0.0030452755745500326,-0.007920586504042149,0.024237584322690964,-0.29042062163352966,-0.08248768001794815,0.00030457956017926335,-1,-33,-1009,-291,-81,0,-4,-11,19,31084.0
07:23:47.311,AUTO,-35.3632613,149.1652399,21269,-0.0030452755745500326,-0.007920586504042149,0.024237584322690964,-0.29042062163352966,-0.08248768001794815,0.00030457956017926335,-1,-33,-1009,-291,-81,0,-4,-11,19,31084.0
07:23:47.514,AUTO,-35.3632613,149.1652399,21269,-0.0030452755745500326,-0.007920586504042149,0.024237584322690964,-0.29042062163352966,-0.08248768001794815,0.00030457956017926335,-1,-33,-1009,-291,-81,0,-4,-11,19,31084.0
07:23:47.716,AUTO,-35.363261,149.1652397,21158,0.06094541773200035,-0.0439106822013855,0.020045660436153412,0.6502676010131836,-0.028671560809016228,-0.004571113269776106,-3,27,-1027,651,-27,-4,17,13,4,31084.0
07:23:47.918,AUTO,-35.3632605,149.1652402,21144,0.07453189045190811,-0.05043329671025276,0.01912062242627144,0.18751777708530426,-0.01574018970131874,0.005279549863189459,-1,-15,-1004,187,-14,5,28,26,1,31084.0
07:23:48.120,AUTO,-35.3632605,149.1652402,21144,0.07453189045190811,-0.05043329671025276,0.01912062242627144,0.18751777708530426,-0.01574018970131874,0.005279549863189459,-1,-15,-1004,187,-14,5,28,26,1,31084.0
07:23:48.322,AUTO,-35.3632597,149.1652412,21136,0.06929942220449448,-0.05831766501069069,0.06369191408157349,-0.5525811910629272,-0.046365100890398026,0.40638813376426697,-1,-43,-1009,-552,-45,406,41,41,0,31084.0
07:23:48.524,AUTO,-35.3632586,149.1652426,21133,0.060161080211400986,-0.07711254060268402,0.25012072920799255,-0.4112818241119385,-0.04690639674663544,1.0423401594161987,-5,-27,-1004,-409,-46,1042,54,57,-1,31084.0
07:23:48.726,AUTO,-35.3632572,149.1652445,21132,0.04232153296470642,-0.1020965501666069,0.5839215517044067,0.3552742302417755,-0.018342886120080948,1.4078757762908936,-17,6,-1009,357,-17,1407,68,74,-3,31084.0
07:23:48.928,AUTO,-35.3632555,149.1652469,21135,0.02371196076273918,-0.11985938996076584,0.877131998538971,0.43811729550361633,-0.04514304921030998,0.8935835957527161,-24,-4,-1007,438,-44,893,83,91,-3,31084.0
07:23:49.130,AUTO,-35.3632555,149.1652469,21135,0.02371196076273918,-0.11985938996076584,0.877131998538971,0.43811729550361633,-0.04514304921030998,0.8935835957527161,-24,-4,-1007,438,-44,893,83,91,-3,31084.0
07:23:49.333,AUTO,-35.3632555,149.1652469,21135,0.02371196076273918,-0.11985938996076584,0.877131998538971,0.43811729550361633,-0.04514304921030998,0.8935835957527161,-24,-4,-1007,438,-44,893,83,91,-3,31084.0
07:23:49.548,AUTO,-35.3632555,149.1652469,21135,0.02371196076273918,-0.11985938996076584,0.877131998538971,0.43811729550361633,-0.04514304921030998,0.8935835957527161,-24,-4,-1007,438,-44,893,83,91,-3,31084.0
07:23:49.750,AUTO,-35.3632483,149.1652571,21148,0.01167270727455616,-0.15454576909542084,0.977237343788147,0.24943900108337402,-0.05938000604510307,-0.1909581571817398,-39,3,-996,251,-58,-191,131,152,-3,31084.0
07:23:49.952,AUTO,-35.3632452,149.1652615,21153,0.021338198333978653,-0.17163559794425964,0.9381669163703918,0.3511433005332947,-0.06741417199373245,-0.12490905076265335,-42,-13,-1002,352,-66,-125,150,173,-3,31084.0
07:23:50.153,AUTO,-35.3632415,149.1652667,21156,0.02306338958442211,-0.17746877670288086,0.9149198532104492,-0.22420109808444977,0.005718693137168884,-0.047464072704315186,-54,-47,-1008,-224,6,-47,172,197,-3,31084.0
07:23:50.355,AUTO,-35.3632415,149.1652667,21156,0.02306338958442211,-0.17746877670288086,0.9149198532104492,-0.22420109808444977,0.005718693137168884,-0.047464072704315186,-54,-47,-1008,-224,6,-47,172,197,-3,31084.0
07:23:50.574,AUTO,-35.3632375,149.1652725,21161,0.02427639067173004,-0.17485061287879944,0.9052227139472961,-0.15531513094902039,0.006661674473434687,-0.018619472160935402,-57,-33,-1010,-154,7,-18,191,219,-4,232663.0
07:23:50.776,AUTO,-35.363233,149.1652789,21171,0.03550706431269646,-0.16377674043178558,0.903944730758667,0.2853221893310547,0.06421971321105957,-0.007001456804573536,-54,-23,-1011,286,65,-7,209,240,-6,232663.0
07:23:50.978,AUTO,-35.3632281,149.1652857,21185,0.04020240530371666,-0.14633037149906158,0.9051242470741272,-0.060819901525974274,0.05079112574458122,0.008676936849951744,-69,-43,-1011,-60,51,8,224,257,-9,232663.0
07:23:51.182,AUTO,-35.3632281,149.1652857,21185,0.04020240530371666,-0.14633037149906158,0.9051242470741272,-0.060819901525974274,0.05079112574458122,0.008676936849951744,-69,-43,-1011,-60,51,8,224,257,-9,232663.0
07:23:51.384,AUTO,-35.3632281,149.1652857,21185,0.04020240530371666,-0.14633037149906158,0.9051242470741272,-0.060819901525974274,0.05079112574458122,0.008676936849951744,-69,-43,-1011,-60,51,8,224,257,-9,232663.0
07:23:51.586,AUTO,-35.3632281,149.1652857,21185,0.04020240530371666,-0.14633037149906158,0.9051242470741272,-0.060819901525974274,0.05079112574458122,0.008676936849951744,-69,-43,-1011,-60,51,8,224,257,-9,232663.0
07:23:51.788,AUTO,-35.3632118,149.1653086,21261,0.056430090218782425,-0.12428019195795059,0.9058635830879211,0.06528156250715256,0.007204062771052122,0.0012206010287627578,-84,-63,-998,65,8,1,251,291,-13,232663.0
07:23:51.990,AUTO,-35.3632061,149.1653167,21290,0.06073516979813576,-0.12517784535884857,0.9049121141433716,-0.1344815492630005,-0.004061512649059296,0.0062124598771333694,-78,-55,-990,-133,-3,6,256,300,-12,232663.0
07:23:52.192,AUTO,-35.3632002,149.1653251,21316,0.06078833341598511,-0.12079238891601562,0.9044792056083679,0.026315171271562576,0.027571873739361763,2.4441636924166232e-05,-85,-50,-997,27,28,0,261,310,-12,232663.0
07:23:52.394,AUTO,-35.3631941,149.1653339,21343,0.0647568479180336,-0.11577851325273514,0.9043759703636169,0.08263648301362991,0.01892748475074768,-0.007242180407047272,-87,-55,-993,83,19,-7,265,317,-11,232663.0
07:23:52.598,AUTO,-35.3631941,149.1653339,21343,0.0647568479180336,-0.11577851325273514,0.9043759703636169,0.08263648301362991,0.01892748475074768,-0.007242180407047272,-87,-55,-993,83,19,-7,265,317,-11,232663.0
07:23:52.802,AUTO,-35.3631881,149.1653428,21367,0.059290409088134766,-0.11290597915649414,0.9043667912483215,-0.116415835916996,0.009935654699802399,0.00013123945973347872,-88,-58,-994,-115,11,0,268,324,-11,232663.0
07:23:53.005,AUTO,-35.363182,149.1653518,21390,0.05752354860305786,-0.10657385736703873,0.9039815664291382,0.027116619050502777,0.029094865545630455,-0.007592353504151106,-92,-53,-999,28,30,-7,270,330,-11,232663.0
07:23:53.208,AUTO,-35.363182,149.1653518,21390,0.05752354860305786,-0.10657385736703873,0.9039815664291382,0.027116619050502777,0.029094865545630455,-0.007592353504151106,-92,-53,-999,28,30,-7,270,330,-11,232663.0
07:23:53.411,AUTO,-35.363182,149.1653518,21390,0.05752354860305786,-0.10657385736703873,0.9039815664291382,0.027116619050502777,0.029094865545630455,-0.007592353504151106,-92,-53,-999,28,30,-7,270,330,-11,232663.0
07:23:53.613,AUTO,-35.363182,149.1653518,21390,0.05752354860305786,-0.10657385736703873,0.9039815664291382,0.027116619050502777,0.029094865545630455,-0.007592353504151106,-92,-53,-999,28,30,-7,270,330,-11,232663.0
07:23:53.815,AUTO,-35.3631634,149.1653794,21460,0.05753832682967186,-0.08340710401535034,0.9026018381118774,-0.02328706532716751,0.03925247862935066,0.0003019820142071694,-90,-53,-996,-22,40,0,275,337,-12,232663.0
07:23:54.017,AUTO,-35.3631572,149.1653887,21486,0.05828003212809563,-0.08078213036060333,0.9026750326156616,0.058972522616386414,0.009203040972352028,-0.0025876921135932207,-82,-53,-991,59,9,-2,274,336,-11,232663.0
07:23:54.219,AUTO,-35.3631509,149.1653979,21509,0.06023266166448593,-0.08020295202732086,0.9024192094802856,-0.015611560083925724,-0.013911867514252663,-0.006148820277303457,-92,-51,-992,-14,-12,-6,273,334,-10,232663.0
07:23:54.421,AUTO,-35.3631447,149.1654071,21530,0.0604475662112236,-0.08425991237163544,0.9020149111747742,-0.03322465345263481,-0.004452347755432129,-0.0004932570736855268,-78,-51,-986,-32,-3,0,272,334,-9,300000.0
07:23:54.623,AUTO,-35.3631447,149.1654071,21530,0.0604475662112236,-0.08425991237163544,0.9020149111747742,-0.03322465345263481,-0.004452347755432129,-0.0004932570736855268,-78,-51,-986,-32,-3,0,272,334,-9,300000.0
07:23:54.825,AUTO,-35.3631384,149.1654162,21548,0.060018304735422134,-0.07855185121297836,0.9020333290100098,0.050193704664707184,0.0354633592069149,-0.0039078001864254475,-89,-53,-996,51,36,-4,271,334,-9,300000.0
07:23:55.027,AUTO,-35.3631322,149.1654253,21567,0.06083479896187782,-0.06644603610038757,0.9020874500274658,0.02903611585497856,0.05865919962525368,-0.008312582969665527,-86,-55,-1001,29,59,-8,269,332,-9,300000.0
07:23:55.229,AUTO,-35.3631322,149.1654253,21567,0.06083479896187782,-0.06644603610038757,0.9020874500274658,0.02903611585497856,0.05865919962525368,-0.008312582969665527,-86,-55,-1001,29,59,-8,269,332,-9,300000.0
07:23:55.432,AUTO,-35.3631322,149.1654253,21567,0.06083479896187782,-0.06644603610038757,0.9020874500274658,0.02903611585497856,0.05865919962525368,-0.008312582969665527,-86,-55,-1001,29,59,-8,269,332,-9,300000.0
07:23:55.634,AUTO,-35.3631322,149.1654253,21567,0.06083479896187782,-0.06644603610038757,0.9020874500274658,0.02903611585497856,0.05865919962525368,-0.008312582969665527,-86,-55,-1001,29,59,-8,269,332,-9,300000.0
07:23:55.836,AUTO,-35.363114,149.165452,21638,0.06523136049509048,-0.027234084904193878,0.9021218419075012,0.12227847427129745,0.05438230186700821,-0.013462921604514122,-85,-41,-996,123,55,-13,251,312,-11,300000.0
07:23:56.038,AUTO,-35.3631083,149.1654604,21662,0.06064116209745407,-0.015500370413064957,0.9020169973373413,-0.3061561584472656,0.036400023847818375,0.002983874175697565,-80,-61,-994,-305,37,2,241,302,-10,300000.0
07:23:56.240,AUTO,-35.3631029,149.1654684,21683,0.055887509137392044,-0.00512677663937211,0.9019999504089355,-0.20548979938030243,0.05073096230626106,-0.019489100202918053,-75,-44,-990,-203,51,-19,231,290,-8,300000.0
07:23:56.442,AUTO,-35.3630977,149.1654761,21699,0.06464575976133347,0.007417244371026754,0.902094841003418,0.564654529094696,0.054971374571323395,-0.03394678607583046,-71,-17,-998,566,55,-34,218,277,-6,300000.0
07:23:56.645,AUTO,-35.3630927,149.1654834,21713,0.06327662616968155,0.02052449993789196,0.902534008026123,0.2709598243236542,0.05813729763031006,-0.000688397791236639,-65,-50,-991,271,58,-1,205,261,-6,300000.0
07:23:56.847,AUTO,-35.3630927,149.1654834,21713,0.06327662616968155,0.02052449993789196,0.902534008026123,0.2709598243236542,0.05813729763031006,-0.000688397791236639,-65,-50,-991,271,58,-1,205,261,-6,300000.0
07:23:57.049,AUTO,-35.3630881,149.1654903,21725,0.054800331592559814,0.03395242244005203,0.9020180702209473,-0.5205257534980774,0.05011386796832085,0.026266057044267654,-64,-81,-988,-520,50,25,191,244,-5,300000.0
07:23:57.252,AUTO,-35.3630881,149.1654903,21725,0.054800331592559814,0.03395242244005203,0.9020180702209473,-0.5205257534980774,0.05011386796832085,0.026266057044267654,-64,-81,-988,-520,50,25,191,244,-5,300000.0
07:23:57.456,AUTO,-35.3630881,149.1654903,21725,0.054800331592559814,0.03395242244005203,0.9020180702209473,-0.5205257534980774,0.05011386796832085,0.026266057044267654,-64,-81,-988,-520,50,25,191,244,-5,300000.0
07:23:57.658,AUTO,-35.3630765,149.165508,21749,0.05165395140647888,0.0723581537604332,0.9011213183403015,0.621680736541748,0.054306745529174805,-0.0170429814606905,-47,-9,-1001,622,55,-17,138,186,-4,300000.0
07:23:57.860,AUTO,-35.3630765,149.165508,21749,0.05165395140647888,0.0723581537604332,0.9011213183403015,0.621680736541748,0.054306745529174805,-0.0170429814606905,-47,-9,-1001,622,55,-17,138,186,-4,300000.0
07:23:58.062,AUTO,-35.3630735,149.1655128,21752,0.04267216846346855,0.08741122484207153,0.9008874893188477,0.021518224850296974,0.06081334874033928,0.003060083370655775,-37,-49,-1003,21,61,2,120,163,-1,300000.0
07:23:58.265,AUTO,-35.3630709,149.165517,21754,0.029506079852581024,0.09404443949460983,0.9005988240242004,-0.679370105266571,0.0037362377624958754,0.0052057490684092045,-36,-63,-1014,-679,4,4,101,139,-1,300000.0
07:23:58.468,AUTO,-35.3630687,149.1655206,21753,0.018934957683086395,0.09037456661462784,0.8989295363426208,-0.46626588702201843,-0.02033889852464199,-0.014329196885228157,-27,-31,-1008,-464,-19,-14,81,116,0,130674.0
07:23:58.670,AUTO,-35.363067,149.1655235,21750,0.020521089434623718,0.08036855608224869,0.8970062732696533,0.23802658915519714,-0.04834410175681114,-0.02024727873504162,-22,9,-1002,240,-47,-20,63,96,0,130674.0
07:23:58.872,AUTO,-35.363067,149.1655235,21750,0.020521089434623718,0.08036855608224869,0.8970062732696533,0.23802658915519714,-0.04834410175681114,-0.02024727873504162,-22,9,-1002,240,-47,-20,63,96,0,130674.0
07:23:59.075,AUTO,-35.3630657,149.165526,21747,0.016526689752936363,0.066585473716259,0.8958585858345032,0.6433708071708679,-0.05155079811811447,-0.003543353406712413,-17,14,-1002,645,-50,-3,51,78,0,130674.0
07:23:59.277,AUTO,-35.3630657,149.165526,21747,0.016526689752936363,0.066585473716259,0.8958585858345032,0.6433708071708679,-0.05155079811811447,-0.003543353406712413,-17,14,-1002,645,-50,-3,51,78,0,130674.0
07:23:59.479,AUTO,-35.3630657,149.165526,21747,0.016526689752936363,0.066585473716259,0.8958585858345032,0.6433708071708679,-0.05155079811811447,-0.003543353406712413,-17,14,-1002,645,-50,-3,51,78,0,130674.0
07:23:59.681,AUTO,-35.3630632,149.1655311,21742,-0.008063890039920807,0.0424470454454422,0.8948507308959961,-0.5305987596511841,-0.018629614263772964,0.002878981875255704,-5,-22,-1007,-529,-17,2,26,39,0,130674.0
07:23:59.886,AUTO,-35.3630632,149.1655311,21742,-0.008063890039920807,0.0424470454454422,0.8948507308959961,-0.5305987596511841,-0.018629614263772964,0.002878981875255704,-5,-22,-1007,-529,-17,2,26,39,0,130674.0
07:24:00.088,AUTO,-35.3630628,149.1655322,21742,-0.004883013665676117,0.03912533074617386,0.894386887550354,0.23457898199558258,-0.01616746373474598,-0.0011620044242590666,-4,17,-999,236,-15,-1,20,29,0,130674.0
07:24:00.290,AUTO,-35.3630625,149.1655331,21741,-0.0009581841295585036,0.034818653017282486,0.8943209052085876,0.6471470594406128,-0.022163955494761467,0.001953995553776622,-2,17,-1008,648,-21,1,16,20,0,130674.0
07:24:00.492,AUTO,-35.3630623,149.1655337,21742,-0.004961091559380293,0.03080081380903721,0.8939355611801147,0.07056939601898193,-0.01614564284682274,0.0004485913668759167,-1,-20,-996,70,-15,0,13,11,0,130674.0
07:24:00.694,AUTO,-35.3630622,149.1655342,21744,-0.017917217686772346,0.02694310061633587,0.8935229778289795,-0.582053005695343,-0.014737366698682308,0.0013862273190170527,-1,-34,-1000,-581,-13,1,11,4,-1,130674.0
07:24:00.896,AUTO,-35.3630622,149.1655345,21747,-0.019404789432883263,0.022328851744532585,0.8937222957611084,-0.05583374947309494,-0.021030358970165253,0.0014413512544706464,0,4,-997,-53,-20,1,9,-1,0,130674.0
07:24:01.101,AUTO,-35.3630622,149.1655345,21747,-0.019404789432883263,0.022328851744532585,0.8937222957611084,-0.05583374947309494,-0.021030358970165253,0.0014413512544706464,0,4,-997,-53,-20,1,9,-1,0,130674.0
07:24:01.303,AUTO,-35.3630622,149.1655345,21747,-0.019404789432883263,0.022328851744532585,0.8937222957611084,-0.05583374947309494,-0.021030358970165253,0.0014413512544706464,0,4,-997,-53,-20,1,9,-1,0,130674.0
07:24:01.505,AUTO,-35.3630622,149.1655345,21747,-0.019404789432883263,0.022328851744532585,0.8937222957611084,-0.05583374947309494,-0.021030358970165253,0.0014413512544706464,0,4,-997,-53,-20,1,9,-1,0,130674.0
07:24:01.708,AUTO,-35.3630624,149.1655349,21753,-0.021967044100165367,0.003265813458710909,0.8944972157478333,-0.5225533246994019,-0.027719365432858467,0.00014211087545845658,1,-32,-991,-522,-26,0,10,-12,0,130674.0
07:24:01.910,AUTO,-35.3630625,149.1655349,21754,-0.02442210540175438,-0.004343810956925154,0.8942895531654358,-0.3174142837524414,-0.023380275815725327,-0.0038037218619138002,0,0,-1005,-315,-22,-4,11,-12,0,130674.0
07:24:02.112,AUTO,-35.3630625,149.1655349,21754,-0.02442210540175438,-0.004343810956925154,0.8942895531654358,-0.3174142837524414,-0.023380275815725327,-0.0038037218619138002,0,0,-1005,-315,-22,-4,11,-12,0,130674.0
07:24:02.314,RTL,-35.3630625,149.165535,21757,-0.014121387153863907,-0.0067122033797204494,0.8943432569503784,0.3754448890686035,0.0015970257809385657,-0.002081155776977539,0,36,-998,376,2,-2,13,-11,0,130674.0
07:24:02.516,RTL,-35.3630624,149.1655351,21760,-0.010474695824086666,-0.0038522868417203426,0.8940463066101074,0.4031592607498169,0.023402277380228043,-0.006425325758755207,-1,3,-998,403,24,-6,15,-11,0,70245.0
07:24:02.718,RTL,-35.3630624,149.1655351,21762,-0.01574655808508396,0.0006352865602821112,0.8940955400466919,-0.40716326236724854,0.011397936381399632,-0.00690654618665576,-2,-28,-1002,-407,12,-7,16,-12,0,70245.0
07:24:02.920,RTL,-35.3630623,149.165535,21768,-0.017193662002682686,0.0010292651131749153,0.8936240673065186,-0.5854114890098572,0.002675264608114958,-0.008083606138825417,0,-23,-1014,-585,3,-8,17,-13,-3,70245.0
07:24:03.122,RTL,-35.3630623,149.165535,21768,-0.017193662002682686,0.0010292651131749153,0.8936240673065186,-0.5854114890098572,0.002675264608114958,-0.008083606138825417,0,-23,-1014,-585,3,-8,17,-13,-3,70245.0
07:24:03.324,RTL,-35.3630623,149.165535,21768,-0.017193662002682686,0.0010292651131749153,0.8936240673065186,-0.5854114890098572,0.002675264608114958,-0.008083606138825417,0,-23,-1014,-585,3,-8,17,-13,-3,70245.0
07:24:03.526,RTL,-35.3630623,149.165535,21768,-0.017193662002682686,0.0010292651131749153,0.8936240673065186,-0.5854114890098572,0.002675264608114958,-0.008083606138825417,0,-23,-1014,-585,3,-8,17,-13,-3,70245.0
07:24:03.728,RTL,-35.3630619,149.1655349,21867,-0.0009221673244610429,0.0010438518365845084,0.8924384117126465,-0.12057036906480789,7.113663014024496e-05,-0.007011948619037867,-1,-16,-1029,-120,1,-7,13,-13,-24,70245.0
07:24:03.930,RTL,-35.3630619,149.1655348,21942,-0.008827953599393368,0.0012393463402986526,0.892155647277832,-0.2942490875720978,0.002503756433725357,-0.007618016097694635,-1,-6,-1045,-293,3,-8,12,-12,-34,70245.0
