time_stamp,lat,lon,relative_alt,vx,vy,vz,xacc,yacc,zacc,xgyro,ygyro,zgyro,roll,pitch,yaw,rollspeed,pitchspeed,yawspeed,MODE,RTL_ALT
08:06:53,-35.3632622,149.1652376,5.0,-1.0,0.6666666666666666,2.0,0.0,1.3333333333333333,-1000.3333333333334,3.3333333333333335,0.6666666666666666,0.6666666666666666,-0.001303674381536742,0.0010080012725666165,0.02210541193683942,0.0029067760527444384,0.00025056277324135107,0.0014502123619119327,AUTO,1500.0
08:06:55,-35.3632621,149.1652375,5.0,0.0,0.0,0.0,0.0,1.3333333333333333,-1000.0,0.3333333333333333,0.0,0.6666666666666666,-0.000925796494508783,0.0013656597584486008,0.021832299108306568,0.00031434193563958007,0.00024008454056456685,0.001579962942438821,AUTO,1500.0
08:06:56,-35.3632621,149.16523743333332,10.0,0.0,0.0,-1.3333333333333333,0.0,1.3333333333333333,-1025.6666666666667,3.6666666666666665,-2.6666666666666665,1.0,-0.0002951231726910919,0.0015300659385199349,0.021593134229381878,0.0033331754772613444,-0.00343510031234473,0.0018306886389230688,AUTO,14442.0
08:06:57,-35.3632621,149.1652375,233.33333333333334,0.0,0.3333333333333333,-69.0,0.0,0.0,-1125.0,-0.3333333333333333,2.6666666666666665,0.6666666666666666,0.0026052213894824186,0.0003083102637901902,0.021456504861513775,-0.000883840878183643,0.002117946006668111,0.0018818799095849197,AUTO,14442.0
08:06:59,-35.36326163333333,149.16523973333332,2941.6666666666665,7.0,40.666666666666664,-148.33333333333334,1.6666666666666667,-7.0,-994.6666666666666,-24.333333333333332,34.333333333333336,-42.0,0.0535191980501016,-0.0024650294023255506,-0.0036214861708382764,-0.02500159355501334,0.033941466361284256,-0.04154526628553867,AUTO,14442.0
08:07:01,-35.36326116666667,149.16524603333335,6008.333333333333,-3.3333333333333335,-19.666666666666668,-149.66666666666666,-0.3333333333333333,2.6666666666666665,-1002.0,9.333333333333334,-17.333333333333332,2.3333333333333335,-0.06849347800016403,-0.010713885693500439,-0.08705324431260426,0.00868669773141543,-0.018299552340370912,0.002798772300593555,AUTO,14442.0
08:07:02,-35.363261333333334,149.16523956666666,7938.666666666667,-0.3333333333333333,-56.666666666666664,-152.0,-7.333333333333333,10.666666666666666,-1003.3333333333334,66.33333333333333,15.0,2.6666666666666665,0.001566893692749242,-0.0030846784551007054,-0.08869748065869014,0.06574932237466176,0.014699247665703297,0.0038560060784220695,AUTO,203171.0
08:07:03,-35.3632615,149.1652355,9117.0,-3.0,-32.0,-154.0,-4.333333333333333,8.0,-1002.0,57.333333333333336,11.666666666666666,0.0,0.048996241142352424,0.006570880146076282,-0.08606500178575516,0.05697093655665716,0.011623689283927282,0.0005547163697580496,AUTO,203171.0
08:07:05,-35.3632624,149.1652363333333,12212.666666666666,-1.3333333333333333,11.0,-152.33333333333334,1.3333333333333333,-1.6666666666666667,-1002.0,-5.666666666666667,0.0,-19.0,-0.014124358383317789,-0.005182445670167605,-0.09829219927390416,-0.006602736966063579,-0.0005087040481157601,-0.018739753713210423,AUTO,203171.0
08:07:07,-35.363262,149.16523593333332,15328.666666666666,2.3333333333333335,-4.0,-152.66666666666666,-1.6666666666666667,0.0,-998.3333333333334,-10.666666666666666,5.0,-17.666666666666668,0.004379490700860818,0.0042647672817111015,-0.143618514140447,-0.011476531624794006,0.005017541504154603,-0.018026871606707573,AUTO,203171.0
08:07:08,-35.36326186666667,149.16523396666668,17237.333333333332,-13.0,-30.666666666666668,-141.66666666666666,-2.0,5.666666666666667,-973.0,38.0,23.666666666666668,265.3333333333333,-0.04123575364549955,0.03218469396233559,-0.07427392154932022,0.03708526740471522,0.02308568110068639,0.2661979099114736,AUTO,30026.0
08:07:09,-35.363263233333335,149.16523093333333,18216.333333333332,-24.333333333333332,-28.0,-112.0,0.3333333333333333,10.0,-958.0,100.33333333333333,-82.33333333333333,15.333333333333334,0.040030949438611664,-0.01542594221731027,0.054922062903642654,0.09982470547159512,-0.08349427084128062,0.015633144571135443,AUTO,30026.0
08:07:11,-35.363263,149.1652346,19790.333333333332,14.0,43.333333333333336,-50.333333333333336,1.3333333333333333,-10.0,-977.3333333333334,-36.666666666666664,19.0,2.3333333333333335,0.006899178493767977,0.005112428829306737,0.03213970363140106,-0.038067479307452835,0.01866570549706618,0.0031922084745019674,AUTO,30026.0
08:07:13,-35.3632613,149.1652401,20279.0,-1.3333333333333333,2.3333333333333335,7.333333333333333,0.3333333333333333,-9.0,-953.3333333333334,-154.66666666666666,8.666666666666666,-4.333333333333333,-0.03624876060833534,0.018405656640728314,0.027862003073096275,-0.15486621608336767,0.007511327664057414,-0.004580381869648893,AUTO,19415.0
08:07:15,-35.36326453333333,149.1652333333333,20046.666666666668,-42.0,-60.666666666666664,-3.3333333333333335,-1.0,19.666666666666668,-1011.3333333333334,-115.66666666666667,5.666666666666667,-395.6666666666667,-0.0534198097884655,0.024978714684645336,-0.05273311398923397,-0.11682599782943726,0.0049803778529167175,-0.3957992298528552,AUTO,19415.0
08:07:17,-35.3632791,149.16520823333335,20124.333333333332,-128.33333333333334,-176.66666666666666,-7.0,-50.666666666666664,-3.0,-1003.0,-22.0,-49.0,-787.6666666666666,-0.04752611120541891,-0.13998701671759287,-1.6521942218144734,-0.02312112847963969,-0.0501241534948349,-0.7878342270851135,AUTO,19415.0
08:07:18,-35.3632979,149.16517586666666,20220.333333333332,-204.33333333333334,-290.0,-11.0,-66.0,-44.333333333333336,-1005.0,64.33333333333333,-19.666666666666668,69.0,0.05369705334305763,-0.17635372777779898,-2.2105992635091147,0.06323654701312383,-0.020940028751889866,0.06934005332489808,AUTO,19622.0
08:07:19,-35.36331296666666,149.1651489333333,20306.666666666668,-247.33333333333334,-359.6666666666667,-12.666666666666666,-87.0,-50.333333333333336,-1003.0,7.0,-30.666666666666668,28.0,0.04963477825125059,-0.1977385034163793,-2.159849484761556,0.006003257818520069,-0.03190874494612217,0.02836387394927442,AUTO,19622.0
08:07:21,-35.363367266666664,149.1650513,20684.333333333332,-348.6666666666667,-508.0,-26.333333333333332,-111.66666666666667,-79.0,-996.0,12.0,16.666666666666668,-4.0,0.0683806190888087,-0.1742306798696518,-2.163424571355184,0.011033833026885986,0.016260762854168814,-0.004290841442222397,AUTO,19622.0
08:07:23,-35.3634335,149.16493176666665,21234.0,-380.6666666666667,-556.6666666666666,-28.333333333333332,-141.33333333333334,-75.33333333333333,-999.3333333333334,5.333333333333333,48.333333333333336,-2.0,0.07355218629042308,-0.12941613296667734,-2.163311243057251,0.004338175834467013,0.04761882685124874,-0.00166040340748926,AUTO,19622.0
08:07:24,-35.363476266666666,149.16485496666667,21557.666666666668,-375.3333333333333,-548.0,-23.333333333333332,-136.66666666666666,-77.66666666666667,-995.3333333333334,-10.0,50.333333333333336,-5.333333333333333,0.08132390926281612,-0.11020257075627644,-2.164328177769979,-0.011053222542007765,0.049837435285250344,-0.00569879620646437,AUTO,7738.0
08:07:25,-35.363501333333325,149.16480993333334,21742.666666666668,-358.6666666666667,-527.0,-24.666666666666668,-118.33333333333333,-73.66666666666667,-984.6666666666666,-2.0,62.0,-1.6666666666666667,0.0782205859820048,-0.0709360974530379,-2.1633673508961997,-0.003146763890981674,0.06141537676254908,-0.0019260166639772554,AUTO,7738.0
08:07:27,-35.363558766666664,149.16470663333334,22151.333333333332,-258.6666666666667,-387.0,-14.0,-99.66666666666667,-67.66666666666667,-995.0,-82.66666666666667,58.666666666666664,-3.3333333333333335,0.06934208422899246,0.028788456072409947,-2.160811106363932,-0.08410891890525818,0.05799096946914991,-0.003600167421003183,AUTO,7738.0
08:07:29,-35.36359363333333,149.1646421,22257.0,-123.66666666666667,-195.66666666666666,-4.0,-43.666666666666664,-20.333333333333332,-1007.3333333333334,381.0,20.333333333333332,-9.0,0.04089699064691862,0.06765663623809814,-2.161932388941447,0.3801096056898435,0.01959904624770085,-0.00883450172841549,AUTO,7738.0
08:07:30,-35.363603833333336,149.16462306666668,22288.333333333332,-52.333333333333336,-88.0,-2.6666666666666665,-20.333333333333332,7.0,-1003.0,383.6666666666667,-31.666666666666668,-7.0,0.0212216613193353,0.06380331267913182,-2.1613193353017173,0.3826401432355245,-0.033478944872816406,-0.006897798428932826,AUTO,48278.0
08:07:31,-35.363606966666666,149.1646183,22296.333333333332,-23.333333333333332,-45.666666666666664,-2.0,-12.333333333333334,-4.666666666666667,-998.3333333333334,-189.33333333333334,-20.333333333333332,-2.3333333333333335,0.013345629287262758,0.043180679281552635,-2.1616265773773193,-0.19114868839581808,-0.02238445170223713,-0.0023722138333444795,AUTO,48278.0
08:07:33,-35.36361033333333,149.16461773333333,22311.666666666668,18.666666666666668,-9.666666666666666,-1.3333333333333333,-0.3333333333333333,-2.6666666666666665,-997.6666666666666,-154.0,-23.666666666666668,12.333333333333334,0.028296363229552906,-0.0030901115387678146,-2.167201280593872,-0.1557846845438083,-0.02518818775812785,0.01299312338232994,AUTO,48278.0
08:07:35,-35.3636107,149.1646183,22414.666666666668,22.333333333333332,-18.0,-23.666666666666668,0.6666666666666666,-7.0,-1034.0,-3.3333333333333335,1.6666666666666667,14.0,0.019719471223652363,-0.00015315656492020935,-2.1677822271982827,-0.005973731478055318,0.0010342576230565708,0.014022876198093096,RTL,48278.0
08:07:36,-35.36360976666666,149.16461746666667,23043.666666666668,18.666666666666668,-14.333333333333334,-78.0,2.0,-6.0,-1044.3333333333333,-40.0,0.6666666666666666,6.0,0.00012683653039857745,0.0009302314526091019,-2.166508913040161,-0.043284778793652855,-0.0001834359330435594,0.005607313010841608,RTL,26248.0
08:07:37,-35.363609000000004,149.16461676666665,23759.0,11.666666666666666,-9.0,-110.33333333333333,1.3333333333333333,-4.666666666666667,-1043.0,-9.333333333333334,0.3333333333333333,2.0,-0.008047158985088268,0.0007989226724021137,-2.165607531865438,-0.012699951495354375,-0.00033901823917403817,0.0014626954798586667,RTL,26248.0
08:07:39,-35.36360683333333,149.1646143,26608.333333333332,17.333333333333332,-22.666666666666668,-148.33333333333334,0.6666666666666666,-6.666666666666667,-996.3333333333334,2.3333333333333335,20.666666666666668,-29.333333333333332,0.035641241197784744,-0.010735924200465282,-2.16654380162557,-0.00047013163566589355,0.019260053522884846,-0.02972571908806761,RTL,26248.0
08:07:41,-35.3636033,149.16460940000002,29658.333333333332,-25.0,7.666666666666667,-148.0,-2.3333333333333335,0.0,-999.6666666666666,-27.0,49.333333333333336,-52.666666666666664,-0.07223831862211227,-0.005845961626619101,-2.23259703318278,-0.02973303074638049,0.04832452225188414,-0.05355460817615191,RTL,26248.0
08:07:42,-35.363607433333335,149.16461303333332,31572.666666666668,-48.333333333333336,57.0,-149.33333333333334,-5.666666666666667,13.666666666666666,-1003.3333333333334,69.33333333333333,12.666666666666666,-14.0,-0.02127617426837484,0.022205123056968052,-2.28554900487264,0.0666487788160642,0.011770318262279034,-0.0153913963586092,RTL,126030.0
08:07:43,-35.36360956666667,149.1646175,32738.666666666668,-19.666666666666668,60.666666666666664,-152.0,-1.3333333333333333,12.333333333333334,-1003.6666666666666,70.33333333333333,-0.6666666666666666,-1.0,0.03081981713573138,0.026350990558664005,-2.291198174158732,0.06816715250412624,-0.002119776986849805,-0.00187702476978302,RTL,126030.0
08:07:45,-35.36360613333333,149.16461890000002,35838.0,6.0,-58.666666666666664,-146.0,-2.3333333333333335,-14.0,-998.3333333333334,-132.33333333333334,110.66666666666667,-112.66666666666667,-0.011022070112327734,-0.06625277176499367,-2.201225916544596,-0.13530058165391287,0.10975923885901769,-0.11397932035227616,RTL,126030.0
08:07:48,-35.3636132,149.16461815,40841.0,23.0,49.5,-152.5,4.5,10.5,-1001.0,65.0,-16.5,-1.0,0.049925196915864944,0.04730798117816448,-2.431357741355896,0.06319953687489033,-0.01816333830356598,-0.0016269815969280899,RTL,75121.5
08:07:50,-35.36360355,149.1646167,43896.0,1.0,-58.0,-148.5,1.0,-13.5,-1006.5,-113.5,114.0,-102.0,-0.07398765347898006,-0.07951582968235016,-2.324401617050171,-0.11633635684847832,0.11291801929473877,-0.10331236198544502,RTL,24213.0
08:07:52,-35.363615800000005,149.16461465,46946.0,-88.0,52.5,-151.0,-20.5,12.0,-1006.5,67.5,54.0,-17.5,-0.03135078679770231,0.039622535929083824,-2.4754239320755005,0.06585029140114784,0.05311833322048187,-0.018649438861757517,RTL,24213.0
08:07:53,-35.36362015,149.16462009999998,48115.5,-38.25,75.5,-153.75,-9.25,16.5,-1005.25,76.5,26.5,-3.5,0.02271997439675033,0.0687477570027113,-2.4829317331314087,0.07485307566821575,0.02575866924598813,-0.004502549083554186,RTL,179441.0
08:07:54,-35.36361825,149.16462934999998,50058.5,88.0,42.5,-148.0,16.5,9.0,-997.5,63.5,-52.0,9.5,0.11288948357105255,0.05345566384494305,-2.482438325881958,0.06219000555574894,-0.05383280850946903,0.009224207606166601,RTL,179441.0
08:07:56,-35.3635974,149.1646162,52970.5,51.0,-144.0,-147.0,7.5,-36.0,-1017.0,-128.0,1.0,-48.5,-0.038879712112247944,-0.11241425946354866,-2.442389965057373,-0.13037452101707458,-0.00035107083385810256,-0.04978667572140694,RTL,179441.0
08:07:58,-35.363611500000005,149.16459405,55919.5,-141.5,17.5,-150.0,-34.0,-1.0,-1021.5,52.5,102.0,18.5,-0.09723914042115211,0.09797472879290581,-2.4987587928771973,0.05085543729364872,0.1012498177587986,0.01847860775887966,RTL,179441.0
08:07:59,-35.363618824999996,149.16459995,57061.5,-71.0,117.25,-147.0,-17.75,25.5,-1003.75,86.5,53.75,10.0,-0.04368404787965119,0.1547696888446808,-2.4933924078941345,0.08486074209213257,0.05286091612651944,0.00989605882205069,RTL,25116.0
08:08:00,-35.36361735,149.16462225,58832.5,123.0,184.0,-130.5,26.5,37.0,-1006.0,111.5,-77.5,21.5,0.08632897213101387,0.143498957157135,-2.478586435317993,0.1098693422973156,-0.07933882996439934,0.02123402338474989,RTL,25116.0
08:08:02,-35.363581350000004,149.16463665,61663.5,157.5,-92.5,-152.0,44.0,-25.5,-1027.5,-191.5,-19.5,-108.0,-0.00317565631121397,-0.15822555124759674,-2.4112398624420166,-0.19417453557252884,-0.021797464229166508,-0.1094723790884018,RTL,25116.0
08:08:04,-35.363589250000004,149.1646151,64532.5,-220.5,-23.0,-123.0,-52.5,-4.5,-1045.5,141.5,243.0,129.0,-0.13674665987491608,-0.014422668144106865,-2.542081356048584,0.14005977287888527,0.24197141826152802,0.12828553095459938,RTL,25116.0
08:08:05,-35.3636039,149.16461812499998,65580.5,-191.0,83.25,-145.0,-47.25,20.0,-1031.5,81.0,135.25,51.75,-0.07134420610964298,0.11488584522157907,-2.495467185974121,0.07949354592710733,0.13394992798566818,0.05118355993181467,RTL,31259.0
08:08:06,-35.363616,149.1646393,67424.5,19.5,211.5,-136.5,3.0,47.5,-1000.5,121.5,-2.5,25.5,0.06272629834711552,0.20956697314977646,-2.456654906272888,0.11953292787075043,-0.0040846471674740314,0.02505730278789997,RTL,31259.0
08:08:08,-35.363580400000004,149.16467219999998,70012.5,278.0,-11.0,-139.0,63.5,-10.5,-1036.0,-168.5,-81.0,-46.0,0.11329235881567001,-0.1249072253704071,-2.3436585664749146,-0.17119977623224258,-0.08327500894665718,-0.046591841033659875,RTL,31259.0
08:08:10,-35.363561250000004,149.16464854999998,73066.0,-129.0,-100.5,-132.5,-20.0,-25.0,-986.5,-56.5,41.5,-63.0,-0.18932313472032547,-0.1938343271613121,-2.591598391532898,-0.05908341892063618,0.04046311881393194,-0.06480464898049831,RTL,31259.0
08:08:11,-35.363575175,149.16464395,73974.5,-257.75,-21.0,-113.5,-56.0,-3.5,-1018.5,132.75,222.0,91.75,-0.1399399098008871,-0.08164598257280886,-2.586157262325287,0.1308467471972108,0.22093631140887737,0.09102380461990833,RTL,155475.0
08:08:12,-35.363603999999995,149.16465134999999,75671.5,-201.5,130.5,-152.5,-46.5,29.0,-1033.5,97.0,146.5,36.0,-0.03278250526636839,0.1506652534008026,-2.51731014251709,0.0949065275490284,0.14539822936058044,0.03572654165327549,RTL,155475.0
08:08:14,-35.36360115,149.16469425000003,78451.5,254.5,168.5,-107.0,56.5,33.5,-1013.5,-19.5,-268.5,166.5,0.183674618601799,0.11883614212274551,-2.4424926042556763,-0.02245063055306673,-0.2711002454161644,0.16601338237524033,RTL,155475.0
08:08:16,-35.363549899999995,149.1646873,81033.5,176.5,-215.0,-147.5,42.0,-54.0,-1055.0,-221.0,-37.0,-155.0,-0.03419044520705938,-0.18662677705287933,-2.452298402786255,-0.22390133142471313,-0.03914268687367439,-0.15683604031801224,RTL,155475.0
08:08:17,-35.3635453,149.16466935,82184.5,-21.75,-214.25,-147.0,2.75,-48.5,-1016.5,-124.75,17.25,-97.25,-0.14778897538781166,-0.2060333825647831,-2.5536049604415894,-0.12779257912188768,0.01600367814535275,-0.0990146603435278,RTL,102960.0
08:08:18,-35.363564600000004,149.1646485,83796.5,-298.5,-72.5,-107.5,-68.5,-5.0,-1027.5,90.0,240.0,72.5,-0.16944196820259094,-0.08620846271514893,-2.6075855493545532,0.08771115588024259,0.2388322800397873,0.07152615877566859,RTL,102960.0
08:08:20,-35.36361005,149.16466965,86587.5,-66.0,232.5,-145.5,-9.5,63.0,-1010.0,132.5,68.5,46.5,0.04241045005619526,0.2630355805158615,-2.4957975149154663,0.13053841143846512,0.06727500632405281,0.04569841921329498,RTL,102960.0
08:08:22,-35.36357715,149.16471719999998,88932.0,348.5,61.5,-130.0,87.5,4.0,-1060.0,18.5,-233.0,153.0,0.19464066624641418,-0.09726839512586594,-2.334774613380432,0.01581160631030798,-0.23517194390296936,0.1518905982375145,RTL,102960.0
08:08:23,-35.363555225,149.164713425,89937.25,294.75,-132.5,-133.25,65.0,-39.0,-1042.0,-210.25,-50.25,-91.5,0.09917127015069127,-0.1960349716246128,-2.3464781641960144,-0.21373797208070755,-0.05199069483205676,-0.09277811646461487,RTL,66604.0
08:08:24,-35.36353645,149.16468385000002,91732.5,-1.0,-252.0,-145.5,13.5,-64.5,-1029.5,-151.5,14.5,-121.5,-0.14109796658158302,-0.22725500911474228,-2.533302903175354,-0.15518727898597717,0.013174517080187798,-0.12347416207194328,RTL,66604.0
08:08:26,-35.3635784,149.1646531,94188.0,-333.0,21.0,-133.0,-83.0,3.5,-1062.5,86.0,218.0,87.0,-0.12716078385710716,0.07568132691085339,-2.5528136491775513,0.08317845687270164,0.21658704429864883,0.0860694907605648,RTL,66604.0
08:08:28,-35.3636042,149.16468940000001,96842.66666666667,90.33333333333333,265.0,-113.66666666666667,21.666666666666668,61.666666666666664,-999.3333333333334,139.33333333333334,-57.666666666666664,40.666666666666664,0.12754727403322855,0.2690756469964981,-2.4407400290171304,0.13667687276999155,-0.05981483310461044,0.03999573364853859,RTL,66604.0
08:08:29,-35.36358575,149.164715675,97893.5,311.0,173.25,-110.0,81.5,30.75,-1076.25,-24.75,-317.0,201.25,0.18244658783078194,0.011392869055271149,-2.3603222370147705,-0.02732256706804037,-0.3194153979420662,0.20051585137844086,RTL,14416.0
08:08:30,-35.3635494,149.1647191,99529.5,288.5,-153.5,-130.0,72.0,-42.5,-1036.5,-234.0,-20.5,-132.0,0.09378281608223915,-0.21139971911907196,-2.322435736656189,-0.23720572143793106,-0.022925362922251225,-0.13410915434360504,RTL,14416.0
08:08:32,-35.3635418,149.16466785,102256.5,-229.5,-194.5,-110.5,-48.5,-49.0,-999.0,-27.0,118.0,-15.0,-0.19553040713071823,-0.18567904084920883,-2.5721362829208374,-0.03043656051158905,0.11674709990620613,-0.01709616044536233,RTL,14416.0
08:08:34,-35.3635977,149.16466294999998,104800.0,-215.5,171.0,-154.0,-48.0,34.5,-1039.0,117.0,146.5,85.0,-0.029702280182391405,0.24997802078723907,-2.4762022495269775,0.11424455046653748,0.1446940377354622,0.08378755301237106,RTL,9338.0
08:08:36,-35.3635862,149.164716,107279.5,304.0,181.0,-112.5,80.0,35.0,-1094.5,9.0,-272.0,201.5,0.17434140294790268,-0.0014291293919086456,-2.364670991897583,0.005707962438464165,-0.27460577338933945,0.20043542236089706,RTL,4260.0
08:08:38,-35.36353765,149.16470045,109977.5,113.5,-265.0,-135.5,20.5,-66.5,-1047.5,-241.0,-11.0,-154.5,-0.058686209842562675,-0.2257392555475235,-2.4431718587875366,-0.24478240311145782,-0.012892610859125853,-0.15709509700536728,RTL,4260.0
08:08:39,-35.3635382,149.1646785,111010.0,-102.0,-253.25,-126.5,-18.5,-59.0,-1013.5,-103.0,56.0,-72.0,-0.16182846017181873,-0.21947452053427696,-2.534901738166809,-0.10651427879929543,0.054386193631216884,-0.07437013741582632,RTL,69873.0
08:08:40,-35.36356605,149.16465340000002,112434.5,-352.5,-82.5,-108.5,-88.0,-29.5,-1070.5,95.0,277.5,98.0,-0.16033970564603806,-0.022732787765562534,-2.5699628591537476,0.09228900820016861,0.2762385159730911,0.09689768776297569,RTL,69873.0
08:08:42,-35.363609049999994,149.164679,115325.0,13.0,266.0,-127.5,6.5,56.5,-999.5,142.5,-57.0,22.0,0.09759604185819626,0.28965383768081665,-2.4531015157699585,0.13944830000400543,-0.05946748424321413,0.02108300756663084,RTL,69873.0
08:08:44,-35.36356775,149.16472019999998,117708.0,323.5,-24.5,-138.0,73.0,-21.0,-1030.5,-78.5,-176.0,82.0,0.1806773692369461,-0.18600307404994965,-2.287943124771118,-0.0817019174573943,-0.17862551286816597,0.08106602495536208,RTL,69873.0
08:08:45,-35.363549074999995,149.164709525,118728.0,223.5,-205.0,-131.75,42.0,-55.25,-1039.5,-235.0,-12.0,-147.5,0.04315296234562993,-0.22341905534267426,-2.3562660217285156,-0.23903608694672585,-0.014469143119640648,-0.15011350437998772,RTL,26461.0
08:08:46,-35.3635412,149.16467440000002,120435.0,-109.5,-261.0,-128.0,-24.0,-66.0,-1011.5,-97.0,56.5,-63.5,-0.1676008552312851,-0.2246556580066681,-2.5388509035110474,-0.10091334208846092,0.05510407313704491,-0.06558719836175442,RTL,26461.0
08:08:48,-35.3635939,149.1646484,122859.5,-308.0,75.0,-152.0,-83.5,18.5,-1074.0,112.0,225.5,125.0,-0.09050478413701057,0.1765962690114975,-2.504212975502014,0.10921965166926384,0.22381161153316498,0.12400192022323608,RTL,26461.0
08:08:50,-35.3636041,149.16469515,125613.5,228.5,243.0,-98.5,62.0,45.5,-1022.0,18.0,-315.5,143.0,0.18679800629615784,0.17092160880565643,-2.4298436641693115,0.014648254960775375,-0.3178962394595146,0.141271585598588,RTL,26461.0
08:08:51,-35.363584525,149.164709125,126476.5,316.25,94.25,-128.25,80.25,16.0,-1071.5,14.5,-246.0,171.0,0.18369602039456367,-0.0778409680351615,-2.340271294116974,0.0115321921184659,-0.24888380244374275,0.16956140473484993,RTL,34058.0
08:08:52,-35.36355125,149.1647001,128137.5,219.5,-227.5,-128.0,36.5,-59.5,-1040.0,-260.5,-4.0,-162.5,0.038748235907405615,-0.2246968224644661,-2.3617888689041138,-0.26410579681396484,-0.006663006963208318,-0.16503780335187912,RTL,34058.0
08:08:54,-35.3635596,149.16464355,130681.5,-300.5,-178.5,-104.5,-68.0,-42.5,-1017.0,-21.0,174.5,-19.0,-0.1975148469209671,-0.13892607763409615,-2.5763328075408936,-0.024962445721030235,0.1727202609181404,-0.021691136062145233,RTL,34058.0
08:08:56,-35.363614749999996,149.16464889999997,133383.0,-131.0,228.5,-148.5,-37.0,42.0,-1014.0,170.0,66.5,27.5,0.015054722782224417,0.3009854555130005,-2.467945694923401,0.16689947247505188,0.06439142767339945,0.0261172903701663,RTL,34058.0
08:08:57,-35.3636155,149.164670575,134365.0,93.75,278.5,-113.5,20.25,63.5,-1004.5,124.0,-102.25,48.75,0.1266961768269539,0.25769996270537376,-2.448306620121002,0.12099445052444935,-0.10531783103942871,0.04712821822613478,RTL,48838.0
08:08:58,-35.3635894,149.1647019,135728.0,330.5,117.5,-128.5,85.5,8.0,-1087.0,49.0,-225.5,163.5,0.18540072441101074,-0.0797630101442337,-2.334039092063904,0.045892031863331795,-0.22828857600688934,0.1619383841753006,RTL,48838.0
08:09:00,-35.3635462,149.1646729,138446.5,29.0,-281.5,-135.5,7.5,-70.0,-1041.0,-185.0,10.5,-138.5,-0.11016508936882019,-0.23809611797332764,-2.491663694381714,-0.18898257613182068,0.008219199255108833,-0.14151708781719208,RTL,48838.0
08:09:02,-35.3635854,149.164632,140774.0,-373.0,-27.0,-118.0,-93.0,-8.0,-1075.0,76.0,246.0,85.0,-0.15655168890953064,0.040462177246809006,-2.569776773452759,0.0727076604962349,0.24431756138801575,0.08326350152492523,RTL,48838.0
08:09:03,-35.363604225,149.16463570000002,141655.25,-294.0,106.75,-145.5,-75.0,22.0,-1064.5,117.0,206.0,106.25,-0.08373620547354221,0.19200420379638672,-2.5230093598365784,0.11395484209060669,0.20414148643612862,0.10462217964231968,RTL,43775.0
08:09:04,-35.3636189,149.16465745,143117.0,-30.5,258.0,-128.0,-7.5,57.5,-1008.0,130.0,-4.0,55.5,0.06483781384304166,0.28637319803237915,-2.460128664970398,0.12659264728426933,-0.006269659847021103,0.053746335208415985,RTL,43775.0
08:09:06,-35.3635808,149.16470375,145389.5,341.0,27.0,-126.0,80.5,-4.0,-1068.5,-69.0,-153.0,67.5,0.1699877232313156,-0.14345913752913475,-2.3090535402297974,-0.07270656153559685,-0.15612079948186874,0.06542294844985008,RTL,43775.0
08:09:08,-35.3635464,149.16466555,148132.0,-51.5,-261.5,-130.0,-4.0,-56.5,-1024.5,-119.5,47.0,-75.5,-0.14308427646756172,-0.22604116797447205,-2.5282663106918335,-0.12378904782235622,0.04489540262147784,-0.078681830316782,RTL,43775.0
08:09:09,-35.363562375,149.164641325,149352.0,-297.25,-153.25,-105.0,-68.5,-38.5,-1015.5,46.0,212.75,37.25,-0.1922232322394848,-0.12267784867435694,-2.5816149711608887,0.0420126523822546,0.21114221215248108,0.03482581698335707,RTL,208638.0
08:09:10,-35.36359285,149.16463575,150557.5,-323.0,46.0,-135.0,-82.5,12.5,-1072.0,93.5,221.5,98.5,-0.11839498952031136,0.11966827977448702,-2.5490387678146362,0.09016024693846703,0.21954717487096786,0.09660395234823227,RTL,208638.0
08:09:12,-35.3636131,149.16468055,153287.5,167.0,270.0,-104.0,38.5,52.5,-986.5,53.5,-204.5,139.0,0.1606631577014923,0.22259508073329926,-2.4382729530334473,0.04971440974622965,-0.2072165533900261,0.13714806735515594,RTL,208638.0
08:09:14,-35.363560899999996,149.16470120000002,155722.5,274.5,-151.0,-134.0,54.5,-47.5,-1038.5,-196.5,-54.0,-97.5,0.08913281466811895,-0.22005599737167358,-2.3320300579071045,-0.20070572197437286,-0.057126292027533054,-0.10035425517708063,RTL,208638.0
08:09:15,-35.36354525,149.164676275,157102.0,40.0,-275.5,-136.5,10.0,-64.75,-1036.5,-192.5,9.75,-136.5,-0.10561162233352661,-0.23514391854405403,-2.494184136390686,-0.1969882994890213,0.007103100186213851,-0.13934369757771492,RTL,7962.0
08:09:16,-35.36355555,149.16464885,158379.5,-234.0,-200.0,-113.0,-52.5,-55.0,-1013.0,-35.0,139.5,-6.5,-0.19187595695257187,-0.17146820947527885,-2.5729650259017944,-0.039268214255571365,0.13736951351165771,-0.009223203640431166,RTL,7962.0
08:09:18,-35.3636105,149.16464430000002,160940.5,-205.0,180.5,-147.5,-54.5,47.0,-1042.5,157.0,127.0,64.0,-0.028647955507040024,0.25262198597192764,-2.495423913002014,0.15320173650979996,0.1250513792037964,0.06199066899716854,RTL,7962.0
08:09:20,-35.3635984,149.16469655,163428.0,299.5,172.0,-113.0,74.5,35.5,-1049.5,85.5,-177.0,110.0,0.19702307879924774,0.041601136326789856,-2.3836562633514404,0.08179301396012306,-0.1802314668893814,0.10825458914041519,RTL,7962.0
08:09:21,-35.363569125,149.164702875,164691.0,312.5,-91.75,-131.75,68.25,-30.75,-1036.75,-147.25,-96.75,-6.75,0.1430408861488104,-0.20937937125563622,-2.3076513409614563,-0.1513142352923751,-0.09952633013017476,-0.009166259318590164,RTL,247692.0
08:09:22,-35.3635493,149.16468125,166036.5,116.0,-264.5,-132.0,21.0,-59.0,-1041.0,-216.5,2.5,-163.5,-0.050028519704937935,-0.23558929562568665,-2.4463865756988525,-0.22103451937437057,-0.0002666627988219261,-0.16657739132642746,RTL,247692.0
08:09:24,-35.36357645,149.1646336,168487.0,-343.0,-85.5,-113.0,-68.5,-16.0,-1045.0,32.5,220.5,37.0,-0.17813007533550262,-0.034601571038365364,-2.58469021320343,0.028762679547071457,0.2188526913523674,0.03424959909170866,RTL,247692.0
08:09:26,-35.36362005,149.16465925,171239.0,-11.0,274.0,-124.5,-1.0,58.0,-1006.0,142.0,-12.5,55.0,0.06769525585696101,0.2886302024126053,-2.4734742641448975,0.1383371576666832,-0.014768674969673157,0.05280993692576885,RTL,247692.0
08:09:27,-35.363608675,149.1646901,172329.5,270.5,250.75,-93.5,71.75,51.75,-1051.25,30.5,-273.5,152.75,0.18377882987260818,0.1393798125500325,-2.4212429523468018,0.0262613738887012,-0.2764738332480192,0.15056056901812553,RTL,1781.0
08:09:28,-35.363578849999996,149.16470555,173487.0,344.5,14.0,-129.5,90.5,-5.0,-1070.0,-76.0,-143.5,57.5,0.16577517241239548,-0.15174287930130959,-2.3210108280181885,-0.07984946481883526,-0.14660618640482426,0.05493946373462677,RTL,1781.0
08:09:30,-35.36354595,149.16466585,176256.0,-69.0,-256.5,-129.5,-9.0,-62.5,-1021.5,-121.0,53.5,-70.5,-0.1493384726345539,-0.2257576286792755,-2.5451161861419678,-0.12541801296174526,0.05173130892217159,-0.07320107659325004,RTL,1781.0
08:09:32,-35.3635936,149.1646388,178683.5,-314.0,59.0,-138.0,-78.5,12.0,-1067.5,98.0,216.5,99.0,-0.11031550541520119,0.13319512456655502,-2.5447715520858765,0.09433813393115997,0.2145848050713539,0.09706481546163559,RTL,1781.0
08:09:33,-35.363614874999996,149.164655225,180178.5,-99.25,239.0,-141.75,-25.25,56.25,-1016.0,154.0,41.0,38.0,0.028538904851302505,0.28768107295036316,-2.4783737659454346,0.15052619203925133,0.03876163507811725,0.035765433800406754,RTL,252824.0
08:09:34,-35.3636105,149.16468435000002,181407.5,185.0,262.5,-102.0,48.0,48.0,-1019.5,2.5,-306.0,154.5,0.16112051904201508,0.19575490429997444,-2.4458550214767456,-0.0016319639980793,-0.3090657629072666,0.1524598654359579,RTL,252824.0
08:09:36,-35.363558299999994,149.16469940000002,183874.5,249.5,-175.0,-132.5,59.0,-52.5,-1039.5,-215.5,-35.0,-108.5,0.07488447066862136,-0.22819312661886215,-2.357058525085449,-0.22015917301177979,-0.038691695779561996,-0.11192628368735313,RTL,252824.0
08:09:38,-35.36355805,149.16464535,186460.0,-259.0,-194.5,-110.0,-61.0,-44.0,-1016.5,-22.0,154.0,-10.5,-0.19110417366027832,-0.15925132483243942,-2.5876071453094482,-0.026452512480318546,0.15217624232172966,-0.013725968543440104,RTL,252824.0
08:09:39,-35.363587525,149.16463295,187592.5,-357.25,-7.5,-126.25,-90.0,-8.0,-1072.0,125.75,281.75,109.0,-0.14885136298835278,0.06440904177725315,-2.5833763480186462,0.12201789952814579,0.2796264812350273,0.10634763725101948,RTL,4583.0
08:09:40,-35.3636133,149.1646444,189048.5,-182.5,195.5,-147.5,-45.0,39.5,-1036.5,156.0,116.5,65.0,-0.018466468900442123,0.2680491581559181,-2.512676477432251,0.15201032906770706,0.11403940618038177,0.06267683720216155,RTL,4583.0
08:09:42,-35.363596650000005,149.16469790000002,191464.0,319.0,161.5,-110.5,75.5,27.0,-1034.5,13.5,-379.0,149.0,0.19560911506414413,0.01713418960571289,-2.3886176347732544,0.009309310466051102,-0.3825390413403511,0.14665412157773972,RTL,4583.0
08:09:44,-35.3635491,149.1646783,194185.0,75.0,-264.0,-131.0,16.0,-66.0,-1037.0,-191.5,8.5,-150.5,-0.0703472860623151,-0.2373436838388443,-2.48146915435791,-0.19634778797626495,0.005593815818428993,-0.15408258885145187,RTL,4583.0
08:09:45,-35.36355505,149.1646482,195533.75,-219.5,-219.75,-110.75,-46.25,-55.75,-1008.75,-40.5,125.75,-13.5,-0.18538694456219673,-0.19104918092489243,-2.5862088799476624,-0.04528273642063141,0.12329464964568615,-0.016546399565413594,RTL,10908.0
08:09:46,-35.363583,149.16463325,196646.5,-351.0,-46.5,-118.0,-86.0,-24.5,-1056.5,52.5,233.0,56.5,-0.16841449588537216,0.005598004907369614,-2.595872640609741,0.04857928887940943,0.2304430603981018,0.05396427400410175,RTL,10908.0
08:09:48,-35.36362065,149.16466394999998,199444.0,48.0,273.5,-119.0,10.5,59.0,-1007.0,161.5,-53.5,28.5,0.09934276342391968,0.27741221338510513,-2.4807095527648926,0.15733640268445015,-0.05663953721523285,0.026068523875437677,RTL,10908.0
08:09:50,-35.3635734,149.16470099999998,201677.5,342.5,-53.5,-127.5,85.0,-14.5,-1062.5,-97.0,-120.5,26.5,0.15880553051829338,-0.1727631837129593,-2.3532456159591675,-0.1011680606752634,-0.12391136586666107,0.02358226105570793,RTL,10908.0
08:09:51,-35.363548275,149.164683,203019.5,173.0,-266.0,-135.5,38.0,-64.0,-1053.5,-248.5,-13.75,-181.25,-0.02112789370585233,-0.23419957607984543,-2.4627402424812317,-0.25360382348299026,-0.017475585686042905,-0.18481183424592018,RTL,86979.0
08:09:52,-35.363547100000005,149.1646538,204364.0,-132.0,-231.5,-112.0,-29.5,-61.5,-1001.5,-195.5,396.5,44.5,-0.27495724707841873,-0.19344133138656616,-2.5306396484375,-0.2006373405456543,0.39394968934357166,0.04120273515582085,RTL,86979.0
08:09:54,-35.3635682,149.16467885,205301.0,137.0,410.5,14.5,52.5,88.0,-1045.5,61.5,-444.5,-22.5,0.05313316732645035,0.2888244204223156,-2.3489718437194824,0.05663608759641647,-0.4480629563331604,-0.02548180613666773,RTL,86979.0
08:09:56,-35.36352355,149.16476705,204970.0,299.5,390.0,14.0,82.0,81.5,-999.0,-176.5,28.5,-16.5,-0.09704342857003212,0.11499945819377899,-2.4400066137313843,-0.18150173872709274,0.02554786391556263,-0.019698213785886765,RTL,86979.0
08:09:57,-35.363496125,149.164812125,204857.25,315.5,436.75,4.25,87.5,93.75,-1004.0,25.5,15.75,-9.75,-0.1263070795685053,0.13627035170793533,-2.4698346853256226,0.020624501630663872,0.01282539777457714,-0.012967938440851867,RTL,30606.0
08:09:58,-35.36346695,149.16486325,204837.0,334.0,490.5,-2.0,86.0,111.0,-999.0,141.0,-7.0,-10.5,-0.1283138394355774,0.1300620324909687,-2.4913560152053833,0.13694889098405838,-0.01007493445649743,-0.014064735732972622,RTL,30606.0
08:10:00,-35.363405,149.1649765,204918.0,355.5,534.5,-4.0,97.5,121.5,-990.5,-18.5,-20.5,-10.0,-0.12203029170632362,0.09542800486087799,-2.527261972427368,-0.024093915708363056,-0.0240612355992198,-0.013504660688340664,RTL,30606.0
08:10:02,-35.36334295,149.16508995,205010.0,321.0,482.0,-1.0,75.0,96.0,-981.5,30.5,-40.0,-27.0,-0.08706637099385262,0.00941977882757783,-2.551356077194214,0.027004912495613098,-0.044108581729233265,-0.030167434364557266,RTL,97663.5
08:10:04,-35.36329495,149.16517915,204980.0,208.5,318.0,3.5,51.5,68.0,-998.5,31.0,-10.5,-12.0,-0.027307501062750816,-0.05759802833199501,-2.571098804473877,0.02727663516998291,-0.013789199758321047,-0.014615186606533825,RTL,164721.0
08:10:06,-35.36326895,149.16522855,204918.5,89.5,134.0,1.5,18.0,21.0,-1004.5,-120.0,15.5,-6.5,0.010592719190753996,-0.07241576537489891,-2.589539885520935,-0.12394678592681885,0.01200686115771532,-0.01030814740806818,RTL,164721.0
08:10:07,-35.363263425,149.16523905,204908.75,42.75,59.25,0.75,8.0,36.5,-1012.5,495.25,30.0,-0.5,0.018660447327420115,-0.049843247048556805,-2.596576988697052,0.4910380532965064,0.02701678453013301,-0.0037377029075287282,RTL,120469.0
08:10:08,-35.363261300000005,149.1652426,204903.0,16.0,18.0,0.0,2.0,-8.5,-1005.5,-196.0,24.5,-3.5,0.006770163512555882,-0.028880059719085693,-2.603258728981018,-0.20093681663274765,0.02152950130403042,-0.006456529488787055,RTL,120469.0
08:10:10,-35.3632609,149.16524295,204915.0,4.5,-3.5,0.0,-1.0,-2.5,-999.5,-16.0,11.5,-0.5,0.0029848539270460606,0.0017640902660787106,-2.6141281127929688,-0.02045169472694397,0.0076293195597827435,-0.0042830214370042086,RTL,120469.0
08:10:12,-35.363261300000005,149.16524155000002,204918.0,0.5,-11.5,0.5,-1.0,2.0,-986.5,32.5,6.0,-2.0,0.004498886177316308,-0.0015473465173272416,-2.624353766441345,0.027429044246673584,0.0025374721735715866,-0.0054376679472625256,RTL,120469.0
08:10:13,-35.3632619,149.16524095,204917.5,1.25,-12.0,0.0,-1.0,10.5,-1001.25,257.0,5.25,-1.75,0.014012614148668945,0.0010537920534261502,-2.6283048391342163,0.25278716534376144,0.0017950398614630103,-0.005137279920745641,RTL,79625.0
08:10:14,-35.36326235,149.16524035,204920.0,4.5,-14.0,0.0,0.5,1.0,-999.5,-12.0,7.0,0.0,0.0058961426839232445,0.0026828720001503825,-2.6326003074645996,-0.01679229736328125,0.003764466615393758,-0.003353630192577839,RTL,79625.0
08:10:16,-35.3632627,149.1652391,204426.0,7.0,-10.5,72.0,0.0,16.5,-956.0,-255.0,11.0,-2.5,-0.010524984914809465,0.004589356016367674,-2.6398844718933105,-0.2614114210009575,0.007087123114615679,-0.006279607303440571,RTL,79625.0
08:10:18,-35.3632621,149.1652367,202297.5,2.0,2.5,105.0,0.5,-19.5,-1020.5,-920.0,5.0,-3.5,-0.034232715144753456,0.004161497578024864,-2.646923065185547,-0.9259558767080307,0.0015655659371986985,-0.006564064067788422,RTL,79625.0
08:10:19,-35.363261924999996,149.165236225,201259.0,0.0,9.5,98.0,0.25,-57.5,-1033.75,-1427.25,2.25,-1.75,-0.029244454577565193,0.001761054780217819,-2.6491795778274536,-1.4317921102046967,-0.00145954848267138,-0.005383634561439976,RTL,21059.0
08:10:20,-35.3632619,149.1652364,200621.0,0.0,10.0,100.0,-4.0,-40.0,-963.0,-1377.0,0.0,2.0,-0.029243160039186478,-0.0005331862485036254,-2.651211977005005,-1.3826792240142822,-0.004607475828379393,-0.0006904811598360538,RTL,21059.0
08:10:22,-35.363262750000004,149.16523834999998,198625.0,4.0,-1.5,99.5,-1.5,44.0,-974.0,46.5,4.5,10.0,0.0010622956688166596,0.00013968440907774493,-2.6567975282669067,0.03981749340891838,0.0003928341902792454,0.006883028894662857,RTL,21059.0
08:10:24,-35.36326285,149.16523705,196588.5,7.0,-2.5,102.5,2.0,71.0,-966.5,1021.5,7.0,3.0,-0.006116956355981529,0.009347178507596254,-2.660873293876648,1.0147260129451752,0.0036033052019774914,-0.00042107084300369024,RTL,21059.0
08:10:25,-35.363262150000004,149.16523545,195311.25,2.5,10.75,100.75,0.75,28.0,-1008.5,-253.5,0.0,0.0,-0.03685080632567406,0.005147544667124748,-2.662066876888275,-0.2605867115780711,-0.0041947136633098125,-0.0034943909267894924,RTL,59773.0
08:10:26,-35.363262,149.1652354,194553.0,0.5,16.5,103.0,-1.0,41.0,-960.0,-109.0,-1.0,-2.5,-0.027710762806236744,7.961588562466204e-05,-2.663708806037903,-0.11620118468999863,-0.005976654822006822,-0.005616452312096953,RTL,59773.0
08:10:28,-35.3632627,149.1652387,192389.0,3.0,2.0,104.0,-4.0,15.0,-950.0,-684.0,3.0,9.0,0.0024077431298792362,-0.005037226714193821,-2.6680843830108643,-0.6909647583961487,-0.0011985639575868845,0.006203727796673775,RTL,59773.0
08:10:30,-35.363263950000004,149.16524095,190477.0,14.5,-22.5,107.0,-2.0,77.0,-972.5,927.5,3.0,6.0,0.027880141511559486,0.0010921161738224328,-2.670976400375366,0.9203203022480011,-0.0006808068137615919,0.003161416854709387,RTL,59773.0
08:10:31,-35.363264349999994,149.165241875,189204.25,20.5,-31.5,103.75,-2.25,72.5,-978.0,853.75,5.25,8.75,0.03283683629706502,-0.0018716874765232205,-2.6714543104171753,0.8465681970119476,0.0010201806435361505,0.0062644812278449535,RTL,257563.0
08:10:32,-35.363264650000005,149.16524285,188440.5,22.5,-37.0,105.5,-1.5,73.5,-1002.5,722.0,-3.0,7.0,0.04313797876238823,-0.002777166082523763,-2.6724292039871216,0.7140464782714844,-0.007749444339424372,0.003844421822577715,RTL,257563.0
08:10:34,-35.36326485,149.16524345,186402.5,26.0,-50.0,103.0,1.0,46.0,-1000.5,191.0,10.0,12.5,0.030779006890952587,0.0007054512752802111,-2.6759668588638306,0.18134170398116112,0.006042977096512914,0.009875022806227207,RTL,257563.0
08:10:36,-35.3632638,149.16524049999998,184353.5,20.5,-37.0,102.0,3.0,-7.0,-981.0,-861.5,7.5,1.0,-0.010979592334479094,0.004653567681089044,-2.6773699522018433,-0.8709494471549988,0.0029752247501164675,-0.0026474717305973172,RTL,257563.0
08:10:37,-35.363263,149.165238875,183066.0,12.75,-20.0,103.25,2.25,-35.25,-1000.5,-1190.75,2.5,4.25,-0.019188527949154377,0.0016889662510948256,-2.6785863637924194,-1.199758529663086,-0.0016074972809292376,0.0011646794155240059,RTL,83766.0
08:10:38,-35.363262649999996,149.1652383,182304.5,8.5,-13.0,103.0,2.0,-40.0,-982.0,-1183.0,1.0,4.0,-0.018285144586116076,0.0009615470771677792,-2.679673671722412,-1.1920382976531982,-0.0037733257049694657,0.0010167518630623817,RTL,83766.0
08:10:40,-35.3632619,149.16523665,180267.0,0.5,1.0,104.0,-1.5,-63.0,-986.0,-1519.5,10.5,-3.0,-0.02740541845560074,0.0005475680518429726,-2.6801862716674805,-1.5276326537132263,0.006174530601128936,-0.006899825297296047,RTL,83766.0
08:10:42,-35.36326245,149.16523815,178214.5,0.5,2.0,102.5,-1.0,-73.5,-963.5,-1303.5,6.5,5.5,0.004480008385144174,-0.002708882326260209,-2.6818017959594727,-1.3104209899902344,0.001955248648300767,0.002323879743926227,RTL,83766.0
08:10:43,-35.3632627,149.165238225,176925.5,2.75,-4.25,102.0,2.0,-77.5,-993.5,-1453.75,12.0,4.75,-0.008301553069031797,0.00397131365025416,-2.6823708415031433,-1.4608594477176666,0.007424044539220631,0.001254096394404769,RTL,37593.0
08:10:44,-35.363262500000005,149.165237,176147.5,2.5,-1.5,99.5,5.0,-80.5,-1025.0,-1357.5,5.5,2.5,-0.029029392637312412,0.007964989636093378,-2.6830761432647705,-1.3642528653144836,0.0009514468256384134,-0.0005301517667248845,RTL,37593.0
08:10:46,-35.363261050000006,149.1652336,174110.5,-6.5,24.5,98.0,3.0,-61.0,-1033.5,-1357.5,1.0,0.0,-0.050945157185196877,0.0032488798024132848,-2.6840107440948486,-1.364368200302124,-0.004025705391541123,-0.0039000280667096376,RTL,37593.0
08:10:48,-35.3632603,149.16523254999998,172069.0,-16.5,40.0,99.5,1.5,-64.0,-1045.5,-1358.5,1.0,0.0,-0.05237533524632454,6.838818080723286e-05,-2.6842405796051025,-1.3645634651184082,-0.003556923009455204,-0.0042582249734550714,RTL,92502.0
08:10:50,-35.3632602,149.1652327,170020.0,-19.0,43.5,98.5,-2.0,-14.0,-994.5,-1021.0,-0.5,4.5,-0.04941468499600887,-0.0037026284262537956,-2.6843422651290894,-1.0284657776355743,-0.00498382980003953,0.0014679075684398413,RTL,147411.0
08:10:52,-35.363261050000006,149.1652353,167965.5,-15.5,28.0,97.0,0.0,-67.5,-1048.0,-1484.5,7.5,-0.5,-0.02629038691520691,-0.002543332288041711,-2.686428189277649,-1.4893750548362732,0.003194897435605526,-0.004627984133549035,RTL,147411.0
08:10:53,-35.363260925,149.165234075,166692.5,-14.0,26.0,96.5,1.5,-70.25,-998.75,-1483.25,3.25,1.25,-0.049135977402329445,0.004274462524335831,-2.6861677765846252,-1.4869793355464935,-0.001276445691473782,-0.0025929645635187626,RTL,88895.0
08:10:54,-35.36326065,149.16523304999998,165924.5,-15.5,33.0,99.0,0.0,-78.0,-976.0,-1504.5,10.5,-5.5,-0.056508030742406845,0.0029011524748057127,-2.68647563457489,-1.5080392360687256,0.0060316454619169235,-0.009865391068160534,RTL,88895.0
08:10:56,-35.3632607,149.16523405,163879.0,-17.5,40.5,92.5,-2.0,-62.5,-980.0,-901.0,4.0,16.5,-0.016958354972302914,-0.006186170736327767,-2.6850801706314087,-0.9025055170059204,-0.0004799270536750555,0.013319727964699268,RTL,88895.0
08:10:58,-35.36326185,149.1652371,161848.5,-8.0,16.5,96.0,-3.0,-67.0,-984.0,-1368.5,1.5,5.0,-0.007061596028506756,-0.0054909600876271725,-2.6867480278015137,-1.371605396270752,-0.0032201441936194897,0.0020047887228429317,RTL,88895.0
08:10:59,-35.363262725,149.1652391,160571.0,-0.5,0.75,96.75,-2.5,-68.25,-998.25,-1175.5,6.75,2.75,0.012681658496148884,-0.0047276089317165315,-2.687631368637085,-1.1777668595314026,0.0021974918199703097,-0.0007296755211427808,RTL,91624.0
08:11:00,-35.3632632,149.16523984999998,159815.5,3.0,-8.5,98.0,-1.0,-69.5,-977.0,-1419.5,14.0,-1.0,0.009442863520234823,-0.0017396105104126036,-2.687515616416931,-1.4224109649658203,0.009528189897537231,-0.004532040911726654,RTL,91624.0
08:11:02,-35.36326305,149.16523890000002,157777.0,6.0,-10.5,98.0,1.5,-64.0,-979.0,-662.0,5.5,-6.5,0.005680870031937957,0.0017827324336394668,-2.6883974075317383,-0.66403529047966,0.000610794872045517,-0.01114719919860363,RTL,91624.0
08:11:04,-35.36326215,149.1652371,155734.0,1.0,-0.5,97.0,3.5,-78.5,-972.0,-1102.0,2.5,3.0,-0.020076217129826546,0.0003493706390145235,-2.6878961324691772,-1.103909194469452,-0.0018682631198316813,-0.0008094348013401031,RTL,91624.0
08:11:05,-35.36326145,149.16523567500002,154449.0,-4.5,9.5,96.5,1.75,-66.0,-1005.5,-784.25,5.0,6.25,-0.022998705971986055,0.0008153398157446645,-2.6874420642852783,-0.7860742807388306,0.0003862249432131648,0.0027380076935514808,RTL,168033.0
08:11:06,-35.363261050000006,149.16523495,153681.5,-7.5,17.0,96.5,1.5,-72.5,-992.5,-1224.0,-0.5,0.5,-0.035175612196326256,-0.0010143437830265611,-2.6879464387893677,-1.2255833745002747,-0.005363286007195711,-0.003567964071407914,RTL,168033.0
08:11:08,-35.3632613,149.16523619999998,151537.5,-10.0,20.0,99.0,-2.5,-78.5,-913.5,-1183.5,0.0,7.0,-0.005661922157742083,-0.007003615610301495,-2.6884241104125977,-1.1844900846481323,-0.0044249697821214795,0.003415599698200822,RTL,168033.0
08:11:10,-35.36326235,149.16523834999998,149500.5,-1.5,0.0,102.0,-2.0,-44.0,-963.0,90.5,1.0,-3.0,0.028806055895984173,-0.0027606990188360214,-2.6870288848876953,0.09012918546795845,-0.003470587427727878,-0.007960944436490536,RTL,168033.0
08:11:11,-35.363262925,149.16523942499998,148223.0,4.5,-9.75,96.75,-2.5,1.5,-992.0,633.0,1.5,5.5,0.03509801533073187,-0.003349711070768535,-2.6878528594970703,0.6323151513934135,-0.00325320300180465,0.002381131169386208,RTL,1787.0
08:11:12,-35.363263450000005,149.1652407,147457.0,8.0,-16.0,98.5,-4.0,-6.0,-1010.0,528.5,5.5,1.5,0.05045258440077305,-0.005698456196114421,-2.6877886056900024,0.5273258686065674,0.0010473139118403196,-0.001927712932229042,RTL,1787.0
08:11:14,-35.36326455,149.1652434,145425.5,18.5,-41.5,102.0,1.5,-61.0,-995.5,-568.0,12.5,5.0,0.04984256811439991,-0.0021154145360924304,-2.6887108087539673,-0.5702220648527145,0.007995085790753365,0.0006958502344787121,RTL,1787.0
08:11:16,-35.3632638,149.16524099999998,143383.0,17.0,-35.5,95.5,4.0,-77.5,-983.5,-1252.5,-1.5,-1.0,-0.001375320862280205,0.0030600549653172493,-2.688792109489441,-1.2560022473335266,-0.006390987196937203,-0.004897317732684314,RTL,1787.0
08:11:17,-35.3632627,149.1652386,142109.0,9.5,-20.75,98.25,4.75,-77.25,-988.5,-1397.5,0.75,3.0,-0.01977491076104343,0.002081170241581276,-2.6884748339653015,-1.401685208082199,-0.003708474221639335,-0.0008232941036112607,RTL,11320.0
08:11:18,-35.363261949999995,149.16523715,141336.5,3.0,-7.0,98.0,3.0,-74.5,-1031.0,-1096.5,2.5,3.0,-0.025587021373212337,0.0015221286448650062,-2.6874470710754395,-1.100696623325348,-0.002229249570518732,-0.0005073258653283119,RTL,11320.0
08:11:20,-35.363260749999995,149.16523454999998,139304.0,-8.5,16.5,99.0,-0.5,-53.0,-1009.5,-1344.5,4.0,-1.5,-0.047341207042336464,-0.0016762095619924366,-2.6877527236938477,-1.349141776561737,-6.84540718793869e-05,-0.00578287523239851,RTL,11320.0
08:11:22,-35.3632615,149.16523690000002,137274.5,-7.5,12.5,101.0,-3.5,60.5,-963.5,446.0,5.0,6.0,0.0004252656945027411,-0.0071169796865433455,-2.6876261234283447,0.43881823867559433,0.0009131429251283407,0.0026366189122200012,RTL,13532.0
08:11:24,-35.363262750000004,149.1652396,135230.5,1.5,-8.0,95.5,-4.5,35.0,-1045.0,-39.5,5.0,-0.5,0.009688404621556401,-0.005573012866079807,-2.688217878341675,-0.04694581776857376,0.00048092054203152657,-0.004658270510844886,RTL,15744.0
08:11:26,-35.3632638,149.16524145,133176.5,13.5,-30.5,99.5,-1.0,53.5,-1002.5,322.5,6.0,6.5,0.019620931707322598,-0.0011562457075342536,-2.6884841918945312,0.31457674503326416,0.0018289675936102867,0.0035419752821326256,RTL,15744.0
08:11:27,-35.363263775,149.1652413,131892.5,15.0,-32.75,96.25,0.0,25.75,-1018.0,-228.5,6.0,9.75,0.009881542064249516,-0.0005910697736908332,-2.688619315624237,-0.2371772937476635,0.0018076722044497728,0.0062799237202852964,RTL,61243.0
08:11:28,-35.3632636,149.1652408,131127.5,15.0,-32.5,97.0,0.5,25.5,-999.5,-284.5,6.5,-2.0,-0.005220057908445597,0.0004389507375890389,-2.688131093978882,-0.2936920300126076,0.0020315642468631268,-0.006201303098350763,RTL,61243.0
08:11:30,-35.36326285,149.1652393,129101.0,9.5,-22.0,97.0,3.5,52.5,-988.5,482.5,6.5,8.0,-0.0033281545620411634,-4.7190540499286726e-05,-2.688683032989502,0.4736241549253464,0.0022590281441807747,0.004448069026693702,RTL,61243.0
08:11:32,-35.3632624,149.1652387,127052.0,3.0,-9.5,97.5,-1.0,56.0,-976.5,506.0,3.0,4.0,0.006090051960200071,-0.004637610632926226,-2.6880587339401245,0.49713506177067757,-0.0009892070665955544,8.890079334378242e-05,RTL,61243.0
08:11:33,-35.3632624,149.16523865000002,125792.75,2.0,-10.5,98.0,0.5,-39.0,-1011.75,-1249.0,12.75,9.75,-0.016834163339808583,-0.00032095487040351145,-2.6895886659622192,-1.2564438879489899,0.008425147039815784,0.006165036465972662,RTL,69937.0
08:11:34,-35.3632623,149.16523790000002,125025.0,0.0,-7.0,100.0,4.5,-44.0,-999.0,-1318.0,7.0,3.0,-0.02274862863123417,0.0032345886575058103,-2.689322590827942,-1.3256783485412598,0.0030462555587291718,-0.0009645563550293446,RTL,69937.0
08:11:36,-35.363260749999995,149.16523339999998,123000.5,-9.0,21.0,99.5,2.5,20.5,-997.5,-269.5,-0.5,12.0,-0.05828951299190521,0.003114369814284146,-2.688183903694153,-0.2783189192414284,-0.005110164638608694,0.008323300862684846,RTL,69937.0
08:11:38,-35.3632601,149.1652328,120959.5,-18.0,40.0,101.5,-1.5,26.0,-998.5,-311.0,3.0,-8.0,-0.048028022050857544,-0.004231654107570648,-2.6869261264801025,-0.3186556398868561,-0.00208290945738554,-0.012781095691025257,RTL,69937.0
08:11:39,-35.363260575,149.16523462499998,119683.5,-16.0,32.0,100.0,-5.0,66.0,-1009.75,645.5,6.75,2.0,-0.012441129540093243,-0.008387425681576133,-2.68744820356369,0.6385496705770493,0.002262204303406179,-0.0020169944036751986,RTL,281658.0
08:11:40,-35.3632611,149.16523619999998,118909.0,-13.0,23.5,101.0,-4.0,86.0,-976.0,1140.5,8.0,-8.5,0.00837415223941207,-0.009055600501596928,-2.6872031688690186,1.1336656212806702,0.0038655586540699005,-0.012471806723624468,RTL,281658.0
08:11:42,-35.3632629,149.1652403,116863.5,1.0,-13.5,97.0,-1.0,67.5,-1013.5,1012.0,15.0,-0.5,0.02836664579808712,-0.005326901329681277,-2.6885249614715576,1.0045079290866852,0.010994510725140572,-0.0047140957321971655,RTL,281658.0
08:11:44,-35.36326245,149.16523790000002,114813.5,1.5,-11.5,94.5,3.5,58.5,-1077.5,996.5,9.5,10.5,-0.008677856181748211,0.005114514613524079,-2.687681555747986,0.9899827241897583,0.005756465019658208,0.007079406175762415,RTL,281658.0
08:11:45,-35.36326125,149.16523475,113529.0,-5.0,8.5,98.75,4.5,27.5,-1003.5,-198.0,-4.0,21.5,-0.05400614533573389,0.004509801336098462,-2.687364161014557,-0.20567503571510315,-0.008758355164900422,0.017871201620437205,RTL,101508.0
08:11:46,-35.36326055,149.16523315,112769.0,-11.0,23.0,96.0,1.5,-14.5,-1037.5,-984.0,0.5,3.0,-0.06629611551761627,0.002306744223460555,-2.6872620582580566,-0.9909347295761108,-0.003796355566009879,-0.0003684324910864234,RTL,101508.0
08:11:48,-35.363260499999996,149.16523460000002,110743.5,-16.0,32.5,100.0,-4.5,61.5,-1000.0,605.5,7.0,0.5,-0.009862606297247112,-0.009978069458156824,-2.6868855953216553,0.599578432738781,0.0030731239821761847,-0.003435417776927352,RTL,101508.0
08:11:50,-35.363261949999995,149.1652379,108685.5,-6.5,5.0,97.0,-1.0,60.5,-1027.0,635.5,12.0,1.5,0.0027452725917100906,-0.00329823384527117,-2.6871790885925293,0.6297628581523895,0.00792743219062686,-0.002230870188213885,RTL,101508.0
08:11:51,-35.363261924999996,149.16523715,107403.25,-3.75,0.75,97.5,1.75,30.75,-985.25,-178.25,6.0,5.5,-0.026059189811348915,0.0006943879661776009,-2.6867711544036865,-0.18494600430130959,0.002274226164445281,0.0016567487036809325,RTL,29485.0
08:11:52,-35.36326175,149.16523625,106641.5,-3.5,4.5,96.5,-2.0,16.0,-1008.5,-435.0,10.5,6.0,-0.038808949291706085,0.0017432376043871045,-2.6868313550949097,-0.44157980382442474,0.006427210057154298,0.002671285765245557,RTL,29485.0
08:11:54,-35.3632614,149.16523595,104592.5,-7.0,13.0,97.0,-0.5,55.5,-1014.5,606.0,1.5,4.0,-0.013249450828880072,-0.002572663128376007,-2.6871230602264404,0.6008228361606598,-0.0032170526683330536,0.0005381570663303137,RTL,29485.0
08:11:56,-35.363261949999995,149.1652381,102553.5,-3.5,2.5,96.5,-2.0,80.5,-970.0,1484.5,11.5,13.0,0.025604833848774433,-0.007957249414175749,-2.687346935272217,1.4795314073562622,0.007555980933830142,0.009974440443329513,RTL,29485.0
08:11:57,-35.363262475,149.1652393,101285.25,0.0,-9.0,96.75,-1.75,73.0,-1014.0,1318.5,4.0,3.0,0.026931019499897957,-0.005279173026792705,-2.6862713098526,1.3136794567108154,-0.0003437553532421589,-0.000375044415704906,RTL,15953.0
08:11:58,-35.3632627,149.1652396,100522.0,2.5,-14.0,96.0,-0.5,67.5,-1034.0,1367.0,-2.0,2.0,0.021867786534130573,-0.00419666338711977,-2.6864060163497925,1.3620209693908691,-0.006268064375035465,-0.0015082221943885088,RTL,15953.0
08:12:00,-35.36326285,149.1652392,98493.5,4.5,-16.0,97.0,1.0,30.0,-1042.0,1261.5,3.5,7.0,0.02062105853110552,0.0008840361551847309,-2.686373472213745,1.2583799362182617,-0.00027350662276148796,0.004080793587490916,RTL,15953.0
08:12:02,-35.3632621,149.165237,96466.0,0.5,-3.5,100.5,3.5,-8.0,-1019.5,312.0,3.5,1.5,-0.0007459325715899467,0.0027262999210506678,-2.6862000226974487,0.31087372452020645,-0.00030957756098359823,-0.001877551432698965,RTL,70831.5
08:12:04,-35.3632609,149.1652343,94420.0,-9.5,20.0,99.0,4.0,-41.0,-952.5,151.0,5.5,0.5,-0.019533557817339897,0.001242500904481858,-2.686947226524353,0.1499561765231192,0.0016512018628418446,-0.0030302753439173102,RTL,125710.0
08:12:06,-35.363260499999996,149.16523389999998,92387.5,-16.0,37.0,102.0,-3.5,-41.0,-975.0,-211.5,0.0,2.0,-0.013746011070907116,-0.007691257866099477,-2.6847740411758423,-0.21250826865434647,-0.004090014845132828,-0.0019372242968529463,RTL,125710.0
08:12:08,-35.36326185,149.1652373,90333.5,-7.0,10.5,98.0,0.0,-69.5,-1004.0,-1126.5,3.5,-1.0,-0.0054731895215809345,-0.002614671364426613,-2.686150550842285,-1.1276524662971497,-0.0003965736832469702,-0.005129267228767276,RTL,263274.0
08:12:10,-35.363262,149.16523705,88184.5,-3.0,5.5,99.5,1.5,-28.5,-968.0,-1131.0,0.5,3.0,-0.02494874782860279,-0.0006956718279980123,-2.6858928203582764,-1.1354116797447205,-0.003783146385103464,-0.0003395910607650876,RTL,263274.0
08:12:12,-35.3632619,149.16523676666668,86264.0,-3.3333333333333335,7.666666666666667,99.33333333333333,-0.3333333333333333,-10.666666666666666,-984.3333333333334,-945.0,1.0,0.0,-0.0271552416185538,-0.003312363832568129,-2.6856679121653237,-0.9493125279744467,-0.0031668233374754586,-0.0034029478362450996,RTL,263274.0
08:12:13,-35.36326199999999,149.16523795,84856.25,-1.25,1.5,97.0,-2.25,61.25,-986.5,468.75,1.5,8.25,-0.001312466338276863,-0.007080996059812605,-2.6857659816741943,0.46430663391947746,-0.002408559084869921,0.005186431342735887,RTL,9780.0
08:12:14,-35.363262250000005,149.16523885,84086.5,0.0,-5.0,98.5,-2.0,69.0,-999.5,547.0,11.5,-3.5,0.008800419745966792,-0.007090650964528322,-2.6863702535629272,0.5420817583799362,0.0076195786241441965,-0.007793414406478405,RTL,9780.0
08:12:16,-35.363262733333336,149.1652398,82170.0,4.0,-16.666666666666668,97.0,-1.3333333333333333,66.66666666666667,-999.6666666666666,580.3333333333334,7.333333333333333,1.3333333333333333,0.010372137495627006,-0.003711904864758253,-2.685996135075887,0.5756776630878448,0.003960466788460811,-0.002142208473136028,RTL,9780.0
08:12:18,-35.363263133333334,149.16524056666665,80140.66666666667,7.666666666666667,-23.0,99.0,-1.0,52.0,-1001.0,319.3333333333333,2.6666666666666665,4.0,0.010127659576634565,-0.004581954174985488,-2.6855475107828775,0.3140495916207631,-0.000981246509278814,0.0012153236505885918,RTL,9780.0
08:12:19,-35.36326326666667,149.16524056666665,78871.0,9.333333333333334,-26.666666666666668,97.66666666666667,0.3333333333333333,61.333333333333336,-995.0,557.3333333333334,4.0,8.666666666666666,0.012757948522145549,-0.000707036888343282,-2.6851235230763755,0.5518654882907867,0.00034082836161057156,0.005477591572950284,RTL,77541.0
08:12:20,-35.3632631,149.16523980000002,78104.0,8.666666666666666,-24.0,97.66666666666667,0.0,67.33333333333333,-981.0,743.3333333333334,11.0,5.0,0.000698841642588377,0.0017331586762641866,-2.685894807179769,0.7374486128489176,0.007500859908759594,0.0016741445288062096,RTL,77541.0
08:12:22,-35.3632627,149.1652386,75942.5,6.0,-13.0,97.0,0.6666666666666666,50.333333333333336,-1017.6666666666666,1336.0,4.0,5.333333333333333,0.018403909169137478,0.00027180399774806574,-2.686384916305542,1.333013117313385,-0.0014572067884728312,-0.0010355616686865687,RTL,77541.0
08:12:24,-35.3632623,149.1652378,74023.0,1.3333333333333333,-3.0,99.33333333333333,1.0,62.666666666666664,-1021.3333333333334,1422.3333333333333,3.3333333333333335,1.6666666666666667,0.015534871568282446,-0.0009200387091065446,-2.6860128243764243,1.4181119998296101,-0.00045387834931413334,-0.001519715723892053,RTL,77541.0
08:12:25,-35.3632619,149.16523702499998,72638.25,-0.25,-0.25,96.5,1.0,56.333333333333336,-1027.0,1289.6666666666667,1.6666666666666667,6.333333333333333,0.005565456463955343,-0.0009144295399892144,-2.685763955116272,1.2685972452163696,-0.0021985346102155745,0.00288650841685012,RTL,37434.0
08:12:26,-35.36326165,149.16523665,71873.5,-2.5,4.0,102.0,0.0,25.666666666666668,-1015.3333333333334,1199.3333333333333,0.6666666666666666,4.666666666666667,0.010898045264184475,-0.0020735073485411704,-2.685423970222473,1.1865283250808716,-0.002721959841437638,0.0005997512489557266,RTL,37434.0
08:12:28,-35.363262066666664,149.16523813333333,69948.33333333333,-2.6666666666666665,3.3333333333333335,100.0,-3.0,-49.333333333333336,-1007.3333333333334,-295.0,1.3333333333333333,-4.0,0.01889337506145239,-0.007692043669521809,-2.6853702068328857,-0.2971161678433418,-0.002166219288483262,-0.007458295905962586,RTL,37434.0
08:12:30,-35.363263,149.16524016666668,67914.66666666667,5.666666666666667,-18.666666666666668,101.0,0.6666666666666666,-33.333333333333336,-961.3333333333334,251.33333333333334,4.0,-3.3333333333333335,0.03387973643839359,-0.0011102667000765603,-2.685662031173706,0.24964461848139763,0.00022303289733827114,-0.006610957517599066,RTL,37434.0
08:12:31,-35.36326306666667,149.1652399333333,66660.0,7.0,-17.666666666666668,102.0,-0.3333333333333333,-39.0,-985.0,-84.33333333333333,0.3333333333333333,-1.0,0.026281175514062245,-0.002804745143900315,-2.6851194699605307,-0.08706848199168842,-0.003274418142003318,-0.004693362396210432,RTL,173458.0
08:12:32,-35.363263233333335,149.16524046666666,65899.0,8.666666666666666,-20.0,101.0,-1.0,-41.0,-989.0,-102.66666666666667,0.0,-4.666666666666667,0.035523815701405205,-0.003759335493668914,-2.685537656148275,-0.10514438649018605,-0.0033234059810638428,-0.008090444064388672,RTL,173458.0
08:12:34,-35.3632637,149.1652418,63859.0,13.666666666666666,-33.666666666666664,103.33333333333333,0.0,-66.33333333333333,-1002.0,-1447.3333333333333,4.666666666666667,1.0,0.01477675512433052,-0.0032943037804216146,-2.685270309448242,-1.4523146152496338,0.0012686268116037052,-0.0018390791180233161,RTL,173458.0
08:12:36,-35.363263499999995,149.1652408,61822.0,12.666666666666666,-31.666666666666668,103.33333333333333,3.0,-57.333333333333336,-993.3333333333334,-1318.6666666666667,9.0,-0.6666666666666666,0.00015465771624197563,0.0023237187803412476,-2.686060110727946,-1.3257333040237427,0.005542692029848695,-0.004917632633199294,RTL,122757.0
08:12:38,-35.36326246666667,149.1652381,59776.333333333336,6.0,-12.333333333333334,102.33333333333333,1.0,-18.666666666666668,-982.0,-1026.6666666666667,2.6666666666666665,3.0,-0.024168627957503002,0.00024177785962820053,-2.685823361078898,-1.0347976485888164,-0.0009390485162536303,-0.00012540188618004322,RTL,72056.0
08:12:40,-35.363261566666665,149.1652362,57736.666666666664,-2.6666666666666665,3.6666666666666665,104.0,1.3333333333333333,-4.333333333333333,-977.6666666666666,-778.3333333333334,3.0,4.666666666666667,-0.03322306337455908,-0.00017354682980415723,-2.6853013833363852,-0.7868566910425822,-0.0005495300671706597,0.0017406557065745194,RTL,72056.0
08:12:41,-35.36326113333333,149.1652352,56458.333333333336,-8.0,15.0,102.33333333333333,1.6666666666666667,-60.333333333333336,-1035.6666666666667,-1402.0,0.6666666666666666,0.6666666666666666,-0.03687393354872862,-0.00019369284564163536,-2.6849987506866455,-1.4080651601155598,-0.002997961283350984,-0.002638732005531589,RTL,16482.0
08:12:42,-35.363261,149.1652349,55701.333333333336,-9.666666666666666,19.333333333333332,101.0,0.0,-41.0,-986.3333333333334,-1306.0,-0.3333333333333333,5.0,-0.03914576520522436,-0.0017954209664215643,-2.685586849848429,-1.3128022750218709,-0.003639593875656525,0.002198655546332399,RTL,16482.0
08:12:44,-35.363261066666674,149.1652355,53658.333333333336,-10.666666666666666,19.333333333333332,106.0,-2.0,-42.0,-974.3333333333334,-1420.6666666666667,1.3333333333333333,-4.333333333333333,-0.034669301162163414,-0.004784192734708388,-2.6853408018747964,-1.4269579648971558,-0.0023733378232767186,-0.007468679764618476,RTL,16482.0
08:12:46,-35.363262,149.1652381,51604.333333333336,-5.333333333333333,6.333333333333333,100.33333333333333,-2.3333333333333335,-59.666666666666664,-986.3333333333334,-563.6666666666666,6.333333333333333,4.333333333333333,0.017526033023993175,-0.006201510472844045,-2.6848631699879966,-0.567238062620163,0.0030300101110090813,0.0017250054515898228,RTL,16482.0
08:12:47,-35.3632626,149.165239,50323.0,0.0,-7.333333333333333,102.0,2.3333333333333335,-42.666666666666664,-1001.6666666666666,-124.0,9.0,-7.666666666666667,0.020622206541399162,-0.001423930099311595,-2.6856919129689536,-0.12713178992271423,0.005978648861249288,-0.010872160860647758,RTL,218461.0
08:12:48,-35.3632625,149.16523826666665,49560.333333333336,0.3333333333333333,-7.666666666666667,100.66666666666667,3.3333333333333335,-50.0,-1001.6666666666666,-136.0,4.333333333333333,4.666666666666667,0.002793216456969579,0.001954246894456446,-2.6855987707773843,-0.13929020365079245,0.001427553982163469,0.0017562954841802518,RTL,218461.0
