time_stamp,MODE,lat,lon,relative_alt,roll,pitch,yaw,rollspeed,pitchspeed,yawspeed,xacc,yacc,zacc,xgyro,ygyro,zgyro,vx,vy,vz,LAND_SPEED_HIGH,WPNAV_SPEED_DN,RTL_ALT
20:55:22.586,GUIDED,-35.3632621,149.1652374,0,-0.0005921571282669902,0.00142539176158607,0.029675399884581566,0.00016738087288103998,0.0001928937854245305,0.002659895457327366,0,1,-1000,0,0,0,0,0,0,0.0,150.0,1500.0
20:55:22.787,GUIDED,-35.3632621,149.1652374,0,-0.0005921571282669902,0.00142539176158607,0.029675399884581566,0.00016738087288103998,0.0001928937854245305,0.002659895457327366,0,1,-1000,0,0,0,0,0,0,0.0,150.0,1500.0
20:55:22.988,GUIDED,-35.3632621,149.1652374,0,-0.00039644481148570776,0.0014814151218160987,0.029551927000284195,0.00032558984821662307,0.00023551422054879367,0.0025516843888908625,0,0,-1002,0,0,0,0,1,1,0.0,150.0,1500.0
20:55:23.189,GUIDED,-35.3632621,149.1652374,0,-0.00038074591429904103,0.0015373674686998129,0.029370876029133797,0.00028621076489798725,0.00021495515829883516,0.002442165743559599,0,1,-1000,0,0,0,-1,1,1,0.0,150.0,1500.0
20:55:23.390,GUIDED,-35.3632621,149.1652374,0,-0.00038169772597029805,0.0015741052338853478,0.029213540256023407,0.0002142050361726433,0.00018032113439403474,0.00245288060978055,0,1,-1000,0,0,1,-1,1,1,0.0,150.0,1500.0
20:55:23.591,GUIDED,-35.3632621,149.1652374,0,-0.00040502374758943915,0.0015975486021488905,0.029090791940689087,0.00029881016234867275,0.0002935049997176975,0.002466217614710331,0,1,-1000,0,0,0,-1,1,1,0.0,150.0,1500.0
20:55:23.792,GUIDED,-35.3632621,149.1652374,0,-0.00040502374758943915,0.0015975486021488905,0.029090791940689087,0.00029881016234867275,0.0002935049997176975,0.002466217614710331,0,1,-1000,0,0,0,-1,1,1,0.0,150.0,1500.0
20:55:23.993,GUIDED,-35.3632621,149.1652374,0,-0.00040502374758943915,0.0015975486021488905,0.029090791940689087,0.00029881016234867275,0.0002935049997176975,0.002466217614710331,0,1,-1000,0,0,0,-1,1,1,0.0,150.0,1500.0
20:55:24.194,GUIDED,-35.3632621,149.1652374,0,-0.00040502374758943915,0.0015975486021488905,0.029090791940689087,0.00029881016234867275,0.0002935049997176975,0.002466217614710331,0,1,-1000,0,0,0,-1,1,1,0.0,150.0,1500.0
20:55:24.395,GUIDED,-35.3632621,149.1652374,0,-0.00040502374758943915,0.0015975486021488905,0.029090791940689087,0.00029881016234867275,0.0002935049997176975,0.002466217614710331,0,1,-1000,0,0,0,-1,1,1,0.0,150.0,1500.0
20:55:24.596,GUIDED,-35.3632621,149.1652374,0,-0.0005420857924036682,0.0015717152273282409,0.02850380167365074,0.00010716024553403258,0.0001780139864422381,0.0023625288158655167,0,1,-1000,0,0,0,-2,1,0,0.0,150.0,1500.0
20:55:24.797,GUIDED,-35.3632621,149.1652374,0,-0.0005420857924036682,0.0015717152273282409,0.02850380167365074,0.00010716024553403258,0.0001780139864422381,0.0023625288158655167,0,1,-1000,0,0,0,-2,1,0,0.0,150.0,1500.0
20:55:24.998,GUIDED,-35.3632621,149.1652374,7,-0.0005827007698826492,0.0015406955499202013,0.028360262513160706,0.0002925427397713065,0.0003907632199116051,0.002326646354049444,0,1,-1000,0,0,0,-2,1,0,0.0,150.0,1500.0
20:55:25.199,GUIDED,-35.3632622,149.1652374,8,-0.0006414696108549833,0.001504396554082632,0.0282528605312109,0.0002690243418328464,0.00045665173092857003,0.002457965398207307,0,1,-1000,0,0,0,-2,1,0,0.0,150.0,1500.0
20:55:25.399,GUIDED,-35.3632622,149.1652374,8,-0.000679284508805722,0.0014647457282990217,0.028125418350100517,0.0001709903299342841,0.00032563990680500865,0.0021351934410631657,0,1,-1000,1,0,0,-1,1,0,0.0,150.0,1500.0
20:55:25.600,GUIDED,-35.3632622,149.1652374,8,-0.0007079691858962178,0.0014279545284807682,0.027993910014629364,0.0002481661504134536,0.00023319543106481433,0.0022821598686277866,0,1,-1000,0,0,0,-1,1,0,0.0,150.0,1500.0
20:55:25.801,GUIDED,-35.3632622,149.1652374,8,-0.0007079691858962178,0.0014279545284807682,0.027993910014629364,0.0002481661504134536,0.00023319543106481433,0.0022821598686277866,0,1,-1000,0,0,0,-1,1,0,0.0,150.0,1500.0
20:55:26.002,GUIDED,-35.3632622,149.1652374,8,-0.0007079691858962178,0.0014279545284807682,0.027993910014629364,0.0002481661504134536,0.00023319543106481433,0.0022821598686277866,0,1,-1000,0,0,0,-1,1,0,0.0,150.0,1500.0
20:55:26.203,GUIDED,-35.3632622,149.1652374,8,-0.0007079691858962178,0.0014279545284807682,0.027993910014629364,0.0002481661504134536,0.00023319543106481433,0.0022821598686277866,0,1,-1000,0,0,0,-1,1,0,0.0,150.0,1500.0
20:55:26.404,GUIDED,-35.3632622,149.1652374,8,-0.0007079691858962178,0.0014279545284807682,0.027993910014629364,0.0002481661504134536,0.00023319543106481433,0.0022821598686277866,0,1,-1000,0,0,0,-1,1,0,0.0,150.0,1500.0
20:55:26.605,GUIDED,-35.3632621,149.1652374,8,-0.0003555215080268681,0.0015074547845870256,0.027483295649290085,0.00021804386051371694,0.0002816686755977571,0.002202249364927411,0,1,-1000,0,0,0,0,0,0,0.0,150.0,1500.0
20:55:26.805,GUIDED,-35.3632621,149.1652374,8,-0.0003555215080268681,0.0015074547845870256,0.027483295649290085,0.00021804386051371694,0.0002816686755977571,0.002202249364927411,0,1,-1000,0,0,0,0,0,0,0.0,150.0,1500.0
20:55:27.006,GUIDED,-35.3632621,149.1652374,8,-0.00033044273732230067,0.0015658159973099828,0.027363156899809837,0.0002707605017349124,0.0002461760595906526,0.0021966020576655865,0,1,-1000,0,0,0,0,0,0,0.0,150.0,1500.0
20:55:27.207,GUIDED,-35.3632621,149.1652374,8,-0.00029367650859057903,0.0016308908816426992,0.027219973504543304,0.00014168128836899996,0.00035115951322950423,0.002224890049546957,0,1,-1000,0,0,0,0,0,0,0.0,150.0,1500.0
20:55:27.408,GUIDED,-35.3632621,149.1652374,8,-0.00024438914260827005,0.0017009730217978358,0.027072682976722717,0.0003101060283370316,0.0002274220751132816,0.00221702316775918,0,1,-1000,0,0,0,0,0,0,0.0,150.0,1500.0
20:55:27.609,GUIDED,-35.3632621,149.1652374,9,-0.00020135490922257304,0.001762501196935773,0.026934800669550896,0.0002056677476502955,0.0002965782769024372,0.002158630173653364,0,1,-1000,0,0,0,0,0,0,0.0,150.0,1500.0
20:55:27.809,GUIDED,-35.3632621,149.1652374,9,-0.00020135490922257304,0.001762501196935773,0.026934800669550896,0.0002056677476502955,0.0002965782769024372,0.002158630173653364,0,1,-1000,0,0,0,0,0,0,0.0,150.0,1500.0
20:55:28.010,GUIDED,-35.3632621,149.1652374,9,-0.00020135490922257304,0.001762501196935773,0.026934800669550896,0.0002056677476502955,0.0002965782769024372,0.002158630173653364,0,1,-1000,0,0,0,0,0,0,0.0,150.0,1500.0
20:55:28.212,GUIDED,-35.3632621,149.1652374,9,-0.00020135490922257304,0.001762501196935773,0.026934800669550896,0.0002056677476502955,0.0002965782769024372,0.002158630173653364,0,1,-1000,0,0,0,0,0,0,0.0,150.0,1500.0
20:55:28.413,GUIDED,-35.3632621,149.1652374,9,-0.00020135490922257304,0.001762501196935773,0.026934800669550896,0.0002056677476502955,0.0002965782769024372,0.002158630173653364,0,1,-1000,0,0,0,0,0,0,0.0,150.0,1500.0
20:55:28.614,GUIDED,-35.3632621,149.1652374,11,2.643052994244499e-06,0.0020612336229532957,0.026370137929916382,0.00033937807893380523,0.00032162846764549613,0.0020857551135122776,0,1,-1000,1,0,0,0,0,0,0.0,150.0,1500.0
20:55:28.815,GUIDED,-35.3632621,149.1652374,11,2.643052994244499e-06,0.0020612336229532957,0.026370137929916382,0.00033937807893380523,0.00032162846764549613,0.0020857551135122776,0,1,-1000,1,0,0,0,0,0,0.0,150.0,1500.0
20:55:29.016,GUIDED,-35.3632621,149.1652374,12,6.198100163601339e-05,0.002140084747225046,0.026203583925962448,0.0003323450218886137,0.0003346849116496742,0.002151679480448365,0,1,-1000,0,0,0,0,0,0,0.0,150.0,1500.0
20:55:29.217,GUIDED,-35.3632621,149.1652374,13,0.00013077049516141415,0.0022172012832015753,0.02604396641254425,0.00034426574711687863,0.00036407014704309404,0.002083264756947756,0,1,-1000,0,0,0,0,0,0,0.0,150.0,1500.0
20:55:29.417,GUIDED,-35.3632621,149.1652374,20,0.0018345341086387634,0.0004378780722618103,0.02595667541027069,0.01424909383058548,-0.01528878603130579,0.0027333353646099567,0,0,-1131,14,-15,1,0,0,-12,0.0,150.0,1500.0
20:55:29.618,GUIDED,-35.3632621,149.1652374,99,0.0031179357320070267,-0.0008420660742558539,0.025907734408974648,-0.008302077651023865,0.001994061516597867,0.0027761305682361126,0,0,-1140,-7,2,1,0,0,-47,0.0,150.0,1500.0
20:55:29.819,GUIDED,-35.3632621,149.1652374,99,0.0031179357320070267,-0.0008420660742558539,0.025907734408974648,-0.008302077651023865,0.001994061516597867,0.0027761305682361126,0,0,-1140,-7,2,1,0,0,-47,0.0,150.0,1500.0
20:55:30.019,GUIDED,-35.3632621,149.1652374,99,0.0031179357320070267,-0.0008420660742558539,0.025907734408974648,-0.008302077651023865,0.001994061516597867,0.0027761305682361126,0,0,-1140,-7,2,1,0,0,-47,0.0,150.0,1500.0
20:55:30.220,GUIDED,-35.3632621,149.1652374,99,0.0031179357320070267,-0.0008420660742558539,0.025907734408974648,-0.008302077651023865,0.001994061516597867,0.0027761305682361126,0,0,-1140,-7,2,1,0,0,-47,0.0,150.0,1500.0
20:55:30.422,GUIDED,-35.3632621,149.1652374,787,0.002599148079752922,0.002113835420459509,0.026037069037556648,0.021833542734384537,0.000499822897836566,0.0005323317018337548,0,0,-1078,22,0,0,0,0,-128,0.0,150.0,1500.0
20:55:30.623,GUIDED,-35.363262,149.1652374,1133,0.013335681520402431,0.0011120395502075553,0.025818152353167534,0.04785257950425148,-0.006201166659593582,0.0021986630745232105,0,0,-1034,48,-5,0,0,2,-141,0.0,150.0,1500.0
20:55:30.824,GUIDED,-35.363262,149.1652375,1503,0.02510114759206772,-0.0005725452792830765,0.02580600045621395,0.04634345322847366,-0.006441367790102959,0.002984956605359912,0,0,-1014,46,-6,1,1,6,-146,0.0,150.0,1500.0
20:55:31.026,GUIDED,-35.363262,149.1652375,1503,0.02510114759206772,-0.0005725452792830765,0.02580600045621395,0.04634345322847366,-0.006441367790102959,0.002984956605359912,0,0,-1014,46,-6,1,1,6,-146,0.0,150.0,1500.0
20:55:31.227,GUIDED,-35.363262,149.1652377,1884,0.0364236980676651,-0.002523662056773901,0.0259455144405365,0.04458834230899811,-0.008417705073952675,0.0036001051776111126,0,-1,-1005,44,-8,2,2,13,-148,0.0,150.0,1500.0
20:55:31.427,GUIDED,-35.3632619,149.1652382,2270,0.04713229835033417,-0.004779495764523745,0.02609718032181263,0.041852422058582306,-0.009849023073911667,0.003901110263541341,0,-3,-1001,42,-9,2,3,22,-149,0.0,150.0,1500.0
20:55:31.628,GUIDED,-35.3632617,149.1652389,2658,0.057051438838243484,-0.007549752946943045,0.02625574916601181,0.03845210373401642,-0.010759592056274414,0.004287822172045708,2,-6,-999,39,-10,2,5,33,-149,0.0,150.0,1500.0
20:55:31.829,GUIDED,-35.3632617,149.1652389,2658,0.057051438838243484,-0.007549752946943045,0.02625574916601181,0.03845210373401642,-0.010759592056274414,0.004287822172045708,2,-6,-999,39,-10,2,5,33,-149,0.0,150.0,1500.0
20:55:32.029,GUIDED,-35.3632617,149.1652389,2658,0.057051438838243484,-0.007549752946943045,0.02625574916601181,0.03845210373401642,-0.010759592056274414,0.004287822172045708,2,-6,-999,39,-10,2,5,33,-149,0.0,150.0,1500.0
20:55:32.230,GUIDED,-35.3632617,149.1652389,2658,0.057051438838243484,-0.007549752946943045,0.02625574916601181,0.03845210373401642,-0.010759592056274414,0.004287822172045708,2,-6,-999,39,-10,2,5,33,-149,0.0,150.0,1500.0
20:55:32.431,GUIDED,-35.3632611,149.1652427,3799,-0.008355233818292618,0.029379311949014664,-0.05978227034211159,-0.13649381697177887,0.07426530867815018,-0.15572601556777954,4,-11,-1008,-136,74,-157,5,54,-145,0.0,150.0,1500.0
20:55:32.631,GUIDED,-35.363261,149.1652441,4178,-0.03088177554309368,0.05121375247836113,-0.09845852106809616,-0.030580712482333183,0.06108531728386879,-0.14374679327011108,5,-10,-1012,-29,61,-144,-3,45,-148,0.0,150.0,1500.0
20:55:32.832,GUIDED,-35.363261,149.1652452,4562,-0.03383920341730118,0.05455613136291504,-0.12632204592227936,-0.0007762109162285924,-0.015526785515248775,-0.09124065935611725,5,-6,-1004,0,-14,-92,-15,36,-150,0.0,150.0,1500.0
20:55:33.033,GUIDED,-35.363261,149.1652452,4562,-0.03383920341730118,0.05455613136291504,-0.12632204592227936,-0.0007762109162285924,-0.015526785515248775,-0.09124065935611725,5,-6,-1004,0,-14,-92,-15,36,-150,0.0,150.0,1500.0
20:55:33.234,GUIDED,-35.3632615,149.165246,4949,-0.040423572063446045,0.04478408396244049,-0.14280682802200317,-0.059233732521533966,-0.03924274444580078,-0.06197759136557579,8,-4,-996,-58,-38,-63,-25,27,-149,0.0,150.0,1500.0
20:55:33.434,GUIDED,-35.3632621,149.1652466,5332,-0.059264298528432846,0.018070267513394356,-0.13503791391849518,-0.062474288046360016,-0.1407354474067688,0.05190879851579666,8,0,-1002,-61,-140,50,-32,14,-149,0.0,150.0,1500.0
20:55:33.635,GUIDED,-35.3632628,149.1652468,5719,-0.06667668372392654,-0.011985396035015583,-0.11669279634952545,-0.004133459180593491,-0.10083160549402237,0.0654446929693222,7,3,-1006,-3,-100,64,-32,-1,-149,0.0,150.0,1500.0
20:55:33.836,GUIDED,-35.3632628,149.1652468,5719,-0.06667668372392654,-0.011985396035015583,-0.11669279634952545,-0.004133459180593491,-0.10083160549402237,0.0654446929693222,7,3,-1006,-3,-100,64,-32,-1,-149,0.0,150.0,1500.0
20:55:34.036,GUIDED,-35.3632628,149.1652468,5719,-0.06667668372392654,-0.011985396035015583,-0.11669279634952545,-0.004133459180593491,-0.10083160549402237,0.0654446929693222,7,3,-1006,-3,-100,64,-32,-1,-149,0.0,150.0,1500.0
20:55:34.237,GUIDED,-35.3632628,149.1652468,5719,-0.06667668372392654,-0.011985396035015583,-0.11669279634952545,-0.004133459180593491,-0.10083160549402237,0.0654446929693222,7,3,-1006,-3,-100,64,-32,-1,-149,0.0,150.0,1500.0
20:55:34.438,GUIDED,-35.3632644,149.165245,6879,-0.03472166508436203,-0.038917817175388336,-0.0825444757938385,0.0608300156891346,-0.006642875727266073,0.031326912343502045,-1,8,-1001,61,-6,30,-10,-40,-151,0.0,150.0,1500.0
20:55:34.639,GUIDED,-35.3632645,149.1652438,7266,-0.019636360928416252,-0.03907952085137367,-0.07725302875041962,0.0611630342900753,0.001891479711048305,0.0243045873939991,-4,9,-1001,61,2,23,-1,-45,-151,0.0,150.0,1500.0
20:55:34.839,GUIDED,-35.3632645,149.1652425,7654,-0.004495637025684118,-0.03756719455122948,-0.07293680310249329,0.061479952186346054,0.00916733406484127,0.01977282017469406,-7,9,-1002,62,9,18,6,-47,-151,0.0,150.0,1500.0
20:55:35.040,GUIDED,-35.3632645,149.1652425,7654,-0.004495637025684118,-0.03756719455122948,-0.07293680310249329,0.061479952186346054,0.00916733406484127,0.01977282017469406,-7,9,-1002,62,9,18,6,-47,-151,0.0,150.0,1500.0
20:55:35.241,GUIDED,-35.3632644,149.1652412,8043,0.010544517077505589,-0.034665998071432114,-0.06976868212223053,0.0612446554005146,0.014398336410522461,0.01645779237151146,-7,8,-1002,61,15,15,14,-46,-152,0.0,150.0,1500.0
20:55:35.442,GUIDED,-35.363264,149.1652399,8440,0.022568419575691223,-0.0328088253736496,-0.06479281187057495,0.03575141727924347,-0.0014863242395222187,0.03273434191942215,-9,5,-1000,36,-1,31,21,-41,-152,0.0,150.0,1500.0
20:55:35.642,GUIDED,-35.3632634,149.1652389,8830,0.027608390897512436,-0.03328860551118851,-0.05885239690542221,-0.0015168713871389627,0.017167041078209877,0.012096300721168518,-11,6,-997,-1,17,10,28,-34,-151,0.0,150.0,1500.0
20:55:35.843,GUIDED,-35.3632634,149.1652389,8830,0.027608390897512436,-0.03328860551118851,-0.05885239690542221,-0.0015168713871389627,0.017167041078209877,0.012096300721168518,-11,6,-997,-1,17,10,28,-34,-151,0.0,150.0,1500.0
20:55:36.044,GUIDED,-35.3632634,149.1652389,8830,0.027608390897512436,-0.03328860551118851,-0.05885239690542221,-0.0015168713871389627,0.017167041078209877,0.012096300721168518,-11,6,-997,-1,17,10,28,-34,-151,0.0,150.0,1500.0
20:55:36.244,GUIDED,-35.3632634,149.1652389,8830,0.027608390897512436,-0.03328860551118851,-0.05885239690542221,-0.0015168713871389627,0.017167041078209877,0.012096300721168518,-11,6,-997,-1,17,10,28,-34,-151,0.0,150.0,1500.0
20:55:36.446,GUIDED,-35.3632613,149.1652365,9983,0.015697017312049866,0.011994168162345886,-0.08655417710542679,-0.006910913623869419,0.04689354822039604,-0.04292815178632736,-9,0,-1002,-6,47,-43,31,-20,-151,0.0,150.0,1500.0
20:55:36.647,GUIDED,-35.3632606,149.1652359,10372,0.01369738020002842,0.021255556493997574,-0.09722641110420227,-0.005226485896855593,0.029889268800616264,-0.035158947110176086,-8,-1,-1002,-4,30,-36,25,-17,-152,0.0,150.0,1500.0
20:55:36.847,GUIDED,-35.3632601,149.1652355,10761,0.013825926929712296,0.02618146874010563,-0.10471052676439285,0.0035128516610711813,0.010486127808690071,-0.019764821976423264,-6,1,-1001,4,11,-21,18,-14,-152,0.0,150.0,1500.0
20:55:37.048,GUIDED,-35.3632601,149.1652355,10761,0.013825926929712296,0.02618146874010563,-0.10471052676439285,0.0035128516610711813,0.010486127808690071,-0.019764821976423264,-6,1,-1001,4,11,-21,18,-14,-152,0.0,150.0,1500.0
20:55:37.248,GUIDED,-35.3632598,149.1652351,11151,0.013338622637093067,0.02794516645371914,-0.10957666486501694,0.0025327198673039675,0.005186670459806919,-0.013339162804186344,-5,0,-1001,3,5,-14,11,-10,-152,0.0,150.0,1500.0
20:55:37.449,GUIDED,-35.3632595,149.1652348,11542,0.013818915002048016,0.027966877445578575,-0.11237794160842896,-1.894080196507275e-05,-0.0022779779974371195,-0.006037150509655476,-3,0,-999,0,-2,-7,5,-6,-152,0.0,150.0,1500.0
20:55:37.650,GUIDED,-35.3632595,149.1652346,11931,0.014193407259881496,0.02602873183786869,-0.11288812011480331,0.0026546833105385303,-0.010221051052212715,0.005447046831250191,-1,1,-1000,3,-9,4,0,-3,-152,0.0,150.0,1500.0
20:55:37.850,GUIDED,-35.3632595,149.1652346,11931,0.014193407259881496,0.02602873183786869,-0.11288812011480331,0.0026546833105385303,-0.010221051052212715,0.005447046831250191,-1,1,-1000,3,-9,4,0,-3,-152,0.0,150.0,1500.0
20:55:38.052,GUIDED,-35.3632595,149.1652346,11931,0.014193407259881496,0.02602873183786869,-0.11288812011480331,0.0026546833105385303,-0.010221051052212715,0.005447046831250191,-1,1,-1000,3,-9,4,0,-3,-152,0.0,150.0,1500.0
20:55:38.253,GUIDED,-35.3632595,149.1652346,11931,0.014193407259881496,0.02602873183786869,-0.11288812011480331,0.0026546833105385303,-0.010221051052212715,0.005447046831250191,-1,1,-1000,3,-9,4,0,-3,-152,0.0,150.0,1500.0
20:55:38.454,GUIDED,-35.3632598,149.1652347,13097,0.01113402470946312,0.014597066678106785,-0.10782751441001892,-0.007221881300210953,-0.016776688396930695,0.01034446619451046,2,1,-1000,-6,-16,9,-12,5,-152,0.0,150.0,1500.0
20:55:38.655,GUIDED,-35.3632601,149.1652347,13485,0.009033425711095333,0.010604886338114738,-0.10632118582725525,-0.00675546657294035,-0.014893769286572933,0.005069959443062544,2,0,-1000,-6,-14,3,-14,7,-152,0.0,150.0,1500.0
20:55:38.856,GUIDED,-35.3632604,149.1652349,13878,0.0068984003737568855,0.006908925715833902,-0.10561777651309967,-0.010547778569161892,-0.014675591140985489,0.001733604003675282,3,0,-1000,-10,-14,0,-14,9,-152,0.0,150.0,1500.0
20:55:39.057,GUIDED,-35.3632604,149.1652349,13878,0.0068984003737568855,0.006908925715833902,-0.10561777651309967,-0.010547778569161892,-0.014675591140985489,0.001733604003675282,3,0,-1000,-10,-14,0,-14,9,-152,0.0,150.0,1500.0
20:55:39.258,GUIDED,-35.3632607,149.1652351,14267,0.004477438051253557,0.0037464462220668793,-0.10603790730237961,-0.007468129973858595,-0.012863644398748875,-0.0037353020161390305,3,0,-1000,-6,-12,-4,-14,9,-152,0.0,150.0,1500.0
20:55:39.458,GUIDED,-35.363261,149.1652353,14655,0.002285070950165391,0.0010558309732005,-0.10759725421667099,-0.009441827423870564,-0.00702196778729558,-0.008895154111087322,3,0,-1000,-8,-6,-9,-13,9,-152,0.0,150.0,1500.0
20:55:39.659,GUIDED,-35.3632612,149.1652355,15044,0.0007526283152401447,-0.0008993358933366835,-0.11024802178144455,-0.005371851846575737,-0.006550735794007778,-0.01198626309633255,3,0,-1000,-4,-6,-12,-11,9,-152,0.0,150.0,1500.0
20:55:39.860,GUIDED,-35.3632612,149.1652355,15044,0.0007526283152401447,-0.0008993358933366835,-0.11024802178144455,-0.005371851846575737,-0.006550735794007778,-0.01198626309633255,3,0,-1000,-4,-6,-12,-11,9,-152,0.0,150.0,1500.0
20:55:40.061,GUIDED,-35.3632612,149.1652355,15044,0.0007526283152401447,-0.0008993358933366835,-0.11024802178144455,-0.005371851846575737,-0.006550735794007778,-0.01198626309633255,3,0,-1000,-4,-6,-12,-11,9,-152,0.0,150.0,1500.0
20:55:40.263,GUIDED,-35.3632612,149.1652355,15044,0.0007526283152401447,-0.0008993358933366835,-0.11024802178144455,-0.005371851846575737,-0.006550735794007778,-0.01198626309633255,3,0,-1000,-4,-6,-12,-11,9,-152,0.0,150.0,1500.0
20:55:40.464,GUIDED,-35.3632617,149.165236,16209,-0.0011786427348852158,-0.0030239017214626074,-0.12440082430839539,0.0031241204123944044,0.0018052617087960243,-0.024170653894543648,1,0,-1001,3,2,-25,-6,5,-153,0.0,150.0,1500.0
20:55:40.665,GUIDED,-35.3632618,149.1652361,16600,-0.0008235250716097653,-0.002419934142380953,-0.13086453080177307,0.00040699425153434277,0.004206470213830471,-0.025541987270116806,1,0,-999,1,4,-26,-4,4,-153,0.0,150.0,1500.0
20:55:40.866,GUIDED,-35.3632619,149.1652361,16989,-0.0002458879316691309,-0.0015209258999675512,-0.1377924680709839,0.004405450541526079,0.004358483944088221,-0.028093654662370682,0,0,-1000,5,4,-29,-3,3,-153,0.0,150.0,1500.0
20:55:41.066,GUIDED,-35.3632619,149.1652361,16989,-0.0002458879316691309,-0.0015209258999675512,-0.1377924680709839,0.004405450541526079,0.004358483944088221,-0.028093654662370682,0,0,-1000,5,4,-29,-3,3,-153,0.0,150.0,1500.0
20:55:41.267,GUIDED,-35.3632619,149.1652361,17379,0.0006643758388236165,-0.0007442673668265343,-0.14456991851329803,0.005480813793838024,0.0031326538883149624,-0.025035543367266655,0,0,-1000,6,3,-25,-2,2,-153,0.0,150.0,1500.0
20:55:41.467,GUIDED,-35.3632619,149.1652361,17770,0.0019088811241090298,3.784559521591291e-05,-0.1512538343667984,0.006247793789952993,0.004522536415606737,-0.0250270776450634,0,0,-1000,6,5,-26,-1,1,-153,0.0,150.0,1500.0
20:55:41.668,GUIDED,-35.3632619,149.1652361,18161,0.002839110093191266,0.0010166417341679335,-0.15782509744167328,0.004003778100013733,0.004851135425269604,-0.024470187723636627,0,0,-1000,4,5,-25,0,1,-153,0.0,150.0,1500.0
20:55:41.869,GUIDED,-35.3632619,149.1652361,18161,0.002839110093191266,0.0010166417341679335,-0.15782509744167328,0.004003778100013733,0.004851135425269604,-0.024470187723636627,0,0,-1000,4,5,-25,0,1,-153,0.0,150.0,1500.0
20:55:42.070,GUIDED,-35.3632619,149.1652361,18161,0.002839110093191266,0.0010166417341679335,-0.15782509744167328,0.004003778100013733,0.004851135425269604,-0.024470187723636627,0,0,-1000,4,5,-25,0,1,-153,0.0,150.0,1500.0
20:55:42.271,GUIDED,-35.3632619,149.1652361,18161,0.002839110093191266,0.0010166417341679335,-0.15782509744167328,0.004003778100013733,0.004851135425269604,-0.024470187723636627,0,0,-1000,4,5,-25,0,1,-153,0.0,150.0,1500.0
20:55:42.472,GUIDED,-35.3632619,149.1652361,19335,0.0048314048908650875,0.003560590324923396,-0.1764630526304245,0.0012158419704064727,0.00290288170799613,-0.022553900256752968,0,0,-1000,1,3,-23,0,2,-153,0.0,150.0,1500.0
20:55:42.673,GUIDED,-35.3632619,149.1652361,19726,0.005033778492361307,0.0042121936567127705,-0.1821557730436325,0.0016700110863894224,0.002816226799041033,-0.021755797788500786,0,0,-1000,2,3,-22,0,2,-153,0.0,150.0,1500.0
20:55:42.874,GUIDED,-35.3632619,149.1652361,20115,0.0051283142529428005,0.004765722434967756,-0.1876324713230133,0.0006840627756901085,0.001189886825159192,-0.020985201001167297,0,0,-1000,1,1,-22,-1,2,-153,0.0,150.0,1500.0
20:55:43.075,GUIDED,-35.3632619,149.1652361,20505,0.005002093501389027,0.004793343134224415,-0.19267961382865906,5.9002486523240805e-05,-0.0001893980661407113,-0.02178533375263214,0,0,-1000,1,1,-22,-1,3,-153,0.0,150.0,1500.0
20:55:43.276,GUIDED,-35.3632619,149.1652361,20505,0.005002093501389027,0.004793343134224415,-0.19267961382865906,5.9002486523240805e-05,-0.0001893980661407113,-0.02178533375263214,0,0,-1000,0,0,-22,-1,3,-153,0.0,150.0,1500.0
20:55:43.476,GUIDED,-35.3632619,149.1652362,20903,0.00433487119153142,0.005012819077819586,-0.1978854089975357,-0.00043669415754266083,0.002709762193262577,-0.019070832058787346,0,0,-1000,0,3,-19,-1,3,-153,0.0,150.0,1500.0
20:55:43.677,GUIDED,-35.3632619,149.1652362,21294,0.004193803295493126,0.005111862905323505,-0.20279906690120697,0.0009166083764284849,0.001333810854703188,-0.0182848758995533,0,0,-1000,1,1,-19,-2,4,-153,0.0,150.0,1500.0
20:55:43.878,GUIDED,-35.3632619,149.1652362,21294,0.004193803295493126,0.005111862905323505,-0.20279906690120697,0.0009166083764284849,0.001333810854703188,-0.0182848758995533,0,0,-1000,1,1,-19,-2,4,-153,0.0,150.0,1500.0
20:55:44.079,GUIDED,-35.3632619,149.1652362,21294,0.004193803295493126,0.005111862905323505,-0.20279906690120697,0.0009166083764284849,0.001333810854703188,-0.0182848758995533,0,0,-1000,1,1,-19,-2,4,-153,0.0,150.0,1500.0
20:55:44.280,GUIDED,-35.3632619,149.1652362,21294,0.004193803295493126,0.005111862905323505,-0.20279906690120697,0.0009166083764284849,0.001333810854703188,-0.0182848758995533,0,0,-1000,1,1,-19,-2,4,-153,0.0,150.0,1500.0
20:55:44.482,GUIDED,-35.3632619,149.1652364,22455,0.0029216790571808815,0.004415715113282204,-0.21659646928310394,-0.00034926016815006733,0.0010009224060922861,-0.018945831805467606,0,0,-1000,0,1,-19,-2,4,-153,0.0,150.0,1500.0
20:55:44.682,GUIDED,-35.3632619,149.1652365,22845,0.0025584411341696978,0.0041875713504850864,-0.22114282846450806,-7.88980396464467e-05,9.164231596514583e-05,-0.016765272244811058,0,0,-1000,0,0,-17,-2,4,-153,0.0,150.0,1500.0
20:55:44.883,GUIDED,-35.3632619,149.1652366,23235,0.0021919149439781904,0.0037815377581864595,-0.22552557289600372,-0.0020670397207140923,-0.0029523344710469246,-0.01477961614727974,0,0,-1000,-1,-2,-15,-2,4,-153,0.0,150.0,1500.0
20:55:45.084,GUIDED,-35.3632619,149.1652367,23624,0.0016897778259590268,0.0035437620244920254,-0.23023363947868347,-0.0006485709454864264,0.0008339894702658057,-0.018768737092614174,0,0,-1000,0,1,-19,-2,4,-153,0.0,150.0,1500.0
20:55:45.285,GUIDED,-35.3632619,149.1652367,23624,0.0016897778259590268,0.0035437620244920254,-0.23023363947868347,-0.0006485709454864264,0.0008339894702658057,-0.018768737092614174,0,0,-1000,0,1,-19,-2,4,-153,0.0,150.0,1500.0
20:55:45.486,GUIDED,-35.3632619,149.1652367,24013,0.0014675067504867911,0.003540789010003209,-0.2350935935974121,0.00014219473814591765,0.0012092844117432833,-0.022024953737854958,0,0,-1000,0,1,-22,-2,4,-153,0.0,150.0,1500.0
20:55:45.687,GUIDED,-35.3632619,149.1652368,24404,0.0014042158145457506,0.0032946208957582712,-0.23965463042259216,-0.002146274084225297,-0.0013151916209608316,-0.0174235962331295,0,0,-999,-1,0,-18,-2,3,-153,0.0,150.0,1500.0
20:55:45.887,GUIDED,-35.3632619,149.1652368,24404,0.0014042158145457506,0.0032946208957582712,-0.23965463042259216,-0.002146274084225297,-0.0013151916209608316,-0.0174235962331295,0,0,-999,-1,0,-18,-2,3,-153,0.0,150.0,1500.0
20:55:46.088,GUIDED,-35.3632619,149.1652368,24404,0.0014042158145457506,0.0032946208957582712,-0.23965463042259216,-0.002146274084225297,-0.0013151916209608316,-0.0174235962331295,0,0,-999,-1,0,-18,-2,3,-153,0.0,150.0,1500.0
20:55:46.290,GUIDED,-35.3632619,149.1652368,24404,0.0014042158145457506,0.0032946208957582712,-0.23965463042259216,-0.002146274084225297,-0.0013151916209608316,-0.0174235962331295,0,0,-999,-1,0,-18,-2,3,-153,0.0,150.0,1500.0
20:55:46.491,GUIDED,-35.3632619,149.1652369,25569,-0.011854961514472961,0.006729614455252886,-0.24550370872020721,-0.0004855345468968153,0.008187605999410152,0.015277519822120667,0,0,-1002,0,8,14,-3,0,-152,0.0,150.0,1500.0
20:55:46.692,GUIDED,-35.363262,149.1652369,25957,-0.005137890111654997,0.006487524136900902,-0.2407778650522232,0.03714035451412201,-0.004780318588018417,0.023030158132314682,0,0,-1004,37,-4,22,-5,-1,-153,0.0,150.0,1500.0
20:55:46.893,GUIDED,-35.3632621,149.1652368,26346,0.002956873271614313,0.0048221140168607235,-0.23434938490390778,0.028246255591511726,-0.007193563971668482,0.0288253016769886,0,1,-1001,28,-6,28,-6,-1,-153,0.0,150.0,1500.0
20:55:47.094,GUIDED,-35.3632622,149.1652368,26735,0.008161949925124645,0.0032379392068833113,-0.22720670700073242,0.016466893255710602,-0.0046585919335484505,0.030524561181664467,0,1,-999,17,-4,29,-6,0,-153,0.0,150.0,1500.0
20:55:47.294,GUIDED,-35.3632622,149.1652368,26735,0.008161949925124645,0.0032379392068833113,-0.22720670700073242,0.016466893255710602,-0.0046585919335484505,0.030524561181664467,0,1,-999,17,-4,29,-6,0,-153,0.0,150.0,1500.0
20:55:47.495,GUIDED,-35.3632623,149.1652367,27125,0.01051801722496748,0.002054911572486162,-0.2202092558145523,0.005220463965088129,-0.0022482932545244694,0.02601301670074463,0,0,-999,5,-1,25,-5,1,-153,0.0,150.0,1500.0
20:55:47.696,GUIDED,-35.3632623,149.1652367,27515,0.01083029992878437,0.0010935434838756919,-0.21387812495231628,-0.0018362102564424276,-0.002024256158620119,0.025048451498150826,0,0,-999,-1,-1,24,-4,3,-153,0.0,150.0,1500.0
20:55:47.897,GUIDED,-35.3632623,149.1652367,27515,0.01083029992878437,0.0010935434838756919,-0.21387812495231628,-0.0018362102564424276,-0.002024256158620119,0.025048451498150826,0,0,-999,-1,-1,24,-4,3,-153,0.0,150.0,1500.0
20:55:48.097,GUIDED,-35.3632623,149.1652367,27515,0.01083029992878437,0.0010935434838756919,-0.21387812495231628,-0.0018362102564424276,-0.002024256158620119,0.025048451498150826,0,0,-999,-1,-1,24,-4,3,-153,0.0,150.0,1500.0
20:55:48.298,GUIDED,-35.3632623,149.1652367,27515,0.01083029992878437,0.0010935434838756919,-0.21387812495231628,-0.0018362102564424276,-0.002024256158620119,0.025048451498150826,0,0,-999,-1,-1,24,-4,3,-153,0.0,150.0,1500.0
20:55:48.499,GUIDED,-35.3632625,149.165237,28680,0.0065345922484993935,0.0008921730914153159,-0.19697071611881256,-0.005916113965213299,0.0033205407671630383,0.022445792332291603,0,-1,-1000,-5,4,21,-1,7,-153,0.0,150.0,1500.0
20:55:48.700,GUIDED,-35.3632625,149.1652372,29068,0.004667413420975208,0.000941074569709599,-0.1918145716190338,-0.010415016673505306,-0.000906126108020544,0.02006799541413784,0,-1,-1000,-9,0,19,-1,8,-153,0.0,150.0,1500.0
20:55:48.901,GUIDED,-35.3632625,149.1652373,29456,0.00266540446318686,0.0008936955127865076,-0.18684527277946472,-0.005275208503007889,0.0005563984741456807,0.021426020190119743,1,-1,-1000,-4,1,20,0,8,-153,0.0,150.0,1500.0
20:55:49.101,GUIDED,-35.3632625,149.1652375,29844,0.0011764474911615252,0.0008527996833436191,-0.18196777999401093,-0.00403567124158144,-0.00016359653091058135,0.02102401852607727,0,-1,-1000,-3,0,20,0,7,-153,0.0,150.0,1500.0
20:55:49.302,GUIDED,-35.3632625,149.1652375,29844,0.0011764474911615252,0.0008527996833436191,-0.18196777999401093,-0.00403567124158144,-0.00016359653091058135,0.02102401852607727,0,-1,-1000,-3,0,20,0,7,-153,0.0,150.0,1500.0
20:55:49.503,GUIDED,-35.3632625,149.1652376,30240,0.00020271916582714766,0.0011454232735559344,-0.17729517817497253,-0.0020985263399779797,0.0029186324682086706,0.01899898797273636,0,-1,-1000,-1,3,18,0,6,-153,0.0,150.0,1500.0
20:55:49.704,GUIDED,-35.3632625,149.1652378,30628,-0.00039184739580377936,0.001416357816196978,-0.17297619581222534,-0.0017678033327683806,0.0021660090424120426,0.017325816676020622,0,-1,-1000,0,2,16,0,6,-153,0.0,150.0,1500.0
20:55:49.905,GUIDED,-35.3632625,149.1652378,30628,-0.00039184739580377936,0.001416357816196978,-0.17297619581222534,-0.0017678033327683806,0.0021660090424120426,0.017325816676020622,0,-1,-1000,0,2,16,0,6,-153,0.0,150.0,1500.0
20:55:50.105,GUIDED,-35.3632625,149.1652378,30628,-0.00039184739580377936,0.001416357816196978,-0.17297619581222534,-0.0017678033327683806,0.0021660090424120426,0.017325816676020622,0,-1,-1000,0,2,16,0,6,-153,0.0,150.0,1500.0
20:55:50.306,GUIDED,-35.3632625,149.1652378,30628,-0.00039184739580377936,0.001416357816196978,-0.17297619581222534,-0.0017678033327683806,0.0021660090424120426,0.017325816676020622,0,-1,-1000,0,2,16,0,6,-153,0.0,150.0,1500.0
20:55:50.507,GUIDED,-35.3632624,149.165238,31794,-0.0008322749054059386,0.0021391024347394705,-0.16018304228782654,6.964616477489471e-05,0.002428183564916253,0.01724875718355179,0,0,-1000,0,3,16,0,3,-153,0.0,150.0,1500.0
20:55:50.708,GUIDED,-35.3632624,149.165238,32182,-0.0006400090642273426,0.0023131673224270344,-0.15654230117797852,-0.0013124480610713363,-0.0008886003051884472,0.014387139119207859,0,0,-1000,0,0,13,0,2,-153,0.0,150.0,1500.0
20:55:50.909,GUIDED,-35.3632623,149.1652381,32572,-0.0002997394185513258,0.0022103171795606613,-0.15271463990211487,0.0024550193920731544,-0.0015868227928876877,0.015342095866799355,0,0,-1001,3,0,14,0,1,-153,0.0,150.0,1500.0
20:55:51.109,GUIDED,-35.3632623,149.165238,32961,0.00027326197596266866,0.0021893037483096123,-0.1489359438419342,0.00266359094530344,0.0006828966434113681,0.016712483018636703,0,0,-1000,3,1,16,0,1,-153,0.0,150.0,1500.0
20:55:51.310,GUIDED,-35.3632623,149.165238,32961,0.00027326197596266866,0.0021893037483096123,-0.1489359438419342,0.00266359094530344,0.0006828966434113681,0.016712483018636703,0,0,-1000,3,1,16,0,1,-153,0.0,150.0,1500.0
20:55:51.511,GUIDED,-35.3632623,149.165238,33350,0.0006639687344431877,0.0020314271096140146,-0.14525817334651947,0.0010963790118694305,-0.00038887077243998647,0.014678655192255974,0,0,-1000,1,0,14,0,0,-153,0.0,150.0,1500.0
20:55:51.711,GUIDED,-35.3632623,149.165238,33739,0.0010460843332111835,0.0018727181013673544,-0.14218400418758392,0.001828779000788927,0.0011098323157057166,0.013271196745336056,0,0,-1000,2,1,12,0,0,-153,0.0,150.0,1500.0
20:55:51.912,GUIDED,-35.3632623,149.165238,33739,0.0010460843332111835,0.0018727181013673544,-0.14218400418758392,0.001828779000788927,0.0011098323157057166,0.013271196745336056,0,0,-1000,2,1,12,0,0,-153,0.0,150.0,1500.0
20:55:52.113,GUIDED,-35.3632623,149.165238,33739,0.0010460843332111835,0.0018727181013673544,-0.14218400418758392,0.001828779000788927,0.0011098323157057166,0.013271196745336056,0,0,-1000,2,1,12,0,0,-153,0.0,150.0,1500.0
20:55:52.314,GUIDED,-35.3632623,149.165238,33739,0.0010460843332111835,0.0018727181013673544,-0.14218400418758392,0.001828779000788927,0.0011098323157057166,0.013271196745336056,0,0,-1000,2,1,12,0,0,-153,0.0,150.0,1500.0
20:55:52.515,GUIDED,-35.3632622,149.165238,34904,0.0013902337523177266,0.0010925105307251215,-0.13291871547698975,0.005668118596076965,0.000881039712112397,0.014296346344053745,0,0,-1000,6,1,13,0,0,-153,0.0,150.0,1500.0
20:55:52.716,GUIDED,-35.3632622,149.165238,35292,0.0014194977702572942,0.0012307697907090187,-0.12994399666786194,-0.003836221992969513,0.0014663154724985361,0.011560313403606415,0,0,-999,-3,2,10,0,0,-153,0.0,150.0,1500.0
20:55:52.916,GUIDED,-35.3632622,149.1652379,35680,0.0012597598833963275,0.0013934847665950656,-0.12707647681236267,-0.0014799857744947076,-0.000547895033378154,0.012975696474313736,0,0,-1000,0,0,12,0,0,-153,0.0,150.0,1500.0
20:55:53.117,GUIDED,-35.3632622,149.1652379,36069,0.0012198718031868339,0.001417778548784554,-0.12437644600868225,0.0031375791877508163,-0.00018311920575797558,0.012377210892736912,0,0,-1000,4,0,11,0,0,-153,0.0,150.0,1500.0
20:55:53.318,GUIDED,-35.3632622,149.1652379,36069,0.0012198718031868339,0.001417778548784554,-0.12437644600868225,0.0031375791877508163,-0.00018311920575797558,0.012377210892736912,0,0,-1000,4,0,11,0,0,-153,0.0,150.0,1500.0
20:55:53.519,GUIDED,-35.3632622,149.1652379,36458,0.00118187814950943,0.0014284903882071376,-0.12171392142772675,-0.0017913386691361666,-0.0008998078992590308,0.012074893340468407,0,0,-1000,0,0,11,0,0,-153,0.0,150.0,1500.0
20:55:53.720,GUIDED,-35.3632622,149.1652378,36847,0.0011662050383165479,0.0014066863805055618,-0.11919961869716644,-0.0007582078105770051,-0.0004102023667655885,0.010751305148005486,0,0,-1000,0,0,10,0,0,-153,0.0,150.0,1500.0
20:55:53.920,GUIDED,-35.3632622,149.1652378,36847,0.0011662050383165479,0.0014066863805055618,-0.11919961869716644,-0.0007582078105770051,-0.0004102023667655885,0.010751305148005486,0,0,-1000,0,0,10,0,0,-153,0.0,150.0,1500.0
20:55:54.121,GUIDED,-35.3632622,149.1652378,36847,0.0011662050383165479,0.0014066863805055618,-0.11919961869716644,-0.0007582078105770051,-0.0004102023667655885,0.010751305148005486,0,0,-1000,0,0,10,0,0,-153,0.0,150.0,1500.0
20:55:54.322,GUIDED,-35.3632622,149.1652378,36847,0.0011662050383165479,0.0014066863805055618,-0.11919961869716644,-0.0007582078105770051,-0.0004102023667655885,0.010751305148005486,0,0,-1000,0,0,10,0,0,-153,0.0,150.0,1500.0
20:55:54.523,GUIDED,-35.3632621,149.1652377,38013,0.0019004747737199068,0.0016686944290995598,-0.11227181553840637,0.0032116807997226715,0.0003954341518692672,0.009036039002239704,0,0,-1001,4,1,8,0,0,-153,0.0,150.0,1500.0
20:55:54.724,GUIDED,-35.3632621,149.1652377,38402,0.002331704366952181,0.001496480661444366,-0.11023364961147308,0.00441120145842433,-0.0001346269273199141,0.006937755737453699,0,0,-1001,5,0,6,0,0,-153,0.0,150.0,1500.0
20:55:54.925,GUIDED,-35.3632621,149.1652376,38791,0.0026350654661655426,0.001537560485303402,-0.10818958282470703,-0.002251138910651207,0.00021321553504094481,0.009585857391357422,0,0,-999,-1,0,9,0,0,-153,0.0,150.0,1500.0
20:55:55.126,GUIDED,-35.3632621,149.1652376,39179,0.0024782747495919466,0.0012687337584793568,-0.10599474608898163,8.42086155898869e-05,-0.0007209803443402052,0.01133444719016552,0,0,-1000,0,0,10,-1,0,-153,0.0,150.0,1500.0
20:55:55.326,GUIDED,-35.3632621,149.1652376,39179,0.0024782747495919466,0.0012687337584793568,-0.10599474608898163,8.42086155898869e-05,-0.0007209803443402052,0.01133444719016552,0,0,-1000,0,0,10,-1,0,-153,0.0,150.0,1500.0
20:55:55.527,GUIDED,-35.3632621,149.1652376,39572,0.002385773928835988,0.001130937598645687,-0.1038864254951477,0.0007118682260625064,0.00013908918481320143,0.009148254059255123,0,0,-1000,1,0,8,-1,0,-153,0.0,150.0,1500.0
20:55:55.728,GUIDED,-35.3632621,149.1652375,39960,0.0023046345449984074,0.0010820473544299603,-0.101996049284935,-0.0014294274151325226,0.001273017143830657,0.008784975856542587,0,0,-999,0,1,8,0,0,-153,0.0,150.0,1500.0
20:55:55.929,GUIDED,-35.3632621,149.1652375,39960,0.0023046345449984074,0.0010820473544299603,-0.101996049284935,-0.0014294274151325226,0.001273017143830657,0.008784975856542587,0,0,-999,0,1,8,0,0,-153,0.0,150.0,1500.0
20:55:56.130,GUIDED,-35.3632621,149.1652375,39960,0.0023046345449984074,0.0010820473544299603,-0.101996049284935,-0.0014294274151325226,0.001273017143830657,0.008784975856542587,0,0,-999,0,1,8,0,0,-153,0.0,150.0,1500.0
20:55:56.330,GUIDED,-35.3632621,149.1652375,39960,0.0023046345449984074,0.0010820473544299603,-0.101996049284935,-0.0014294274151325226,0.001273017143830657,0.008784975856542587,0,0,-999,0,1,8,0,0,-153,0.0,150.0,1500.0
20:55:56.531,GUIDED,-35.3632621,149.1652375,41122,0.0020352534484118223,0.0012367084855213761,-0.09678536653518677,-0.0003101357724517584,0.0029448969289660454,0.008994722738862038,0,0,-999,0,3,8,0,0,-153,0.0,150.0,1500.0
20:55:56.732,GUIDED,-35.3632621,149.1652374,41511,0.0021785127464681864,0.0015844518784433603,-0.09487118571996689,0.0016327989287674427,0.0010478862095624208,0.010772823356091976,0,0,-1000,2,1,10,0,0,-153,0.0,150.0,1500.0
20:55:56.933,GUIDED,-35.3632621,149.1652374,41899,0.0021182456985116005,0.0017031495226547122,-0.0933668240904808,-0.0003461992018856108,0.000729206542018801,0.007542334962636232,0,0,-999,0,1,7,-1,1,-153,0.0,150.0,1500.0
20:55:57.133,GUIDED,-35.3632621,149.1652374,42287,0.002130429493263364,0.0015206506941467524,-0.09157633781433105,0.0033328216522932053,0.000507509452290833,0.008975026197731495,0,0,-1000,4,1,8,-1,1,-153,0.0,150.0,1500.0
20:55:57.335,GUIDED,-35.3632621,149.1652374,42677,0.0019592999015003443,0.001481435028836131,-0.09015784412622452,0.0008086017915047705,0.0003078009467571974,0.006543920375406742,0,0,-1000,1,1,6,-1,1,-153,0.0,150.0,1500.0
20:55:57.536,GUIDED,-35.3632621,149.1652374,42677,0.0019592999015003443,0.001481435028836131,-0.09015784412622452,0.0008086017915047705,0.0003078009467571974,0.006543920375406742,0,0,-1000,1,1,6,-1,1,-153,0.0,150.0,1500.0
20:55:57.737,GUIDED,-35.363262,149.1652374,43065,0.0017201700247824192,0.0014967822935432196,-0.08854150027036667,-0.0008914611535146832,0.0006506785284727812,0.008524438366293907,0,0,-1000,0,1,8,-1,1,-153,0.0,150.0,1500.0
20:55:57.938,GUIDED,-35.363262,149.1652374,43065,0.0017201700247824192,0.0014967822935432196,-0.08854150027036667,-0.0008914611535146832,0.0006506785284727812,0.008524438366293907,0,0,-1000,0,1,8,-1,1,-153,0.0,90.0,1500.0
20:55:58.138,GUIDED,-35.363262,149.1652374,43065,0.0017201700247824192,0.0014967822935432196,-0.08854150027036667,-0.0008914611535146832,0.0006506785284727812,0.008524438366293907,0,0,-1000,0,1,8,-1,1,-153,0.0,90.0,1500.0
20:55:58.339,GUIDED,-35.363262,149.1652374,43065,0.0017201700247824192,0.0014967822935432196,-0.08854150027036667,-0.0008914611535146832,0.0006506785284727812,0.008524438366293907,0,0,-1000,0,1,8,-1,1,-153,0.0,90.0,1500.0
20:55:58.540,GUIDED,-35.363262,149.1652374,44231,0.0019423548365011811,0.001276763272471726,-0.08401601016521454,0.002825410570949316,0.0006256074411794543,0.004665450192987919,0,0,-1000,3,1,4,-1,1,-153,0.0,90.0,1500.0
20:55:58.741,GUIDED,-35.363262,149.1652374,44620,0.0020367729011923075,0.0012849777704104781,-0.08240288496017456,-0.0008327196119353175,0.0015315746422857046,0.006625959184020758,0,0,-1000,0,2,6,-1,1,-153,0.0,90.0,1500.0
20:55:58.941,GUIDED,-35.363262,149.1652374,45008,0.0020180484279990196,0.0012353111524134874,-0.08115033060312271,0.0017429981380701065,-0.00015354284550994635,0.005144829396158457,0,0,-1000,2,0,4,-1,1,-153,0.0,90.0,1500.0
20:55:59.142,GUIDED,-35.363262,149.1652374,45397,0.002030474366620183,0.0010527882259339094,-0.07955587655305862,0.0018330536549910903,-0.00043423956958577037,0.009709707461297512,0,0,-999,2,0,9,-1,1,-153,0.0,90.0,1500.0
20:55:59.343,GUIDED,-35.363262,149.1652374,45785,0.0018944991752505302,0.0010335275437682867,-0.07814435660839081,-0.0002169705694541335,0.0005532068316824734,0.0055220830254256725,0,0,-1000,0,1,5,-1,1,-153,0.0,90.0,1500.0
20:55:59.544,GUIDED,-35.363262,149.1652374,45785,0.0018944991752505302,0.0010335275437682867,-0.07814435660839081,-0.0002169705694541335,0.0005532068316824734,0.0055220830254256725,0,0,-1000,0,1,5,-1,1,-153,0.0,90.0,1500.0
20:55:59.744,GUIDED,-35.363262,149.1652374,46174,0.0016622164985165,0.0011812117882072926,-0.07704118639230728,-0.002512746723368764,0.001188816037029028,0.006636451464146376,0,0,-999,-1,2,6,-1,1,-153,0.0,90.0,1500.0
20:55:59.945,GUIDED,-35.363262,149.1652374,46174,0.0016622164985165,0.0011812117882072926,-0.07704118639230728,-0.002512746723368764,0.001188816037029028,0.006636451464146376,0,0,-999,-1,2,6,-1,1,-153,0.0,90.0,1500.0
20:56:00.146,GUIDED,-35.363262,149.1652374,46174,0.0016622164985165,0.0011812117882072926,-0.07704118639230728,-0.002512746723368764,0.001188816037029028,0.006636451464146376,0,0,-999,-1,2,6,-1,1,-153,0.0,90.0,1500.0
20:56:00.346,GUIDED,-35.363262,149.1652374,46174,0.0016622164985165,0.0011812117882072926,-0.07704118639230728,-0.002512746723368764,0.001188816037029028,0.006636451464146376,0,0,-999,-1,2,6,-1,1,-153,0.0,90.0,1500.0
20:56:01.084,GUIDED,-35.363262,149.1652373,47339,0.001537615666165948,0.001214842894114554,-0.0728936716914177,-0.0012774834176525474,0.0005436965147964656,0.0045019593089818954,0,0,-1000,0,1,4,-1,1,-153,0.0,90.0,1500.0
20:56:01.285,GUIDED,-35.363262,149.1652373,47728,0.0016273631481453776,0.001096464809961617,-0.0714181661605835,0.002067935885861516,0.0005380847724154592,0.008055522106587887,0,0,-999,2,1,7,-1,1,-153,0.0,90.0,1500.0
20:56:01.485,GUIDED,-35.363262,149.1652373,48117,0.0015746107092127204,0.001020359224639833,-0.07013300061225891,-0.0008212156826630235,-0.0013461050111800432,0.007330328691750765,0,0,-1000,0,0,7,-1,1,-153,90.0,90.0,1500.0
20:56:01.686,GUIDED,-35.363262,149.1652373,48505,0.001625379896722734,0.0010357559658586979,-0.06892134249210358,0.0018993020057678223,0.00035653094528242946,0.008565118536353111,0,0,-999,2,1,8,-1,1,-153,90.0,90.0,1500.0
20:56:01.887,GUIDED,-35.363262,149.1652373,48898,0.0016530200373381376,0.0010399359744042158,-0.06785479187965393,-0.0012577472953125834,0.0008493089117109776,0.005571991205215454,0,0,-999,0,1,5,-1,1,-153,90.0,90.0,1500.0
20:56:02.088,GUIDED,-35.363262,149.1652373,48898,0.0016530200373381376,0.0010399359744042158,-0.06785479187965393,-0.0012577472953125834,0.0008493089117109776,0.005571991205215454,0,0,-999,0,1,5,-1,1,-153,90.0,90.0,1500.0
20:56:02.288,GUIDED,-35.363262,149.1652373,49287,0.0016165467677637935,0.0011082475539296865,-0.06659585982561111,0.0012328296434134245,-0.0005309360567480326,0.005880839191377163,0,0,-1000,2,0,5,-1,1,-153,90.0,90.0,1500.0
20:56:02.489,GUIDED,-35.363262,149.1652373,49287,0.0016165467677637935,0.0011082475539296865,-0.06659585982561111,0.0012328296434134245,-0.0005309360567480326,0.005880839191377163,0,0,-1000,2,0,5,-1,1,-153,90.0,90.0,1500.0
20:56:02.690,GUIDED,-35.363262,149.1652373,49287,0.0016165467677637935,0.0011082475539296865,-0.06659585982561111,0.0012328296434134245,-0.0005309360567480326,0.005880839191377163,0,0,-1000,2,0,5,-1,1,-153,90.0,90.0,1500.0
20:56:02.891,GUIDED,-35.363262,149.1652373,49287,0.0016165467677637935,0.0011082475539296865,-0.06659585982561111,0.0012328296434134245,-0.0005309360567480326,0.005880839191377163,0,0,-1000,2,0,5,-1,1,-153,90.0,90.0,1500.0
20:56:03.092,GUIDED,-35.363262,149.1652373,50449,0.0015906444750726223,0.001198344398289919,-0.06279947608709335,0.001196686876937747,0.0015172359999269247,0.008088146336376667,0,0,-1000,2,2,7,-1,1,-153,90.0,90.0,1500.0
20:56:03.293,GUIDED,-35.363262,149.1652373,50838,0.0014946263981983066,0.0013008905807510018,-0.06133526936173439,0.0025866797659546137,-0.00036771828308701515,0.0052550602704286575,0,0,-1001,3,0,5,-1,1,-153,90.0,90.0,1500.0
20:56:03.494,GUIDED,-35.363262,149.1652373,51226,0.001582430675625801,0.001067464123480022,-0.060266267508268356,0.0005983891896903515,-0.0015057099517434835,0.0056012156419456005,0,0,-1000,1,0,5,-1,1,-153,90.0,90.0,1500.0
20:56:03.695,GUIDED,-35.363262,149.1652373,51614,0.0015681060031056404,0.000819292850792408,-0.059299733489751816,-0.002119241515174508,-0.0010427940869703889,0.004397283773869276,0,0,-1000,-1,0,4,-1,1,-153,90.0,90.0,1500.0
20:56:03.895,GUIDED,-35.363262,149.1652373,52003,0.001694715698249638,0.0008672928670421243,-0.05813717469573021,0.002473230008035898,0.0008280456531792879,0.004376146476715803,0,0,-1000,3,1,4,-1,1,-153,90.0,90.0,1500.0
20:56:04.096,GUIDED,-35.363262,149.1652373,52003,0.001694715698249638,0.0008672928670421243,-0.05813717469573021,0.002473230008035898,0.0008280456531792879,0.004376146476715803,0,0,-1000,3,1,4,-1,1,-153,90.0,90.0,1500.0
20:56:04.297,GUIDED,-35.363262,149.1652373,52391,0.0018578432500362396,0.0009498280705884099,-0.0570254884660244,0.002086606342345476,0.0006543652852997184,0.005077329929918051,0,0,-1000,3,1,5,-1,1,-153,90.0,90.0,1500.0
20:56:04.498,LAND,-35.363262,149.1652373,52391,0.0018578432500362396,0.0009498280705884099,-0.0570254884660244,0.002086606342345476,0.0006543652852997184,0.005077329929918051,0,0,-1000,3,1,5,-1,1,-153,90.0,90.0,1500.0
20:56:04.699,LAND,-35.363262,149.1652373,52391,0.0018578432500362396,0.0009498280705884099,-0.0570254884660244,0.002086606342345476,0.0006543652852997184,0.005077329929918051,0,0,-1000,3,1,5,-1,1,-153,90.0,90.0,1500.0
20:56:04.900,LAND,-35.363262,149.1652373,52391,0.0018578432500362396,0.0009498280705884099,-0.0570254884660244,0.002086606342345476,0.0006543652852997184,0.005077329929918051,0,0,-1000,3,1,5,-1,1,-153,90.0,90.0,1500.0
20:56:05.101,LAND,-35.363262,149.1652373,53561,0.0025246937293559313,0.0010694132652133703,-0.054089248180389404,0.0029819970950484276,-0.0006777328671887517,0.006341809406876564,0,0,-1000,4,0,6,-1,1,-153,90.0,90.0,1500.0
20:56:05.302,LAND,-35.363262,149.1652373,53950,0.002466300968080759,0.0009375776280649006,-0.05317152291536331,-0.0014228243380784988,0.0007534987526014447,0.006111891474574804,0,0,-999,0,1,6,-1,1,-153,90.0,90.0,1500.0
20:56:05.510,LAND,-35.363262,149.1652372,54336,-0.006876430939882994,0.009256633929908276,-0.034185223281383514,-0.10581009089946747,0.10214050859212875,0.21473678946495056,-1,0,-960,-105,102,215,-1,1,-148,90.0,90.0,1500.0
20:56:05.721,LAND,-35.363262,149.1652372,54699,-0.0443631149828434,0.05184394493699074,0.06776934117078781,-0.1979934573173523,0.18259091675281525,0.586869478225708,0,-1,-955,-196,183,587,-8,-5,-137,90.0,90.0,1500.0
20:56:05.923,LAND,-35.3632623,149.1652368,55028,-0.06559111177921295,0.07709743827581406,0.20945335924625397,-0.005089385434985161,-0.09237552434206009,0.4482027590274811,2,5,-910,-4,-91,448,-21,-21,-119,90.0,90.0,1500.0
20:56:06.124,LAND,-35.3632623,149.1652368,55028,-0.06559111177921295,0.07709743827581406,0.20945335924625397,-0.005089385434985161,-0.09237552434206009,0.4482027590274811,2,5,-910,-4,-91,448,-21,-21,-119,90.0,90.0,1500.0
20:56:06.326,LAND,-35.3632629,149.1652359,55307,-0.04395974054932594,0.0315944142639637,0.2971136271953583,0.10060996562242508,-0.23408891260623932,0.24979464709758759,4,8,-908,101,-233,249,-30,-35,-95,90.0,90.0,1500.0
20:56:06.527,LAND,-35.3632629,149.1652359,55307,-0.04395974054932594,0.0315944142639637,0.2971136271953583,0.10060996562242508,-0.23408891260623932,0.24979464709758759,4,8,-908,101,-233,249,-30,-35,-95,250.0,90.0,1500.0
20:56:06.727,LAND,-35.3632629,149.1652359,55307,-0.04395974054932594,0.0315944142639637,0.2971136271953583,0.10060996562242508,-0.23408891260623932,0.24979464709758759,4,8,-908,101,-233,249,-30,-35,-95,250.0,90.0,1500.0
20:56:06.928,LAND,-35.3632629,149.1652359,55307,-0.04395974054932594,0.0315944142639637,0.2971136271953583,0.10060996562242508,-0.23408891260623932,0.24979464709758759,4,8,-908,101,-233,249,-30,-35,-95,250.0,90.0,1500.0
20:56:07.129,LAND,-35.3632646,149.1652324,55869,0.03240523859858513,-0.05735448747873306,0.364828884601593,-0.195007786154747,0.013224189169704914,-0.019541867077350616,0,-1,-938,-193,14,-19,-2,-13,-19,250.0,90.0,1500.0
20:56:07.330,LAND,-35.3632646,149.1652324,55869,0.03240523859858513,-0.05735448747873306,0.364828884601593,-0.195007786154747,0.013224189169704914,-0.019541867077350616,0,-1,-938,-193,14,-19,-2,-13,-19,250.0,90.0,1500.0
20:56:07.531,LAND,-35.3632646,149.1652322,55897,0.044908758252859116,-0.050509288907051086,0.35735511779785156,0.7411662936210632,0.032440364360809326,-0.03323570266366005,-3,40,-920,743,33,-32,5,0,-2,250.0,90.0,1500.0
20:56:07.731,LAND,-35.3632644,149.1652322,55876,0.05351851135492325,-0.04132954776287079,0.34759366512298584,0.8799115419387817,0.03857303783297539,-0.038059722632169724,-2,26,-955,880,39,-38,12,10,16,250.0,90.0,1500.0
20:56:07.932,LAND,-35.3632641,149.1652326,55822,0.05630914866924286,-0.02837214805185795,0.336696594953537,0.6582430601119995,0.047424860298633575,-0.045522358268499374,-5,0,-947,657,48,-45,16,19,26,250.0,90.0,1500.0
20:56:08.133,LAND,-35.3632637,149.1652331,55739,0.04277196153998375,-0.01657772809267044,0.32623881101608276,0.3452237844467163,0.038648780435323715,-0.051193296909332275,-2,-18,-975,344,39,-50,19,26,36,250.0,90.0,1500.0
20:56:08.334,LAND,-35.3632637,149.1652331,55739,0.04277196153998375,-0.01657772809267044,0.32623881101608276,0.3452237844467163,0.038648780435323715,-0.051193296909332275,-2,-18,-975,344,39,-50,19,26,36,250.0,90.0,1500.0
20:56:08.535,LAND,-35.3632637,149.1652331,55739,0.04277196153998375,-0.01657772809267044,0.32623881101608276,0.3452237844467163,0.038648780435323715,-0.051193296909332275,-2,-18,-975,344,39,-50,19,26,36,250.0,90.0,1500.0
20:56:08.736,LAND,-35.3632637,149.1652331,55739,0.04277196153998375,-0.01657772809267044,0.32623881101608276,0.3452237844467163,0.038648780435323715,-0.051193296909332275,-2,-18,-975,344,39,-50,19,26,36,250.0,90.0,1500.0
20:56:08.937,LAND,-35.3632637,149.1652331,55739,0.04277196153998375,-0.01657772809267044,0.32623881101608276,0.3452237844467163,0.038648780435323715,-0.051193296909332275,-2,-18,-975,344,39,-50,19,26,36,250.0,90.0,1500.0
20:56:09.138,LAND,-35.363262,149.1652364,55177,-0.0035917337518185377,0.012480362318456173,0.28781846165657043,-1.143011450767517,0.019244547933340073,-0.03231711685657501,0,-78,-958,-1144,20,-31,15,28,74,250.0,90.0,1500.0
20:56:09.339,LAND,-35.363262,149.1652364,55177,-0.0035917337518185377,0.012480362318456173,0.28781846165657043,-1.143011450767517,0.019244547933340073,-0.03231711685657501,0,-78,-958,-1144,20,-31,15,28,74,250.0,90.0,1500.0
20:56:09.540,LAND,-35.3632616,149.1652371,54976,-0.0071563879027962685,0.014976324513554573,0.2797815501689911,-1.1998220682144165,0.004414333961904049,-0.03118719905614853,-1,-76,-959,-1200,5,-30,12,25,80,250.0,90.0,1500.0
20:56:09.741,LAND,-35.3632614,149.1652377,54751,-0.015134014189243317,0.015005999244749546,0.2717040181159973,-1.4980008602142334,0.0052718231454491615,-0.031116727739572525,-1,-83,-943,-1498,6,-30,9,22,93,250.0,90.0,1500.0
20:56:09.943,LAND,-35.3632612,149.1652382,54459,-0.0045043122954666615,0.014887330122292042,0.26331567764282227,-1.4300265312194824,-0.001210633316077292,-0.025437725707888603,-1,-104,-829,-1432,0,-25,6,18,132,250.0,90.0,1500.0
20:56:10.144,LAND,-35.363261,149.1652386,54060,0.013758406043052673,0.014388754032552242,0.2560679614543915,-0.6389979720115662,-0.012067131698131561,-0.020838916301727295,1,-84,-838,-642,-11,-20,4,15,173,250.0,90.0,1500.0
20:56:10.346,LAND,-35.363261,149.1652386,54060,0.013758406043052673,0.014388754032552242,0.2560679614543915,-0.6389979720115662,-0.012067131698131561,-0.020838916301727295,1,-84,-838,-642,-11,-20,4,15,173,420.0,90.0,1500.0
20:56:10.547,LAND,-35.363261,149.1652386,54060,0.013758406043052673,0.014388754032552242,0.2560679614543915,-0.6389979720115662,-0.012067131698131561,-0.020838916301727295,1,-84,-838,-642,-11,-20,4,15,173,420.0,90.0,1500.0
20:56:10.748,LAND,-35.363261,149.1652386,54060,0.013758406043052673,0.014388754032552242,0.2560679614543915,-0.6389979720115662,-0.012067131698131561,-0.020838916301727295,1,-84,-838,-642,-11,-20,4,15,173,420.0,90.0,1500.0
20:56:10.950,LAND,-35.363261,149.1652386,54060,0.013758406043052673,0.014388754032552242,0.2560679614543915,-0.6389979720115662,-0.012067131698131561,-0.020838916301727295,1,-84,-838,-642,-11,-20,4,15,173,420.0,90.0,1500.0
20:56:11.151,LAND,-35.363261,149.1652396,51486,0.013307595625519753,0.007745969574898481,0.23054829239845276,0.5571425557136536,-0.037457920610904694,-0.020190799608826637,3,-29,-945,554,-36,-19,-3,9,322,420.0,90.0,1500.0
20:56:11.351,LAND,-35.363261,149.1652396,51486,0.013307595625519753,0.007745969574898481,0.23054829239845276,0.5571425557136536,-0.037457920610904694,-0.020190799608826637,3,-29,-945,554,-36,-19,-3,9,322,420.0,90.0,1500.0
20:56:11.552,LAND,-35.363261,149.1652398,50651,0.02312495745718479,0.005056513473391533,0.22378988564014435,0.7241314649581909,-0.053778231143951416,-0.030343305319547653,5,-24,-985,721,-52,-30,-4,7,325,420.0,90.0,1500.0
20:56:11.753,LAND,-35.3632611,149.1652399,49818,0.012538679875433445,0.0031558440532535315,0.21801133453845978,0.24006614089012146,-0.07533112913370132,-0.016724249348044395,8,-48,-1015,236,-74,-16,-4,4,319,420.0,90.0,1500.0
20:56:11.953,LAND,-35.3632612,149.1652401,48997,0.014345505274832249,0.0011752936989068985,0.21206606924533844,0.40277209877967834,-0.10698679089546204,-0.021022895351052284,9,-48,-1029,399,-106,-20,-4,2,313,420.0,90.0,1500.0
20:56:12.154,LAND,-35.3632613,149.1652402,48178,0.009190438315272331,-0.0005988586926832795,0.2066500186920166,-0.3713585436344147,-0.10871756076812744,-0.0401688776910305,8,-75,-1025,-374,-108,-40,-3,0,306,420.0,90.0,1500.0
20:56:12.355,LAND,-35.3632613,149.1652402,48178,0.009190438315272331,-0.0005988586926832795,0.2066500186920166,-0.3713585436344147,-0.10871756076812744,-0.0401688776910305,8,-75,-1025,-374,-108,-40,-3,0,306,420.0,90.0,1500.0
20:56:12.556,LAND,-35.3632613,149.1652402,48178,0.009190438315272331,-0.0005988586926832795,0.2066500186920166,-0.3713585436344147,-0.10871756076812744,-0.0401688776910305,8,-75,-1025,-374,-108,-40,-3,0,306,420.0,90.0,1500.0
20:56:12.757,LAND,-35.3632613,149.1652402,48178,0.009190438315272331,-0.0005988586926832795,0.2066500186920166,-0.3713585436344147,-0.10871756076812744,-0.0401688776910305,8,-75,-1025,-374,-108,-40,-3,0,306,420.0,90.0,1500.0
20:56:12.958,LAND,-35.3632613,149.1652402,48178,0.009190438315272331,-0.0005988586926832795,0.2066500186920166,-0.3713585436344147,-0.10871756076812744,-0.0401688776910305,8,-75,-1025,-374,-108,-40,-3,0,306,420.0,90.0,1500.0
20:56:13.159,LAND,-35.3632619,149.1652409,45087,0.006508966442197561,-0.002645106054842472,0.1872268170118332,1.188456416130066,-0.050034988671541214,0.014825799502432346,6,-4,-987,1186,-49,15,0,-8,289,420.0,90.0,1500.0
20:56:13.360,LAND,-35.3632619,149.1652409,45087,0.006508966442197561,-0.002645106054842472,0.1872268170118332,1.188456416130066,-0.050034988671541214,0.014825799502432346,6,-4,-987,1186,-49,15,0,-8,289,420.0,90.0,1500.0
20:56:13.561,LAND,-35.3632621,149.1652412,44337,0.0011864014668390155,-0.0037480981554836035,0.18298986554145813,1.716146469116211,-0.027501070871949196,0.013366115279495716,4,30,-1014,1715,-26,13,1,-12,288,420.0,90.0,1500.0
20:56:13.762,LAND,-35.3632622,149.1652412,43595,0.004377294797450304,-0.0035537828225642443,0.1790645867586136,2.1968870162963867,0.0024382974952459335,0.0008122487924993038,4,89,-1018,2198,3,1,2,-14,284,420.0,90.0,1500.0
20:56:13.963,LAND,-35.3632623,149.1652413,42861,-0.006127660162746906,-0.003554598893970251,0.17447733879089355,2.176764726638794,0.029337212443351746,-0.023966148495674133,2,112,-1020,2180,30,-23,3,-16,281,420.0,90.0,1500.0
20:56:14.164,LAND,-35.3632625,149.1652414,42131,-0.00951377209275961,-0.004785497207194567,0.1706790179014206,1.65318763256073,0.03627275303006172,-0.013187210075557232,1,115,-1048,1657,37,-12,3,-17,278,340.0,90.0,1500.0
20:56:14.365,LAND,-35.3632625,149.1652414,42131,-0.00951377209275961,-0.004785497207194567,0.1706790179014206,1.65318763256073,0.03627275303006172,-0.013187210075557232,1,115,-1048,1657,37,-12,3,-17,278,340.0,90.0,1500.0
20:56:14.566,LAND,-35.3632625,149.1652414,42131,-0.00951377209275961,-0.004785497207194567,0.1706790179014206,1.65318763256073,0.03627275303006172,-0.013187210075557232,1,115,-1048,1657,37,-12,3,-17,278,340.0,90.0,1500.0
20:56:14.766,LAND,-35.3632625,149.1652414,42131,-0.00951377209275961,-0.004785497207194567,0.1706790179014206,1.65318763256073,0.03627275303006172,-0.013187210075557232,1,115,-1048,1657,37,-12,3,-17,278,340.0,90.0,1500.0
20:56:14.967,LAND,-35.3632627,149.1652414,40217,-0.04552238807082176,-0.007231656461954117,0.16239652037620544,-1.6031230688095093,-0.008344200439751148,-0.02036157436668873,1,-20,-1032,-1599,-7,-20,7,-26,219,340.0,90.0,1500.0
20:56:15.168,LAND,-35.3632628,149.1652413,39649,-0.05376727133989334,-0.007682783529162407,0.15812504291534424,-2.160299777984619,-0.007417498156428337,-0.008985897526144981,1,-84,-1041,-2159,-6,-8,8,-28,211,340.0,90.0,1500.0
20:56:15.369,LAND,-35.3632628,149.1652413,39649,-0.05376727133989334,-0.007682783529162407,0.15812504291534424,-2.160299777984619,-0.007417498156428337,-0.008985897526144981,1,-84,-1041,-2159,-6,-8,8,-28,211,340.0,90.0,1500.0
20:56:15.569,LAND,-35.363263,149.1652413,39103,-0.022211957722902298,-0.0076942360028624535,0.1555020660161972,-1.4797672033309937,-0.0029785081278532743,-0.021976204589009285,0,-111,-1008,-1482,-1,-21,9,-32,205,340.0,90.0,1500.0
20:56:15.770,LAND,-35.363263,149.1652413,38568,0.0008608886273577809,-0.007722462993115187,0.15324392914772034,-0.4283992052078247,0.007042674347758293,-0.010181419551372528,1,-80,-979,-432,7,-10,9,-30,203,340.0,90.0,1500.0
20:56:15.971,LAND,-35.363263,149.1652414,38038,0.002802197588607669,-0.007438837084919214,0.14949607849121094,0.43445196747779846,-0.008073210716247559,-0.017780452966690063,2,-38,-987,430,-7,-17,9,-28,203,340.0,90.0,1500.0
20:56:16.172,LAND,-35.3632631,149.1652414,37507,0.005190697032958269,-0.007730631157755852,0.14675605297088623,1.4824888706207275,-0.00575136486440897,-0.011076743714511395,1,16,-998,1480,-5,-10,9,-29,204,340.0,90.0,1500.0
20:56:16.372,LAND,-35.3632631,149.1652414,37507,0.005190697032958269,-0.007730631157755852,0.14675605297088623,1.4824888706207275,-0.00575136486440897,-0.011076743714511395,1,16,-998,1480,-5,-10,9,-29,204,340.0,90.0,1500.0
20:56:16.574,LAND,-35.3632631,149.1652414,37507,0.005190697032958269,-0.007730631157755852,0.14675605297088623,1.4824888706207275,-0.00575136486440897,-0.011076743714511395,1,16,-998,1480,-5,-10,9,-29,204,340.0,90.0,1500.0
20:56:16.774,LAND,-35.3632631,149.1652414,37507,0.005190697032958269,-0.007730631157755852,0.14675605297088623,1.4824888706207275,-0.00575136486440897,-0.011076743714511395,1,16,-998,1480,-5,-10,9,-29,204,340.0,90.0,1500.0
20:56:16.975,LAND,-35.3632632,149.1652417,35899,-0.05022583529353142,-0.007588712964206934,0.139527827501297,0.10765308886766434,0.009341832250356674,-0.02390117198228836,0,70,-979,112,10,-23,10,-29,209,340.0,90.0,1500.0
