time_stamp,MODE,lat,lon,relative_alt,roll,pitch,yaw,rollspeed,pitchspeed,yawspeed,xacc,yacc,zacc,xgyro,ygyro,zgyro,vx,vy,vz,RTL_ALT
15:21:54.934,STABILIZE,-35.3632621,149.1652374,0,-0.00024913213565014303,0.0014380872016772628,0.02827673964202404,0.00022991091827861965,0.00017599246348254383,0.0024588368833065033,0,1,-1000,0,0,0,-1,1,1,1500.0
15:21:55.134,STABILIZE,-35.3632621,149.1652374,0,-0.00024913213565014303,0.0014380872016772628,0.02827673964202404,0.00022991091827861965,0.00017599246348254383,0.0024588368833065033,0,1,-1000,0,0,0,-1,1,1,1500.0
15:21:55.335,STABILIZE,-35.3632621,149.1652374,0,-0.00024913213565014303,0.0014380872016772628,0.02827673964202404,0.00022991091827861965,0.00017599246348254383,0.0024588368833065033,0,1,-1000,0,0,0,-1,1,1,1500.0
15:21:55.536,STABILIZE,-35.3632621,149.1652374,0,-0.00024913213565014303,0.0014380872016772628,0.02827673964202404,0.00022991091827861965,0.00017599246348254383,0.0024588368833065033,0,1,-1000,0,0,0,-1,1,1,1500.0
15:21:55.736,STABILIZE,-35.3632621,149.1652374,0,-0.00024913213565014303,0.0014380872016772628,0.02827673964202404,0.00022991091827861965,0.00017599246348254383,0.0024588368833065033,0,1,-1000,0,0,0,-1,1,0,1500.0
15:21:55.937,STABILIZE,-35.3632621,149.1652374,0,-0.00024913213565014303,0.0014380872016772628,0.02827673964202404,0.00022991091827861965,0.00017599246348254383,0.0024588368833065033,0,1,-1000,0,0,0,-1,1,0,1500.0
15:21:56.138,STABILIZE,-35.3632621,149.1652374,0,-0.00024913213565014303,0.0014380872016772628,0.02827673964202404,0.00022991091827861965,0.00017599246348254383,0.0024588368833065033,0,1,-1000,0,1,0,-2,1,0,1500.0
15:21:56.339,STABILIZE,-35.3632622,149.1652375,0,-0.00020883709657937288,0.0014950152253732085,0.026733526960015297,0.00015278288628906012,0.00024585388018749654,0.0022260870318859816,0,2,-1000,1,0,0,-2,1,0,1500.0
15:21:56.540,STABILIZE,-35.3632622,149.1652375,0,-0.0002715638547670096,0.0014531502965837717,0.026589423418045044,0.0001975759514607489,0.00032272914540953934,0.002232386264950037,0,2,-1000,1,0,0,-2,1,0,1500.0
15:21:56.740,STABILIZE,-35.3632622,149.1652375,0,-0.0002715638547670096,0.0014531502965837717,0.026589423418045044,0.0001975759514607489,0.00032272914540953934,0.002232386264950037,0,2,-1000,1,0,0,-2,1,0,1500.0
15:21:56.941,STABILIZE,-35.3632622,149.1652375,0,-0.00033542810706421733,0.001406881376169622,0.026449527591466904,0.0002062497951555997,0.0002963515871670097,0.0022890781983733177,0,2,-1000,1,0,0,-2,1,0,1500.0
15:21:57.142,STABILIZE,-35.3632622,149.1652375,0,-0.00033542810706421733,0.001406881376169622,0.026449527591466904,0.0002062497951555997,0.0002963515871670097,0.0022890781983733177,0,2,-1000,1,0,0,-2,1,0,1500.0
15:21:57.343,STABILIZE,-35.3632622,149.1652375,0,-0.00033542810706421733,0.001406881376169622,0.026449527591466904,0.0002062497951555997,0.0002963515871670097,0.0022890781983733177,0,2,-1000,1,0,0,-2,1,0,1500.0
15:21:57.543,STABILIZE,-35.3632622,149.1652375,0,-0.00033542810706421733,0.001406881376169622,0.026449527591466904,0.0002062497951555997,0.0002963515871670097,0.0022890781983733177,0,2,-1000,1,0,0,-2,1,0,1500.0
15:21:57.744,STABILIZE,-35.3632622,149.1652375,0,-0.00033542810706421733,0.001406881376169622,0.026449527591466904,0.0002062497951555997,0.0002963515871670097,0.0022890781983733177,0,2,-1000,1,0,0,-2,1,0,1500.0
15:21:57.945,STABILIZE,-35.3632622,149.1652375,0,-0.0005823915125802159,0.0012006749166175723,0.025960708037018776,0.00024128681980073452,0.00016642155242152512,0.0021696113981306553,0,1,-1000,0,0,0,-1,1,0,1500.0
15:21:58.145,STABILIZE,-35.3632622,149.1652375,0,-0.0006386279128491879,0.0011526101734489202,0.025847749784588814,0.00028686554287560284,0.00024141522590070963,0.0021214033477008343,0,1,-1000,0,0,0,-1,1,0,1500.0
15:21:58.346,STABILIZE,-35.3632622,149.1652375,0,-0.0006984854117035866,0.001115527469664812,0.025738753378391266,0.00015611533308401704,0.0002868447918444872,0.002175640780478716,0,1,-1000,0,0,1,-1,1,0,1500.0
15:21:58.547,STABILIZE,-35.3632622,149.1652375,0,-0.000745733268558979,0.0010815256973728538,0.02562602423131466,0.00027657265309244394,0.0002929038309957832,0.0019011443946510553,0,1,-1000,0,0,0,-1,1,0,1500.0
15:21:58.747,STABILIZE,-35.3632622,149.1652375,0,-0.000745733268558979,0.0010815256973728538,0.02562602423131466,0.00027657265309244394,0.0002929038309957832,0.0019011443946510553,0,1,-1000,0,0,0,-1,1,0,1500.0
15:21:58.948,STABILIZE,-35.3632622,149.1652375,0,-0.000745733268558979,0.0010815256973728538,0.02562602423131466,0.00027657265309244394,0.0002929038309957832,0.0019011443946510553,0,2,-1000,0,0,1,-1,1,0,1500.0
15:21:59.149,STABILIZE,-35.3632622,149.1652375,0,-0.000745733268558979,0.0010815256973728538,0.02562602423131466,0.00027657265309244394,0.0002929038309957832,0.0019011443946510553,0,2,-1000,0,0,1,-1,1,0,1500.0
15:21:59.350,STABILIZE,-35.3632622,149.1652375,0,-0.000745733268558979,0.0010815256973728538,0.02562602423131466,0.00027657265309244394,0.0002929038309957832,0.0019011443946510553,0,2,-1000,0,0,1,-1,1,0,1500.0
15:21:59.550,STABILIZE,-35.3632622,149.1652375,0,-0.000745733268558979,0.0010815256973728538,0.02562602423131466,0.00027657265309244394,0.0002929038309957832,0.0019011443946510553,0,2,-1000,0,0,1,-1,1,0,1500.0
15:21:59.751,STABILIZE,-35.3632622,149.1652375,0,-0.0008986386237666011,0.0009923111647367477,0.02524068020284176,0.00028321932768449187,0.00028756659594364464,0.0018866687314584851,0,2,-1000,0,0,1,-1,1,0,1500.0
15:21:59.952,STABILIZE,-35.3632621,149.1652374,0,-0.0008986386237666011,0.0009923111647367477,0.02524068020284176,0.00028321932768449187,0.00028756659594364464,0.0018866687314584851,0,2,-1000,0,0,1,-1,0,-2,1500.0
15:22:00.152,STABILIZE,-35.3632621,149.1652374,0,-0.0008986386237666011,0.0009923111647367477,0.02524068020284176,0.00028321932768449187,0.00028756659594364464,0.0018866687314584851,0,2,-1000,0,0,1,-1,0,-2,1500.0
15:22:00.353,STABILIZE,-35.3632621,149.1652374,0,-0.0008986386237666011,0.0009923111647367477,0.02524068020284176,0.00028321932768449187,0.00028756659594364464,0.0018866687314584851,0,2,-1000,0,0,1,-1,0,-2,1500.0
15:22:00.554,STABILIZE,-35.3632621,149.1652374,0,-0.0008986386237666011,0.0009923111647367477,0.02524068020284176,0.00028321932768449187,0.00028756659594364464,0.0018866687314584851,0,1,-1000,0,0,0,-1,0,-2,1500.0
15:22:00.755,STABILIZE,-35.3632621,149.1652374,0,-0.0008986386237666011,0.0009923111647367477,0.02524068020284176,0.00028321932768449187,0.00028756659594364464,0.0018866687314584851,0,1,-1000,0,0,0,-1,0,-2,1500.0
15:22:00.955,STABILIZE,-35.3632621,149.1652374,0,-0.0008986386237666011,0.0009923111647367477,0.02524068020284176,0.00028321932768449187,0.00028756659594364464,0.0018866687314584851,0,1,-1000,0,0,0,-1,0,-2,1500.0
15:22:01.156,STABILIZE,-35.3632621,149.1652374,0,-0.0008986386237666011,0.0009923111647367477,0.02524068020284176,0.00028321932768449187,0.00028756659594364464,0.0018866687314584851,0,1,-1000,0,0,0,-1,0,-2,1500.0
15:22:01.358,STABILIZE,-35.3632621,149.1652374,0,-0.0008986386237666011,0.0009923111647367477,0.02524068020284176,0.00028321932768449187,0.00028756659594364464,0.0018866687314584851,0,1,-1000,0,0,0,-1,0,-2,1500.0
15:22:01.561,STABILIZE,-35.3632621,149.1652374,0,-0.0008986386237666011,0.0009923111647367477,0.02524068020284176,0.00028321932768449187,0.00028756659594364464,0.0018866687314584851,0,1,-1000,0,0,0,-1,0,-2,1500.0
15:22:01.762,STABILIZE,-35.3632621,149.1652374,0,-0.0008986386237666011,0.0009923111647367477,0.02524068020284176,0.00028321932768449187,0.00028756659594364464,0.0018866687314584851,0,1,-1000,0,0,0,-1,0,-2,1500.0
15:22:01.963,STABILIZE,-35.3632621,149.1652374,0,-0.0008986386237666011,0.0009923111647367477,0.02524068020284176,0.00028321932768449187,0.00028756659594364464,0.0018866687314584851,0,1,-1000,0,0,0,-1,1,-2,1500.0
15:22:02.163,STABILIZE,-35.3632621,149.1652374,0,-0.0006326459115371108,0.000926427892409265,0.02430376224219799,0.0002480018883943558,0.00022899539908394217,0.0017876774072647095,0,1,-1000,0,0,0,-1,1,-1,1500.0
15:22:02.364,STABILIZE,-35.3632621,149.1652374,0,-0.0006326459115371108,0.000926427892409265,0.02430376224219799,0.0002480018883943558,0.00022899539908394217,0.0017876774072647095,0,1,-1000,0,0,0,-1,1,-1,1500.0
15:22:02.564,STABILIZE,-35.3632621,149.1652374,0,-0.0006406035972759128,0.0009256266057491302,0.024114126339554787,0.0001450402196496725,0.0002577833365648985,0.0018943783361464739,0,1,-1000,0,0,0,-1,1,-1,1500.0
15:22:02.765,STABILIZE,-35.3632621,149.1652374,0,-0.0006406035972759128,0.0009256266057491302,0.024114126339554787,0.0001450402196496725,0.0002577833365648985,0.0018943783361464739,0,1,-1000,0,0,0,-1,1,-1,1500.0
15:22:02.966,STABILIZE,-35.3632621,149.1652375,0,-0.0006406035972759128,0.0009256266057491302,0.024114126339554787,0.0001450402196496725,0.0002577833365648985,0.0018943783361464739,0,2,-1000,0,0,0,-1,1,-1,1500.0
15:22:03.167,STABILIZE,-35.3632621,149.1652375,0,-0.0006406035972759128,0.0009256266057491302,0.024114126339554787,0.0001450402196496725,0.0002577833365648985,0.0018943783361464739,0,2,-1000,0,0,0,-1,1,-1,1500.0
15:22:03.367,STABILIZE,-35.3632621,149.1652375,0,-0.0006406035972759128,0.0009256266057491302,0.024114126339554787,0.0001450402196496725,0.0002577833365648985,0.0018943783361464739,0,2,-1000,0,0,0,-1,1,-1,1500.0
15:22:03.568,STABILIZE,-35.3632621,149.1652375,0,-0.0006406035972759128,0.0009256266057491302,0.024114126339554787,0.0001450402196496725,0.0002577833365648985,0.0018943783361464739,0,2,-1000,0,0,0,-1,1,-1,1500.0
15:22:03.769,STABILIZE,-35.3632621,149.1652375,0,-0.0006721256067976356,0.0009283627732656896,0.023707566782832146,0.0002664797939360142,0.0001741854939609766,0.0016303667798638344,0,2,-1000,0,0,0,-1,1,-1,1500.0
15:22:03.969,STABILIZE,-35.3632621,149.1652375,0,-0.0006721256067976356,0.0009283627732656896,0.023707566782832146,0.0002664797939360142,0.0001741854939609766,0.0016303667798638344,0,2,-1000,0,0,0,-1,1,-1,1500.0
15:22:04.170,STABILIZE,-35.3632621,149.1652375,0,-0.0006271717138588428,0.0009329495951533318,0.02355220541357994,0.0002654637210071087,0.00032073300099000335,0.001773005467839539,0,2,-1000,0,0,0,-1,1,-1,1500.0
15:22:04.371,STABILIZE,-35.3632621,149.1652375,0,-0.0006271717138588428,0.0009329495951533318,0.02355220541357994,0.0002654637210071087,0.00032073300099000335,0.001773005467839539,0,2,-1000,0,0,0,-1,1,-1,1500.0
15:22:04.571,STABILIZE,-35.3632621,149.1652374,0,-0.0006046999478712678,0.0009417055989615619,0.023379914462566376,0.00035041250521317124,0.00029350578552111983,0.0016029556281864643,0,2,-1000,0,0,0,-1,1,-2,1500.0
15:22:04.772,STABILIZE,-35.3632621,149.1652374,0,-0.0006046999478712678,0.0009417055989615619,0.023379914462566376,0.00035041250521317124,0.00029350578552111983,0.0016029556281864643,0,2,-1000,0,0,0,-1,1,-2,1500.0
15:22:04.973,STABILIZE,-35.3632622,149.1652374,0,-0.0006046999478712678,0.0009417055989615619,0.023379914462566376,0.00035041250521317124,0.00029350578552111983,0.0016029556281864643,0,1,-1000,0,0,0,-1,1,-1,1500.0
15:22:05.174,STABILIZE,-35.3632622,149.1652374,0,-0.0006046999478712678,0.0009417055989615619,0.023379914462566376,0.00035041250521317124,0.00029350578552111983,0.0016029556281864643,0,1,-1000,0,0,0,-1,1,-1,1500.0
15:22:05.375,STABILIZE,-35.3632622,149.1652374,0,-0.0006046999478712678,0.0009417055989615619,0.023379914462566376,0.00035041250521317124,0.00029350578552111983,0.0016029556281864643,0,1,-1000,0,0,0,-1,1,-1,1500.0
15:22:05.576,STABILIZE,-35.3632622,149.1652374,0,-0.0006046999478712678,0.0009417055989615619,0.023379914462566376,0.00035041250521317124,0.00029350578552111983,0.0016029556281864643,0,1,-1000,0,0,0,-1,1,-1,1500.0
15:22:05.777,STABILIZE,-35.3632622,149.1652375,0,-0.0006268964498303831,0.0009574255091138184,0.022963156923651695,0.0003847278421744704,0.0002502140705473721,0.0016776758711785078,0,1,-1000,0,0,0,-1,1,-1,1500.0
15:22:05.977,STABILIZE,-35.3632622,149.1652375,0,-0.0006268964498303831,0.0009574255091138184,0.022963156923651695,0.0003847278421744704,0.0002502140705473721,0.0016776758711785078,0,1,-1000,0,0,0,-1,1,-1,1500.0
15:22:06.178,STABILIZE,-35.3632621,149.1652375,0,-0.0006330227479338646,0.0009520003804937005,0.02287839539349079,0.00029533891938626766,0.00016970152501016855,0.001692578662186861,0,1,-1000,0,0,0,-1,1,-1,1500.0
15:22:06.379,STABILIZE,-35.3632622,149.1652375,0,-0.0006536224391311407,0.0009567240485921502,0.02280268445611,0.00019503763178363442,0.00025950901908800006,0.0016457632882520556,0,1,-1000,0,0,0,-1,1,-1,1500.0
15:22:06.579,STABILIZE,-35.3632622,149.1652375,0,-0.0006660103681497276,0.000959252764005214,0.022723400965332985,0.0003085432108491659,0.00022271141642704606,0.0018307839054614305,0,2,-1000,1,0,0,-1,1,-1,1500.0
15:22:06.780,STABILIZE,-35.3632622,149.1652375,0,-0.0005269063985906541,0.0009614487644284964,0.022634342312812805,0.00032949907472357154,0.00026910752058029175,0.0016592235770076513,0,2,-1000,1,0,0,-1,1,-1,1500.0
15:22:06.981,STABILIZE,-35.3632622,149.1652375,0,-0.0005269063985906541,0.0009614487644284964,0.022634342312812805,0.00032949907472357154,0.00026910752058029175,0.0016592235770076513,0,2,-1000,1,0,0,-1,1,-1,1500.0
15:22:07.181,STABILIZE,-35.3632622,149.1652375,0,-0.0005269063985906541,0.0009614487644284964,0.022634342312812805,0.00032949907472357154,0.00026910752058029175,0.0016592235770076513,0,2,-1000,1,0,0,-1,1,-1,1500.0
15:22:07.382,STABILIZE,-35.3632622,149.1652375,0,-0.0005269063985906541,0.0009614487644284964,0.022634342312812805,0.00032949907472357154,0.00026910752058029175,0.0016592235770076513,0,2,-1000,1,0,0,-1,1,-1,1500.0
15:22:07.583,STABILIZE,-35.3632622,149.1652375,0,-0.0005269063985906541,0.0009614487644284964,0.022634342312812805,0.00032949907472357154,0.00026910752058029175,0.0016592235770076513,0,2,-1000,1,0,0,-1,1,-1,1500.0
15:22:07.784,STABILIZE,-35.3632622,149.1652375,0,-0.0006154156872071326,0.0009577678865753114,0.022359278053045273,0.00025833037216216326,0.0001649759360589087,0.001572583569213748,0,2,-1000,1,0,1,-1,1,-1,1500.0
15:22:07.985,STABILIZE,-35.3632622,149.1652375,0,-0.0006154156872071326,0.0009577678865753114,0.022359278053045273,0.00025833037216216326,0.0001649759360589087,0.001572583569213748,0,2,-1000,1,0,1,-1,1,-1,1500.0
15:22:08.186,AUTO,-35.3632622,149.1652375,0,-0.0006265501724556088,0.0009615981252864003,0.022301873192191124,0.0002661338075995445,0.0002569531206972897,0.0017819235799834132,0,1,-1000,0,0,0,-1,1,0,1500.0
15:22:08.387,AUTO,-35.3632622,149.1652375,8,-0.0006494435365311801,0.0009654754539951682,0.022250989452004433,0.00035413989098742604,0.0002619053120724857,0.0015979097224771976,0,1,-1000,1,0,0,-1,1,0,1500.0
15:22:08.588,AUTO,-35.3632622,149.1652375,8,-0.0006752211484126747,0.0009695346234366298,0.022172316908836365,0.00033851253101602197,0.0002790175494737923,0.001555558992549777,0,2,-1000,0,1,0,-1,1,0,1500.0
15:22:08.789,AUTO,-35.3632622,149.1652375,8,-0.0006844228482805192,0.0009843363659456372,0.022103073075413704,0.00022293353686109185,0.0003611990832723677,0.001590231666341424,0,1,-1000,1,1,0,-1,1,0,1500.0
15:22:08.990,AUTO,-35.3632622,149.1652375,8,-0.0006844228482805192,0.0009843363659456372,0.022103073075413704,0.00022293353686109185,0.0003611990832723677,0.001590231666341424,0,1,-1000,1,1,0,-1,1,0,1500.0
15:22:09.191,AUTO,-35.3632622,149.1652375,8,-0.0006844228482805192,0.0009843363659456372,0.022103073075413704,0.00022293353686109185,0.0003611990832723677,0.001590231666341424,0,1,-1000,1,1,0,-1,1,0,1500.0
15:22:09.393,AUTO,-35.3632622,149.1652375,8,-0.0006844228482805192,0.0009843363659456372,0.022103073075413704,0.00022293353686109185,0.0003611990832723677,0.001590231666341424,0,1,-1000,1,1,0,-1,1,0,1500.0
15:22:09.594,AUTO,-35.3632622,149.1652375,8,-0.0006844228482805192,0.0009843363659456372,0.022103073075413704,0.00022293353686109185,0.0003611990832723677,0.001590231666341424,0,1,-1000,1,1,0,-1,1,0,1500.0
15:22:09.795,AUTO,-35.3632621,149.1652375,7,-0.0005920166149735451,0.0011615459807217121,0.021823592483997345,0.00016861566109582782,0.0003803668078035116,0.0014378390042111278,0,1,-1000,0,0,1,0,0,0,1500.0
15:22:09.996,AUTO,-35.3632621,149.1652375,7,-0.0005920166149735451,0.0011615459807217121,0.021823592483997345,0.00016861566109582782,0.0003803668078035116,0.0014378390042111278,0,1,-1000,0,0,1,0,0,0,1500.0
15:22:10.197,AUTO,-35.3632621,149.1652375,7,-0.0005448127049021423,0.0012180398916825652,0.02175671048462391,0.00025949522387236357,0.0003353293286636472,0.0014835100155323744,0,2,-1000,0,1,0,0,0,0,1500.0
15:22:10.397,AUTO,-35.3632621,149.1652375,2,0.00015605123189743608,0.0012795812217518687,0.021695571020245552,0.00029476481722667813,0.00022006896324455738,0.0016369909280911088,0,2,-1000,1,1,0,0,1,2,1500.0
15:22:10.598,AUTO,-35.3632621,149.1652375,0,0.00021062888845335692,0.0013425664510577917,0.021606557071208954,0.0003824984887614846,0.0002670831745490432,0.0016410828102380037,0,1,-1000,0,0,1,0,1,2,1500.0
15:22:10.799,AUTO,-35.3632621,149.1652375,0,0.00026922582765109837,0.0014145789900794625,0.02152010053396225,0.00037386122858151793,0.00029428041307255626,0.001482875319197774,0,1,-1000,1,1,0,0,0,2,1500.0
15:22:11.000,AUTO,-35.3632621,149.1652375,0,0.00026922582765109837,0.0014145789900794625,0.02152010053396225,0.00037386122858151793,0.00029428041307255626,0.001482875319197774,0,1,-1000,1,1,0,0,0,2,1500.0
15:22:11.201,AUTO,-35.3632621,149.1652375,0,0.00026922582765109837,0.0014145789900794625,0.02152010053396225,0.00037386122858151793,0.00029428041307255626,0.001482875319197774,0,1,-1000,1,1,0,0,0,2,1500.0
15:22:11.402,AUTO,-35.3632621,149.1652375,0,0.00026922582765109837,0.0014145789900794625,0.02152010053396225,0.00037386122858151793,0.00029428041307255626,0.001482875319197774,0,1,-1000,1,1,0,0,0,2,1500.0
15:22:11.605,AUTO,-35.3632621,149.1652375,0,0.00046389212366193533,0.0016331825172528625,0.021235598251223564,0.0003114116261713207,0.0002727560931816697,0.0016064485535025597,0,1,-1000,0,1,0,0,0,1,1500.0
15:22:11.806,AUTO,-35.3632621,149.1652375,0,0.0005357916234061122,0.0017155830282717943,0.021133949980139732,0.00037313957000151277,0.000314821838401258,0.0014633310493081808,0,1,-1000,0,0,1,0,0,1,1500.0
15:22:12.007,AUTO,-35.3632621,149.1652375,0,0.0005357916234061122,0.0017155830282717943,0.021133949980139732,0.00037313957000151277,0.000314821838401258,0.0014633310493081808,0,1,-1000,0,0,1,0,0,1,1500.0
15:22:12.208,AUTO,-35.3632621,149.1652375,0,0.0014646369963884354,0.001375712687149644,0.0210444126278162,0.015028879046440125,-0.011063078418374062,0.002076907316222787,0,0,-1058,15,-10,1,0,0,-1,1500.0
15:22:12.409,AUTO,-35.3632621,149.1652375,40,0.004519650246948004,-0.0005215145647525787,0.02103663608431816,-0.005057229660451412,-0.0024540433660149574,0.000534070422872901,0,0,-1139,-4,-1,0,0,0,-33,1500.0
15:22:12.609,AUTO,-35.3632621,149.1652375,171,0.00420308206230402,0.00014959712279960513,0.02107834443449974,0.005246967542916536,0.005671292543411255,0.0017653298564255238,0,0,-1131,6,6,1,0,1,-67,1500.0
15:22:12.810,AUTO,-35.3632621,149.1652375,380,0.0031604638788849115,0.0011066949227824807,0.020992983132600784,-0.004073944874107838,0.0023424960672855377,0.0021633172873407602,0,0,-1109,-3,3,1,0,1,-96,1500.0
15:22:13.011,AUTO,-35.3632621,149.1652375,380,0.0031604638788849115,0.0011066949227824807,0.020992983132600784,-0.004073944874107838,0.0023424960672855377,0.0021633172873407602,0,0,-1109,-3,3,1,0,1,-96,1500.0
15:22:13.212,AUTO,-35.3632621,149.1652375,380,0.0031604638788849115,0.0011066949227824807,0.020992983132600784,-0.004073944874107838,0.0023424960672855377,0.0021633172873407602,0,0,-1109,-3,3,1,0,1,-96,1500.0
15:22:13.412,AUTO,-35.3632621,149.1652375,380,0.0031604638788849115,0.0011066949227824807,0.020992983132600784,-0.004073944874107838,0.0023424960672855377,0.0021633172873407602,0,0,-1109,-3,3,1,0,1,-96,1500.0
15:22:13.613,AUTO,-35.3632621,149.1652375,380,0.0031604638788849115,0.0011066949227824807,0.020992983132600784,-0.004073944874107838,0.0023424960672855377,0.0021633172873407602,0,0,-1109,-3,3,1,0,1,-96,1500.0
15:22:13.815,AUTO,-35.363262,149.1652377,1721,0.03311282396316528,-0.0026327762752771378,0.02061673440039158,0.04504556953907013,-0.007727591320872307,0.0028456307481974363,0,-1,-1008,45,-7,2,1,10,-146,1500.0
15:22:14.016,AUTO,-35.363262,149.1652377,1721,0.03311282396316528,-0.0026327762752771378,0.02061673440039158,0.04504556953907013,-0.007727591320872307,0.0028456307481974363,0,-1,-1008,45,-7,2,1,10,-146,1500.0
15:22:14.216,AUTO,-35.3632619,149.1652381,2103,0.044042956084012985,-0.004843878094106913,0.020782483741641045,0.04260829836130142,-0.009406469762325287,0.0033194711431860924,0,-3,-1003,43,-8,3,3,19,-147,1500.0
15:22:14.417,AUTO,-35.3632618,149.1652387,2487,0.05425351858139038,-0.007414315361529589,0.0209707859903574,0.03952543064951897,-0.010925570502877235,0.003430916927754879,0,-4,-1000,40,-10,2,5,29,-147,1500.0
15:22:14.618,AUTO,-35.3632616,149.1652396,2871,0.06270842254161835,-0.009743710979819298,-0.008601391687989235,0.008450094610452652,0.005654838401824236,-0.029977506026625633,1,-8,-994,9,6,-30,8,41,-147,1500.0
15:22:14.819,AUTO,-35.3632614,149.1652409,3251,0.047364648431539536,0.008682184852659702,-0.028441257774829865,-0.12327644228935242,0.10811144858598709,-0.10619405657052994,2,-10,-989,-122,108,-106,10,52,-144,1500.0
15:22:15.020,AUTO,-35.3632614,149.1652409,3251,0.047364648431539536,0.008682184852659702,-0.028441257774829865,-0.12327644228935242,0.10811144858598709,-0.10619405657052994,2,-10,-989,-122,108,-106,10,52,-144,1500.0
15:22:15.220,AUTO,-35.3632614,149.1652409,3251,0.047364648431539536,0.008682184852659702,-0.028441257774829865,-0.12327644228935242,0.10811144858598709,-0.10619405657052994,2,-10,-989,-122,108,-106,10,52,-144,1500.0
15:22:15.421,AUTO,-35.3632614,149.1652409,3251,0.047364648431539536,0.008682184852659702,-0.028441257774829865,-0.12327644228935242,0.10811144858598709,-0.10619405657052994,2,-10,-989,-122,108,-106,10,52,-144,1500.0
15:22:15.622,AUTO,-35.3632614,149.1652409,3251,0.047364648431539536,0.008682184852659702,-0.028441257774829865,-0.12327644228935242,0.10811144858598709,-0.10619405657052994,2,-10,-989,-122,108,-106,10,52,-144,1500.0
15:22:15.824,AUTO,-35.3632608,149.1652458,4778,-0.04144224524497986,0.004635810852050781,-0.07591457664966583,-0.05481560155749321,-0.012616865336894989,-0.03187534958124161,4,-9,-1000,-54,-11,-32,1,26,-148,1500.0
15:22:16.025,AUTO,-35.3632608,149.1652458,4778,-0.04144224524497986,0.004635810852050781,-0.07591457664966583,-0.05481560155749321,-0.012616865336894989,-0.03187534958124161,4,-9,-1000,-54,-11,-32,1,26,-148,1500.0
15:22:16.226,AUTO,-35.3632608,149.1652464,5163,-0.059638503938913345,0.0022579608485102654,-0.0835627019405365,-0.08723130822181702,-0.006545730400830507,-0.03034929931163788,2,-4,-998,-86,-6,-30,0,12,-148,1500.0
15:22:16.427,AUTO,-35.3632608,149.1652465,5546,-0.07815588265657425,0.0010570965241640806,-0.09185656160116196,-0.02098703756928444,-0.0028098230250179768,-0.028354214504361153,0,0,-1006,-20,-1,-28,0,-6,-148,1500.0
15:22:16.628,AUTO,-35.3632608,149.1652462,5930,-0.0713002160191536,-0.0001159357707365416,-0.0984148234128952,0.04844792187213898,-0.003620090428739786,-0.019480271264910698,-1,2,-1003,49,-2,-20,-2,-25,-148,1500.0
15:22:16.828,AUTO,-35.3632608,149.1652453,6314,-0.05795316770672798,-0.0007109736907295883,-0.10306575149297714,0.05624602735042572,0.0009390042396262288,-0.013141704723238945,-4,6,-1001,56,1,-13,-3,-40,-148,1500.0
15:22:17.029,AUTO,-35.3632608,149.1652453,6314,-0.05795316770672798,-0.0007109736907295883,-0.10306575149297714,0.05624602735042572,0.0009390042396262288,-0.013141704723238945,-4,6,-1001,56,1,-13,-3,-40,-148,1500.0
15:22:17.232,AUTO,-35.3632608,149.1652453,6314,-0.05795316770672798,-0.0007109736907295883,-0.10306575149297714,0.05624602735042572,0.0009390042396262288,-0.013141704723238945,-4,6,-1001,56,1,-13,-3,-40,-148,1500.0
15:22:17.433,AUTO,-35.3632608,149.1652453,6314,-0.05795316770672798,-0.0007109736907295883,-0.10306575149297714,0.05624602735042572,0.0009390042396262288,-0.013141704723238945,-4,6,-1001,56,1,-13,-3,-40,-148,1500.0
15:22:17.634,AUTO,-35.3632608,149.1652453,6314,-0.05795316770672798,-0.0007109736907295883,-0.10306575149297714,0.05624602735042572,0.0009390042396262288,-0.013141704723238945,-4,6,-1001,56,1,-13,-3,-40,-148,1500.0
15:22:17.835,AUTO,-35.3632615,149.1652392,7848,0.005190182477235794,0.007295988965779543,-0.10881800204515457,0.06768455356359482,0.010563438758254051,0.0010612441692501307,-6,14,-1004,68,11,0,-12,-58,-150,1500.0
15:22:18.036,AUTO,-35.3632618,149.1652377,8237,0.021990321576595306,0.009769942611455917,-0.10829422622919083,0.0674579069018364,0.009195128455758095,0.0018346821889281273,-4,10,-1003,68,9,1,-14,-52,-151,1500.0
15:22:18.237,AUTO,-35.3632618,149.1652377,8237,0.021990321576595306,0.009769942611455917,-0.10829422622919083,0.0674579069018364,0.009195128455758095,0.0018346821889281273,-4,10,-1003,68,9,1,-14,-52,-151,1500.0
15:22:18.438,AUTO,-35.3632621,149.1652363,8630,0.03863551467657089,0.011534062214195728,-0.10724107921123505,0.06572882831096649,0.0051030488684773445,0.0039412700571119785,-3,12,-1003,66,5,3,-16,-42,-152,1500.0
15:22:18.638,AUTO,-35.3632625,149.1652352,9023,0.05470997840166092,0.012165764346718788,-0.10580894351005554,0.06366223841905594,0.0003577957395464182,0.004766493104398251,-3,11,-1003,64,0,4,-18,-29,-153,1500.0
15:22:18.839,AUTO,-35.363263,149.1652346,9425,0.06965216994285583,0.010904988273978233,-0.10343558341264725,0.04223331809043884,-0.016374191269278526,0.02326475828886032,1,6,-998,43,-15,23,-19,-12,-152,1500.0
15:22:19.040,AUTO,-35.363263,149.1652346,9425,0.06965216994285583,0.010904988273978233,-0.10343558341264725,0.04223331809043884,-0.016374191269278526,0.02326475828886032,1,6,-998,43,-15,23,-19,-12,-152,1500.0
15:22:19.241,AUTO,-35.363263,149.1652346,9425,0.06965216994285583,0.010904988273978233,-0.10343558341264725,0.04223331809043884,-0.016374191269278526,0.02326475828886032,1,6,-998,43,-15,23,-19,-12,-152,1500.0
15:22:19.442,AUTO,-35.363263,149.1652346,9425,0.06965216994285583,0.010904988273978233,-0.10343558341264725,0.04223331809043884,-0.016374191269278526,0.02326475828886032,1,6,-998,43,-15,23,-19,-12,-152,1500.0
15:22:19.643,AUTO,-35.363263,149.1652346,9425,0.06965216994285583,0.010904988273978233,-0.10343558341264725,0.04223331809043884,-0.016374191269278526,0.02326475828886032,1,6,-998,43,-15,23,-19,-12,-152,1500.0
15:22:19.844,AUTO,-35.3632637,149.1652357,10969,0.0007195284124463797,-0.036405615508556366,-0.05317848175764084,-0.08568689972162247,0.06950130313634872,-0.04299682378768921,0,-5,-1002,-84,70,-43,14,25,-148,1500.0
15:22:20.045,AUTO,-35.3632633,149.1652363,11351,-0.014715797267854214,-0.019592655822634697,-0.06889965385198593,-0.048266902565956116,0.06260983645915985,-0.0689128190279007,0,-7,-1004,-47,63,-69,21,20,-149,1500.0
15:22:20.246,AUTO,-35.3632633,149.1652363,11351,-0.014715797267854214,-0.019592655822634697,-0.06889965385198593,-0.048266902565956116,0.06260983645915985,-0.0689128190279007,0,-7,-1004,-47,63,-69,21,20,-149,1500.0
15:22:20.447,AUTO,-35.3632628,149.1652367,11736,-0.022250939160585403,-0.00648072361946106,-0.0880572497844696,-0.017855249345302582,0.04605573043227196,-0.07240782678127289,-1,-6,-1005,-17,46,-72,24,13,-150,1500.0
15:22:20.648,AUTO,-35.3632622,149.165237,12123,-0.024210147559642792,0.0025167721323668957,-0.10644511133432388,-0.0020070176105946302,0.03267964348196983,-0.0669243112206459,-5,-5,-1003,-1,33,-67,23,5,-151,1500.0
15:22:20.849,AUTO,-35.3632617,149.165237,12513,-0.021093150600790977,0.008647414855659008,-0.12275974452495575,0.01987380161881447,0.023514635860919952,-0.05847461521625519,-4,-2,-1002,20,24,-58,21,-2,-152,1500.0
15:22:21.049,AUTO,-35.3632617,149.165237,12513,-0.021093150600790977,0.008647414855659008,-0.12275974452495575,0.01987380161881447,0.023514635860919952,-0.05847461521625519,-4,-2,-1002,20,24,-58,21,-2,-152,1500.0
15:22:21.251,AUTO,-35.3632617,149.165237,12513,-0.021093150600790977,0.008647414855659008,-0.12275974452495575,0.01987380161881447,0.023514635860919952,-0.05847461521625519,-4,-2,-1002,20,24,-58,21,-2,-152,1500.0
15:22:21.451,AUTO,-35.3632617,149.165237,12513,-0.021093150600790977,0.008647414855659008,-0.12275974452495575,0.01987380161881447,0.023514635860919952,-0.05847461521625519,-4,-2,-1002,20,24,-58,21,-2,-152,1500.0
15:22:21.652,AUTO,-35.3632617,149.165237,12513,-0.021093150600790977,0.008647414855659008,-0.12275974452495575,0.01987380161881447,0.023514635860919952,-0.05847461521625519,-4,-2,-1002,20,24,-58,21,-2,-152,1500.0
15:22:21.853,AUTO,-35.3632605,149.1652359,14083,0.0065170456655323505,0.018823031336069107,-0.15945930778980255,0.024958930909633636,0.0027656638994812965,-0.015934625640511513,-3,1,-1000,25,3,-16,2,-11,-153,1500.0
15:22:22.054,AUTO,-35.3632605,149.1652356,14474,0.01129935309290886,0.018310492858290672,-0.162367582321167,0.014909825287759304,-0.003184371395036578,-0.008643635548651218,-2,1,-999,15,-2,-9,-1,-8,-152,1500.0
15:22:22.255,AUTO,-35.3632605,149.1652356,14474,0.01129935309290886,0.018310492858290672,-0.162367582321167,0.014909825287759304,-0.003184371395036578,-0.008643635548651218,-2,1,-999,15,-2,-9,-1,-8,-152,1500.0
15:22:22.456,AUTO,-35.3632605,149.1652354,14865,0.01432635635137558,0.016692865639925003,-0.16351470351219177,0.00941719114780426,-0.0077784182503819466,-0.004383084364235401,0,1,-999,10,-6,-4,-4,-5,-152,1500.0
15:22:22.657,AUTO,-35.3632605,149.1652352,15256,0.015332591719925404,0.014027828350663185,-0.16330642998218536,0.000678165175486356,-0.010220303200185299,-0.00025938794715330005,0,1,-999,1,-9,0,-7,-1,-152,1500.0
15:22:22.858,AUTO,-35.3632606,149.1652352,15647,0.014877637848258018,0.011397543363273144,-0.16292673349380493,-0.0027843723073601723,-0.009232612326741219,0.0006113637355156243,0,1,-999,-2,-8,0,-9,1,-152,1500.0
15:22:23.059,AUTO,-35.3632606,149.1652352,15647,0.014877637848258018,0.011397543363273144,-0.16292673349380493,-0.0027843723073601723,-0.009232612326741219,0.0006113637355156243,0,1,-999,-2,-8,0,-9,1,-152,1500.0
15:22:23.262,AUTO,-35.3632606,149.1652352,15647,0.014877637848258018,0.011397543363273144,-0.16292673349380493,-0.0027843723073601723,-0.009232612326741219,0.0006113637355156243,0,1,-999,-2,-8,0,-9,1,-152,1500.0
15:22:23.463,AUTO,-35.3632606,149.1652352,15647,0.014877637848258018,0.011397543363273144,-0.16292673349380493,-0.0027843723073601723,-0.009232612326741219,0.0006113637355156243,0,1,-999,-2,-8,0,-9,1,-152,1500.0
15:22:23.664,AUTO,-35.3632612,149.1652353,16812,0.008165957406163216,0.004942045547068119,-0.1655314713716507,-0.005776377394795418,-0.007852745242416859,-0.007847925648093224,2,0,-1000,-5,-7,-8,-10,8,-152,1500.0
15:22:23.865,AUTO,-35.3632613,149.1652355,17201,0.006259045097976923,0.0031337367836385965,-0.16776202619075775,-0.004524701274931431,-0.005885601043701172,-0.010438697412610054,2,0,-1000,-3,-5,-10,-9,8,-152,1500.0
15:22:24.066,AUTO,-35.3632615,149.1652357,17591,0.004479783587157726,0.001653224346227944,-0.17076441645622253,-0.008502732031047344,-0.004044810775667429,-0.012874919921159744,2,0,-1000,-7,-3,-13,-9,8,-152,1500.0
15:22:24.267,AUTO,-35.3632615,149.1652357,17591,0.004479783587157726,0.001653224346227944,-0.17076441645622253,-0.008502732031047344,-0.004044810775667429,-0.012874919921159744,2,0,-1000,-7,-3,-13,-9,8,-152,1500.0
15:22:24.467,AUTO,-35.3632616,149.1652358,17981,0.0029591345228254795,0.0005287198000587523,-0.1745084524154663,-0.0032144971191883087,-0.003301429096609354,-0.016533279791474342,2,0,-1001,-2,-2,-16,-8,8,-152,1500.0
15:22:24.668,AUTO,-35.3632617,149.165236,18371,0.0020754411816596985,-2.979514874823508e-06,-0.17921720445156097,-0.0004514233733061701,-0.0002747864928096533,-0.02133169025182724,1,0,-1001,0,0,-21,-6,7,-152,1500.0
15:22:24.869,AUTO,-35.3632618,149.1652361,18766,0.00164418772328645,-5.1716975576709956e-05,-0.1846781075000763,-0.0017699615564197302,0.0011557848192751408,-0.022540833801031113,1,0,-1000,-1,2,-22,-5,7,-152,1500.0
15:22:25.071,AUTO,-35.3632618,149.1652361,18766,0.00164418772328645,-5.1716975576709956e-05,-0.1846781075000763,-0.0017699615564197302,0.0011557848192751408,-0.022540833801031113,1,0,-1000,-1,2,-22,-5,7,-152,1500.0
15:22:25.272,AUTO,-35.3632618,149.1652361,18766,0.00164418772328645,-5.1716975576709956e-05,-0.1846781075000763,-0.0017699615564197302,0.0011557848192751408,-0.022540833801031113,1,0,-1000,-1,2,-22,-5,7,-152,1500.0
15:22:25.474,AUTO,-35.3632618,149.1652361,18766,0.00164418772328645,-5.1716975576709956e-05,-0.1846781075000763,-0.0017699615564197302,0.0011557848192751408,-0.022540833801031113,1,0,-1000,-1,2,-22,-5,7,-152,1500.0
15:22:25.675,AUTO,-35.363262,149.1652364,19933,0.0016983115347102284,-6.483017205027863e-05,-0.20176979899406433,0.005392423365265131,0.0035398032050579786,-0.0254268366843462,0,0,-1000,6,4,-25,-3,4,-153,1500.0
15:22:25.876,AUTO,-35.363262,149.1652364,20324,0.002355060074478388,0.000541866582352668,-0.20788057148456573,0.0018708598800003529,0.003039316739886999,-0.025213856250047684,0,0,-1000,2,3,-25,-2,3,-153,1500.0
15:22:26.077,AUTO,-35.363262,149.1652364,20715,0.0028544955421239138,0.0009016788681037724,-0.21372222900390625,0.0011798979248851538,0.0016423900378867984,-0.022741805762052536,0,0,-1000,2,2,-23,-1,3,-153,1500.0
15:22:26.278,AUTO,-35.363262,149.1652364,20715,0.0028544955421239138,0.0009016788681037724,-0.21372222900390625,0.0011798979248851538,0.0016423900378867984,-0.022741805762052536,0,0,-1000,2,2,-23,-1,3,-153,1500.0
15:22:26.479,AUTO,-35.363262,149.1652365,21106,0.003297508927062154,0.001669101184234023,-0.21984034776687622,0.0026509363669902086,0.0027404441498219967,-0.0231274776160717,0,0,-1000,3,3,-23,-1,3,-153,1500.0
15:22:26.679,AUTO,-35.363262,149.1652365,21496,0.003667034674435854,0.001991428667679429,-0.22559362649917603,0.0017017547506839037,0.0029191672801971436,-0.025121141225099564,0,0,-1000,2,3,-25,-1,2,-153,1500.0
15:22:26.880,AUTO,-35.363262,149.1652365,21886,0.003967056982219219,0.0026398783084005117,-0.231387659907341,0.0011182940797880292,0.002588593168184161,-0.02234063670039177,0,0,-1000,1,3,-22,-1,2,-153,1500.0
15:22:27.081,AUTO,-35.363262,149.1652365,21886,0.003967056982219219,0.0026398783084005117,-0.231387659907341,0.0011182940797880292,0.002588593168184161,-0.02234063670039177,0,0,-1000,1,3,-22,-1,2,-153,1500.0
15:22:27.283,AUTO,-35.363262,149.1652365,21886,0.003967056982219219,0.0026398783084005117,-0.231387659907341,0.0011182940797880292,0.002588593168184161,-0.02234063670039177,0,0,-1000,1,3,-22,-1,2,-153,1500.0
15:22:27.484,AUTO,-35.363262,149.1652365,21886,0.003967056982219219,0.0026398783084005117,-0.231387659907341,0.0011182940797880292,0.002588593168184161,-0.02234063670039177,0,0,-1000,1,3,-22,-1,2,-153,1500.0
15:22:27.685,AUTO,-35.363262,149.1652366,23058,0.004473768174648285,0.003409287892282009,-0.24737544357776642,0.002165490761399269,0.0010474987793713808,-0.02025233581662178,0,0,-1000,3,1,-20,-1,3,-153,1500.0
15:22:27.886,AUTO,-35.363262,149.1652366,23452,0.004472715314477682,0.0035768754314631224,-0.25246086716651917,0.0006633788580074906,0.0016275406815111637,-0.018574373796582222,0,0,-1000,1,2,-18,-1,3,-153,1500.0
15:22:28.087,AUTO,-35.363262,149.1652367,23842,0.004100393503904343,0.0033156592398881912,-0.2569821774959564,-0.001833906164392829,-0.0012067733332514763,-0.015239068306982517,0,0,-1000,-1,0,-15,-1,3,-153,1500.0
15:22:28.288,AUTO,-35.363262,149.1652367,24232,0.0037255610805004835,0.0029990545008331537,-0.2614084780216217,-0.0020608934573829174,-0.0024386653676629066,-0.01602763496339321,0,0,-1000,-1,0,-15,-1,3,-153,1500.0
15:22:28.489,AUTO,-35.363262,149.1652367,24232,0.0037255610805004835,0.0029990545008331537,-0.2614084780216217,-0.0020608934573829174,-0.0024386653676629066,-0.01602763496339321,0,0,-1000,0,-1,-16,-1,3,-153,1500.0
15:22:28.690,AUTO,-35.363262,149.1652367,24622,0.0035836119204759598,0.0031458912417292595,-0.26625534892082214,0.0007394471322186291,0.002137160627171397,-0.01908225193619728,0,0,-1000,1,3,-19,-1,3,-153,1500.0
15:22:28.891,AUTO,-35.363262,149.1652368,25012,-5.3449824918061495e-05,0.0035410604905337095,-0.27006471157073975,-0.10656829923391342,0.012872491031885147,9.732018224895e-05,0,-3,-979,-105,13,0,-1,3,-152,1500.0
15:22:29.092,AUTO,-35.363262,149.1652368,25012,-5.3449824918061495e-05,0.0035410604905337095,-0.27006471157073975,-0.10656829923391342,0.012872491031885147,9.732018224895e-05,0,-3,-979,-105,13,0,-1,3,-152,1500.0
15:22:29.294,AUTO,-35.363262,149.1652368,25012,-5.3449824918061495e-05,0.0035410604905337095,-0.27006471157073975,-0.10656829923391342,0.012872491031885147,9.732018224895e-05,0,-3,-979,-105,13,0,-1,3,-152,1500.0
15:22:29.495,AUTO,-35.363262,149.1652368,25012,-5.3449824918061495e-05,0.0035410604905337095,-0.27006471157073975,-0.10656829923391342,0.012872491031885147,9.732018224895e-05,0,-3,-979,-105,13,0,-1,3,-152,1500.0
15:22:29.696,AUTO,-35.3632621,149.1652367,26172,0.004629848059266806,0.005182584747672081,-0.2576685845851898,0.029721496626734734,-0.00159242725931108,0.0255690049380064,0,1,-1001,30,0,25,-5,0,-153,1500.0
15:22:29.897,AUTO,-35.3632622,149.1652367,26562,0.009504933841526508,0.004295635502785444,-0.2505480647087097,0.01232555415481329,-0.0028156270273029804,0.02883991226553917,0,0,-999,13,-1,28,-5,0,-153,1500.0
15:22:30.098,AUTO,-35.3632623,149.1652367,26953,0.011441796086728573,0.003246090840548277,-0.24367709457874298,0.004491343162953854,-0.003026257734745741,0.02473616972565651,0,0,-1000,5,-2,24,-4,2,-153,1500.0
15:22:30.299,AUTO,-35.3632623,149.1652367,27342,0.011535760015249252,0.002492758212611079,-0.23696836829185486,-0.0021826517768204212,-0.004929087590426207,0.025923507288098335,0,0,-1000,-1,-4,25,-4,4,-153,1500.0
15:22:30.500,AUTO,-35.3632623,149.1652367,27342,0.011535760015249252,0.002492758212611079,-0.23696836829185486,-0.0021826517768204212,-0.004929087590426207,0.025923507288098335,0,0,-1000,-1,-4,25,-4,4,-153,1500.0
15:22:30.701,AUTO,-35.3632624,149.1652367,27731,0.010329079814255238,0.0019967660773545504,-0.23077206313610077,-0.006605636328458786,0.00039455771911889315,0.023862386122345924,1,0,-999,-5,1,23,-3,6,-153,1500.0
15:22:30.902,AUTO,-35.3632624,149.1652369,28124,0.008620134554803371,0.0019043217180296779,-0.22497481107711792,-0.006209481041878462,-4.4942134991288185e-05,0.021055854856967926,0,0,-1000,-5,1,20,-2,7,-152,1500.0
15:22:31.103,AUTO,-35.3632624,149.1652369,28124,0.008620134554803371,0.0019043217180296779,-0.22497481107711792,-0.006209481041878462,-4.4942134991288185e-05,0.021055854856967926,0,0,-1000,-5,1,20,-2,7,-152,1500.0
15:22:31.304,AUTO,-35.3632624,149.1652369,28124,0.008620134554803371,0.0019043217180296779,-0.22497481107711792,-0.006209481041878462,-4.4942134991288185e-05,0.021055854856967926,0,0,-1000,-5,1,20,-2,7,-152,1500.0
15:22:31.505,AUTO,-35.3632624,149.1652369,28124,0.008620134554803371,0.0019043217180296779,-0.22497481107711792,-0.006209481041878462,-4.4942134991288185e-05,0.021055854856967926,0,0,-1000,-5,1,20,-2,7,-152,1500.0
15:22:31.706,AUTO,-35.3632624,149.1652374,29285,0.0026910018641501665,0.00179099733941257,-0.2096676230430603,-0.0038993023335933685,-3.309739986434579e-05,0.01961110718548298,1,-1,-1000,-2,0,19,-1,8,-152,1500.0
15:22:31.907,AUTO,-35.3632623,149.1652376,29674,0.0015840772539377213,0.0020496798679232597,-0.20478032529354095,-0.003844083286821842,0.0025037277955561876,0.02040870115160942,1,-1,-1000,-3,3,20,0,7,-152,1500.0
15:22:32.108,AUTO,-35.3632623,149.1652377,30062,0.000589907867833972,0.002103559672832489,-0.20009005069732666,-0.00527311721816659,-0.0016188560985028744,0.019024008885025978,1,-1,-1000,-4,0,18,0,7,-153,1500.0
15:22:32.309,AUTO,-35.3632623,149.1652379,30451,-3.247562926844694e-05,0.001918912515975535,-0.19576485455036163,-0.0041669015772640705,-0.0015137470327317715,0.018688609823584557,0,-1,-1000,-3,0,18,0,6,-153,1500.0
15:22:32.510,AUTO,-35.3632623,149.1652379,30451,-3.247562926844694e-05,0.001918912515975535,-0.19576485455036163,-0.0041669015772640705,-0.0015137470327317715,0.018688609823584557,0,-1,-1000,-3,0,18,0,6,-153,1500.0
15:22:32.710,AUTO,-35.3632623,149.165238,30840,-0.0004113600589334965,0.0014576177345588803,-0.1912640482187271,-0.0006089464295655489,0.000595061865169555,0.017197612673044205,0,0,-1000,0,1,17,0,5,-153,1500.0
15:22:32.911,AUTO,-35.3632623,149.1652381,31229,-0.000313747237669304,0.0012830350315198302,-0.18677088618278503,3.902631578966975e-05,-6.812141509726644e-05,0.017198940739035606,0,0,-1000,0,0,17,0,4,-153,1500.0
15:22:33.112,AUTO,-35.3632623,149.1652381,31229,-0.000313747237669304,0.0012830350315198302,-0.18677088618278503,3.902631578966975e-05,-6.812141509726644e-05,0.017198940739035606,0,0,-1000,0,0,17,0,4,-153,1500.0
15:22:33.313,AUTO,-35.3632623,149.1652381,31229,-0.000313747237669304,0.0012830350315198302,-0.18677088618278503,3.902631578966975e-05,-6.812141509726644e-05,0.017198940739035606,0,0,-1000,0,0,17,0,4,-153,1500.0
15:22:33.514,AUTO,-35.3632623,149.1652381,31229,-0.000313747237669304,0.0012830350315198302,-0.18677088618278503,3.902631578966975e-05,-6.812141509726644e-05,0.017198940739035606,0,0,-1000,0,0,17,0,4,-153,1500.0
15:22:33.716,AUTO,-35.3632623,149.1652382,32396,0.0005258703022263944,0.0010185822611674666,-0.17491328716278076,0.00404183566570282,0.0014631408266723156,0.016679467633366585,0,0,-1000,4,2,16,0,1,-153,1500.0
15:22:33.917,AUTO,-35.3632623,149.1652382,32789,0.0011728787794709206,0.0012892027152702212,-0.17137126624584198,0.0017238403670489788,0.0020521024707704782,0.014548944309353828,0,0,-1000,2,3,14,0,1,-153,1500.0
15:22:34.118,AUTO,-35.3632623,149.1652382,33178,0.0015141468029469252,0.001024124794639647,-0.16812506318092346,0.0005771386786364019,-0.0019387034699320793,0.012422565370798111,0,0,-1000,1,0,12,0,0,-153,1500.0
15:22:34.319,AUTO,-35.3632623,149.1652382,33568,0.0018068720819428563,0.0009140426991507411,-0.1646789163351059,0.0011799773201346397,-0.0017969163600355387,0.013704882934689522,0,0,-1000,2,0,13,0,0,-153,1500.0
15:22:34.520,AUTO,-35.3632623,149.1652382,33568,0.0018068720819428563,0.0009140426991507411,-0.1646789163351059,0.0011799773201346397,-0.0017969163600355387,0.013704882934689522,0,0,-1000,2,0,13,0,0,-153,1500.0
15:22:34.721,AUTO,-35.3632623,149.1652382,33957,0.001965462928637862,0.0008151070796884596,-0.16133497655391693,-0.0011391505831852555,0.0013796202838420868,0.013768207281827927,0,0,-999,0,2,13,0,0,-153,1500.0
15:22:34.922,AUTO,-35.3632623,149.1652381,34346,0.0021347554866224527,0.0008020173409022391,-0.158289834856987,0.0030991036910563707,-0.0002722927019931376,0.011948328465223312,0,0,-1001,4,0,11,0,0,-153,1500.0
15:22:35.122,AUTO,-35.3632623,149.1652381,34346,0.0021347554866224527,0.0008020173409022391,-0.158289834856987,0.0030991036910563707,-0.0002722927019931376,0.011948328465223312,0,0,-1001,4,0,11,0,0,-153,1500.0
15:22:35.324,AUTO,-35.3632623,149.1652381,34346,0.0021347554866224527,0.0008020173409022391,-0.158289834856987,0.0030991036910563707,-0.0002722927019931376,0.011948328465223312,0,0,-1001,4,0,11,0,0,-153,1500.0
15:22:35.525,AUTO,-35.3632623,149.1652381,34346,0.0021347554866224527,0.0008020173409022391,-0.158289834856987,0.0030991036910563707,-0.0002722927019931376,0.011948328465223312,0,0,-1001,4,0,11,0,0,-153,1500.0
15:22:35.727,AUTO,-35.3632623,149.165238,35513,0.0021297880448400974,0.0008395944023504853,-0.1496477574110031,-0.00024511682568117976,-0.0007891993736848235,0.011213847436010838,0,0,-1000,0,0,10,0,0,-153,1500.0
15:22:35.928,AUTO,-35.3632623,149.165238,35902,0.002201925264671445,0.0006286835414357483,-0.14662425220012665,0.0013091574655845761,-0.000335433054715395,0.014945166185498238,0,0,-1000,2,0,14,0,0,-153,1500.0
15:22:36.129,AUTO,-35.3632622,149.1652379,36291,0.002478945767506957,0.0009146835072897375,-0.14405478537082672,0.0015993551351130009,0.0010826810030266643,0.010167969390749931,0,0,-1000,2,1,10,0,0,-153,1500.0
15:22:36.330,AUTO,-35.3632622,149.1652379,36680,0.0024549446534365416,0.0009075877023860812,-0.1414193958044052,0.0010582880349829793,9.840837446972728e-05,0.011484969407320023,0,0,-1000,2,1,11,0,0,-153,1500.0
15:22:36.531,AUTO,-35.3632622,149.1652379,36680,0.0024549446534365416,0.0009075877023860812,-0.1414193958044052,0.0010582880349829793,9.840837446972728e-05,0.011484969407320023,0,0,-1000,2,1,11,0,0,-153,1500.0
15:22:36.732,AUTO,-35.3632622,149.1652379,37069,0.0025532853323966265,0.0007926320540718734,-0.138913094997406,0.0019109944114461541,0.0004630159237422049,0.012190679088234901,0,0,-1000,2,1,12,0,0,-153,1500.0
15:22:36.932,AUTO,-35.3632622,149.1652378,37458,0.0026253890246152878,0.0008266729419119656,-0.13680554926395416,0.002969527617096901,0.0008211082895286381,0.009965242817997932,0,0,-1000,3,1,9,0,0,-153,1500.0
15:22:37.133,AUTO,-35.3632622,149.1652378,37458,0.0026253890246152878,0.0008266729419119656,-0.13680554926395416,0.002969527617096901,0.0008211082895286381,0.009965242817997932,0,0,-1000,3,1,9,0,0,-153,1500.0
15:22:37.335,AUTO,-35.3632622,149.1652378,37458,0.0026253890246152878,0.0008266729419119656,-0.13680554926395416,0.002969527617096901,0.0008211082895286381,0.009965242817997932,0,0,-1000,3,1,9,0,0,-153,1500.0
15:22:37.536,AUTO,-35.3632622,149.1652378,37458,0.0026253890246152878,0.0008266729419119656,-0.13680554926395416,0.002969527617096901,0.0008211082895286381,0.009965242817997932,0,0,-1000,3,1,9,0,0,-153,1500.0
15:22:37.737,AUTO,-35.3632622,149.1652377,38625,0.003356700763106346,0.0009520823950879276,-0.13017882406711578,0.0036343340761959553,-0.00040200038347393274,0.011999203823506832,0,0,-1000,4,0,11,0,0,-153,1500.0
15:22:37.937,AUTO,-35.3632622,149.1652377,39015,0.0035857108887284994,0.0008609783835709095,-0.12812446057796478,0.003898702096194029,0.0027317972853779793,0.00844650063663721,0,0,-1000,5,3,8,0,0,-153,1500.0
15:22:38.138,AUTO,-35.3632622,149.1652376,39403,0.003608670085668564,0.0012947622453793883,-0.126181960105896,-0.0025844918563961983,0.002585913985967636,0.008869863115251064,0,0,-999,-1,3,8,0,0,-153,1500.0
15:22:38.340,AUTO,-35.3632622,149.1652376,39800,0.0034189571160823107,0.0014517384115606546,-0.12418438494205475,0.0016677055973559618,-0.0004805162316188216,0.007207979913800955,0,0,-1001,2,0,7,0,0,-153,1500.0
15:22:38.541,AUTO,-35.3632622,149.1652376,39800,0.003064303658902645,0.0012649846030399203,-0.12230000644922256,-0.0008841251255944371,0.0004675212549045682,0.008994270116090775,0,0,-1001,2,0,7,0,0,-153,1500.0
15:22:38.744,AUTO,-35.3632621,149.1652376,40189,0.003064303658902645,0.0012649846030399203,-0.12230000644922256,-0.0008841251255944371,0.0004675212549045682,0.008994270116090775,0,0,-999,0,1,9,0,0,-153,1500.0
15:22:38.946,AUTO,-35.3632621,149.1652376,40578,0.002911702962592244,0.0013639983953908086,-0.12059617042541504,0.000769411213696003,0.003096582368016243,0.008135735057294369,0,0,-1000,2,3,8,0,0,-153,1500.0
15:22:39.148,AUTO,-35.3632621,149.1652376,40578,0.002911702962592244,0.0013639983953908086,-0.12059617042541504,0.000769411213696003,0.003096582368016243,0.008135735057294369,0,0,-1000,2,3,8,0,0,-153,1500.0
15:22:39.349,AUTO,-35.3632621,149.1652376,40578,0.002911702962592244,0.0013639983953908086,-0.12059617042541504,0.000769411213696003,0.003096582368016243,0.008135735057294369,0,0,-1000,2,3,8,0,0,-153,1500.0
15:22:39.550,AUTO,-35.3632621,149.1652376,40578,0.002911702962592244,0.0013639983953908086,-0.12059617042541504,0.000769411213696003,0.003096582368016243,0.008135735057294369,0,0,-1000,2,3,8,0,0,-153,1500.0
15:22:39.752,AUTO,-35.3632621,149.1652375,41736,0.002764463424682617,0.001659254776313901,-0.11548634618520737,0.0020241113379597664,0.0007500990759581327,0.008141429163515568,0,0,-1000,3,1,8,0,1,-153,1500.0
15:22:39.953,AUTO,-35.3632621,149.1652375,42126,0.002666332758963108,0.0014965188456699252,-0.11382995545864105,0.0020844247192144394,0.0003908600192517042,0.007700643967837095,0,0,-1000,3,1,7,0,1,-153,1500.0
15:22:40.154,AUTO,-35.3632621,149.1652375,42515,0.002615465549752116,0.0014226390048861504,-0.11220821738243103,-0.00240612355992198,0.0011512173805385828,0.008523224852979183,0,0,-999,-1,2,8,0,1,-153,1500.0
15:22:40.354,AUTO,-35.3632621,149.1652375,42903,0.0025688435416668653,0.0013646457809954882,-0.11078185588121414,0.0012218323536217213,-0.0005663090851157904,0.009155943058431149,0,0,-1000,2,0,9,0,1,-153,1500.0
15:22:40.555,AUTO,-35.3632621,149.1652375,43291,0.0025899067986756563,0.0015738965012133121,-0.10908466577529907,0.0032834666781127453,0.0010466562816873193,0.006495271809399128,0,0,-1000,4,2,6,-1,1,-153,1500.0
15:22:40.756,AUTO,-35.3632621,149.1652375,43291,0.0025899067986756563,0.0015738965012133121,-0.10908466577529907,0.0032834666781127453,0.0010466562816873193,0.006495271809399128,0,0,-1000,4,2,6,-1,1,-153,1500.0
15:22:40.957,AUTO,-35.363262,149.1652375,43681,0.0025218655355274677,0.0015168526442721486,-0.10757426917552948,0.0003660385264083743,0.002345830900594592,0.007694314233958721,0,0,-1000,1,3,7,-1,1,-153,1500.0
15:22:41.158,AUTO,-35.363262,149.1652375,43681,0.0025218655355274677,0.0015168526442721486,-0.10757426917552948,0.0003660385264083743,0.002345830900594592,0.007694314233958721,0,0,-1000,1,3,7,-1,1,-153,1500.0
15:22:41.360,AUTO,-35.363262,149.1652375,43681,0.0025218655355274677,0.0015168526442721486,-0.10757426917552948,0.0003660385264083743,0.002345830900594592,0.007694314233958721,0,0,-1000,1,3,7,-1,1,-153,1500.0
15:22:41.562,AUTO,-35.363262,149.1652375,43681,0.0025218655355274677,0.0015168526442721486,-0.10757426917552948,0.0003660385264083743,0.002345830900594592,0.007694314233958721,0,0,-1000,1,3,7,-1,1,-153,1500.0
15:22:41.763,AUTO,-35.363262,149.1652375,44855,0.0027314391918480396,0.001323137548752129,-0.1029922217130661,-0.0013944832608103752,-0.0005817386554554105,0.00827116146683693,0,0,-1000,0,0,8,-1,1,-153,1500.0
15:22:41.964,AUTO,-35.363262,149.1652374,45244,0.0027176341973245144,0.0011495897779241204,-0.10158437490463257,0.003512039314955473,-0.00022337865084409714,0.004759478848427534,0,0,-1001,4,0,4,-1,1,-153,1500.0
15:22:42.176,AUTO,-35.363262,149.1652374,45633,0.002719148760661483,0.0010740929283201694,-0.10013441741466522,-0.0009114439599215984,0.00014222285244613886,0.00712381349876523,0,0,-1000,0,1,7,-1,1,-153,1500.0
15:22:42.378,AUTO,-35.363262,149.1652374,46021,0.0025649091694504023,0.0011174294631928205,-0.09880412369966507,-0.0016004517674446106,0.000981235527433455,0.005126920994371176,0,0,-1000,0,2,5,-1,1,-153,1500.0
15:22:42.580,AUTO,-35.363262,149.1652374,46410,0.002433719811961055,0.0012471545487642288,-0.09756698459386826,0.001256206538528204,-0.0005355217726901174,0.00463123619556427,0,0,-1001,2,0,4,-1,1,-153,1500.0
15:22:42.781,AUTO,-35.363262,149.1652374,46410,0.002433719811961055,0.0012471545487642288,-0.09756698459386826,0.001256206538528204,-0.0005355217726901174,0.00463123619556427,0,0,-1001,2,0,4,-1,1,-153,1500.0
15:22:42.983,AUTO,-35.363262,149.1652374,46799,0.0024377754889428616,0.0012339964741840959,-0.09617249667644501,-0.0005491728661581874,0.0016203706618398428,0.00525764562189579,0,0,-999,0,2,5,-1,1,-153,1500.0
15:22:43.186,AUTO,-35.363262,149.1652374,46799,0.0024377754889428616,0.0012339964741840959,-0.09617249667644501,-0.0005491728661581874,0.0016203706618398428,0.00525764562189579,0,0,-999,0,2,5,-1,1,-153,1500.0
15:22:43.389,AUTO,-35.363262,149.1652374,46799,0.0024377754889428616,0.0012339964741840959,-0.09617249667644501,-0.0005491728661581874,0.0016203706618398428,0.00525764562189579,0,0,-999,0,2,5,-1,1,-153,1500.0
15:22:43.591,AUTO,-35.363262,149.1652374,46799,0.0024377754889428616,0.0012339964741840959,-0.09617249667644501,-0.0005491728661581874,0.0016203706618398428,0.00525764562189579,0,0,-999,0,2,5,-1,1,-153,1500.0
15:22:43.793,AUTO,-35.3632626,149.1652366,48249,-0.055876974016427994,0.05810781195759773,0.20215734839439392,0.06479541957378387,-0.17647822201251984,0.33313965797424316,1,2,-970,-154,116,597,-27,-27,-121,1500.0
15:22:43.997,AUTO,-35.3632626,149.1652366,48249,-0.055876974016427994,0.05810781195759773,0.20215734839439392,0.06479541957378387,-0.17647822201251984,0.33313965797424316,5,7,-939,65,-175,333,-27,-27,-121,1500.0
15:22:44.198,AUTO,-35.3632633,149.1652357,48542,-0.029143504798412323,0.00859758909791708,0.26408541202545166,0.10486941039562225,-0.20138491690158844,0.17087171971797943,4,9,-942,105,-200,171,-32,-37,-106,1500.0
15:22:44.399,AUTO,-35.3632639,149.1652346,48797,-0.001794974086806178,-0.030334608629345894,0.2919345498085022,0.10624587535858154,-0.1205100417137146,0.07301745563745499,4,11,-950,107,-119,73,-27,-37,-93,1500.0
15:22:44.600,AUTO,-35.3632644,149.1652337,49020,0.01903764344751835,-0.04990580305457115,0.3006877303123474,0.08031322062015533,-0.049447569996118546,0.01848793588578701,2,8,-957,81,-48,18,-18,-30,-81,1500.0
15:22:44.801,AUTO,-35.3632647,149.165233,49216,0.032371968030929565,-0.055731553584337234,0.2994949519634247,0.017246898263692856,-0.005933269392699003,-0.012019162997603416,0,5,-963,18,-4,-11,-8,-19,-71,1500.0
15:22:45.001,AUTO,-35.3632647,149.165233,49216,0.032371968030929565,-0.055731553584337234,0.2994949519634247,0.017246898263692856,-0.005933269392699003,-0.012019162997603416,0,5,-963,18,-4,-11,-8,-19,-71,1500.0
15:22:45.202,AUTO,-35.3632647,149.165233,49216,0.032371968030929565,-0.055731553584337234,0.2994949519634247,0.017246898263692856,-0.005933269392699003,-0.012019162997603416,0,5,-963,18,-4,-11,-8,-19,-71,1500.0
15:22:45.404,AUTO,-35.3632647,149.165233,49216,0.032371968030929565,-0.055731553584337234,0.2994949519634247,0.017246898263692856,-0.005933269392699003,-0.012019162997603416,0,5,-963,18,-4,-11,-8,-19,-71,1500.0
15:22:45.605,AUTO,-35.3632647,149.165233,49216,0.032371968030929565,-0.055731553584337234,0.2994949519634247,0.017246898263692856,-0.005933269392699003,-0.012019162997603416,0,5,-963,18,-4,-11,-8,-19,-71,1500.0
15:22:45.806,AUTO,-35.3632641,149.165233,49784,0.033415962010622025,-0.022114887833595276,0.2669419050216675,0.20716896653175354,0.03989138454198837,-0.031094519421458244,-3,11,-978,209,41,-30,18,23,-43,1500.0
15:22:46.007,AUTO,-35.3632641,149.165233,49784,0.033415962010622025,-0.022114887833595276,0.2669419050216675,0.20716896653175354,0.03989138454198837,-0.031094519421458244,-3,11,-978,209,41,-30,18,23,-43,1500.0
15:22:46.208,AUTO,-35.3632637,149.1652337,49883,0.034037765115499496,-0.011939446441829205,0.25705865025520325,0.4750807285308838,0.033583998680114746,-0.03930594399571419,-4,2,-976,475,34,-38,20,27,-35,1500.0
15:22:46.409,AUTO,-35.3632632,149.1652344,49965,0.021930137649178505,-0.002542738802731037,0.24760548770427704,-0.2514193058013916,0.03794030845165253,-0.03729673847556114,-2,-31,-972,-252,39,-37,21,30,-30,1500.0
15:22:46.610,AUTO,-35.3632627,149.1652352,50035,0.006688815541565418,0.005768198519945145,0.23957492411136627,-0.6207648515701294,0.02579909935593605,-0.02736883983016014,0,-35,-975,-619,27,-27,20,31,-26,1500.0
15:22:46.811,AUTO,-35.3632622,149.165236,50094,0.002018338069319725,0.011113639920949936,0.23253946006298065,-0.1002267375588417,0.01785396970808506,-0.023826558142900467,0,4,-980,-97,18,-23,18,30,-22,1500.0
15:22:47.012,AUTO,-35.3632622,149.165236,50094,0.002018338069319725,0.011113639920949936,0.23253946006298065,-0.1002267375588417,0.01785396970808506,-0.023826558142900467,0,4,-980,-97,18,-23,18,30,-22,1500.0
15:22:47.214,AUTO,-35.3632622,149.165236,50094,0.002018338069319725,0.011113639920949936,0.23253946006298065,-0.1002267375588417,0.01785396970808506,-0.023826558142900467,0,4,-980,-97,18,-23,18,30,-22,1500.0
15:22:47.418,AUTO,-35.3632622,149.165236,50094,0.002018338069319725,0.011113639920949936,0.23253946006298065,-0.1002267375588417,0.01785396970808506,-0.023826558142900467,0,4,-980,-97,18,-23,18,30,-22,1500.0
15:22:47.619,AUTO,-35.3632622,149.165236,50094,0.002018338069319725,0.011113639920949936,0.23253946006298065,-0.1002267375588417,0.01785396970808506,-0.023826558142900467,0,4,-980,-97,18,-23,18,30,-22,1500.0
15:22:47.823,AUTO,-35.3632611,149.1652385,50164,-0.037030234932899475,0.044166769832372665,0.2083723396062851,-0.9141672849655151,0.019703129306435585,-0.012348076328635216,1,-49,-940,-914,21,-12,3,12,13,1500.0
15:22:48.024,AUTO,-35.3632611,149.1652385,50164,-0.037030234932899475,0.044166769832372665,0.2083723396062851,-0.9141672849655151,0.019703129306435585,-0.012348076328635216,1,-49,-940,-914,21,-12,3,12,13,1500.0
15:22:48.226,AUTO,-35.3632611,149.1652387,50117,-0.02986377477645874,0.027338888496160507,0.20386230945587158,-0.8573782444000244,-0.11337799578905106,-0.02194894663989544,2,-36,-988,-856,-112,-21,-4,4,18,1500.0
15:22:48.427,AUTO,-35.3632612,149.1652389,50068,-0.009788433089852333,0.00042032552300952375,0.19755493104457855,-0.4536658227443695,-0.08156051486730576,-0.02740301564335823,2,-5,-1025,-450,-80,-27,-6,2,14,1500.0
15:22:48.628,AUTO,-35.3632613,149.165239,50030,0.006822575349360704,-0.01471638772636652,0.19079965353012085,0.17299912869930267,-0.04183134809136391,-0.02437898889183998,2,24,-1021,176,-40,-23,-4,4,10,1500.0
15:22:48.829,AUTO,-35.3632614,149.1652393,50001,0.025613117963075638,-0.02376086637377739,0.18477879464626312,0.7675079107284546,-0.03195798769593239,-0.019420044496655464,2,38,-1017,770,-30,-19,0,9,6,1500.0
15:22:49.030,AUTO,-35.3632614,149.1652393,50001,0.025613117963075638,-0.02376086637377739,0.18477879464626312,0.7675079107284546,-0.03195798769593239,-0.019420044496655464,2,38,-1017,770,-30,-19,0,9,6,1500.0
15:22:49.231,AUTO,-35.3632614,149.1652393,50001,0.025613117963075638,-0.02376086637377739,0.18477879464626312,0.7675079107284546,-0.03195798769593239,-0.019420044496655464,2,38,-1017,770,-30,-19,0,9,6,1500.0
15:22:49.432,AUTO,-35.3632614,149.1652393,50001,0.025613117963075638,-0.02376086637377739,0.18477879464626312,0.7675079107284546,-0.03195798769593239,-0.019420044496655464,2,38,-1017,770,-30,-19,0,9,6,1500.0
15:22:49.633,AUTO,-35.3632614,149.1652393,50001,0.025613117963075638,-0.02376086637377739,0.18477879464626312,0.7675079107284546,-0.03195798769593239,-0.019420044496655464,2,38,-1017,770,-30,-19,0,9,6,1500.0
15:22:49.834,AUTO,-35.3632604,149.1652427,49953,0.05033351108431816,-0.06664120405912399,0.2147396057844162,-0.6048334240913391,-0.0805717408657074,0.4076068103313446,0,-38,-1002,-603,-79,407,35,46,0,1500.0
15:22:50.035,AUTO,-35.3632604,149.1652427,49953,0.05033351108431816,-0.06664120405912399,0.2147396057844162,-0.6048334240913391,-0.0805717408657074,0.4076068103313446,0,-38,-1002,-603,-79,407,35,46,0,1500.0
15:22:50.236,AUTO,-35.3632596,149.1652444,49949,0.05453048646450043,-0.08624925464391708,0.3833829164505005,0.1453292816877365,-0.032949190586805344,0.7843109369277954,-9,1,-1010,148,-31,784,47,62,-2,1500.0
15:22:50.437,AUTO,-35.3632585,149.1652465,49948,0.05152518302202225,-0.10227537155151367,0.5935601592063904,0.6379050612449646,0.011076942086219788,0.8364413380622864,-11,8,-1012,639,12,836,61,80,-2,1500.0
15:22:50.638,AUTO,-35.3632571,149.1652491,49946,0.03912557661533356,-0.11089053004980087,0.8010609745979309,0.36982235312461853,-1.3375072740018368e-05,0.8086143136024475,-22,-20,-999,369,0,808,75,98,-1,1500.0
15:22:50.839,AUTO,-35.3632554,149.1652522,49944,0.0139467166736722,-0.1121596097946167,0.9983407258987427,-0.323041170835495,0.03165294602513313,0.7728343605995178,-31,-44,-996,-323,32,773,88,115,-2,1500.0
15:22:51.040,AUTO,-35.3632554,149.1652522,49944,0.0139467166736722,-0.1121596097946167,0.9983407258987427,-0.323041170835495,0.03165294602513313,0.7728343605995178,-31,-44,-996,-323,32,773,88,115,-2,1500.0
15:22:51.240,BRAKE,-35.3632554,149.1652522,49944,0.0139467166736722,-0.1121596097946167,0.9983407258987427,-0.323041170835495,0.03165294602513313,0.7728343605995178,-31,-44,-996,-323,32,773,88,115,-2,1500.0
15:22:51.441,BRAKE,-35.3632554,149.1652522,49944,0.0139467166736722,-0.1121596097946167,0.9983407258987427,-0.323041170835495,0.03165294602513313,0.7728343605995178,-31,-44,-996,-323,32,773,88,115,-2,1500.0
15:22:51.643,BRAKE,-35.3632554,149.1652522,49944,0.0139467166736722,-0.1121596097946167,0.9983407258987427,-0.323041170835495,0.03165294602513313,0.7728343605995178,-31,-44,-996,-323,32,773,88,115,-2,1500.0
15:22:51.844,BRAKE,-35.3632476,149.1652669,49978,0.04884526506066322,0.09582899510860443,1.1880394220352173,0.6461489796638489,-0.0963643416762352,-0.15656179189682007,-24,19,-1010,647,-95,-156,68,98,-5,1500.0
