time_stamp,MODE,lat,lon,relative_alt,roll,pitch,yaw,rollspeed,pitchspeed,yawspeed,xacc,yacc,zacc,xgyro,ygyro,zgyro,vx,vy,vz,RTL_ALT
21:39:18.061,STABILIZE,-35.3632622,149.1652375,0,-0.00032772583654150367,0.00141820905264467,0.025817258283495903,0.00013594853226095438,0.0003489918017294258,0.0020150169730186462,0,1,-1000,0,0,0,-2,1,0,1500.0
21:39:18.262,STABILIZE,-35.3632622,149.1652375,0,-0.00032772583654150367,0.00141820905264467,0.025817258283495903,0.00013594853226095438,0.0003489918017294258,0.0020150169730186462,0,1,-1000,0,0,0,-2,1,0,1500.0
21:39:18.463,STABILIZE,-35.3632622,149.1652375,0,-0.00032772583654150367,0.00141820905264467,0.025817258283495903,0.00013594853226095438,0.0003489918017294258,0.0020150169730186462,0,1,-1000,0,0,0,-2,1,0,1500.0
21:39:18.666,STABILIZE,-35.3632622,149.1652375,0,-0.00032772583654150367,0.00141820905264467,0.025817258283495903,0.00013594853226095438,0.0003489918017294258,0.0020150169730186462,0,1,-1000,0,0,0,-2,1,0,1500.0
21:39:18.869,STABILIZE,-35.3632622,149.1652375,0,-0.00032772583654150367,0.00141820905264467,0.025817258283495903,0.00013594853226095438,0.0003489918017294258,0.0020150169730186462,0,1,-1000,0,0,0,-2,1,0,1500.0
21:39:19.071,STABILIZE,-35.3632622,149.1652375,0,-0.00032772583654150367,0.00141820905264467,0.025817258283495903,0.00013594853226095438,0.0003489918017294258,0.0020150169730186462,0,1,-1000,0,0,0,-2,1,0,1500.0
21:39:19.273,STABILIZE,-35.3632622,149.1652375,0,-0.00032772583654150367,0.00141820905264467,0.025817258283495903,0.00013594853226095438,0.0003489918017294258,0.0020150169730186462,0,1,-1000,0,0,0,-2,1,0,1500.0
21:39:19.475,STABILIZE,-35.3632622,149.1652375,0,-0.0006856395048089325,0.0011744671501219273,0.025153925642371178,0.00021092797396704555,0.00020677022985182703,0.0019030371913686395,0,2,-1000,0,0,0,-1,1,0,1500.0
21:39:19.676,STABILIZE,-35.3632622,149.1652375,0,-0.0006856395048089325,0.0011744671501219273,0.025153925642371178,0.00021092797396704555,0.00020677022985182703,0.0019030371913686395,0,2,-1000,0,0,0,-1,1,0,1500.0
21:39:19.881,STABILIZE,-35.3632622,149.1652375,0,-0.0006856395048089325,0.0011744671501219273,0.025153925642371178,0.00021092797396704555,0.00020677022985182703,0.0019030371913686395,0,2,-1000,0,0,0,-1,1,0,1500.0
21:39:20.083,STABILIZE,-35.3632622,149.1652375,0,-0.0006856395048089325,0.0011744671501219273,0.025153925642371178,0.00021092797396704555,0.00020677022985182703,0.0019030371913686395,0,2,-1000,0,0,0,-1,1,0,1500.0
21:39:20.284,STABILIZE,-35.3632622,149.1652375,0,-0.0006856395048089325,0.0011744671501219273,0.025153925642371178,0.00021092797396704555,0.00020677022985182703,0.0019030371913686395,0,2,-1000,0,0,0,-1,1,0,1500.0
21:39:20.488,STABILIZE,-35.3632622,149.1652375,0,-0.0006856395048089325,0.0011744671501219273,0.025153925642371178,0.00021092797396704555,0.00020677022985182703,0.0019030371913686395,0,2,-1000,0,0,0,-1,1,0,1500.0
21:39:20.690,STABILIZE,-35.3632622,149.1652375,0,-0.0006856395048089325,0.0011744671501219273,0.025153925642371178,0.00021092797396704555,0.00020677022985182703,0.0019030371913686395,0,2,-1000,0,0,0,-1,1,0,1500.0
21:39:20.894,STABILIZE,-35.3632622,149.1652375,0,-0.0006856395048089325,0.0011744671501219273,0.025153925642371178,0.00021092797396704555,0.00020677022985182703,0.0019030371913686395,0,2,-1000,0,0,0,-1,1,0,1500.0
21:39:21.096,STABILIZE,-35.3632622,149.1652375,0,-0.0006856395048089325,0.0011744671501219273,0.025153925642371178,0.00021092797396704555,0.00020677022985182703,0.0019030371913686395,0,2,-1000,0,0,0,-1,1,0,1500.0
21:39:21.297,STABILIZE,-35.3632621,149.1652375,0,-0.001009586500003934,0.0009646965772844851,0.02423696406185627,9.61155747063458e-05,0.00029360532062128186,0.001869012019596994,0,1,-1000,0,1,0,-1,1,1,1500.0
21:39:21.498,STABILIZE,-35.3632621,149.1652375,0,-0.001048955600708723,0.000959341530688107,0.02414035238325596,0.0001864395453594625,0.0002643693587742746,0.0019566684495657682,0,1,-1000,1,0,0,-1,1,1,1500.0
21:39:21.703,STABILIZE,-35.3632621,149.1652375,0,-0.001048955600708723,0.000959341530688107,0.02414035238325596,0.0001864395453594625,0.0002643693587742746,0.0019566684495657682,0,1,-1000,1,0,0,-1,1,1,1500.0
21:39:21.904,STABILIZE,-35.3632621,149.1652375,0,-0.001048955600708723,0.000959341530688107,0.02414035238325596,0.0001864395453594625,0.0002643693587742746,0.0019566684495657682,0,1,-1000,1,0,0,-1,1,1,1500.0
21:39:22.107,STABILIZE,-35.3632621,149.1652375,0,-0.001048955600708723,0.000959341530688107,0.02414035238325596,0.0001864395453594625,0.0002643693587742746,0.0019566684495657682,0,1,-1000,1,0,0,-1,1,1,1500.0
21:39:22.317,STABILIZE,-35.3632621,149.1652375,0,-0.001048955600708723,0.000959341530688107,0.02414035238325596,0.0001864395453594625,0.0002643693587742746,0.0019566684495657682,0,1,-1000,1,0,0,-1,1,1,1500.0
21:39:22.519,STABILIZE,-35.3632621,149.1652375,0,-0.001048955600708723,0.000959341530688107,0.02414035238325596,0.0001864395453594625,0.0002643693587742746,0.0019566684495657682,0,1,-1000,1,0,0,-1,1,1,1500.0
21:39:22.726,STABILIZE,-35.3632621,149.1652375,0,-0.001048955600708723,0.000959341530688107,0.02414035238325596,0.0001864395453594625,0.0002643693587742746,0.0019566684495657682,0,1,-1000,1,0,0,-1,1,1,1500.0
21:39:22.927,STABILIZE,-35.3632621,149.1652375,0,-0.001048955600708723,0.000959341530688107,0.02414035238325596,0.0001864395453594625,0.0002643693587742746,0.0019566684495657682,0,1,-1000,1,0,0,-1,1,1,1500.0
21:39:23.129,STABILIZE,-35.3632621,149.1652375,0,-0.001048955600708723,0.000959341530688107,0.02414035238325596,0.0001864395453594625,0.0002643693587742746,0.0019566684495657682,0,1,-1000,1,0,0,-1,1,1,1500.0
21:39:23.331,STABILIZE,-35.3632621,149.1652375,0,-0.0012205152306705713,0.0009550984250381589,0.023667216300964355,0.00020059867529198527,0.000241788977291435,0.0017617549747228622,0,1,-1000,0,0,0,-1,1,0,1500.0
21:39:23.532,STABILIZE,-35.3632621,149.1652375,0,-0.0012285427656024694,0.0009658344206400216,0.023520778864622116,0.00022240809630602598,0.000182479212526232,0.0018600011244416237,0,2,-1000,0,0,0,-1,0,0,1500.0
21:39:23.734,STABILIZE,-35.3632621,149.1652375,0,-0.0012285427656024694,0.0009658344206400216,0.023520778864622116,0.00022240809630602598,0.000182479212526232,0.0018600011244416237,0,2,-1000,0,0,0,-1,0,0,1500.0
21:39:23.936,STABILIZE,-35.3632621,149.1652375,0,-0.0012285427656024694,0.0009658344206400216,0.023520778864622116,0.00022240809630602598,0.000182479212526232,0.0018600011244416237,0,2,-1000,0,0,0,-1,0,0,1500.0
21:39:24.138,STABILIZE,-35.3632621,149.1652375,0,-0.0012285427656024694,0.0009658344206400216,0.023520778864622116,0.00022240809630602598,0.000182479212526232,0.0018600011244416237,0,2,-1000,0,0,0,-1,0,0,1500.0
21:39:24.342,STABILIZE,-35.3632621,149.1652375,0,-0.0012285427656024694,0.0009658344206400216,0.023520778864622116,0.00022240809630602598,0.000182479212526232,0.0018600011244416237,0,2,-1000,0,0,0,-1,0,0,1500.0
21:39:24.542,STABILIZE,-35.3632621,149.1652375,0,-0.0012285427656024694,0.0009658344206400216,0.023520778864622116,0.00022240809630602598,0.000182479212526232,0.0018600011244416237,0,2,-1000,0,0,0,-1,0,0,1500.0
21:39:24.744,STABILIZE,-35.3632621,149.1652375,0,-0.0012285427656024694,0.0009658344206400216,0.023520778864622116,0.00022240809630602598,0.000182479212526232,0.0018600011244416237,0,2,-1000,0,0,0,-1,0,0,1500.0
21:39:24.947,STABILIZE,-35.3632621,149.1652375,0,-0.0012285427656024694,0.0009658344206400216,0.023520778864622116,0.00022240809630602598,0.000182479212526232,0.0018600011244416237,0,2,-1000,0,0,0,-1,0,0,1500.0
21:39:25.149,STABILIZE,-35.3632621,149.1652375,0,-0.0012285427656024694,0.0009658344206400216,0.023520778864622116,0.00022240809630602598,0.000182479212526232,0.0018600011244416237,0,2,-1000,0,0,0,-1,0,0,1500.0
21:39:25.351,STABILIZE,-35.3632622,149.1652375,0,-0.0011301902122795582,0.0009837994584813714,0.02323710359632969,0.00028628617292270064,0.00030850141774863005,0.0017660509329289198,0,1,-1000,0,0,1,-1,0,0,1500.0
21:39:25.552,STABILIZE,-35.3632622,149.1652375,0,-0.0010139497462660074,0.0009989716345444322,0.02298615872859955,0.00021507736528292298,0.0003259646473452449,0.0017042674589902163,0,1,-1000,1,1,0,-1,0,0,1500.0
21:39:25.753,STABILIZE,-35.3632622,149.1652375,0,-0.0010139497462660074,0.0009989716345444322,0.02298615872859955,0.00021507736528292298,0.0003259646473452449,0.0017042674589902163,0,1,-1000,1,1,0,-1,0,0,1500.0
21:39:25.955,STABILIZE,-35.3632622,149.1652375,0,-0.0010139497462660074,0.0009989716345444322,0.02298615872859955,0.00021507736528292298,0.0003259646473452449,0.0017042674589902163,0,1,-1000,1,1,0,-1,0,0,1500.0
21:39:26.159,STABILIZE,-35.3632622,149.1652375,0,-0.0010139497462660074,0.0009989716345444322,0.02298615872859955,0.00021507736528292298,0.0003259646473452449,0.0017042674589902163,0,1,-1000,1,1,0,-1,0,0,1500.0
21:39:26.363,STABILIZE,-35.3632622,149.1652375,0,-0.0010139497462660074,0.0009989716345444322,0.02298615872859955,0.00021507736528292298,0.0003259646473452449,0.0017042674589902163,0,1,-1000,1,1,0,-1,0,0,1500.0
21:39:26.564,STABILIZE,-35.3632622,149.1652375,0,-0.0010139497462660074,0.0009989716345444322,0.02298615872859955,0.00021507736528292298,0.0003259646473452449,0.0017042674589902163,0,1,-1000,1,1,0,-1,0,0,1500.0
21:39:26.765,STABILIZE,-35.3632622,149.1652375,0,-0.0010139497462660074,0.0009989716345444322,0.02298615872859955,0.00021507736528292298,0.0003259646473452449,0.0017042674589902163,0,1,-1000,1,1,0,-1,0,0,1500.0
21:39:26.966,STABILIZE,-35.3632622,149.1652375,0,-0.0010139497462660074,0.0009989716345444322,0.02298615872859955,0.00021507736528292298,0.0003259646473452449,0.0017042674589902163,0,1,-1000,1,1,0,-1,0,0,1500.0
21:39:27.167,STABILIZE,-35.3632622,149.1652375,0,-0.0010139497462660074,0.0009989716345444322,0.02298615872859955,0.00021507736528292298,0.0003259646473452449,0.0017042674589902163,0,1,-1000,1,1,0,-1,0,0,1500.0
21:39:27.368,STABILIZE,-35.3632622,149.1652375,0,-0.0010139497462660074,0.0009989716345444322,0.02298615872859955,0.00021507736528292298,0.0003259646473452449,0.0017042674589902163,0,1,-1000,1,1,0,-1,0,0,1500.0
21:39:27.571,STABILIZE,-35.3632622,149.1652375,0,-0.000759728776756674,0.0010028228862211108,0.02248571254312992,0.00040267378790304065,0.0003715915372595191,0.0016717114485800266,0,1,-1000,0,0,1,-1,1,0,1500.0
21:39:27.774,STABILIZE,-35.3632622,149.1652375,0,-0.000761785137001425,0.00099879817571491,0.022333702072501183,0.00019520940259099007,0.00022085430100560188,0.0016208274755626917,0,2,-1000,0,0,1,-1,1,0,1500.0
21:39:27.975,STABILIZE,-35.3632622,149.1652375,0,-0.000761785137001425,0.00099879817571491,0.022333702072501183,0.00019520940259099007,0.00022085430100560188,0.0016208274755626917,0,2,-1000,0,0,1,-1,1,0,1500.0
21:39:28.177,STABILIZE,-35.3632622,149.1652375,0,-0.000761785137001425,0.00099879817571491,0.022333702072501183,0.00019520940259099007,0.00022085430100560188,0.0016208274755626917,0,2,-1000,0,0,1,-1,1,0,1500.0
21:39:28.378,STABILIZE,-35.3632622,149.1652375,0,-0.000761785137001425,0.00099879817571491,0.022333702072501183,0.00019520940259099007,0.00022085430100560188,0.0016208274755626917,0,2,-1000,0,0,1,-1,1,0,1500.0
21:39:28.580,STABILIZE,-35.3632622,149.1652375,0,-0.000761785137001425,0.00099879817571491,0.022333702072501183,0.00019520940259099007,0.00022085430100560188,0.0016208274755626917,0,2,-1000,0,0,1,-1,1,0,1500.0
21:39:28.781,STABILIZE,-35.3632622,149.1652375,0,-0.000761785137001425,0.00099879817571491,0.022333702072501183,0.00019520940259099007,0.00022085430100560188,0.0016208274755626917,0,2,-1000,0,0,1,-1,1,0,1500.0
21:39:28.993,STABILIZE,-35.3632622,149.1652375,0,-0.000761785137001425,0.00099879817571491,0.022333702072501183,0.00019520940259099007,0.00022085430100560188,0.0016208274755626917,0,2,-1000,0,0,1,-1,1,0,1500.0
21:39:29.195,STABILIZE,-35.3632622,149.1652375,0,-0.0007667499012313783,0.000992405228316784,0.022093357518315315,0.0002170288353227079,0.00023852696176618338,0.001561775803565979,0,1,-1000,1,0,0,-1,1,0,1500.0
21:39:29.396,STABILIZE,-35.3632622,149.1652375,0,-0.000788307748734951,0.000997062656097114,0.021950846537947655,0.00023642164887860417,0.0003480295417830348,0.0016060515772551298,0,2,-1000,1,0,0,-1,1,0,1500.0
21:39:29.597,STABILIZE,-35.3632622,149.1652375,0,-0.0008088438189588487,0.0009950239909812808,0.02182820625603199,0.0002829090808518231,0.00027908943593502045,0.001637165085412562,0,2,-1000,1,0,0,-1,1,0,1500.0
21:39:29.798,STABILIZE,-35.3632622,149.1652375,0,-0.0008088438189588487,0.0009950239909812808,0.02182820625603199,0.0002829090808518231,0.00027908943593502045,0.001637165085412562,0,2,-1000,1,0,0,-1,1,0,1500.0
21:39:30.002,STABILIZE,-35.3632622,149.1652375,0,-0.0008088438189588487,0.0009950239909812808,0.02182820625603199,0.0002829090808518231,0.00027908943593502045,0.001637165085412562,0,2,-1000,1,0,0,-1,1,0,1500.0
21:39:32.445,STABILIZE,-35.3632622,149.1652375,0,-0.0008088438189588487,0.0009950239909812808,0.02182820625603199,0.0002829090808518231,0.00027908943593502045,0.001637165085412562,0,2,-1000,1,0,0,-1,1,0,1500.0
21:39:32.648,STABILIZE,-35.3632622,149.1652375,0,-0.0008088438189588487,0.0009950239909812808,0.02182820625603199,0.0002829090808518231,0.00027908943593502045,0.001637165085412562,0,2,-1000,1,0,0,-1,1,0,1500.0
21:39:32.849,STABILIZE,-35.3632622,149.1652375,0,-0.0008088438189588487,0.0009950239909812808,0.02182820625603199,0.0002829090808518231,0.00027908943593502045,0.001637165085412562,0,2,-1000,1,0,0,-1,1,0,1500.0
21:39:33.051,STABILIZE,-35.3632622,149.1652375,0,-0.0008088438189588487,0.0009950239909812808,0.02182820625603199,0.0002829090808518231,0.00027908943593502045,0.001637165085412562,0,2,-1000,1,0,0,-1,1,0,1500.0
21:39:33.252,STABILIZE,-35.3632622,149.1652375,0,-0.0008088438189588487,0.0009950239909812808,0.02182820625603199,0.0002829090808518231,0.00027908943593502045,0.001637165085412562,0,2,-1000,1,0,0,-1,1,0,1500.0
21:39:33.455,STABILIZE,-35.3632622,149.1652375,0,-0.0008810940198600292,0.0009929169900715351,0.021556703373789787,0.0003485378692857921,0.0002985124010592699,0.0013860048493370414,0,1,-1000,0,0,0,-1,1,0,1500.0
21:39:33.657,AUTO,-35.3632622,149.1652375,0,-0.0008924243738874793,0.0009908397914841771,0.021452246233820915,0.00042818643851205707,0.0001661044079810381,0.0016151105519384146,0,2,-1000,1,0,1,-1,1,0,1500.0
21:39:33.862,AUTO,-35.3632622,149.1652375,0,-0.0008924243738874793,0.0009908397914841771,0.021452246233820915,0.00042818643851205707,0.0001661044079810381,0.0016151105519384146,0,2,-1000,1,0,1,-1,1,0,1500.0
21:39:34.064,AUTO,-35.3632622,149.1652375,0,-0.0008924243738874793,0.0009908397914841771,0.021452246233820915,0.00042818643851205707,0.0001661044079810381,0.0016151105519384146,0,2,-1000,1,0,1,-1,1,0,1500.0
21:39:34.267,AUTO,-35.3632622,149.1652375,0,-0.0008924243738874793,0.0009908397914841771,0.021452246233820915,0.00042818643851205707,0.0001661044079810381,0.0016151105519384146,0,2,-1000,1,0,1,-1,1,0,1500.0
21:39:34.469,AUTO,-35.3632622,149.1652375,0,-0.0008924243738874793,0.0009908397914841771,0.021452246233820915,0.00042818643851205707,0.0001661044079810381,0.0016151105519384146,0,2,-1000,1,0,1,-1,1,0,1500.0
21:39:34.674,AUTO,-35.3632622,149.1652375,0,-0.0008924243738874793,0.0009908397914841771,0.021452246233820915,0.00042818643851205707,0.0001661044079810381,0.0016151105519384146,0,2,-1000,1,0,1,-1,1,0,1500.0
21:39:34.877,AUTO,-35.3632622,149.1652375,0,-0.0008924243738874793,0.0009908397914841771,0.021452246233820915,0.00042818643851205707,0.0001661044079810381,0.0016151105519384146,0,2,-1000,1,0,1,-1,1,0,1500.0
21:39:35.078,AUTO,-35.3632622,149.1652375,0,-0.0008924243738874793,0.0009908397914841771,0.021452246233820915,0.00042818643851205707,0.0001661044079810381,0.0016151105519384146,0,2,-1000,1,0,1,-1,1,0,1500.0
21:39:35.282,AUTO,-35.3632622,149.1652375,0,-0.0008924243738874793,0.0009908397914841771,0.021452246233820915,0.00042818643851205707,0.0001661044079810381,0.0016151105519384146,0,2,-1000,1,0,1,-1,1,0,1500.0
21:39:35.496,AUTO,-35.3632622,149.1652375,0,-0.0008924243738874793,0.0009908397914841771,0.021452246233820915,0.00042818643851205707,0.0001661044079810381,0.0016151105519384146,0,2,-1000,1,0,1,-1,1,0,1500.0
21:39:35.700,AUTO,-35.3632621,149.1652375,2,-0.0009075909038074315,0.0010310892248526216,0.02122192271053791,0.00020781968487426639,0.00018307450227439404,0.0014656584244221449,0,2,-1000,0,0,0,0,0,0,1500.0
21:39:35.902,AUTO,-35.3632621,149.1652375,2,-0.0007320360164158046,0.0012472877278923988,0.020990638062357903,0.00040768057806417346,0.0002854513004422188,0.0013583184918388724,0,2,-1000,1,1,1,0,0,0,1500.0
21:39:36.104,AUTO,-35.3632621,149.1652375,2,-0.0007320360164158046,0.0012472877278923988,0.020990638062357903,0.00040768057806417346,0.0002854513004422188,0.0013583184918388724,0,2,-1000,1,1,1,0,0,0,1500.0
21:39:36.306,AUTO,-35.3632621,149.1652375,2,-0.0007320360164158046,0.0012472877278923988,0.020990638062357903,0.00040768057806417346,0.0002854513004422188,0.0013583184918388724,0,2,-1000,1,1,1,0,0,0,1500.0
21:39:36.508,AUTO,-35.3632621,149.1652375,2,-0.0007320360164158046,0.0012472877278923988,0.020990638062357903,0.00040768057806417346,0.0002854513004422188,0.0013583184918388724,0,2,-1000,1,1,1,0,0,0,1500.0
21:39:36.710,AUTO,-35.3632621,149.1652375,2,-0.0007320360164158046,0.0012472877278923988,0.020990638062357903,0.00040768057806417346,0.0002854513004422188,0.0013583184918388724,0,2,-1000,1,1,1,0,0,0,1500.0
21:39:36.911,AUTO,-35.3632621,149.1652375,2,-0.0007320360164158046,0.0012472877278923988,0.020990638062357903,0.00040768057806417346,0.0002854513004422188,0.0013583184918388724,0,2,-1000,1,1,1,0,0,0,1500.0
21:39:37.114,AUTO,-35.3632621,149.1652375,2,-0.0007320360164158046,0.0012472877278923988,0.020990638062357903,0.00040768057806417346,0.0002854513004422188,0.0013583184918388724,0,2,-1000,1,1,1,0,0,0,1500.0
21:39:37.317,AUTO,-35.3632621,149.1652375,2,-0.0007320360164158046,0.0012472877278923988,0.020990638062357903,0.00040768057806417346,0.0002854513004422188,0.0013583184918388724,0,2,-1000,1,1,1,0,0,0,1500.0
21:39:37.519,AUTO,-35.3632621,149.1652375,2,-0.0007320360164158046,0.0012472877278923988,0.020990638062357903,0.00040768057806417346,0.0002854513004422188,0.0013583184918388724,0,2,-1000,1,1,1,0,0,0,1500.0
21:39:37.722,AUTO,-35.3632621,149.1652374,8,-0.0004404463688842952,0.0015680271899327636,0.020701296627521515,0.00027082167798653245,0.00026228110073134303,0.00137365295086056,0,1,-1000,1,1,1,0,0,-1,1500.0
21:39:37.926,AUTO,-35.3632621,149.1652374,17,0.0016221419209614396,0.0002650233218446374,0.0205429308116436,0.006844252813607454,-0.011697079055011272,0.00033525319304317236,0,0,-1136,7,-10,0,0,0,-15,1500.0
21:39:38.127,AUTO,-35.3632621,149.1652374,17,0.0016221419209614396,0.0002650233218446374,0.0205429308116436,0.006844252813607454,-0.011697079055011272,0.00033525319304317236,0,0,-1136,7,-10,0,0,0,-15,1500.0
21:39:38.332,AUTO,-35.3632621,149.1652374,17,0.0016221419209614396,0.0002650233218446374,0.0205429308116436,0.006844252813607454,-0.011697079055011272,0.00033525319304317236,0,0,-1136,7,-10,0,0,0,-15,1500.0
21:39:38.535,AUTO,-35.3632621,149.1652374,17,0.0016221419209614396,0.0002650233218446374,0.0205429308116436,0.006844252813607454,-0.011697079055011272,0.00033525319304317236,0,0,-1136,7,-10,0,0,0,-15,1500.0
21:39:38.739,AUTO,-35.3632621,149.1652374,17,0.0016221419209614396,0.0002650233218446374,0.0205429308116436,0.006844252813607454,-0.011697079055011272,0.00033525319304317236,0,0,-1136,7,-10,0,0,0,-15,1500.0
21:39:38.943,AUTO,-35.3632621,149.1652374,17,0.0016221419209614396,0.0002650233218446374,0.0205429308116436,0.006844252813607454,-0.011697079055011272,0.00033525319304317236,0,0,-1136,7,-10,0,0,0,-15,1500.0
21:39:39.146,AUTO,-35.3632621,149.1652374,17,0.0016221419209614396,0.0002650233218446374,0.0205429308116436,0.006844252813607454,-0.011697079055011272,0.00033525319304317236,0,0,-1136,7,-10,0,0,0,-15,1500.0
21:39:39.349,AUTO,-35.3632621,149.1652374,17,0.0016221419209614396,0.0002650233218446374,0.0205429308116436,0.006844252813607454,-0.011697079055011272,0.00033525319304317236,0,0,-1136,7,-10,0,0,0,-15,1500.0
21:39:39.551,AUTO,-35.3632621,149.1652375,820,0.001727728871628642,0.0016681955894455314,0.020197603851556778,0.022750353440642357,-0.0007301002042368054,-5.184905603528023e-05,0,0,-1076,23,0,0,0,0,-130,1500.0
21:39:39.753,AUTO,-35.3632619,149.1652382,2299,0.04658525437116623,-0.0054007102735340595,0.020585037767887115,0.042675670236349106,-0.009539821185171604,0.0035405936650931835,0,-3,-1001,43,-8,3,3,22,-149,1500.0
21:39:39.955,AUTO,-35.3632619,149.1652382,2299,0.04658525437116623,-0.0054007102735340595,0.020585037767887115,0.042675670236349106,-0.009539821185171604,0.0035405936650931835,0,-3,-1001,43,-8,3,3,22,-149,1500.0
21:39:40.157,AUTO,-35.3632619,149.1652382,2299,0.04658525437116623,-0.0054007102735340595,0.020585037767887115,0.042675670236349106,-0.009539821185171604,0.0035405936650931835,0,-3,-1001,43,-8,3,3,22,-149,1500.0
21:39:40.359,AUTO,-35.3632619,149.1652382,2299,0.04658525437116623,-0.0054007102735340595,0.020585037767887115,0.042675670236349106,-0.009539821185171604,0.0035405936650931835,0,-3,-1001,43,-8,3,3,22,-149,1500.0
21:39:40.560,AUTO,-35.3632619,149.1652382,2299,0.04658525437116623,-0.0054007102735340595,0.020585037767887115,0.042675670236349106,-0.009539821185171604,0.0035405936650931835,0,-3,-1001,43,-8,3,3,22,-149,1500.0
21:39:40.762,AUTO,-35.3632619,149.1652382,2299,0.04658525437116623,-0.0054007102735340595,0.020585037767887115,0.042675670236349106,-0.009539821185171604,0.0035405936650931835,0,-3,-1001,43,-8,3,3,22,-149,1500.0
21:39:40.964,AUTO,-35.3632619,149.1652382,2299,0.04658525437116623,-0.0054007102735340595,0.020585037767887115,0.042675670236349106,-0.009539821185171604,0.0035405936650931835,0,-3,-1001,43,-8,3,3,22,-149,1500.0
21:39:41.167,AUTO,-35.3632612,149.1652422,3670,0.004636803641915321,0.023173226043581963,-0.04651684686541557,-0.1813569813966751,0.0135797169059515,-0.07634802907705307,2,-10,-990,-112,108,-104,7,55,-145,1500.0
21:39:41.372,AUTO,-35.363261,149.1652447,4427,-0.03231128677725792,0.014621897600591183,-0.07121385633945465,-0.021520113572478294,-0.017685601487755775,-0.043024953454732895,5,-8,-1007,-20,-17,-43,0,38,-149,1500.0
21:39:41.579,AUTO,-35.363261,149.1652447,4427,-0.03231128677725792,0.014621897600591183,-0.07121385633945465,-0.021520113572478294,-0.017685601487755775,-0.043024953454732895,5,-8,-1007,-20,-17,-43,0,38,-149,1500.0
21:39:41.785,AUTO,-35.363261,149.1652447,4427,-0.03231128677725792,0.014621897600591183,-0.07121385633945465,-0.021520113572478294,-0.017685601487755775,-0.043024953454732895,5,-8,-1007,-20,-17,-43,0,38,-149,1500.0
21:39:41.989,AUTO,-35.363261,149.1652447,4427,-0.03231128677725792,0.014621897600591183,-0.07121385633945465,-0.021520113572478294,-0.017685601487755775,-0.043024953454732895,5,-8,-1007,-20,-17,-43,0,38,-149,1500.0
21:39:42.191,AUTO,-35.363261,149.1652447,4427,-0.03231128677725792,0.014621897600591183,-0.07121385633945465,-0.021520113572478294,-0.017685601487755775,-0.043024953454732895,5,-8,-1007,-20,-17,-43,0,38,-149,1500.0
21:39:42.393,AUTO,-35.363261,149.1652447,4427,-0.03231128677725792,0.014621897600591183,-0.07121385633945465,-0.021520113572478294,-0.017685601487755775,-0.043024953454732895,5,-8,-1007,-20,-17,-43,0,38,-149,1500.0
21:39:42.601,AUTO,-35.363261,149.1652447,4427,-0.03231128677725792,0.014621897600591183,-0.07121385633945465,-0.021520113572478294,-0.017685601487755775,-0.043024953454732895,5,-8,-1007,-20,-17,-43,0,38,-149,1500.0
21:39:42.813,AUTO,-35.363261,149.165246,5973,-0.07206174731254578,-0.006151149515062571,-0.08638503402471542,0.029601680114865303,-0.002409833949059248,-0.014106609858572483,1,-1,-998,-75,-26,-5,-2,-18,-149,1500.0
21:39:43.018,AUTO,-35.3632611,149.1652427,7123,-0.030987467616796494,-0.004769655875861645,-0.09084978699684143,0.06236785277724266,0.008879202418029308,-0.0016016779700294137,-5,9,-1002,62,9,-1,-2,-55,-149,1500.0
21:39:43.273,AUTO,-35.3632611,149.1652427,7123,-0.030987467616796494,-0.004769655875861645,-0.09084978699684143,0.06236785277724266,0.008879202418029308,-0.0016016779700294137,-5,9,-1002,62,9,-1,-2,-55,-149,1500.0
21:39:43.475,AUTO,-35.3632611,149.1652427,7123,-0.030987467616796494,-0.004769655875861645,-0.09084978699684143,0.06236785277724266,0.008879202418029308,-0.0016016779700294137,-5,9,-1002,62,9,-1,-2,-55,-149,1500.0
21:39:43.691,AUTO,-35.3632611,149.1652427,7123,-0.030987467616796494,-0.004769655875861645,-0.09084978699684143,0.06236785277724266,0.008879202418029308,-0.0016016779700294137,-5,9,-1002,62,9,-1,-2,-55,-149,1500.0
21:39:43.898,AUTO,-35.3632611,149.1652427,7123,-0.030987467616796494,-0.004769655875861645,-0.09084978699684143,0.06236785277724266,0.008879202418029308,-0.0016016779700294137,-5,9,-1002,62,9,-1,-2,-55,-149,1500.0
21:39:44.102,AUTO,-35.3632611,149.1652427,7123,-0.030987467616796494,-0.004769655875861645,-0.09084978699684143,0.06236785277724266,0.008879202418029308,-0.0016016779700294137,-5,9,-1002,62,9,-1,-2,-55,-149,1500.0
21:39:44.305,AUTO,-35.3632619,149.165235,9378,0.06094454228878021,0.009165205992758274,-0.0899895429611206,0.05852353572845459,0.0010286996839568019,0.004499209113419056,-2,6,-1002,59,1,4,-9,-20,-153,1500.0
21:39:44.507,AUTO,-35.3632621,149.1652347,9770,0.06473982334136963,0.0017614503158256412,-0.08300027996301651,-0.03565279021859169,-0.048761989921331406,0.04059451073408127,-2,6,-1002,59,1,4,-9,-3,-152,1500.0
21:39:44.709,AUTO,-35.3632621,149.1652347,9770,0.06473982334136963,0.0017614503158256412,-0.08300027996301651,-0.03565279021859169,-0.048761989921331406,0.04059451073408127,0,3,-993,-35,-48,40,-9,-3,-152,1500.0
21:39:44.911,AUTO,-35.3632623,149.1652347,10158,0.044913023710250854,-0.0070263538509607315,-0.07700139284133911,-0.09933757036924362,-0.017993977293372154,0.017575858160853386,1,0,-993,-98,-17,17,-7,9,-149,1500.0
21:39:45.114,AUTO,-35.3632623,149.1652347,10158,0.044913023710250854,-0.0070263538509607315,-0.07700139284133911,-0.09933757036924362,-0.017993977293372154,0.017575858160853386,1,0,-993,-98,-17,17,-7,9,-149,1500.0
21:39:45.318,AUTO,-35.3632623,149.1652347,10158,0.044913023710250854,-0.0070263538509607315,-0.07700139284133911,-0.09933757036924362,-0.017993977293372154,0.017575858160853386,1,0,-993,-98,-17,17,-7,9,-149,1500.0
21:39:45.520,AUTO,-35.3632623,149.1652347,10158,0.044913023710250854,-0.0070263538509607315,-0.07700139284133911,-0.09933757036924362,-0.017993977293372154,0.017575858160853386,1,0,-993,-98,-17,17,-7,9,-149,1500.0
21:39:45.726,AUTO,-35.3632623,149.1652347,10158,0.044913023710250854,-0.0070263538509607315,-0.07700139284133911,-0.09933757036924362,-0.017993977293372154,0.017575858160853386,1,0,-993,-98,-17,17,-7,9,-149,1500.0
21:39:45.927,AUTO,-35.3632625,149.1652358,11154,-0.004190091509371996,-0.00569880148395896,-0.08419761806726456,-0.042976271361112595,0.008069115690886974,-0.02236773818731308,1,-3,-1003,-42,8,-22,1,17,-149,1500.0
21:39:46.129,AUTO,-35.3632624,149.1652364,11927,-0.014665007591247559,-0.0031322971917688847,-0.09903305023908615,-0.003991271834820509,0.005475323647260666,-0.027833664789795876,0,-2,-1002,-3,6,-28,4,8,-151,1500.0
21:39:46.332,AUTO,-35.3632623,149.1652365,12316,-0.013551841489970684,-0.001708334544673562,-0.10684928297996521,0.010947469621896744,0.00674846675246954,-0.02744467556476593,0,-1,-1002,11,7,-27,4,3,-151,1500.0
21:39:46.533,AUTO,-35.3632622,149.1652365,12706,-0.010578286834061146,-0.00037824679748155177,-0.11417142301797867,0.015389823354780674,0.005284492392092943,-0.02517889440059662,-1,-1,-1001,16,5,-25,5,0,-152,1500.0
21:39:46.735,AUTO,-35.3632621,149.1652365,13097,-0.006592488382011652,0.0007998535875231028,-0.12082839757204056,0.016731560230255127,0.005476108752191067,-0.02326810359954834,-1,0,-1000,17,6,-23,4,-3,-152,1500.0
21:39:46.937,AUTO,-35.3632621,149.1652365,13097,-0.006592488382011652,0.0007998535875231028,-0.12082839757204056,0.016731560230255127,0.005476108752191067,-0.02326810359954834,-1,0,-1000,17,6,-23,4,-3,-152,1500.0
21:39:47.139,AUTO,-35.3632621,149.1652365,13097,-0.006592488382011652,0.0007998535875231028,-0.12082839757204056,0.016731560230255127,0.005476108752191067,-0.02326810359954834,-1,0,-1000,17,6,-23,4,-3,-152,1500.0
21:39:47.343,AUTO,-35.3632621,149.1652365,13097,-0.006592488382011652,0.0007998535875231028,-0.12082839757204056,0.016731560230255127,0.005476108752191067,-0.02326810359954834,-1,0,-1000,17,6,-23,4,-3,-152,1500.0
21:39:47.545,AUTO,-35.3632621,149.1652365,13097,-0.006592488382011652,0.0007998535875231028,-0.12082839757204056,0.016731560230255127,0.005476108752191067,-0.02326810359954834,-1,0,-1000,17,6,-23,4,-3,-152,1500.0
21:39:47.748,AUTO,-35.3632621,149.1652365,13097,-0.006592488382011652,0.0007998535875231028,-0.12082839757204056,0.016731560230255127,0.005476108752191067,-0.02326810359954834,-1,0,-1000,17,6,-23,4,-3,-152,1500.0
21:39:47.949,AUTO,-35.3632621,149.1652365,13097,-0.006592488382011652,0.0007998535875231028,-0.12082839757204056,0.016731560230255127,0.005476108752191067,-0.02326810359954834,-1,0,-1000,17,6,-23,4,-3,-152,1500.0
21:39:48.151,AUTO,-35.3632621,149.1652365,13097,-0.006592488382011652,0.0007998535875231028,-0.12082839757204056,0.016731560230255127,0.005476108752191067,-0.02326810359954834,-1,0,-1000,17,6,-23,4,-3,-152,1500.0
21:39:48.359,AUTO,-35.3632621,149.1652365,13097,-0.006592488382011652,0.0007998535875231028,-0.12082839757204056,0.016731560230255127,0.005476108752191067,-0.02326810359954834,-1,0,-1000,17,6,-23,4,-3,-152,1500.0
21:39:48.562,AUTO,-35.3632616,149.1652354,15448,0.00939080212265253,0.006467591505497694,-0.1500171273946762,0.0030532253440469503,-0.0018915405962616205,-0.011244960129261017,-1,0,-999,3,0,-12,0,-1,-152,1500.0
21:39:48.763,AUTO,-35.3632616,149.1652353,16229,0.009160359390079975,0.005907961633056402,-0.1560681015253067,-0.003114221850410104,-0.0013954987516626716,-0.010924868285655975,0,0,-999,-2,0,-11,-2,2,-152,1500.0
21:39:48.966,AUTO,-35.3632616,149.1652353,16229,0.009160359390079975,0.005907961633056402,-0.1560681015253067,-0.003114221850410104,-0.0013954987516626716,-0.010924868285655975,0,0,-999,-2,0,-11,-2,2,-152,1500.0
21:39:49.175,AUTO,-35.3632616,149.1652353,16229,0.009160359390079975,0.005907961633056402,-0.1560681015253067,-0.003114221850410104,-0.0013954987516626716,-0.010924868285655975,0,0,-999,-2,0,-11,-2,2,-152,1500.0
21:39:49.378,AUTO,-35.3632616,149.1652353,16229,0.009160359390079975,0.005907961633056402,-0.1560681015253067,-0.003114221850410104,-0.0013954987516626716,-0.010924868285655975,0,0,-999,-2,0,-11,-2,2,-152,1500.0
21:39:49.580,AUTO,-35.3632616,149.1652353,16229,0.009160359390079975,0.005907961633056402,-0.1560681015253067,-0.003114221850410104,-0.0013954987516626716,-0.010924868285655975,0,0,-999,-2,0,-11,-2,2,-152,1500.0
21:39:49.781,AUTO,-35.3632616,149.1652353,16229,0.009160359390079975,0.005907961633056402,-0.1560681015253067,-0.003114221850410104,-0.0013954987516626716,-0.010924868285655975,0,0,-999,-2,0,-11,-2,2,-152,1500.0
21:39:49.984,AUTO,-35.3632616,149.1652353,16229,0.009160359390079975,0.005907961633056402,-0.1560681015253067,-0.003114221850410104,-0.0013954987516626716,-0.010924868285655975,0,0,-999,-2,0,-11,-2,2,-152,1500.0
21:39:50.188,AUTO,-35.3632616,149.1652353,16229,0.009160359390079975,0.005907961633056402,-0.1560681015253067,-0.003114221850410104,-0.0013954987516626716,-0.010924868285655975,0,0,-999,-2,0,-11,-2,2,-152,1500.0
21:39:50.390,AUTO,-35.3632616,149.1652353,16229,0.009160359390079975,0.005907961633056402,-0.1560681015253067,-0.003114221850410104,-0.0013954987516626716,-0.010924868285655975,0,0,-999,-2,0,-11,-2,2,-152,1500.0
21:39:50.593,AUTO,-35.3632617,149.1652358,18962,0.0028039375320076942,0.0036661620251834393,-0.1831962913274765,-0.0025286369491368532,5.088903708383441e-05,-0.019928358495235443,0,0,-1000,0,0,-20,-3,6,-152,1500.0
21:39:50.796,AUTO,-35.3632617,149.1652359,19353,0.002248541684821248,0.0036961340811103582,-0.18816186487674713,-0.0013883357169106603,0.0023321243934333324,-0.020633496344089508,0,0,-1000,0,3,-20,-3,6,-152,1500.0
21:39:50.997,AUTO,-35.3632617,149.1652359,19353,0.002248541684821248,0.0036961340811103582,-0.18816186487674713,-0.0013883357169106603,0.0023321243934333324,-0.020633496344089508,0,0,-1000,0,3,-20,-3,6,-152,1500.0
21:39:51.199,AUTO,-35.3632617,149.1652359,19353,0.002248541684821248,0.0036961340811103582,-0.18816186487674713,-0.0013883357169106603,0.0023321243934333324,-0.020633496344089508,0,0,-1000,0,3,-20,-3,6,-152,1500.0
21:39:51.402,AUTO,-35.3632617,149.1652359,19353,0.002248541684821248,0.0036961340811103582,-0.18816186487674713,-0.0013883357169106603,0.0023321243934333324,-0.020633496344089508,0,0,-1000,0,3,-20,-3,6,-152,1500.0
21:39:51.605,AUTO,-35.3632617,149.1652359,19353,0.002248541684821248,0.0036961340811103582,-0.18816186487674713,-0.0013883357169106603,0.0023321243934333324,-0.020633496344089508,0,0,-1000,0,3,-20,-3,6,-152,1500.0
21:39:51.808,AUTO,-35.3632617,149.1652359,19353,0.002248541684821248,0.0036961340811103582,-0.18816186487674713,-0.0013883357169106603,0.0023321243934333324,-0.020633496344089508,0,0,-1000,0,3,-20,-3,6,-152,1500.0
21:39:52.013,AUTO,-35.3632617,149.1652359,19353,0.002248541684821248,0.0036961340811103582,-0.18816186487674713,-0.0013883357169106603,0.0023321243934333324,-0.020633496344089508,0,0,-1000,0,3,-20,-3,6,-152,1500.0
21:39:52.215,AUTO,-35.3632617,149.1652359,19353,0.002248541684821248,0.0036961340811103582,-0.18816186487674713,-0.0013883357169106603,0.0023321243934333324,-0.020633496344089508,0,0,-1000,0,3,-20,-3,6,-152,1500.0
21:39:52.421,AUTO,-35.3632617,149.1652359,19353,0.002248541684821248,0.0036961340811103582,-0.18816186487674713,-0.0013883357169106603,0.0023321243934333324,-0.020633496344089508,0,0,-1000,0,3,-20,-3,6,-152,1500.0
21:39:52.631,AUTO,-35.3632618,149.1652363,22090,0.0020427857525646687,0.00321010104380548,-0.22304530441761017,0.0014318909961730242,0.0008900952525436878,-0.021623190492391586,0,0,-1000,2,1,-21,-2,4,-153,1500.0
21:39:52.835,AUTO,-35.3632618,149.1652364,22481,0.0020078192465007305,0.0032565135043114424,-0.22808343172073364,0.003733441699296236,0.0010973196476697922,-0.021545393392443657,0,0,-1001,4,1,-21,-2,3,-153,1500.0
21:39:53.039,AUTO,-35.3632618,149.1652364,22481,0.0020078192465007305,0.0032565135043114424,-0.22808343172073364,0.003733441699296236,0.0010973196476697922,-0.021545393392443657,0,0,-1001,4,1,-21,-2,3,-153,1500.0
21:39:53.243,AUTO,-35.3632618,149.1652364,22481,0.0020078192465007305,0.0032565135043114424,-0.22808343172073364,0.003733441699296236,0.0010973196476697922,-0.021545393392443657,0,0,-1001,4,1,-21,-2,3,-153,1500.0
21:39:53.445,AUTO,-35.3632618,149.1652364,22481,0.0020078192465007305,0.0032565135043114424,-0.22808343172073364,0.003733441699296236,0.0010973196476697922,-0.021545393392443657,0,0,-1001,4,1,-21,-2,3,-153,1500.0
21:39:53.648,AUTO,-35.3632618,149.1652364,22481,0.0020078192465007305,0.0032565135043114424,-0.22808343172073364,0.003733441699296236,0.0010973196476697922,-0.021545393392443657,0,0,-1001,4,1,-21,-2,3,-153,1500.0
21:39:53.851,AUTO,-35.3632618,149.1652364,22481,0.0020078192465007305,0.0032565135043114424,-0.22808343172073364,0.003733441699296236,0.0010973196476697922,-0.021545393392443657,0,0,-1001,4,1,-21,-2,3,-153,1500.0
21:39:54.055,AUTO,-35.3632618,149.1652364,22481,0.0020078192465007305,0.0032565135043114424,-0.22808343172073364,0.003733441699296236,0.0010973196476697922,-0.021545393392443657,0,0,-1001,4,1,-21,-2,3,-153,1500.0
21:39:54.258,AUTO,-35.3632618,149.1652364,22481,0.0020078192465007305,0.0032565135043114424,-0.22808343172073364,0.003733441699296236,0.0010973196476697922,-0.021545393392443657,0,0,-1001,4,1,-21,-2,3,-153,1500.0
21:39:54.460,AUTO,-35.3632618,149.1652364,22481,0.0020078192465007305,0.0032565135043114424,-0.22808343172073364,0.003733441699296236,0.0010973196476697922,-0.021545393392443657,0,0,-1001,4,1,-21,-2,3,-153,1500.0
21:39:54.663,AUTO,-35.3632619,149.1652366,24832,0.0018581536132842302,0.002428108360618353,-0.2569357454776764,0.0019396976567804813,-0.0020574810914695263,-0.018385952338576317,0,0,-1000,2,-1,-18,-2,3,-153,1500.0
21:39:54.865,AUTO,-35.363262,149.1652366,25610,-0.010469252243638039,0.005320263560861349,-0.256695955991745,0.018719807267189026,0.004200250841677189,0.014091185294091702,0,0,-1004,19,5,14,-3,0,-152,1500.0
21:39:55.068,AUTO,-35.363262,149.1652366,25610,-0.010469252243638039,0.005320263560861349,-0.256695955991745,0.018719807267189026,0.004200250841677189,0.014091185294091702,0,0,-1004,19,5,14,-3,0,-152,1500.0
21:39:55.275,AUTO,-35.363262,149.1652366,25610,-0.010469252243638039,0.005320263560861349,-0.256695955991745,0.018719807267189026,0.004200250841677189,0.014091185294091702,0,0,-1004,19,5,14,-3,0,-152,1500.0
21:39:55.476,AUTO,-35.363262,149.1652366,25610,-0.010469252243638039,0.005320263560861349,-0.256695955991745,0.018719807267189026,0.004200250841677189,0.014091185294091702,0,0,-1004,19,5,14,-3,0,-152,1500.0
21:39:55.677,AUTO,-35.363262,149.1652366,25610,-0.010469252243638039,0.005320263560861349,-0.256695955991745,0.018719807267189026,0.004200250841677189,0.014091185294091702,0,0,-1004,19,5,14,-3,0,-152,1500.0
21:39:55.880,AUTO,-35.363262,149.1652366,25610,-0.010469252243638039,0.005320263560861349,-0.256695955991745,0.018719807267189026,0.004200250841677189,0.014091185294091702,0,0,-1004,19,5,14,-3,0,-152,1500.0
21:39:56.081,AUTO,-35.363262,149.1652366,25610,-0.010469252243638039,0.005320263560861349,-0.256695955991745,0.018719807267189026,0.004200250841677189,0.014091185294091702,0,0,-1004,19,5,14,-3,0,-152,1500.0
21:39:56.284,AUTO,-35.363262,149.1652366,25610,-0.010469252243638039,0.005320263560861349,-0.256695955991745,0.018719807267189026,0.004200250841677189,0.014091185294091702,0,0,-1004,19,5,14,-3,0,-152,1500.0
21:39:56.486,AUTO,-35.3632623,149.1652365,27168,0.011197339743375778,0.0019035723526030779,-0.23203103244304657,0.002884720917791128,-0.002101881429553032,0.025636982172727585,0,0,-999,3,-1,25,-4,2,-153,1500.0
21:39:56.689,AUTO,-35.3632624,149.1652367,28337,0.006988626439124346,0.0011547228787094355,-0.21395020186901093,-0.008030767552554607,0.0011075269430875778,0.022986888885498047,0,0,-1000,-7,1,22,-2,7,-152,1500.0
21:39:56.891,AUTO,-35.3632624,149.1652369,28727,0.005046262871474028,0.0013727990444749594,-0.20876893401145935,-0.006629984825849533,0.002474731532856822,0.02185836248099804,0,0,-1000,-5,3,21,-1,8,-152,1500.0
21:39:57.095,AUTO,-35.3632624,149.1652369,28727,0.005046262871474028,0.0013727990444749594,-0.20876893401145935,-0.006629984825849533,0.002474731532856822,0.02185836248099804,0,0,-1000,-5,3,21,-1,8,-152,1500.0
21:39:57.297,AUTO,-35.3632624,149.1652369,28727,0.005046262871474028,0.0013727990444749594,-0.20876893401145935,-0.006629984825849533,0.002474731532856822,0.02185836248099804,0,0,-1000,-5,3,21,-1,8,-152,1500.0
21:39:57.501,AUTO,-35.3632624,149.1652369,28727,0.005046262871474028,0.0013727990444749594,-0.20876893401145935,-0.006629984825849533,0.002474731532856822,0.02185836248099804,0,0,-1000,-5,3,21,-1,8,-152,1500.0
21:39:57.704,AUTO,-35.3632624,149.1652369,28727,0.005046262871474028,0.0013727990444749594,-0.20876893401145935,-0.006629984825849533,0.002474731532856822,0.02185836248099804,0,0,-1000,-5,3,21,-1,8,-152,1500.0
21:39:57.906,AUTO,-35.3632624,149.1652369,28727,0.005046262871474028,0.0013727990444749594,-0.20876893401145935,-0.006629984825849533,0.002474731532856822,0.02185836248099804,0,0,-1000,-5,3,21,-1,8,-152,1500.0
21:39:58.116,AUTO,-35.3632624,149.1652369,28727,0.005046262871474028,0.0013727990444749594,-0.20876893401145935,-0.006629984825849533,0.002474731532856822,0.02185836248099804,0,0,-1000,-5,3,21,-1,8,-152,1500.0
21:39:58.320,AUTO,-35.3632624,149.1652369,28727,0.005046262871474028,0.0013727990444749594,-0.20876893401145935,-0.006629984825849533,0.002474731532856822,0.02185836248099804,0,0,-1000,-5,3,21,-1,8,-152,1500.0
21:39:58.528,AUTO,-35.3632624,149.1652377,30672,-0.000693121924996376,0.001902352087199688,-0.1847243309020996,-0.00512089766561985,0.00031936931191012263,0.016914304345846176,0,-1,-999,-4,1,16,0,6,-152,1500.0
21:39:58.730,AUTO,-35.3632624,149.1652378,31451,-0.0008657110156491399,0.0014805757673457265,-0.17610415816307068,0.0013366503408178687,0.0005491661722771823,0.018003936856985092,0,0,-999,2,1,18,0,4,-153,1500.0
21:39:58.932,AUTO,-35.3632623,149.1652379,31841,-0.0008003364782780409,0.0013583225663751364,-0.17215830087661743,-0.0014120449777692556,-0.00013676541857421398,0.017073318362236023,0,0,-999,0,0,17,0,3,-153,1500.0
21:39:59.134,AUTO,-35.3632623,149.1652379,31841,-0.0008003364782780409,0.0013583225663751364,-0.17215830087661743,-0.0014120449777692556,-0.00013676541857421398,0.017073318362236023,0,0,-999,0,0,17,0,3,-153,1500.0
21:39:59.337,AUTO,-35.3632623,149.1652379,31841,-0.0008003364782780409,0.0013583225663751364,-0.17215830087661743,-0.0014120449777692556,-0.00013676541857421398,0.017073318362236023,0,0,-999,0,0,17,0,3,-153,1500.0
21:39:59.541,AUTO,-35.3632623,149.1652379,31841,-0.0008003364782780409,0.0013583225663751364,-0.17215830087661743,-0.0014120449777692556,-0.00013676541857421398,0.017073318362236023,0,0,-999,0,0,17,0,3,-153,1500.0
21:39:59.743,AUTO,-35.3632623,149.1652379,31841,-0.0008003364782780409,0.0013583225663751364,-0.17215830087661743,-0.0014120449777692556,-0.00013676541857421398,0.017073318362236023,0,0,-999,0,0,17,0,3,-153,1500.0
21:39:59.949,AUTO,-35.3632623,149.1652379,31841,-0.0008003364782780409,0.0013583225663751364,-0.17215830087661743,-0.0014120449777692556,-0.00013676541857421398,0.017073318362236023,0,0,-999,0,0,17,0,3,-153,1500.0
21:40:00.151,AUTO,-35.3632623,149.1652379,31841,-0.0008003364782780409,0.0013583225663751364,-0.17215830087661743,-0.0014120449777692556,-0.00013676541857421398,0.017073318362236023,0,0,-999,0,0,17,0,3,-153,1500.0
21:40:00.354,AUTO,-35.3632623,149.1652379,31841,-0.0008003364782780409,0.0013583225663751364,-0.17215830087661743,-0.0014120449777692556,-0.00013676541857421398,0.017073318362236023,0,0,-999,0,0,17,0,3,-153,1500.0
21:40:00.555,AUTO,-35.3632623,149.1652379,33011,-0.00014052444021217525,0.0013954505557194352,-0.16076098382472992,-0.0031120702624320984,0.0014386511174961925,0.013784125447273254,0,0,-999,-2,2,13,0,1,-153,1500.0
21:40:00.759,AUTO,-35.3632622,149.1652379,34574,0.0007893117726780474,0.0012207489926367998,-0.14792396128177643,0.004153692163527012,0.0011074146023020148,0.012338097207248211,0,0,-1000,5,2,12,0,0,-153,1500.0
21:40:00.962,BRAKE,-35.3632622,149.1652379,34965,0.0016273800283670425,0.0011238447623327374,-0.14476248621940613,0.005157458130270243,0.000957471551373601,0.01290130615234375,0,0,-1000,6,1,12,0,0,-153,1500.0
21:40:01.166,BRAKE,-35.3632622,149.1652379,34965,0.0016273800283670425,0.0011238447623327374,-0.14476248621940613,0.005157458130270243,0.000957471551373601,0.01290130615234375,0,0,-1000,6,1,12,0,0,-153,1500.0
21:40:01.368,BRAKE,-35.3632622,149.1652379,34965,0.0016273800283670425,0.0011238447623327374,-0.14476248621940613,0.005157458130270243,0.000957471551373601,0.01290130615234375,0,0,-1000,6,1,12,0,0,-153,1500.0
21:40:01.571,BRAKE,-35.3632622,149.1652379,34965,0.0016273800283670425,0.0011238447623327374,-0.14476248621940613,0.005157458130270243,0.000957471551373601,0.01290130615234375,0,0,-1000,6,1,12,0,0,-153,1500.0
21:40:01.775,BRAKE,-35.3632622,149.1652379,34965,0.0016273800283670425,0.0011238447623327374,-0.14476248621940613,0.005157458130270243,0.000957471551373601,0.01290130615234375,0,0,-1000,6,1,12,0,0,-153,1500.0
21:40:01.979,BRAKE,-35.3632622,149.1652379,34965,0.0016273800283670425,0.0011238447623327374,-0.14476248621940613,0.005157458130270243,0.000957471551373601,0.01290130615234375,0,0,-1000,6,1,12,0,0,-153,1500.0
21:40:02.181,BRAKE,-35.3632622,149.1652379,34965,0.0016273800283670425,0.0011238447623327374,-0.14476248621940613,0.005157458130270243,0.000957471551373601,0.01290130615234375,0,0,-1000,6,1,12,0,0,-153,1500.0
21:40:02.386,BRAKE,-35.3632622,149.1652379,34965,0.0016273800283670425,0.0011238447623327374,-0.14476248621940613,0.005157458130270243,0.000957471551373601,0.01290130615234375,0,0,-1000,6,1,12,0,0,-153,1500.0
21:40:02.588,BRAKE,-35.3632622,149.1652377,36479,-0.05772589147090912,0.06855995208024979,0.034051667898893356,-0.18757961690425873,0.16720636188983917,0.6671828627586365,0,0,-943,-186,167,667,-11,-9,-132,1500.0
21:40:02.789,BRAKE,-35.3632646,149.1652342,37386,0.02189108356833458,-0.046218615025281906,0.23116818070411682,0.1920328289270401,-0.0523311048746109,-0.015734683722257614,2,13,-943,193,-51,-15,-22,-30,-51,1500.0
21:40:02.991,BRAKE,-35.3632646,149.1652342,37386,0.02189108356833458,-0.046218615025281906,0.23116818070411682,0.1920328289270401,-0.0523311048746109,-0.015734683722257614,2,13,-943,193,-51,-15,-22,-30,-51,1500.0
21:40:03.195,BRAKE,-35.3632646,149.1652342,37386,0.02189108356833458,-0.046218615025281906,0.23116818070411682,0.1920328289270401,-0.0523311048746109,-0.015734683722257614,2,13,-943,193,-51,-15,-22,-30,-51,1500.0
21:40:03.396,BRAKE,-35.3632646,149.1652342,37386,0.02189108356833458,-0.046218615025281906,0.23116818070411682,0.1920328289270401,-0.0523311048746109,-0.015734683722257614,2,13,-943,193,-51,-15,-22,-30,-51,1500.0
21:40:03.597,BRAKE,-35.3632646,149.1652342,37386,0.02189108356833458,-0.046218615025281906,0.23116818070411682,0.1920328289270401,-0.0523311048746109,-0.015734683722257614,2,13,-943,193,-51,-15,-22,-30,-51,1500.0
21:40:03.799,BRAKE,-35.3632646,149.1652342,37386,0.02189108356833458,-0.046218615025281906,0.23116818070411682,0.1920328289270401,-0.0523311048746109,-0.015734683722257614,2,13,-943,193,-51,-15,-22,-30,-51,1500.0
21:40:04.002,BRAKE,-35.3632646,149.1652342,37386,0.02189108356833458,-0.046218615025281906,0.23116818070411682,0.1920328289270401,-0.0523311048746109,-0.015734683722257614,2,13,-943,193,-51,-15,-22,-30,-51,1500.0
21:40:04.205,BRAKE,-35.3632646,149.1652342,37386,0.02189108356833458,-0.046218615025281906,0.23116818070411682,0.1920328289270401,-0.0523311048746109,-0.015734683722257614,2,13,-943,193,-51,-15,-22,-30,-51,1500.0
21:40:04.407,BRAKE,-35.3632646,149.1652342,37386,0.02189108356833458,-0.046218615025281906,0.23116818070411682,0.1920328289270401,-0.0523311048746109,-0.015734683722257614,2,13,-943,193,-51,-15,-22,-30,-51,1500.0
21:40:04.610,BRAKE,-35.3632646,149.1652342,37386,0.02189108356833458,-0.046218615025281906,0.23116818070411682,0.1920328289270401,-0.0523311048746109,-0.015734683722257614,2,13,-943,193,-51,-15,-22,-30,-51,1500.0
21:40:07.063,BRAKE,-35.3632641,149.1652342,37736,0.0254462119191885,-0.012689443305134773,0.18591848015785217,0.586463451385498,0.0421922393143177,-0.015371550805866718,0,28,-982,591,43,-15,20,25,-11,1500.0
21:40:07.269,ALT_HOLD,-35.3632627,149.1652368,37822,-0.00837112870067358,0.013483899645507336,0.17565147578716278,-0.5583676099777222,0.06385479122400284,-0.008821085095405579,0,-40,-988,-561,64,-8,20,26,-12,1500.0
21:40:07.472,ALT_HOLD,-35.3632627,149.1652368,37822,-0.00837112870067358,0.013483899645507336,0.17565147578716278,-0.5583676099777222,0.06385479122400284,-0.008821085095405579,0,-40,-988,-561,64,-8,20,26,-12,1500.0
21:40:07.674,ALT_HOLD,-35.3632627,149.1652368,37822,-0.00837112870067358,0.013483899645507336,0.17565147578716278,-0.5583676099777222,0.06385479122400284,-0.008821085095405579,0,-40,-988,-561,64,-8,20,26,-12,1500.0
21:40:07.876,ALT_HOLD,-35.3632627,149.1652368,37822,-0.00837112870067358,0.013483899645507336,0.17565147578716278,-0.5583676099777222,0.06385479122400284,-0.008821085095405579,0,-40,-988,-561,64,-8,20,26,-12,1500.0
21:40:08.078,ALT_HOLD,-35.3632627,149.1652368,37822,-0.00837112870067358,0.013483899645507336,0.17565147578716278,-0.5583676099777222,0.06385479122400284,-0.008821085095405579,0,-40,-988,-561,64,-8,20,26,-12,1500.0
21:40:08.284,ALT_HOLD,-35.3632627,149.1652368,37822,-0.00837112870067358,0.013483899645507336,0.17565147578716278,-0.5583676099777222,0.06385479122400284,-0.008821085095405579,0,-40,-988,-561,64,-8,20,26,-12,1500.0
21:40:08.486,ALT_HOLD,-35.3632627,149.1652368,37822,-0.00837112870067358,0.013483899645507336,0.17565147578716278,-0.5583676099777222,0.06385479122400284,-0.008821085095405579,0,-40,-988,-561,64,-8,20,26,-12,1500.0
21:40:08.693,ALT_HOLD,-35.3632627,149.1652368,37822,-0.00837112870067358,0.013483899645507336,0.17565147578716278,-0.5583676099777222,0.06385479122400284,-0.008821085095405579,0,-40,-988,-561,64,-8,20,26,-12,1500.0
21:40:08.896,ALT_HOLD,-35.3632627,149.1652368,37822,-0.00837112870067358,0.013483899645507336,0.17565147578716278,-0.5583676099777222,0.06385479122400284,-0.008821085095405579,0,-40,-988,-561,64,-8,20,26,-12,1500.0
21:40:09.098,ALT_HOLD,-35.3632619,149.1652393,37726,0.0028063112404197454,0.017856189981102943,0.1647009700536728,1.5429607629776,-0.014566680416464806,-0.01359714474529028,0,-40,-988,-561,64,-8,11,16,60,1500.0
21:40:09.300,ALT_HOLD,-35.3632616,149.1652423,36384,-0.004102431703358889,0.008533179759979248,0.14411427080631256,-1.8779098987579346,-0.0019682571291923523,-0.042344626039266586,1,-17,-914,-1225,3,-41,5,7,173,1500.0
21:40:09.502,AUTO,-35.3632616,149.1652434,35924,0.007684710435569286,0.0068336608819663525,0.13829749822616577,-1.2039964199066162,-0.013671637512743473,-0.019429830834269524,5,-107,-952,-1216,-13,-19,4,13,182,1500.0
21:40:09.708,AUTO,-35.3632616,149.1652434,35924,0.007684710435569286,0.0068336608819663525,0.13829749822616577,-1.2039964199066162,-0.013671637512743473,-0.019429830834269524,5,-107,-952,-1216,-13,-19,4,13,182,1500.0
21:40:09.910,AUTO,-35.3632616,149.1652434,35924,0.007684710435569286,0.0068336608819663525,0.13829749822616577,-1.2039964199066162,-0.013671637512743473,-0.019429830834269524,5,-107,-952,-1216,-13,-19,4,13,182,1500.0
21:40:10.112,AUTO,-35.3632616,149.1652434,35924,0.007684710435569286,0.0068336608819663525,0.13829749822616577,-1.2039964199066162,-0.013671637512743473,-0.019429830834269524,5,-107,-952,-1216,-13,-19,4,13,182,1500.0
21:40:10.316,AUTO,-35.3632616,149.1652434,35924,0.007684710435569286,0.0068336608819663525,0.13829749822616577,-1.2039964199066162,-0.013671637512743473,-0.019429830834269524,5,-107,-952,-1216,-13,-19,4,13,182,1500.0
21:40:10.521,AUTO,-35.3632616,149.1652434,35924,0.007684710435569286,0.0068336608819663525,0.13829749822616577,-1.2039964199066162,-0.013671637512743473,-0.019429830834269524,5,-107,-952,-1216,-13,-19,4,13,182,1500.0
21:40:10.724,AUTO,-35.3632616,149.1652434,35924,0.007684710435569286,0.0068336608819663525,0.13829749822616577,-1.2039964199066162,-0.013671637512743473,-0.019429830834269524,5,-107,-952,-1216,-13,-19,4,13,182,1500.0
21:40:10.929,AUTO,-35.3632616,149.1652434,35924,0.007684710435569286,0.0068336608819663525,0.13829749822616577,-1.2039964199066162,-0.013671637512743473,-0.019429830834269524,5,-107,-952,-1216,-13,-19,4,13,182,1500.0
21:40:11.134,AUTO,-35.3632616,149.1652434,35924,0.007684710435569286,0.0068336608819663525,0.13829749822616577,-1.2039964199066162,-0.013671637512743473,-0.019429830834269524,5,-107,-952,-1216,-13,-19,4,13,182,1500.0
21:40:11.341,AUTO,-35.3632616,149.1652434,35924,0.007684710435569286,0.0068336608819663525,0.13829749822616577,-1.2039964199066162,-0.013671637512743473,-0.019429830834269524,5,-107,-952,-1216,-13,-19,4,13,182,1500.0
21:40:11.543,AUTO,-35.3632619,149.1652471,34642,-0.023414425551891327,0.003499543061479926,0.12578856945037842,1.0103020668029785,-0.008948193863034248,-0.0023815466556698084,2,54,-1046,1500,-7,6,4,-2,54,1500.0
21:40:11.746,AUTO,-35.3632621,149.1652475,34343,-0.020165324211120605,-0.004404728300869465,0.11489248275756836,-0.5958718657493591,-0.00473042530938983,-0.0004192725464235991,0,-23,-1041,-132,-12,5,5,-20,0,1500.0
21:40:11.950,AUTO,-35.3632621,149.1652465,34443,0.006468988489359617,-0.0049630035646259785,0.10901819169521332,0.49368828535079956,-0.00366271217353642,-0.000764713273383677,-3,25,-1051,495,-3,0,7,-17,-34,1500.0
21:40:12.152,AUTO,-35.3632621,149.1652465,34443,0.006468988489359617,-0.0049630035646259785,0.10901819169521332,0.49368828535079956,-0.00366271217353642,-0.000764713273383677,-3,25,-1051,495,-3,0,7,-17,-34,1500.0
21:40:12.356,AUTO,-35.3632621,149.1652465,34443,0.006468988489359617,-0.0049630035646259785,0.10901819169521332,0.49368828535079956,-0.00366271217353642,-0.000764713273383677,-3,25,-1051,495,-3,0,7,-17,-34,1500.0
21:40:12.559,AUTO,-35.3632621,149.1652465,34443,0.006468988489359617,-0.0049630035646259785,0.10901819169521332,0.49368828535079956,-0.00366271217353642,-0.000764713273383677,-3,25,-1051,495,-3,0,7,-17,-34,1500.0
21:40:12.762,AUTO,-35.3632621,149.1652465,34443,0.006468988489359617,-0.0049630035646259785,0.10901819169521332,0.49368828535079956,-0.00366271217353642,-0.000764713273383677,-3,25,-1051,495,-3,0,7,-17,-34,1500.0
21:40:12.964,AUTO,-35.3632621,149.1652465,34443,0.006468988489359617,-0.0049630035646259785,0.10901819169521332,0.49368828535079956,-0.00366271217353642,-0.000764713273383677,-3,25,-1051,495,-3,0,7,-17,-34,1500.0
21:40:13.167,AUTO,-35.3632621,149.1652465,34443,0.006468988489359617,-0.0049630035646259785,0.10901819169521332,0.49368828535079956,-0.00366271217353642,-0.000764713273383677,-3,25,-1051,495,-3,0,7,-17,-34,1500.0
21:40:13.370,AUTO,-35.3632621,149.1652465,34443,0.006468988489359617,-0.0049630035646259785,0.10901819169521332,0.49368828535079956,-0.00366271217353642,-0.000764713273383677,-3,25,-1051,495,-3,0,7,-17,-34,1500.0
21:40:13.575,AUTO,-35.3632621,149.1652465,34443,0.006468988489359617,-0.0049630035646259785,0.10901819169521332,0.49368828535079956,-0.00366271217353642,-0.000764713273383677,-3,25,-1051,495,-3,0,7,-17,-34,1500.0
21:40:13.779,AUTO,-35.3632619,149.1652447,35067,0.014732922427356243,-0.0022868122905492783,0.1020113080739975,0.051629748195409775,0.0028106372337788343,-0.0025481495540589094,-2,15,-1050,257,6,-1,7,-6,-87,1500.0
21:40:13.984,AUTO,-35.3632617,149.1652437,35840,0.016530215740203857,-0.0005132819060236216,0.09707610309123993,0.05681998282670975,0.004257728811353445,-0.007623306941241026,-2,6,-1047,57,4,-7,6,2,-121,1500.0
21:40:14.189,AUTO,-35.3632616,149.1652435,36161,0.016131578013300896,0.00032375127193517983,0.09540369361639023,0.016205381602048874,0.0020073966588824987,-0.006826015189290047,-2,2,-1046,16,2,-6,5,4,-133,1500.0
21:40:14.392,AUTO,-35.3632616,149.1652435,36161,0.016131578013300896,0.00032375127193517983,0.09540369361639023,0.016205381602048874,0.0020073966588824987,-0.006826015189290047,-2,2,-1046,16,2,-6,5,4,-133,1500.0
21:40:14.605,AUTO,-35.3632616,149.1652435,36161,0.016131578013300896,0.00032375127193517983,0.09540369361639023,0.016205381602048874,0.0020073966588824987,-0.006826015189290047,-2,2,-1046,16,2,-6,5,4,-133,1500.0
21:40:14.820,AUTO,-35.3632616,149.1652435,36161,0.016131578013300896,0.00032375127193517983,0.09540369361639023,0.016205381602048874,0.0020073966588824987,-0.006826015189290047,-2,2,-1046,16,2,-6,5,4,-133,1500.0
21:40:15.026,AUTO,-35.3632616,149.1652435,36161,0.016131578013300896,0.00032375127193517983,0.09540369361639023,0.016205381602048874,0.0020073966588824987,-0.006826015189290047,-2,2,-1046,16,2,-6,5,4,-133,1500.0
21:40:15.229,AUTO,-35.3632616,149.1652435,36161,0.016131578013300896,0.00032375127193517983,0.09540369361639023,0.016205381602048874,0.0020073966588824987,-0.006826015189290047,-2,2,-1046,16,2,-6,5,4,-133,1500.0
21:40:15.431,AUTO,-35.3632616,149.1652435,36161,0.016131578013300896,0.00032375127193517983,0.09540369361639023,0.016205381602048874,0.0020073966588824987,-0.006826015189290047,-2,2,-1046,16,2,-6,5,4,-133,1500.0
21:40:15.633,AUTO,-35.3632616,149.1652435,36161,0.016131578013300896,0.00032375127193517983,0.09540369361639023,0.016205381602048874,0.0020073966588824987,-0.006826015189290047,-2,2,-1046,16,2,-6,5,4,-133,1500.0
21:40:15.835,AUTO,-35.3632616,149.1652435,36161,0.016131578013300896,0.00032375127193517983,0.09540369361639023,0.016205381602048874,0.0020073966588824987,-0.006826015189290047,-2,2,-1046,16,2,-6,5,4,-133,1500.0
21:40:16.041,AUTO,-35.3632616,149.1652435,36161,0.016131578013300896,0.00032375127193517983,0.09540369361639023,0.016205381602048874,0.0020073966588824987,-0.006826015189290047,-2,2,-1046,16,2,-6,5,4,-133,1500.0
21:40:16.243,AUTO,-35.3632616,149.1652435,36161,0.016131578013300896,0.00032375127193517983,0.09540369361639023,0.016205381602048874,0.0020073966588824987,-0.006826015189290047,-2,2,-1046,16,2,-6,5,4,-133,1500.0
21:40:16.450,AUTO,-35.3632616,149.1652435,36161,0.016131578013300896,0.00032375127193517983,0.09540369361639023,0.016205381602048874,0.0020073966588824987,-0.006826015189290047,-2,2,-1046,16,2,-6,5,4,-133,1500.0
21:40:16.661,AUTO,-35.3632616,149.1652435,36161,0.016131578013300896,0.00032375127193517983,0.09540369361639023,0.016205381602048874,0.0020073966588824987,-0.006826015189290047,-2,2,-1046,16,2,-6,5,4,-133,1500.0
21:40:16.868,AUTO,-35.3632612,149.1652447,38308,0.07351764291524887,-0.003960900474339724,0.09351678937673569,0.03771815076470375,-0.010633318684995174,0.002636934397742152,1,-6,-998,38,-9,3,4,52,-148,1500.0
21:40:17.070,AUTO,-35.3632609,149.1652491,39426,-0.02400091476738453,0.01829543523490429,0.04722483456134796,-0.17501965165138245,-0.02699473313987255,-0.05488946661353111,6,-13,-1007,-173,-26,-54,0,66,-144,1500.0
21:40:17.272,AUTO,-35.3632609,149.1652491,39426,-0.02400091476738453,0.01829543523490429,0.04722483456134796,-0.17501965165138245,-0.02699473313987255,-0.05488946661353111,6,-13,-1007,-173,-26,-54,0,66,-144,1500.0
21:40:17.474,AUTO,-35.3632609,149.1652491,39426,-0.02400091476738453,0.01829543523490429,0.04722483456134796,-0.17501965165138245,-0.02699473313987255,-0.05488946661353111,6,-13,-1007,-173,-26,-54,0,66,-144,1500.0
21:40:17.678,AUTO,-35.3632609,149.1652491,39426,-0.02400091476738453,0.01829543523490429,0.04722483456134796,-0.17501965165138245,-0.02699473313987255,-0.05488946661353111,6,-13,-1007,-173,-26,-54,0,66,-144,1500.0
21:40:17.886,AUTO,-35.3632609,149.1652491,39426,-0.02400091476738453,0.01829543523490429,0.04722483456134796,-0.17501965165138245,-0.02699473313987255,-0.05488946661353111,6,-13,-1007,-173,-26,-54,0,66,-144,1500.0
21:40:18.093,AUTO,-35.3632609,149.1652491,39426,-0.02400091476738453,0.01829543523490429,0.04722483456134796,-0.17501965165138245,-0.02699473313987255,-0.05488946661353111,6,-13,-1007,-173,-26,-54,0,66,-144,1500.0
21:40:18.297,AUTO,-35.3632609,149.1652491,39426,-0.02400091476738453,0.01829543523490429,0.04722483456134796,-0.17501965165138245,-0.02699473313987255,-0.05488946661353111,6,-13,-1007,-173,-26,-54,0,66,-144,1500.0
21:40:18.501,AUTO,-35.3632609,149.1652491,39426,-0.02400091476738453,0.01829543523490429,0.04722483456134796,-0.17501965165138245,-0.02699473313987255,-0.05488946661353111,6,-13,-1007,-173,-26,-54,0,66,-144,1500.0
21:40:18.703,AUTO,-35.3632609,149.1652491,39426,-0.02400091476738453,0.01829543523490429,0.04722483456134796,-0.17501965165138245,-0.02699473313987255,-0.05488946661353111,6,-13,-1007,-173,-26,-54,0,66,-144,1500.0
21:40:18.908,AUTO,-35.3632609,149.1652491,39426,-0.02400091476738453,0.01829543523490429,0.04722483456134796,-0.17501965165138245,-0.02699473313987255,-0.05488946661353111,6,-13,-1007,-173,-26,-54,0,66,-144,1500.0
21:40:19.112,AUTO,-35.3632606,149.1652498,41398,-0.049954891204833984,0.0049261897802352905,0.006408072076737881,0.05499047785997391,0.0032486324198544025,-0.013745183125138283,-3,4,-1000,55,3,-13,1,-30,-149,1500.0
21:40:19.316,AUTO,-35.3632605,149.1652439,42938,0.009953443892300129,0.014204153791069984,0.002533696824684739,0.06514916568994522,0.011325458064675331,-0.0004577839281409979,-6,11,-1003,66,12,0,-6,-47,-151,1500.0
21:40:19.518,AUTO,-35.363261,149.1652404,44111,0.05638561770319939,0.01868305169045925,0.005138793960213661,0.060088708996772766,3.422657027840614e-05,0.0032235935796052217,-1,7,-1002,60,0,3,-16,-19,-152,1500.0
21:40:19.721,AUTO,-35.3632613,149.1652399,44504,0.06973596662282944,0.017055625095963478,0.007165794260799885,0.033137623220682144,-0.020430777221918106,0.02709490992128849,1,4,-997,34,-19,27,-19,-2,-152,1500.0
