time_stamp,MODE,lat,lon,relative_alt,roll,pitch,yaw,rollspeed,pitchspeed,yawspeed,xacc,yacc,zacc,xgyro,ygyro,zgyro,vx,vy,vz,LAND_SPEED_HIGH,WPNAV_SPEED_DN,RTL_ALT
13:59:46.113,GUIDED,-35.3632621,149.1652374,0,-0.00010791430395329371,0.0012679004576057196,0.027571288868784904,-0.0001990662858588621,0.00017663766629993916,0.0023271150421351194,0,10,-986,0,0,0,0,0,1,220.0,90.0,1500.0
13:59:46.315,GUIDED,-35.3632621,149.1652374,0,-0.00010791430395329371,0.0012679004576057196,0.027571288868784904,-0.0001990662858588621,0.00017663766629993916,0.0023271150421351194,0,10,-986,0,0,0,0,0,1,220.0,90.0,1500.0
13:59:48.449,GUIDED,-35.3632621,149.1652374,0,-0.00010791430395329371,0.0012679004576057196,0.027571288868784904,-0.0001990662858588621,0.00017663766629993916,0.0023271150421351194,0,10,-986,0,0,0,0,0,1,220.0,90.0,1500.0
13:59:48.652,GUIDED,-35.3632621,149.1652374,0,-0.00010791430395329371,0.0012679004576057196,0.027571288868784904,-0.0001990662858588621,0.00017663766629993916,0.0023271150421351194,0,10,-986,0,0,0,0,0,1,220.0,90.0,1500.0
13:59:48.857,GUIDED,-35.3632621,149.1652374,0,-0.00010791430395329371,0.0012679004576057196,0.027571288868784904,-0.0001990662858588621,0.00017663766629993916,0.0023271150421351194,0,10,-986,0,0,0,0,0,1,220.0,90.0,1500.0
13:59:49.061,GUIDED,-35.3632621,149.1652374,0,-0.00010791430395329371,0.0012679004576057196,0.027571288868784904,-0.0001990662858588621,0.00017663766629993916,0.0023271150421351194,0,10,-986,0,0,0,0,0,1,220.0,90.0,1500.0
13:59:49.263,GUIDED,-35.3632621,149.1652374,0,-0.00010791430395329371,0.0012679004576057196,0.027571288868784904,-0.0001990662858588621,0.00017663766629993916,0.0023271150421351194,0,10,-986,0,0,0,0,0,1,220.0,90.0,1500.0
13:59:49.466,GUIDED,-35.3632621,149.1652374,0,-0.00010791430395329371,0.0012679004576057196,0.027571288868784904,-0.0001990662858588621,0.00017663766629993916,0.0023271150421351194,0,10,-986,0,0,0,0,0,1,220.0,90.0,1500.0
13:59:49.670,GUIDED,-35.3632621,149.1652374,0,-0.00010791430395329371,0.0012679004576057196,0.027571288868784904,-0.0001990662858588621,0.00017663766629993916,0.0023271150421351194,0,10,-986,0,0,0,0,0,1,220.0,90.0,1500.0
13:59:49.871,GUIDED,-35.3632621,149.1652374,0,-0.00010791430395329371,0.0012679004576057196,0.027571288868784904,-0.0001990662858588621,0.00017663766629993916,0.0023271150421351194,0,10,-986,0,0,0,0,0,1,220.0,90.0,1500.0
13:59:50.077,GUIDED,-35.3632621,149.1652374,0,-0.00010791430395329371,0.0012679004576057196,0.027571288868784904,-0.0001990662858588621,0.00017663766629993916,0.0023271150421351194,0,10,-986,0,0,0,0,0,1,220.0,90.0,1500.0
13:59:50.280,GUIDED,-35.3632621,149.1652374,0,4.765336052514613e-05,0.0015484393807128072,0.02655024081468582,0.00032267486676573753,0.0002459724200889468,0.0022133630700409412,0,1,-1000,0,0,0,-1,1,1,220.0,90.0,1500.0
13:59:50.483,GUIDED,-35.3632621,149.1652375,0,-1.8207001630798914e-05,0.0016145606059581041,0.025995682924985886,0.00014601388829760253,0.00031830579973757267,0.0021500070579349995,0,1,-1000,0,0,0,-1,2,0,220.0,90.0,1500.0
13:59:50.685,GUIDED,-35.3632621,149.1652375,0,-1.8207001630798914e-05,0.0016145606059581041,0.025995682924985886,0.00014601388829760253,0.00031830579973757267,0.0021500070579349995,0,1,-1000,0,0,0,-1,2,0,220.0,90.0,1500.0
13:59:50.890,GUIDED,-35.3632621,149.1652375,0,-1.8207001630798914e-05,0.0016145606059581041,0.025995682924985886,0.00014601388829760253,0.00031830579973757267,0.0021500070579349995,0,1,-1000,0,0,0,-1,2,0,220.0,90.0,1500.0
13:59:51.095,GUIDED,-35.3632621,149.1652375,0,-1.8207001630798914e-05,0.0016145606059581041,0.025995682924985886,0.00014601388829760253,0.00031830579973757267,0.0021500070579349995,0,1,-1000,0,0,0,-1,2,0,220.0,90.0,1500.0
13:59:51.297,GUIDED,-35.3632621,149.1652375,0,-1.8207001630798914e-05,0.0016145606059581041,0.025995682924985886,0.00014601388829760253,0.00031830579973757267,0.0021500070579349995,0,1,-1000,0,0,0,-1,2,0,220.0,90.0,1500.0
13:59:51.502,GUIDED,-35.3632621,149.1652375,0,-1.8207001630798914e-05,0.0016145606059581041,0.025995682924985886,0.00014601388829760253,0.00031830579973757267,0.0021500070579349995,0,1,-1000,0,0,0,-1,2,0,220.0,90.0,1500.0
13:59:51.704,GUIDED,-35.3632621,149.1652375,0,-1.8207001630798914e-05,0.0016145606059581041,0.025995682924985886,0.00014601388829760253,0.00031830579973757267,0.0021500070579349995,0,1,-1000,0,0,0,-1,2,0,220.0,90.0,1500.0
13:59:51.907,GUIDED,-35.3632621,149.1652375,0,-1.8207001630798914e-05,0.0016145606059581041,0.025995682924985886,0.00014601388829760253,0.00031830579973757267,0.0021500070579349995,0,1,-1000,0,0,0,-1,2,0,220.0,90.0,1500.0
13:59:52.110,GUIDED,-35.3632621,149.1652375,0,-1.8207001630798914e-05,0.0016145606059581041,0.025995682924985886,0.00014601388829760253,0.00031830579973757267,0.0021500070579349995,0,1,-1000,0,0,0,-1,2,0,220.0,90.0,1500.0
13:59:52.314,GUIDED,-35.3632621,149.1652375,0,-1.8207001630798914e-05,0.0016145606059581041,0.025995682924985886,0.00014601388829760253,0.00031830579973757267,0.0021500070579349995,0,1,-1000,0,0,0,-1,2,0,220.0,90.0,1500.0
13:59:52.517,GUIDED,-35.3632621,149.1652375,0,-1.8207001630798914e-05,0.0016145606059581041,0.025995682924985886,0.00014601388829760253,0.00031830579973757267,0.0021500070579349995,0,1,-1000,0,0,0,-1,2,0,220.0,90.0,1500.0
13:59:52.721,GUIDED,-35.3632621,149.1652375,0,-1.8207001630798914e-05,0.0016145606059581041,0.025995682924985886,0.00014601388829760253,0.00031830579973757267,0.0021500070579349995,0,1,-1000,0,0,0,-1,2,0,220.0,90.0,1500.0
13:59:52.926,GUIDED,-35.3632621,149.1652375,0,-0.00014804913371335715,0.0015789676690474153,0.025593789294362068,0.0002137743285857141,0.00020723487250506878,0.0022192145697772503,0,2,-1000,0,0,0,-2,2,0,220.0,90.0,1500.0
13:59:53.128,GUIDED,-35.3632622,149.1652375,0,-0.0002945637097582221,0.0013950191205367446,0.024998078122735023,0.00028894084971398115,0.00022146562696434557,0.001999374246224761,0,1,-1000,0,0,0,-2,1,-1,220.0,90.0,1500.0
13:59:53.329,GUIDED,-35.3632622,149.1652375,0,-0.00040279014501720667,0.0012340745888650417,0.02457379177212715,0.00034856999991461635,0.00020477685029618442,0.002018954139202833,0,2,-1000,0,0,0,-1,1,0,220.0,90.0,1500.0
13:59:53.535,GUIDED,-35.3632622,149.1652375,0,-0.00040279014501720667,0.0012340745888650417,0.02457379177212715,0.00034856999991461635,0.00020477685029618442,0.002018954139202833,0,2,-1000,0,0,0,-1,1,0,220.0,90.0,1500.0
13:59:53.738,GUIDED,-35.3632622,149.1652375,0,-0.00040279014501720667,0.0012340745888650417,0.02457379177212715,0.00034856999991461635,0.00020477685029618442,0.002018954139202833,0,2,-1000,0,0,0,-1,1,0,220.0,90.0,1500.0
13:59:53.940,GUIDED,-35.3632622,149.1652375,0,-0.00040279014501720667,0.0012340745888650417,0.02457379177212715,0.00034856999991461635,0.00020477685029618442,0.002018954139202833,0,2,-1000,0,0,0,-1,1,0,220.0,90.0,1500.0
13:59:54.144,GUIDED,-35.3632622,149.1652375,0,-0.00040279014501720667,0.0012340745888650417,0.02457379177212715,0.00034856999991461635,0.00020477685029618442,0.002018954139202833,0,2,-1000,0,0,0,-1,1,0,220.0,90.0,1500.0
13:59:54.346,GUIDED,-35.3632622,149.1652375,0,-0.00040279014501720667,0.0012340745888650417,0.02457379177212715,0.00034856999991461635,0.00020477685029618442,0.002018954139202833,0,2,-1000,0,0,0,-1,1,0,220.0,90.0,1500.0
13:59:54.548,GUIDED,-35.3632622,149.1652375,0,-0.00040279014501720667,0.0012340745888650417,0.02457379177212715,0.00034856999991461635,0.00020477685029618442,0.002018954139202833,0,2,-1000,0,0,0,-1,1,0,220.0,90.0,1500.0
13:59:54.752,GUIDED,-35.3632622,149.1652375,0,-0.00040279014501720667,0.0012340745888650417,0.02457379177212715,0.00034856999991461635,0.00020477685029618442,0.002018954139202833,0,2,-1000,0,0,0,-1,1,0,220.0,90.0,1500.0
13:59:54.955,GUIDED,-35.3632622,149.1652375,0,-0.00040279014501720667,0.0012340745888650417,0.02457379177212715,0.00034856999991461635,0.00020477685029618442,0.002018954139202833,0,2,-1000,0,0,0,-1,1,0,220.0,90.0,1500.0
13:59:55.157,GUIDED,-35.3632622,149.1652375,0,-0.00040279014501720667,0.0012340745888650417,0.02457379177212715,0.00034856999991461635,0.00020477685029618442,0.002018954139202833,0,2,-1000,0,0,0,-1,1,0,220.0,90.0,1500.0
13:59:55.363,GUIDED,-35.3632622,149.1652375,0,-0.00040279014501720667,0.0012340745888650417,0.02457379177212715,0.00034856999991461635,0.00020477685029618442,0.002018954139202833,0,2,-1000,0,0,0,-1,1,0,220.0,90.0,1500.0
13:59:55.565,GUIDED,-35.3632622,149.1652375,0,-0.00040279014501720667,0.0012340745888650417,0.02457379177212715,0.00034856999991461635,0.00020477685029618442,0.002018954139202833,0,2,-1000,0,0,0,-1,1,0,220.0,90.0,1500.0
13:59:55.768,GUIDED,-35.3632622,149.1652375,0,-0.0005086527089588344,0.0011144672753289342,0.024255802854895592,0.0002032123156823218,0.00029978755628690124,0.0019672501366585493,0,2,-1000,0,0,0,-1,1,0,220.0,90.0,1500.0
13:59:55.975,GUIDED,-35.3632622,149.1652375,0,-0.0006371067720465362,0.001037944108247757,0.023909984156489372,0.00027438439428806305,0.00027042898000217974,0.0018937019631266594,0,2,-1000,0,0,0,-1,1,0,220.0,90.0,1500.0
13:59:56.177,GUIDED,-35.3632621,149.1652375,1,-0.0006532931001856923,0.0010294433450326324,0.023785261437296867,0.00030696712201461196,0.0001672137586865574,0.0018102265894412994,0,1,-1000,0,0,0,-1,1,0,220.0,90.0,1500.0
13:59:56.380,GUIDED,-35.3632621,149.1652375,1,-0.0006532931001856923,0.0010294433450326324,0.023785261437296867,0.00030696712201461196,0.0001672137586865574,0.0018102265894412994,0,1,-1000,0,0,0,-1,1,0,220.0,90.0,1500.0
13:59:56.582,GUIDED,-35.3632621,149.1652375,1,-0.0006532931001856923,0.0010294433450326324,0.023785261437296867,0.00030696712201461196,0.0001672137586865574,0.0018102265894412994,0,1,-1000,0,0,0,-1,1,0,220.0,90.0,1500.0
13:59:56.786,GUIDED,-35.3632621,149.1652375,1,-0.0006532931001856923,0.0010294433450326324,0.023785261437296867,0.00030696712201461196,0.0001672137586865574,0.0018102265894412994,0,1,-1000,0,0,0,-1,1,0,220.0,90.0,1500.0
13:59:56.992,GUIDED,-35.3632621,149.1652375,1,-0.0006532931001856923,0.0010294433450326324,0.023785261437296867,0.00030696712201461196,0.0001672137586865574,0.0018102265894412994,0,1,-1000,0,0,0,-1,1,0,220.0,90.0,1500.0
13:59:57.195,GUIDED,-35.3632621,149.1652375,1,-0.0006532931001856923,0.0010294433450326324,0.023785261437296867,0.00030696712201461196,0.0001672137586865574,0.0018102265894412994,0,1,-1000,0,0,0,-1,1,0,220.0,90.0,1500.0
13:59:57.401,GUIDED,-35.3632621,149.1652375,1,-0.0006532931001856923,0.0010294433450326324,0.023785261437296867,0.00030696712201461196,0.0001672137586865574,0.0018102265894412994,0,1,-1000,0,0,0,-1,1,0,220.0,90.0,1500.0
13:59:57.608,GUIDED,-35.3632621,149.1652375,1,-0.0006532931001856923,0.0010294433450326324,0.023785261437296867,0.00030696712201461196,0.0001672137586865574,0.0018102265894412994,0,1,-1000,0,0,0,-1,1,0,220.0,90.0,1500.0
13:59:57.811,GUIDED,-35.3632621,149.1652375,1,-0.0006532931001856923,0.0010294433450326324,0.023785261437296867,0.00030696712201461196,0.0001672137586865574,0.0018102265894412994,0,1,-1000,0,0,0,-1,1,0,220.0,90.0,1500.0
13:59:58.014,GUIDED,-35.3632621,149.1652375,1,-0.0006532931001856923,0.0010294433450326324,0.023785261437296867,0.00030696712201461196,0.0001672137586865574,0.0018102265894412994,0,1,-1000,0,0,0,-1,1,0,220.0,90.0,1500.0
13:59:58.216,GUIDED,-35.3632621,149.1652375,1,-0.0006532931001856923,0.0010294433450326324,0.023785261437296867,0.00030696712201461196,0.0001672137586865574,0.0018102265894412994,0,1,-1000,0,0,0,-1,1,0,220.0,90.0,1500.0
13:59:58.418,GUIDED,-35.3632621,149.1652375,1,-0.0006532931001856923,0.0010294433450326324,0.023785261437296867,0.00030696712201461196,0.0001672137586865574,0.0018102265894412994,0,1,-1000,0,0,0,-1,1,0,220.0,90.0,1500.0
13:59:58.619,GUIDED,-35.3632621,149.1652374,21,-0.0004911823198199272,0.0012805419974029064,0.023185906931757927,0.00018618832109495997,0.00042726058745756745,0.0018073820974677801,0,1,-1000,1,0,1,0,-1,-4,220.0,90.0,1500.0
13:59:58.822,GUIDED,-35.3632621,149.1652374,22,-0.0004493211454246193,0.0013423723867163062,0.023103710263967514,0.00012873171363025904,0.0002591976954136044,0.0018140190513804555,0,1,-1000,0,0,0,0,-1,-4,220.0,90.0,1500.0
13:59:59.025,GUIDED,-35.3632621,149.1652374,22,-0.0004493211454246193,0.0013423723867163062,0.023103710263967514,0.00012873171363025904,0.0002591976954136044,0.0018140190513804555,0,1,-1000,0,0,0,0,-1,-4,220.0,90.0,1500.0
13:59:59.229,GUIDED,-35.3632621,149.1652374,22,-0.0004493211454246193,0.0013423723867163062,0.023103710263967514,0.00012873171363025904,0.0002591976954136044,0.0018140190513804555,0,1,-1000,0,0,0,0,-1,-4,220.0,90.0,1500.0
13:59:59.432,GUIDED,-35.3632621,149.1652374,22,-0.0004493211454246193,0.0013423723867163062,0.023103710263967514,0.00012873171363025904,0.0002591976954136044,0.0018140190513804555,0,1,-1000,0,0,0,0,-1,-4,220.0,90.0,1500.0
13:59:59.635,GUIDED,-35.3632621,149.1652374,22,-0.0004493211454246193,0.0013423723867163062,0.023103710263967514,0.00012873171363025904,0.0002591976954136044,0.0018140190513804555,0,1,-1000,0,0,0,0,-1,-4,220.0,90.0,1500.0
13:59:59.838,GUIDED,-35.3632621,149.1652374,22,-0.0004493211454246193,0.0013423723867163062,0.023103710263967514,0.00012873171363025904,0.0002591976954136044,0.0018140190513804555,0,1,-1000,0,0,0,0,-1,-4,220.0,90.0,1500.0
14:00:00.044,GUIDED,-35.3632621,149.1652374,22,-0.0004493211454246193,0.0013423723867163062,0.023103710263967514,0.00012873171363025904,0.0002591976954136044,0.0018140190513804555,0,1,-1000,0,0,0,0,-1,-4,220.0,90.0,1500.0
14:00:00.253,GUIDED,-35.3632621,149.1652374,22,-0.0004493211454246193,0.0013423723867163062,0.023103710263967514,0.00012873171363025904,0.0002591976954136044,0.0018140190513804555,0,1,-1000,0,0,0,0,-1,-4,220.0,90.0,1500.0
14:00:00.458,GUIDED,-35.3632621,149.1652374,22,-0.0004493211454246193,0.0013423723867163062,0.023103710263967514,0.00012873171363025904,0.0002591976954136044,0.0018140190513804555,0,1,-1000,0,0,0,0,-1,-4,220.0,90.0,1500.0
14:00:00.662,GUIDED,-35.3632621,149.1652374,22,-0.0004493211454246193,0.0013423723867163062,0.023103710263967514,0.00012873171363025904,0.0002591976954136044,0.0018140190513804555,0,1,-1000,0,0,0,0,-1,-4,220.0,90.0,1500.0
14:00:00.864,GUIDED,-35.3632621,149.1652374,22,-0.0004493211454246193,0.0013423723867163062,0.023103710263967514,0.00012873171363025904,0.0002591976954136044,0.0018140190513804555,0,1,-1000,0,0,0,0,-1,-4,220.0,90.0,1500.0
14:00:01.066,GUIDED,-35.3632621,149.1652374,25,-0.00031455291900783777,0.0014940385008230805,0.022868070751428604,0.00034221820533275604,0.0002537350810598582,0.0017836258048191667,0,1,-1000,0,0,0,0,0,-3,220.0,90.0,1500.0
14:00:01.268,GUIDED,-35.3632621,149.1652375,37,-0.00019771397637668997,8.51277363835834e-05,0.022352132946252823,0.004746514838188887,-0.008743098005652428,0.002239873167127371,0,0,-1142,5,-8,1,0,0,-20,220.0,90.0,1500.0
14:00:01.471,GUIDED,-35.3632621,149.1652374,545,0.0010051628341898322,0.0013014771975576878,0.02236001193523407,0.005088965408504009,0.0026051094755530357,0.0023019439540803432,0,0,-1102,5,2,1,0,0,-113,220.0,90.0,1500.0
14:00:01.676,GUIDED,-35.3632621,149.1652374,545,0.0010051628341898322,0.0013014771975576878,0.02236001193523407,0.005088965408504009,0.0026051094755530357,0.0023019439540803432,0,0,-1102,5,2,1,0,0,-113,220.0,90.0,1500.0
14:00:01.882,GUIDED,-35.3632621,149.1652374,545,0.0010051628341898322,0.0013014771975576878,0.02236001193523407,0.005088965408504009,0.0026051094755530357,0.0023019439540803432,0,0,-1102,5,2,1,0,0,-113,220.0,90.0,1500.0
14:00:02.086,GUIDED,-35.3632621,149.1652374,545,0.0010051628341898322,0.0013014771975576878,0.02236001193523407,0.005088965408504009,0.0026051094755530357,0.0023019439540803432,0,0,-1102,5,2,1,0,0,-113,220.0,90.0,1500.0
14:00:02.288,GUIDED,-35.3632621,149.1652374,545,0.0010051628341898322,0.0013014771975576878,0.02236001193523407,0.005088965408504009,0.0026051094755530357,0.0023019439540803432,0,0,-1102,5,2,1,0,0,-113,220.0,90.0,1500.0
14:00:02.490,GUIDED,-35.3632621,149.1652374,545,0.0010051628341898322,0.0013014771975576878,0.02236001193523407,0.005088965408504009,0.0026051094755530357,0.0023019439540803432,0,0,-1102,5,2,1,0,0,-113,220.0,90.0,1500.0
14:00:02.693,GUIDED,-35.3632621,149.1652374,545,0.0010051628341898322,0.0013014771975576878,0.02236001193523407,0.005088965408504009,0.0026051094755530357,0.0023019439540803432,0,0,-1102,5,2,1,0,0,-113,220.0,90.0,1500.0
14:00:02.896,GUIDED,-35.3632621,149.1652374,545,0.0010051628341898322,0.0013014771975576878,0.02236001193523407,0.005088965408504009,0.0026051094755530357,0.0023019439540803432,0,0,-1102,5,2,1,0,0,-113,220.0,90.0,1500.0
14:00:03.098,GUIDED,-35.3632621,149.1652374,545,0.0010051628341898322,0.0013014771975576878,0.02236001193523407,0.005088965408504009,0.0026051094755530357,0.0023019439540803432,0,0,-1102,5,2,1,0,0,-113,220.0,90.0,1500.0
14:00:03.300,GUIDED,-35.3632621,149.1652374,545,0.0010051628341898322,0.0013014771975576878,0.02236001193523407,0.005088965408504009,0.0026051094755530357,0.0023019439540803432,0,0,-1102,5,2,1,0,0,-113,220.0,90.0,1500.0
14:00:03.502,GUIDED,-35.3632621,149.1652374,545,0.0010051628341898322,0.0013014771975576878,0.02236001193523407,0.005088965408504009,0.0026051094755530357,0.0023019439540803432,0,0,-1102,5,2,1,0,0,-113,220.0,90.0,1500.0
14:00:03.705,GUIDED,-35.3632621,149.1652374,545,0.0010051628341898322,0.0013014771975576878,0.02236001193523407,0.005088965408504009,0.0026051094755530357,0.0023019439540803432,0,0,-1102,5,2,1,0,0,-113,220.0,90.0,1500.0
14:00:03.907,GUIDED,-35.363262,149.1652375,1810,0.035708025097846985,-0.0029298816807568073,0.022250434383749962,0.04521295428276062,-0.007686552591621876,0.003322312841191888,0,-1,-1006,45,-7,2,1,12,-149,220.0,90.0,1500.0
14:00:04.118,GUIDED,-35.3632616,149.1652396,2960,0.06304816156625748,-0.00858545396476984,-0.007559486199170351,-0.016071928665041924,0.025902921333909035,-0.04483247548341751,1,-9,-992,-15,26,-46,8,44,-148,220.0,90.0,1500.0
14:00:04.322,GUIDED,-35.3632616,149.1652396,2960,0.06304816156625748,-0.00858545396476984,-0.007559486199170351,-0.016071928665041924,0.025902921333909035,-0.04483247548341751,1,-9,-992,-15,26,-46,8,44,-148,220.0,90.0,1500.0
14:00:04.525,GUIDED,-35.3632616,149.1652396,2960,0.06304816156625748,-0.00858545396476984,-0.007559486199170351,-0.016071928665041924,0.025902921333909035,-0.04483247548341751,1,-9,-992,-15,26,-46,8,44,-148,220.0,90.0,1500.0
14:00:04.727,GUIDED,-35.3632616,149.1652396,2960,0.06304816156625748,-0.00858545396476984,-0.007559486199170351,-0.016071928665041924,0.025902921333909035,-0.04483247548341751,1,-9,-992,-15,26,-46,8,44,-148,220.0,90.0,1500.0
14:00:04.932,GUIDED,-35.3632616,149.1652396,2960,0.06304816156625748,-0.00858545396476984,-0.007559486199170351,-0.016071928665041924,0.025902921333909035,-0.04483247548341751,1,-9,-992,-15,26,-46,8,44,-148,220.0,90.0,1500.0
14:00:05.134,GUIDED,-35.3632616,149.1652396,2960,0.06304816156625748,-0.00858545396476984,-0.007559486199170351,-0.016071928665041924,0.025902921333909035,-0.04483247548341751,1,-9,-992,-15,26,-46,8,44,-148,220.0,90.0,1500.0
14:00:05.341,GUIDED,-35.3632616,149.1652396,2960,0.06304816156625748,-0.00858545396476984,-0.007559486199170351,-0.016071928665041924,0.025902921333909035,-0.04483247548341751,1,-9,-992,-15,26,-46,8,44,-148,220.0,90.0,1500.0
14:00:05.543,GUIDED,-35.3632616,149.1652396,2960,0.06304816156625748,-0.00858545396476984,-0.007559486199170351,-0.016071928665041924,0.025902921333909035,-0.04483247548341751,1,-9,-992,-15,26,-46,8,44,-148,220.0,90.0,1500.0
14:00:05.747,GUIDED,-35.3632616,149.1652396,2960,0.06304816156625748,-0.00858545396476984,-0.007559486199170351,-0.016071928665041924,0.025902921333909035,-0.04483247548341751,1,-9,-992,-15,26,-46,8,44,-148,220.0,90.0,1500.0
14:00:05.951,GUIDED,-35.3632616,149.1652396,2960,0.06304816156625748,-0.00858545396476984,-0.007559486199170351,-0.016071928665041924,0.025902921333909035,-0.04483247548341751,1,-9,-992,-15,26,-46,8,44,-148,220.0,90.0,1500.0
14:00:06.154,GUIDED,-35.3632616,149.1652396,2960,0.06304816156625748,-0.00858545396476984,-0.007559486199170351,-0.016071928665041924,0.025902921333909035,-0.04483247548341751,1,-9,-992,-15,26,-46,8,44,-148,220.0,90.0,1500.0
14:00:06.356,GUIDED,-35.3632616,149.1652396,2960,0.06304816156625748,-0.00858545396476984,-0.007559486199170351,-0.016071928665041924,0.025902921333909035,-0.04483247548341751,1,-9,-992,-15,26,-46,8,44,-148,220.0,90.0,1500.0
14:00:06.564,GUIDED,-35.3632616,149.1652396,2960,0.06304816156625748,-0.00858545396476984,-0.007559486199170351,-0.016071928665041924,0.025902921333909035,-0.04483247548341751,1,-9,-992,-15,26,-46,8,44,-148,220.0,90.0,1500.0
14:00:06.767,GUIDED,-35.363261,149.1652453,4623,-0.03702450171113014,0.018291592597961426,-0.08450058847665787,-0.05483108013868332,-0.02729460969567299,-0.03583603352308273,5,-6,-1002,-54,-26,-36,-2,35,-149,220.0,90.0,1500.0
14:00:06.969,GUIDED,-35.3632612,149.1652456,6158,-0.06565957516431808,-0.012470503337681293,-0.0836222693324089,0.05298931151628494,-0.00011436967179179192,-0.0022924880031496286,0,1,-1004,31,1,-7,-1,-33,-149,220.0,90.0,1500.0
14:00:07.174,GUIDED,-35.3632613,149.1652445,6542,-0.05158177763223648,-0.011965635232627392,-0.08523286879062653,0.05870000272989273,0.004123678896576166,-8.852413157001138e-05,-4,5,-1001,59,4,-1,0,-46,-149,220.0,90.0,1500.0
14:00:07.377,GUIDED,-35.3632613,149.1652445,6542,-0.05158177763223648,-0.011965635232627392,-0.08523286879062653,0.05870000272989273,0.004123678896576166,-8.852413157001138e-05,-4,5,-1001,59,4,-1,0,-46,-149,220.0,90.0,1500.0
14:00:07.580,GUIDED,-35.3632613,149.1652445,6542,-0.05158177763223648,-0.011965635232627392,-0.08523286879062653,0.05870000272989273,0.004123678896576166,-8.852413157001138e-05,-4,5,-1001,59,4,-1,0,-46,-149,220.0,90.0,1500.0
14:00:07.782,GUIDED,-35.3632613,149.1652445,6542,-0.05158177763223648,-0.011965635232627392,-0.08523286879062653,0.05870000272989273,0.004123678896576166,-8.852413157001138e-05,-4,5,-1001,59,4,-1,0,-46,-149,220.0,90.0,1500.0
14:00:07.984,GUIDED,-35.3632613,149.1652445,6542,-0.05158177763223648,-0.011965635232627392,-0.08523286879062653,0.05870000272989273,0.004123678896576166,-8.852413157001138e-05,-4,5,-1001,59,4,-1,0,-46,-149,220.0,90.0,1500.0
14:00:08.187,GUIDED,-35.3632613,149.1652445,6542,-0.05158177763223648,-0.011965635232627392,-0.08523286879062653,0.05870000272989273,0.004123678896576166,-8.852413157001138e-05,-4,5,-1001,59,4,-1,0,-46,-149,220.0,90.0,1500.0
14:00:08.391,GUIDED,-35.3632613,149.1652445,6542,-0.05158177763223648,-0.011965635232627392,-0.08523286879062653,0.05870000272989273,0.004123678896576166,-8.852413157001138e-05,-4,5,-1001,59,4,-1,0,-46,-149,220.0,90.0,1500.0
14:00:08.594,GUIDED,-35.3632613,149.1652445,6542,-0.05158177763223648,-0.011965635232627392,-0.08523286879062653,0.05870000272989273,0.004123678896576166,-8.852413157001138e-05,-4,5,-1001,59,4,-1,0,-46,-149,220.0,90.0,1500.0
14:00:08.798,GUIDED,-35.3632613,149.1652445,6542,-0.05158177763223648,-0.011965635232627392,-0.08523286879062653,0.05870000272989273,0.004123678896576166,-8.852413157001138e-05,-4,5,-1001,59,4,-1,0,-46,-149,220.0,90.0,1500.0
14:00:09.005,GUIDED,-35.3632613,149.1652445,6542,-0.05158177763223648,-0.011965635232627392,-0.08523286879062653,0.05870000272989273,0.004123678896576166,-8.852413157001138e-05,-4,5,-1001,59,4,-1,0,-46,-149,220.0,90.0,1500.0
14:00:09.207,GUIDED,-35.3632613,149.1652445,6542,-0.05158177763223648,-0.011965635232627392,-0.08523286879062653,0.05870000272989273,0.004123678896576166,-8.852413157001138e-05,-4,5,-1001,59,4,-1,0,-46,-149,220.0,90.0,1500.0
14:00:09.413,GUIDED,-35.3632613,149.1652445,6542,-0.05158177763223648,-0.011965635232627392,-0.08523286879062653,0.05870000272989273,0.004123678896576166,-8.852413157001138e-05,-4,5,-1001,59,4,-1,0,-46,-149,220.0,90.0,1500.0
14:00:09.618,GUIDED,-35.3632613,149.1652445,6542,-0.05158177763223648,-0.011965635232627392,-0.08523286879062653,0.05870000272989273,0.004123678896576166,-8.852413157001138e-05,-4,5,-1001,59,4,-1,0,-46,-149,220.0,90.0,1500.0
14:00:09.821,GUIDED,-35.3632613,149.1652397,7697,-0.0044041164219379425,-0.003075629472732544,-0.0862165242433548,0.0652879849076271,0.016130253672599792,0.002988512394949794,-8,12,-1003,65,16,2,0,-61,-150,220.0,90.0,1500.0
14:00:10.025,GUIDED,-35.3632614,149.1652351,8869,0.04420257732272148,0.008000684902071953,-0.08372779935598373,0.06292879581451416,0.010980064049363136,0.004256154410541058,-6,8,-1003,63,11,3,-4,-39,-152,220.0,90.0,1500.0
14:00:10.232,GUIDED,-35.3632614,149.1652351,8869,0.04420257732272148,0.008000684902071953,-0.08372779935598373,0.06292879581451416,0.010980064049363136,0.004256154410541058,-6,8,-1003,63,11,3,-4,-39,-152,220.0,90.0,1500.0
14:00:10.434,GUIDED,-35.3632614,149.1652351,8869,0.04420257732272148,0.008000684902071953,-0.08372779935598373,0.06292879581451416,0.010980064049363136,0.004256154410541058,-6,8,-1003,63,11,3,-4,-39,-152,220.0,90.0,1500.0
14:00:10.636,GUIDED,-35.3632614,149.1652351,8869,0.04420257732272148,0.008000684902071953,-0.08372779935598373,0.06292879581451416,0.010980064049363136,0.004256154410541058,-6,8,-1003,63,11,3,-4,-39,-152,220.0,90.0,1500.0
14:00:10.838,GUIDED,-35.3632614,149.1652351,8869,0.04420257732272148,0.008000684902071953,-0.08372779935598373,0.06292879581451416,0.010980064049363136,0.004256154410541058,-6,8,-1003,63,11,3,-4,-39,-152,220.0,90.0,1500.0
14:00:11.040,GUIDED,-35.3632614,149.1652351,8869,0.04420257732272148,0.008000684902071953,-0.08372779935598373,0.06292879581451416,0.010980064049363136,0.004256154410541058,-6,8,-1003,63,11,3,-4,-39,-152,220.0,90.0,1500.0
14:00:11.244,GUIDED,-35.3632614,149.1652351,8869,0.04420257732272148,0.008000684902071953,-0.08372779935598373,0.06292879581451416,0.010980064049363136,0.004256154410541058,-6,8,-1003,63,11,3,-4,-39,-152,220.0,90.0,1500.0
14:00:11.447,GUIDED,-35.3632614,149.1652351,8869,0.04420257732272148,0.008000684902071953,-0.08372779935598373,0.06292879581451416,0.010980064049363136,0.004256154410541058,-6,8,-1003,63,11,3,-4,-39,-152,220.0,90.0,1500.0
14:00:11.650,GUIDED,-35.3632614,149.1652351,8869,0.04420257732272148,0.008000684902071953,-0.08372779935598373,0.06292879581451416,0.010980064049363136,0.004256154410541058,-6,8,-1003,63,11,3,-4,-39,-152,220.0,90.0,1500.0
14:00:11.854,GUIDED,-35.3632614,149.1652351,8869,0.04420257732272148,0.008000684902071953,-0.08372779935598373,0.06292879581451416,0.010980064049363136,0.004256154410541058,-6,8,-1003,63,11,3,-4,-39,-152,220.0,90.0,1500.0
14:00:12.058,GUIDED,-35.3632614,149.1652351,8869,0.04420257732272148,0.008000684902071953,-0.08372779935598373,0.06292879581451416,0.010980064049363136,0.004256154410541058,-6,8,-1003,63,11,3,-4,-39,-152,220.0,90.0,1500.0
14:00:12.262,GUIDED,-35.3632614,149.1652351,8869,0.04420257732272148,0.008000684902071953,-0.08372779935598373,0.06292879581451416,0.010980064049363136,0.004256154410541058,-6,8,-1003,63,11,3,-4,-39,-152,220.0,90.0,1500.0
14:00:12.467,GUIDED,-35.3632614,149.1652351,8869,0.04420257732272148,0.008000684902071953,-0.08372779935598373,0.06292879581451416,0.010980064049363136,0.004256154410541058,-6,8,-1003,63,11,3,-4,-39,-152,220.0,90.0,1500.0
14:00:12.671,GUIDED,-35.3632622,149.1652345,10815,0.01925264112651348,0.002873401390388608,-0.08436968177556992,-0.09158960729837418,-0.022496001794934273,-0.0008695808937773108,4,-3,-1000,-91,-22,-1,-8,28,-147,220.0,90.0,1500.0
14:00:12.874,GUIDED,-35.3632625,149.1652369,12366,-0.022645248100161552,-0.006578061264008284,-0.10176346451044083,0.0009625086677260697,0.0010606124997138977,-0.024928318336606026,3,-4,-1003,-15,-2,-22,0,11,-151,220.0,90.0,1500.0
14:00:13.077,GUIDED,-35.3632624,149.1652371,12756,-0.021105824038386345,-0.005873874761164188,-0.10885671526193619,0.010822510346770287,0.004406830295920372,-0.025868721306324005,0,-1,-1001,11,4,-26,1,4,-151,220.0,90.0,1500.0
14:00:13.281,GUIDED,-35.3632624,149.1652371,12756,-0.021105824038386345,-0.005873874761164188,-0.10885671526193619,0.010822510346770287,0.004406830295920372,-0.025868721306324005,0,-1,-1001,11,4,-26,1,4,-151,220.0,90.0,1500.0
14:00:13.486,GUIDED,-35.3632624,149.1652371,12756,-0.021105824038386345,-0.005873874761164188,-0.10885671526193619,0.010822510346770287,0.004406830295920372,-0.025868721306324005,0,-1,-1001,11,4,-26,1,4,-151,220.0,90.0,1500.0
14:00:13.688,GUIDED,-35.3632624,149.1652371,12756,-0.021105824038386345,-0.005873874761164188,-0.10885671526193619,0.010822510346770287,0.004406830295920372,-0.025868721306324005,0,-1,-1001,11,4,-26,1,4,-151,220.0,90.0,1500.0
14:00:13.893,GUIDED,-35.3632624,149.1652371,12756,-0.021105824038386345,-0.005873874761164188,-0.10885671526193619,0.010822510346770287,0.004406830295920372,-0.025868721306324005,0,-1,-1001,11,4,-26,1,4,-151,220.0,90.0,1500.0
14:00:14.099,GUIDED,-35.3632624,149.1652371,12756,-0.021105824038386345,-0.005873874761164188,-0.10885671526193619,0.010822510346770287,0.004406830295920372,-0.025868721306324005,0,-1,-1001,11,4,-26,1,4,-151,220.0,90.0,1500.0
14:00:14.300,GUIDED,-35.3632624,149.1652371,12756,-0.021105824038386345,-0.005873874761164188,-0.10885671526193619,0.010822510346770287,0.004406830295920372,-0.025868721306324005,0,-1,-1001,11,4,-26,1,4,-151,220.0,90.0,1500.0
14:00:14.502,GUIDED,-35.3632624,149.1652371,12756,-0.021105824038386345,-0.005873874761164188,-0.10885671526193619,0.010822510346770287,0.004406830295920372,-0.025868721306324005,0,-1,-1001,11,4,-26,1,4,-151,220.0,90.0,1500.0
14:00:14.707,GUIDED,-35.3632624,149.1652371,12756,-0.021105824038386345,-0.005873874761164188,-0.10885671526193619,0.010822510346770287,0.004406830295920372,-0.025868721306324005,0,-1,-1001,11,4,-26,1,4,-151,220.0,90.0,1500.0
14:00:14.911,GUIDED,-35.3632624,149.1652371,12756,-0.021105824038386345,-0.005873874761164188,-0.10885671526193619,0.010822510346770287,0.004406830295920372,-0.025868721306324005,0,-1,-1001,11,4,-26,1,4,-151,220.0,90.0,1500.0
14:00:15.113,GUIDED,-35.3632624,149.1652371,12756,-0.021105824038386345,-0.005873874761164188,-0.10885671526193619,0.010822510346770287,0.004406830295920372,-0.025868721306324005,0,-1,-1001,11,4,-26,1,4,-151,220.0,90.0,1500.0
14:00:15.318,GUIDED,-35.3632624,149.1652371,12756,-0.021105824038386345,-0.005873874761164188,-0.10885671526193619,0.010822510346770287,0.004406830295920372,-0.025868721306324005,0,-1,-1001,11,4,-26,1,4,-151,220.0,90.0,1500.0
14:00:15.520,GUIDED,-35.363262,149.1652364,14711,0.0032893922179937363,0.002840114524587989,-0.14109869301319122,0.017880110070109367,0.008275951258838177,-0.02068542316555977,-2,1,-1000,19,9,-23,3,-9,-152,220.0,90.0,1500.0
14:00:15.723,GUIDED,-35.3632618,149.1652359,15495,0.008756428025662899,0.005567291751503944,-0.15012040734291077,0.007210788317024708,0.005530652590095997,-0.01743164099752903,-2,0,-1000,7,6,-18,2,-6,-152,220.0,90.0,1500.0
14:00:15.928,GUIDED,-35.3632618,149.1652359,15495,0.008756428025662899,0.005567291751503944,-0.15012040734291077,0.007210788317024708,0.005530652590095997,-0.01743164099752903,-2,0,-1000,7,6,-18,2,-6,-152,220.0,90.0,1500.0
14:00:16.134,GUIDED,-35.3632618,149.1652359,15495,0.008756428025662899,0.005567291751503944,-0.15012040734291077,0.007210788317024708,0.005530652590095997,-0.01743164099752903,-2,0,-1000,7,6,-18,2,-6,-152,220.0,90.0,1500.0
14:00:16.336,GUIDED,-35.3632618,149.1652359,15495,0.008756428025662899,0.005567291751503944,-0.15012040734291077,0.007210788317024708,0.005530652590095997,-0.01743164099752903,-2,0,-1000,7,6,-18,2,-6,-152,220.0,90.0,1500.0
14:00:16.539,GUIDED,-35.3632618,149.1652359,15495,0.008756428025662899,0.005567291751503944,-0.15012040734291077,0.007210788317024708,0.005530652590095997,-0.01743164099752903,-2,0,-1000,7,6,-18,2,-6,-152,220.0,90.0,1500.0
14:00:16.744,GUIDED,-35.3632618,149.1652359,15495,0.008756428025662899,0.005567291751503944,-0.15012040734291077,0.007210788317024708,0.005530652590095997,-0.01743164099752903,-2,0,-1000,7,6,-18,2,-6,-152,220.0,90.0,1500.0
14:00:16.947,GUIDED,-35.3632618,149.1652359,15495,0.008756428025662899,0.005567291751503944,-0.15012040734291077,0.007210788317024708,0.005530652590095997,-0.01743164099752903,-2,0,-1000,7,6,-18,2,-6,-152,220.0,90.0,1500.0
14:00:17.150,GUIDED,-35.3632618,149.1652359,15495,0.008756428025662899,0.005567291751503944,-0.15012040734291077,0.007210788317024708,0.005530652590095997,-0.01743164099752903,-2,0,-1000,7,6,-18,2,-6,-152,220.0,90.0,1500.0
14:00:17.352,GUIDED,-35.3632618,149.1652359,15495,0.008756428025662899,0.005567291751503944,-0.15012040734291077,0.007210788317024708,0.005530652590095997,-0.01743164099752903,-2,0,-1000,7,6,-18,2,-6,-152,220.0,90.0,1500.0
14:00:17.555,GUIDED,-35.3632618,149.1652359,15495,0.008756428025662899,0.005567291751503944,-0.15012040734291077,0.007210788317024708,0.005530652590095997,-0.01743164099752903,-2,0,-1000,7,6,-18,2,-6,-152,220.0,90.0,1500.0
14:00:17.758,GUIDED,-35.3632618,149.1652359,15495,0.008756428025662899,0.005567291751503944,-0.15012040734291077,0.007210788317024708,0.005530652590095997,-0.01743164099752903,-2,0,-1000,7,6,-18,2,-6,-152,220.0,90.0,1500.0
14:00:17.961,GUIDED,-35.3632618,149.1652359,15495,0.008756428025662899,0.005567291751503944,-0.15012040734291077,0.007210788317024708,0.005530652590095997,-0.01743164099752903,-2,0,-1000,7,6,-18,2,-6,-152,220.0,90.0,1500.0
14:00:18.166,GUIDED,-35.3632618,149.1652359,15495,0.008756428025662899,0.005567291751503944,-0.15012040734291077,0.007210788317024708,0.005530652590095997,-0.01743164099752903,-2,0,-1000,7,6,-18,2,-6,-152,220.0,90.0,1500.0
14:00:18.370,GUIDED,-35.3632618,149.1652359,15495,0.008756428025662899,0.005567291751503944,-0.15012040734291077,0.007210788317024708,0.005530652590095997,-0.01743164099752903,-2,0,-1000,7,6,-18,2,-6,-152,220.0,90.0,1500.0
14:00:18.573,GUIDED,-35.3632617,149.1652355,16976,0.009530697017908096,0.006215178873389959,-0.16216976940631866,-0.003662032075226307,-0.00392561499029398,-0.01067972369492054,-1,0,-999,-1,0,-10,-1,1,-151,220.0,90.0,1500.0
14:00:18.779,GUIDED,-35.3632616,149.1652355,18148,0.0059211947955191135,0.0051519921980798244,-0.17146193981170654,-0.005477323662489653,-0.001100325956940651,-0.01348355133086443,0,0,-1000,-4,0,-14,-2,5,-152,220.0,90.0,1500.0
14:00:18.982,GUIDED,-35.3632616,149.1652355,18148,0.0059211947955191135,0.0051519921980798244,-0.17146193981170654,-0.005477323662489653,-0.001100325956940651,-0.01348355133086443,0,0,-1000,-4,0,-14,-2,5,-152,220.0,90.0,1500.0
14:00:19.185,GUIDED,-35.3632616,149.1652355,18148,0.0059211947955191135,0.0051519921980798244,-0.17146193981170654,-0.005477323662489653,-0.001100325956940651,-0.01348355133086443,0,0,-1000,-4,0,-14,-2,5,-152,220.0,90.0,1500.0
14:00:19.388,GUIDED,-35.3632616,149.1652355,18148,0.0059211947955191135,0.0051519921980798244,-0.17146193981170654,-0.005477323662489653,-0.001100325956940651,-0.01348355133086443,0,0,-1000,-4,0,-14,-2,5,-152,220.0,90.0,1500.0
14:00:19.591,GUIDED,-35.3632616,149.1652355,18148,0.0059211947955191135,0.0051519921980798244,-0.17146193981170654,-0.005477323662489653,-0.001100325956940651,-0.01348355133086443,0,0,-1000,-4,0,-14,-2,5,-152,220.0,90.0,1500.0
14:00:19.795,GUIDED,-35.3632616,149.1652355,18148,0.0059211947955191135,0.0051519921980798244,-0.17146193981170654,-0.005477323662489653,-0.001100325956940651,-0.01348355133086443,0,0,-1000,-4,0,-14,-2,5,-152,220.0,90.0,1500.0
14:00:19.997,GUIDED,-35.3632616,149.1652355,18148,0.0059211947955191135,0.0051519921980798244,-0.17146193981170654,-0.005477323662489653,-0.001100325956940651,-0.01348355133086443,0,0,-1000,-4,0,-14,-2,5,-152,220.0,90.0,1500.0
14:00:20.198,GUIDED,-35.3632616,149.1652355,18148,0.0059211947955191135,0.0051519921980798244,-0.17146193981170654,-0.005477323662489653,-0.001100325956940651,-0.01348355133086443,0,0,-1000,-4,0,-14,-2,5,-152,220.0,90.0,1500.0
14:00:20.402,GUIDED,-35.3632616,149.1652355,18148,0.0059211947955191135,0.0051519921980798244,-0.17146193981170654,-0.005477323662489653,-0.001100325956940651,-0.01348355133086443,0,0,-1000,-4,0,-14,-2,5,-152,220.0,90.0,1500.0
14:00:20.606,GUIDED,-35.3632616,149.1652355,18148,0.0059211947955191135,0.0051519921980798244,-0.17146193981170654,-0.005477323662489653,-0.001100325956940651,-0.01348355133086443,0,0,-1000,-4,0,-14,-2,5,-152,220.0,90.0,1500.0
14:00:22.942,GUIDED,-35.3632616,149.1652355,18148,0.0059211947955191135,0.0051519921980798244,-0.17146193981170654,-0.005477323662489653,-0.001100325956940651,-0.01348355133086443,0,0,-1000,-4,0,-14,-2,5,-152,220.0,90.0,1500.0
14:00:23.145,GUIDED,-35.3632616,149.1652355,18148,0.0059211947955191135,0.0051519921980798244,-0.17146193981170654,-0.005477323662489653,-0.001100325956940651,-0.01348355133086443,0,0,-1000,-4,0,-14,-2,5,-152,220.0,90.0,1500.0
14:00:23.347,GUIDED,-35.3632616,149.1652355,18148,0.0059211947955191135,0.0051519921980798244,-0.17146193981170654,-0.005477323662489653,-0.001100325956940651,-0.01348355133086443,0,0,-1000,-4,0,-14,-2,5,-152,220.0,90.0,1500.0
14:00:23.551,GUIDED,-35.3632616,149.1652355,18148,0.0059211947955191135,0.0051519921980798244,-0.17146193981170654,-0.005477323662489653,-0.001100325956940651,-0.01348355133086443,0,0,-1000,-4,0,-14,-2,5,-152,220.0,90.0,1500.0
14:00:23.756,GUIDED,-35.3632616,149.1652358,19404,0.0031122472137212753,0.00391864450648427,-0.18378762900829315,-0.0014267726801335812,-0.0021703767124563456,-0.013176264241337776,0,0,-1000,-4,0,-14,-3,6,-152,220.0,90.0,1500.0
14:00:23.958,GUIDED,-35.3632617,149.1652361,20578,0.001863741548731923,0.0029765600338578224,-0.19696016609668732,0.00022552238078787923,0.0004978766664862633,-0.019150665029883385,0,0,-1000,0,1,-19,-2,5,-152,220.0,90.0,1500.0
14:00:24.165,GUIDED,-35.3632617,149.1652364,22148,0.0015685547841712832,0.003129583317786455,-0.21685969829559326,0.0014036392094567418,0.0011763576185330749,-0.020299604162573814,0,0,-1000,1,1,-20,-2,4,-152,220.0,90.0,1500.0
14:00:24.369,GUIDED,-35.3632618,149.1652364,22539,0.0013251545606181026,0.0031996225006878376,-0.22191031277179718,-0.0017945419531315565,0.0005348364938981831,-0.01953716017305851,0,0,-1000,0,1,-20,-2,3,-152,220.0,90.0,1500.0
14:00:24.571,GUIDED,-35.3632618,149.1652364,22539,0.0013251545606181026,0.0031996225006878376,-0.22191031277179718,-0.0017945419531315565,0.0005348364938981831,-0.01953716017305851,0,0,-1000,0,1,-20,-2,3,-152,220.0,90.0,1500.0
14:00:24.774,GUIDED,-35.3632618,149.1652364,22539,0.0013251545606181026,0.0031996225006878376,-0.22191031277179718,-0.0017945419531315565,0.0005348364938981831,-0.01953716017305851,0,0,-1000,0,1,-20,-2,3,-152,220.0,90.0,1500.0
14:00:24.978,GUIDED,-35.3632618,149.1652364,22539,0.0013251545606181026,0.0031996225006878376,-0.22191031277179718,-0.0017945419531315565,0.0005348364938981831,-0.01953716017305851,0,0,-1000,0,1,-20,-2,3,-152,220.0,90.0,1500.0
14:00:25.181,GUIDED,-35.3632618,149.1652364,22539,0.0013251545606181026,0.0031996225006878376,-0.22191031277179718,-0.0017945419531315565,0.0005348364938981831,-0.01953716017305851,0,0,-1000,0,1,-20,-2,3,-152,220.0,90.0,1500.0
14:00:25.384,GUIDED,-35.3632618,149.1652364,22539,0.0013251545606181026,0.0031996225006878376,-0.22191031277179718,-0.0017945419531315565,0.0005348364938981831,-0.01953716017305851,0,0,-1000,0,1,-20,-2,3,-152,220.0,90.0,1500.0
14:00:25.585,GUIDED,-35.3632618,149.1652364,22539,0.0013251545606181026,0.0031996225006878376,-0.22191031277179718,-0.0017945419531315565,0.0005348364938981831,-0.01953716017305851,0,0,-1000,0,1,-20,-2,3,-152,220.0,90.0,1500.0
14:00:25.790,GUIDED,-35.3632618,149.1652364,22539,0.0013251545606181026,0.0031996225006878376,-0.22191031277179718,-0.0017945419531315565,0.0005348364938981831,-0.01953716017305851,0,0,-1000,0,1,-20,-2,3,-152,220.0,90.0,1500.0
14:00:25.992,GUIDED,-35.3632618,149.1652364,22539,0.0013251545606181026,0.0031996225006878376,-0.22191031277179718,-0.0017945419531315565,0.0005348364938981831,-0.01953716017305851,0,0,-1000,0,1,-20,-2,3,-152,220.0,90.0,1500.0
14:00:26.198,GUIDED,-35.3632618,149.1652364,22539,0.0013251545606181026,0.0031996225006878376,-0.22191031277179718,-0.0017945419531315565,0.0005348364938981831,-0.01953716017305851,0,0,-1000,0,1,-20,-2,3,-152,220.0,90.0,1500.0
14:00:26.403,GUIDED,-35.3632618,149.1652364,22539,0.0013251545606181026,0.0031996225006878376,-0.22191031277179718,-0.0017945419531315565,0.0005348364938981831,-0.01953716017305851,0,0,-1000,0,1,-20,-2,3,-152,220.0,90.0,1500.0
14:00:26.605,GUIDED,-35.3632618,149.1652364,22539,0.0013251545606181026,0.0031996225006878376,-0.22191031277179718,-0.0017945419531315565,0.0005348364938981831,-0.01953716017305851,0,0,-1000,0,1,-20,-2,3,-152,220.0,90.0,1500.0
14:00:26.811,GUIDED,-35.3632618,149.1652366,24653,0.0014982495922595263,0.002928270725533366,-0.24871890246868134,-0.0008844297262839973,0.0006942285690456629,-0.019475772976875305,0,0,-1000,1,1,-20,-2,2,-152,220.0,90.0,1500.0
14:00:27.013,GUIDED,-35.3632618,149.1652367,25044,0.0017015833873301744,0.002858848078176379,-0.25352758169174194,0.00021888240007683635,-0.000524836010299623,-0.0179557204246521,0,0,-1000,0,0,-18,-2,2,-152,220.0,90.0,1500.0
14:00:27.215,GUIDED,-35.3632618,149.1652367,25044,0.0017015833873301744,0.002858848078176379,-0.25352758169174194,0.00021888240007683635,-0.000524836010299623,-0.0179557204246521,0,0,-1000,0,0,-18,-2,2,-152,220.0,90.0,1500.0
14:00:27.422,GUIDED,-35.3632618,149.1652367,25044,0.0017015833873301744,0.002858848078176379,-0.25352758169174194,0.00021888240007683635,-0.000524836010299623,-0.0179557204246521,0,0,-1000,0,0,-18,-2,2,-152,220.0,90.0,1500.0
14:00:27.624,GUIDED,-35.3632618,149.1652367,25044,0.0017015833873301744,0.002858848078176379,-0.25352758169174194,0.00021888240007683635,-0.000524836010299623,-0.0179557204246521,0,0,-1000,0,0,-18,-2,2,-152,220.0,90.0,1500.0
14:00:27.828,GUIDED,-35.3632618,149.1652367,25044,0.0017015833873301744,0.002858848078176379,-0.25352758169174194,0.00021888240007683635,-0.000524836010299623,-0.0179557204246521,0,0,-1000,0,0,-18,-2,2,-152,220.0,90.0,1500.0
14:00:28.031,GUIDED,-35.3632618,149.1652367,25044,0.0017015833873301744,0.002858848078176379,-0.25352758169174194,0.00021888240007683635,-0.000524836010299623,-0.0179557204246521,0,0,-1000,0,0,-18,-2,2,-152,220.0,90.0,1500.0
14:00:28.234,GUIDED,-35.3632618,149.1652367,25044,0.0017015833873301744,0.002858848078176379,-0.25352758169174194,0.00021888240007683635,-0.000524836010299623,-0.0179557204246521,0,0,-1000,0,0,-18,-2,2,-152,220.0,90.0,1500.0
14:00:28.439,GUIDED,-35.3632618,149.1652367,25044,0.0017015833873301744,0.002858848078176379,-0.25352758169174194,0.00021888240007683635,-0.000524836010299623,-0.0179557204246521,0,0,-1000,0,0,-18,-2,2,-152,220.0,90.0,1500.0
14:00:28.644,GUIDED,-35.3632618,149.1652367,25044,0.0017015833873301744,0.002858848078176379,-0.25352758169174194,0.00021888240007683635,-0.000524836010299623,-0.0179557204246521,0,0,-1000,0,0,-18,-2,2,-152,220.0,90.0,1500.0
14:00:28.847,GUIDED,-35.3632618,149.1652367,25044,0.0017015833873301744,0.002858848078176379,-0.25352758169174194,0.00021888240007683635,-0.000524836010299623,-0.0179557204246521,0,0,-1000,0,0,-18,-2,2,-152,220.0,90.0,1500.0
14:00:29.050,GUIDED,-35.3632618,149.1652367,25044,0.0017015833873301744,0.002858848078176379,-0.25352758169174194,0.00021888240007683635,-0.000524836010299623,-0.0179557204246521,0,0,-1000,0,0,-18,-2,2,-152,220.0,90.0,1500.0
14:00:29.252,GUIDED,-35.3632618,149.1652367,25044,0.0017015833873301744,0.002858848078176379,-0.25352758169174194,0.00021888240007683635,-0.000524836010299623,-0.0179557204246521,0,0,-1000,0,0,-18,-2,2,-152,220.0,90.0,1500.0
14:00:29.455,GUIDED,-35.3632622,149.1652364,27307,0.011836967431008816,0.001684345304965973,-0.23138810694217682,0.0001503758248873055,-0.00472464831545949,0.027171527966856956,0,0,-999,0,-3,26,-4,3,-152,220.0,90.0,1500.0
14:00:29.659,GUIDED,-35.3632623,149.1652364,27697,0.011020668782293797,0.0007704178569838405,-0.22515363991260529,-0.005890161730349064,-0.0004229781625326723,0.02444053813815117,0,0,-999,-5,0,24,-3,5,-152,220.0,90.0,1500.0
14:00:29.864,GUIDED,-35.3632623,149.1652364,27697,0.011020668782293797,0.0007704178569838405,-0.22515363991260529,-0.005890161730349064,-0.0004229781625326723,0.02444053813815117,0,0,-999,-5,0,24,-3,5,-152,220.0,90.0,1500.0
14:00:30.066,GUIDED,-35.3632623,149.1652364,27697,0.011020668782293797,0.0007704178569838405,-0.22515363991260529,-0.005890161730349064,-0.0004229781625326723,0.02444053813815117,0,0,-999,-5,0,24,-3,5,-152,220.0,90.0,1500.0
14:00:30.268,GUIDED,-35.3632623,149.1652364,27697,0.011020668782293797,0.0007704178569838405,-0.22515363991260529,-0.005890161730349064,-0.0004229781625326723,0.02444053813815117,0,0,-999,-5,0,24,-3,5,-152,220.0,90.0,1500.0
14:00:30.473,GUIDED,-35.3632623,149.1652364,27697,0.011020668782293797,0.0007704178569838405,-0.22515363991260529,-0.005890161730349064,-0.0004229781625326723,0.02444053813815117,0,0,-999,-5,0,24,-3,5,-152,220.0,90.0,1500.0
14:00:30.675,GUIDED,-35.3632623,149.1652364,27697,0.011020668782293797,0.0007704178569838405,-0.22515363991260529,-0.005890161730349064,-0.0004229781625326723,0.02444053813815117,0,0,-999,-5,0,24,-3,5,-152,220.0,90.0,1500.0
14:00:30.883,GUIDED,-35.3632623,149.1652364,27697,0.011020668782293797,0.0007704178569838405,-0.22515363991260529,-0.005890161730349064,-0.0004229781625326723,0.02444053813815117,0,0,-999,-5,0,24,-3,5,-152,220.0,90.0,1500.0
14:00:31.089,GUIDED,-35.3632623,149.1652364,27697,0.011020668782293797,0.0007704178569838405,-0.22515363991260529,-0.005890161730349064,-0.0004229781625326723,0.02444053813815117,0,0,-999,-5,0,24,-3,5,-152,220.0,90.0,1500.0
14:00:31.292,GUIDED,-35.3632623,149.1652364,27697,0.011020668782293797,0.0007704178569838405,-0.22515363991260529,-0.005890161730349064,-0.0004229781625326723,0.02444053813815117,0,0,-999,-5,0,24,-3,5,-152,220.0,90.0,1500.0
14:00:31.495,GUIDED,-35.3632623,149.1652364,27697,0.011020668782293797,0.0007704178569838405,-0.22515363991260529,-0.005890161730349064,-0.0004229781625326723,0.02444053813815117,0,0,-999,-5,0,24,-3,5,-152,220.0,90.0,1500.0
14:00:31.697,GUIDED,-35.3632623,149.1652364,27697,0.011020668782293797,0.0007704178569838405,-0.22515363991260529,-0.005890161730349064,-0.0004229781625326723,0.02444053813815117,0,0,-999,-5,0,24,-3,5,-152,220.0,90.0,1500.0
14:00:31.902,GUIDED,-35.3632624,149.1652372,29412,0.002218556823208928,0.001452849479392171,-0.20098349452018738,-0.005625621881335974,0.0013280389830470085,0.02134782448410988,1,0,-1001,-5,3,21,0,9,-152,220.0,90.0,1500.0
14:00:32.106,GUIDED,-35.3632624,149.1652376,30586,-0.0012685504043474793,0.0016392091056331992,-0.18238018453121185,-0.001241627731360495,-0.0012497269781306386,0.016752643510699272,0,-1,-1000,0,1,18,0,6,-152,220.0,90.0,1500.0
14:00:32.314,GUIDED,-35.3632623,149.165238,32148,-0.0009723996045067906,0.0012826606398448348,-0.16974596679210663,-0.00043687468860298395,-0.0008026916184462607,0.014940692111849785,0,0,-1000,2,2,16,0,2,-152,220.0,90.0,1500.0
14:00:32.516,GUIDED,-35.3632623,149.165238,32148,-0.0009723996045067906,0.0012826606398448348,-0.16974596679210663,-0.00043687468860298395,-0.0008026916184462607,0.014940692111849785,0,0,-1000,0,0,14,0,2,-152,220.0,90.0,1500.0
14:00:32.720,GUIDED,-35.3632623,149.165238,32148,-0.0009723996045067906,0.0012826606398448348,-0.16974596679210663,-0.00043687468860298395,-0.0008026916184462607,0.014940692111849785,0,0,-1000,0,0,14,0,2,-152,220.0,90.0,1500.0
14:00:32.925,GUIDED,-35.3632623,149.165238,32148,-0.0009723996045067906,0.0012826606398448348,-0.16974596679210663,-0.00043687468860298395,-0.0008026916184462607,0.014940692111849785,0,0,-1000,0,0,14,0,2,-152,220.0,90.0,1500.0
14:00:33.130,GUIDED,-35.3632623,149.165238,32148,-0.0009723996045067906,0.0012826606398448348,-0.16974596679210663,-0.00043687468860298395,-0.0008026916184462607,0.014940692111849785,0,0,-1000,0,0,14,0,2,-152,220.0,90.0,1500.0
14:00:33.332,GUIDED,-35.3632623,149.165238,32148,-0.0009723996045067906,0.0012826606398448348,-0.16974596679210663,-0.00043687468860298395,-0.0008026916184462607,0.014940692111849785,0,0,-1000,0,0,14,0,2,-152,220.0,90.0,1500.0
14:00:33.533,GUIDED,-35.3632623,149.165238,32148,-0.0009723996045067906,0.0012826606398448348,-0.16974596679210663,-0.00043687468860298395,-0.0008026916184462607,0.014940692111849785,0,0,-1000,0,0,14,0,2,-152,220.0,90.0,1500.0
14:00:33.736,GUIDED,-35.3632623,149.165238,32148,-0.0009723996045067906,0.0012826606398448348,-0.16974596679210663,-0.00043687468860298395,-0.0008026916184462607,0.014940692111849785,0,0,-1000,0,0,14,0,2,-152,220.0,90.0,1500.0
14:00:33.942,GUIDED,-35.3632623,149.165238,32148,-0.0009723996045067906,0.0012826606398448348,-0.16974596679210663,-0.00043687468860298395,-0.0008026916184462607,0.014940692111849785,0,0,-1000,0,0,14,0,2,-152,220.0,90.0,1500.0
14:00:34.149,GUIDED,-35.3632623,149.165238,32148,-0.0009723996045067906,0.0012826606398448348,-0.16974596679210663,-0.00043687468860298395,-0.0008026916184462607,0.014940692111849785,0,0,-1000,0,0,14,0,2,-152,220.0,90.0,1500.0
14:00:34.354,GUIDED,-35.3632623,149.165238,32148,-0.0009723996045067906,0.0012826606398448348,-0.16974596679210663,-0.00043687468860298395,-0.0008026916184462607,0.014940692111849785,0,0,-1000,0,0,14,0,2,-152,220.0,90.0,1500.0
14:00:34.562,GUIDED,-35.3632623,149.165238,32148,-0.0009723996045067906,0.0012826606398448348,-0.16974596679210663,-0.00043687468860298395,-0.0008026916184462607,0.014940692111849785,0,0,-1000,0,0,14,0,2,-152,220.0,90.0,1500.0
14:00:34.766,GUIDED,-35.3632623,149.165238,33706,0.0006675735348835588,0.0008880841778591275,-0.15551936626434326,0.0044503952376544476,0.00199487735517323,0.01469537802040577,0,0,-1000,5,2,14,0,0,-152,220.0,90.0,1500.0
14:00:34.968,GUIDED,-35.3632622,149.1652379,35272,0.0011859398800879717,0.0012709905859082937,-0.14285877346992493,-0.0011954924557358027,-0.00035315629793331027,0.014140479266643524,0,0,-1000,0,0,13,0,0,-152,220.0,90.0,1500.0
14:00:35.171,GUIDED,-35.3632622,149.1652379,35272,0.0011859398800879717,0.0012709905859082937,-0.14285877346992493,-0.0011954924557358027,-0.00035315629793331027,0.014140479266643524,0,0,-1000,0,0,13,0,0,-152,220.0,90.0,1500.0
14:00:35.373,GUIDED,-35.3632622,149.1652379,35272,0.0011859398800879717,0.0012709905859082937,-0.14285877346992493,-0.0011954924557358027,-0.00035315629793331027,0.014140479266643524,0,0,-1000,0,0,13,0,0,-152,220.0,90.0,1500.0
14:00:35.577,GUIDED,-35.3632622,149.1652379,35272,0.0011859398800879717,0.0012709905859082937,-0.14285877346992493,-0.0011954924557358027,-0.00035315629793331027,0.014140479266643524,0,0,-1000,0,0,13,0,0,-152,220.0,90.0,1500.0
14:00:35.784,GUIDED,-35.3632622,149.1652379,35272,0.0011859398800879717,0.0012709905859082937,-0.14285877346992493,-0.0011954924557358027,-0.00035315629793331027,0.014140479266643524,0,0,-1000,0,0,13,0,0,-152,220.0,90.0,1500.0
14:00:35.986,GUIDED,-35.3632622,149.1652379,35272,0.0011859398800879717,0.0012709905859082937,-0.14285877346992493,-0.0011954924557358027,-0.00035315629793331027,0.014140479266643524,0,0,-1000,0,0,13,0,0,-152,220.0,90.0,1500.0
14:00:36.189,GUIDED,-35.3632622,149.1652379,35272,0.0011859398800879717,0.0012709905859082937,-0.14285877346992493,-0.0011954924557358027,-0.00035315629793331027,0.014140479266643524,0,0,-1000,0,0,13,0,0,-152,220.0,90.0,1500.0
14:00:36.391,GUIDED,-35.3632622,149.1652379,35272,0.0011859398800879717,0.0012709905859082937,-0.14285877346992493,-0.0011954924557358027,-0.00035315629793331027,0.014140479266643524,0,0,-1000,0,0,13,0,0,-152,220.0,90.0,1500.0
14:00:36.600,GUIDED,-35.3632622,149.1652379,35272,0.0011859398800879717,0.0012709905859082937,-0.14285877346992493,-0.0011954924557358027,-0.00035315629793331027,0.014140479266643524,0,0,-1000,0,0,13,0,0,-152,220.0,90.0,1500.0
14:00:36.803,GUIDED,-35.3632622,149.1652379,35272,0.0011859398800879717,0.0012709905859082937,-0.14285877346992493,-0.0011954924557358027,-0.00035315629793331027,0.014140479266643524,0,0,-1000,0,0,13,0,0,-152,220.0,90.0,1500.0
14:00:37.006,GUIDED,-35.3632622,149.1652379,35272,0.0011859398800879717,0.0012709905859082937,-0.14285877346992493,-0.0011954924557358027,-0.00035315629793331027,0.014140479266643524,0,0,-1000,0,0,13,0,0,-152,220.0,90.0,1500.0
14:00:37.211,GUIDED,-35.3632622,149.1652379,35272,0.0011859398800879717,0.0012709905859082937,-0.14285877346992493,-0.0011954924557358027,-0.00035315629793331027,0.014140479266643524,0,0,-1000,0,0,13,0,0,-152,220.0,90.0,1500.0
14:00:37.414,GUIDED,-35.3632622,149.1652378,36682,0.001810797373764217,0.001227306085638702,-0.13311448693275452,-0.0028332837391644716,0.0007604251150041819,0.011065470986068249,0,0,-1000,4,1,11,0,0,-152,220.0,90.0,1500.0
14:00:37.618,GUIDED,-35.3632622,149.1652376,37854,0.002267794217914343,0.0016353823011741042,-0.1235877126455307,0.004707407671958208,0.0029468617867678404,0.012300271540880203,0,0,-1000,-2,0,8,0,0,-152,220.0,90.0,1500.0
14:00:37.822,GUIDED,-35.3632621,149.1652376,38244,0.002267794217914343,0.0016353823011741042,-0.1235877126455307,0.004707407671958208,0.0029468617867678404,0.012300271540880203,0,0,-1000,5,4,11,0,0,-152,220.0,90.0,1500.0
14:00:38.024,GUIDED,-35.3632621,149.1652376,38244,0.002267794217914343,0.0016353823011741042,-0.1235877126455307,0.004707407671958208,0.0029468617867678404,0.012300271540880203,0,0,-1000,5,4,11,0,0,-152,220.0,90.0,1500.0
14:00:38.226,GUIDED,-35.3632621,149.1652376,38244,0.002267794217914343,0.0016353823011741042,-0.1235877126455307,0.004707407671958208,0.0029468617867678404,0.012300271540880203,0,0,-1000,5,4,11,0,0,-152,220.0,90.0,1500.0
14:00:38.427,GUIDED,-35.3632621,149.1652376,38244,0.002267794217914343,0.0016353823011741042,-0.1235877126455307,0.004707407671958208,0.0029468617867678404,0.012300271540880203,0,0,-1000,5,4,11,0,0,-152,220.0,90.0,1500.0
14:00:38.629,GUIDED,-35.3632621,149.1652376,38244,0.002267794217914343,0.0016353823011741042,-0.1235877126455307,0.004707407671958208,0.0029468617867678404,0.012300271540880203,0,0,-1000,5,4,11,0,0,-152,220.0,90.0,1500.0
14:00:38.833,GUIDED,-35.3632621,149.1652376,38244,0.002267794217914343,0.0016353823011741042,-0.1235877126455307,0.004707407671958208,0.0029468617867678404,0.012300271540880203,0,0,-1000,5,4,11,0,0,-152,220.0,90.0,1500.0
14:00:39.037,GUIDED,-35.3632621,149.1652376,38244,0.002267794217914343,0.0016353823011741042,-0.1235877126455307,0.004707407671958208,0.0029468617867678404,0.012300271540880203,0,0,-1000,5,4,11,0,0,-152,220.0,90.0,1500.0
14:00:39.239,GUIDED,-35.3632621,149.1652376,38244,0.002267794217914343,0.0016353823011741042,-0.1235877126455307,0.004707407671958208,0.0029468617867678404,0.012300271540880203,0,0,-1000,5,4,11,0,0,-152,220.0,90.0,1500.0
14:00:39.441,GUIDED,-35.3632621,149.1652376,38244,0.002267794217914343,0.0016353823011741042,-0.1235877126455307,0.004707407671958208,0.0029468617867678404,0.012300271540880203,0,0,-1000,5,4,11,0,0,-152,220.0,90.0,1500.0
14:00:39.645,GUIDED,-35.3632621,149.1652376,38244,0.002267794217914343,0.0016353823011741042,-0.1235877126455307,0.004707407671958208,0.0029468617867678404,0.012300271540880203,0,0,-1000,5,4,11,0,0,-152,220.0,90.0,1500.0
14:00:39.847,GUIDED,-35.3632621,149.1652376,38244,0.002267794217914343,0.0016353823011741042,-0.1235877126455307,0.004707407671958208,0.0029468617867678404,0.012300271540880203,0,0,-1000,5,4,11,0,0,-152,220.0,90.0,1500.0
14:00:40.051,GUIDED,-35.3632621,149.1652376,38244,0.002267794217914343,0.0016353823011741042,-0.1235877126455307,0.004707407671958208,0.0029468617867678404,0.012300271540880203,0,0,-1000,5,4,11,0,0,-152,220.0,90.0,1500.0
14:00:40.253,GUIDED,-35.3632621,149.1652376,38244,0.002267794217914343,0.0016353823011741042,-0.1235877126455307,0.004707407671958208,0.0029468617867678404,0.012300271540880203,0,0,-1000,5,4,11,0,0,-152,220.0,90.0,1500.0
14:00:40.457,GUIDED,-35.3632621,149.1652375,39254,0.0018813959322869778,0.0015917507698759437,-0.11789458990097046,-0.0016825972124934196,0.001145682530477643,0.010653429664671421,0,0,-999,-1,2,10,0,0,-152,220.0,90.0,1500.0
14:00:40.664,GUIDED,-35.3632621,149.1652374,40816,0.0016126105329021811,0.0013410088140517473,-0.1106005311012268,0.0019474790897220373,-0.00025051127886399627,0.008377338759601116,0,0,-1001,2,0,8,-1,0,-152,220.0,90.0,1500.0
14:00:40.868,GUIDED,-35.363262,149.1652374,42381,0.0017191740917041898,0.0013713701628148556,-0.10366525501012802,0.0025494052097201347,0.0003801280399784446,0.008509754203259945,0,0,-1000,1,0,6,-1,0,-152,220.0,90.0,1500.0
14:00:41.071,GUIDED,-35.363262,149.1652373,43161,0.0016386695206165314,0.001328246551565826,-0.10068073123693466,-0.0023904461413621902,0.0006669408758170903,0.00769127206876874,0,0,-1000,-1,1,7,-1,1,-152,220.0,90.0,1500.0
14:00:41.275,GUIDED,-35.363262,149.1652373,43161,0.0016386695206165314,0.001328246551565826,-0.10068073123693466,-0.0023904461413621902,0.0006669408758170903,0.00769127206876874,0,0,-1000,-1,1,7,-1,1,-152,220.0,90.0,1500.0
14:00:41.478,GUIDED,-35.363262,149.1652373,43161,0.0016386695206165314,0.001328246551565826,-0.10068073123693466,-0.0023904461413621902,0.0006669408758170903,0.00769127206876874,0,0,-1000,-1,1,7,-1,1,-152,220.0,90.0,1500.0
14:00:41.685,GUIDED,-35.363262,149.1652373,43161,0.0016386695206165314,0.001328246551565826,-0.10068073123693466,-0.0023904461413621902,0.0006669408758170903,0.00769127206876874,0,0,-1000,-1,1,7,-1,1,-152,220.0,90.0,1500.0
14:00:41.888,GUIDED,-35.363262,149.1652373,43161,0.0016386695206165314,0.001328246551565826,-0.10068073123693466,-0.0023904461413621902,0.0006669408758170903,0.00769127206876874,0,0,-1000,-1,1,7,-1,1,-152,220.0,90.0,1500.0
14:00:42.092,GUIDED,-35.363262,149.1652373,43161,0.0016386695206165314,0.001328246551565826,-0.10068073123693466,-0.0023904461413621902,0.0006669408758170903,0.00769127206876874,0,0,-1000,-1,1,7,-1,1,-152,220.0,90.0,1500.0
14:00:42.297,GUIDED,-35.363262,149.1652373,43161,0.0016386695206165314,0.001328246551565826,-0.10068073123693466,-0.0023904461413621902,0.0006669408758170903,0.00769127206876874,0,0,-1000,-1,1,7,-1,1,-152,220.0,90.0,1500.0
14:00:42.499,GUIDED,-35.363262,149.1652373,43161,0.0016386695206165314,0.001328246551565826,-0.10068073123693466,-0.0023904461413621902,0.0006669408758170903,0.00769127206876874,0,0,-1000,-1,1,7,-1,1,-152,220.0,90.0,1500.0
14:00:42.702,GUIDED,-35.363262,149.1652373,44251,0.0014829300343990326,0.001224255422130227,-0.09630459547042847,-0.0006625129608437419,0.0014047989388927817,0.008357382379472256,0,0,-1000,0,2,8,-1,1,-152,220.0,90.0,1500.0
14:00:42.909,GUIDED,-35.363262,149.1652373,45812,0.0014222764875739813,0.0011037742951884866,-0.09052783995866776,0.003359150141477585,0.0018878406845033169,0.006201097276061773,0,0,-1000,4,2,6,-1,1,-152,220.0,90.0,1500.0
14:00:43.112,GUIDED,-35.363262,149.1652373,45812,0.0014222764875739813,0.0011037742951884866,-0.09052783995866776,0.003359150141477585,0.0018878406845033169,0.006201097276061773,0,0,-1000,4,2,6,-1,1,-152,220.0,90.0,1500.0
14:00:43.317,GUIDED,-35.363262,149.1652373,45812,0.0014222764875739813,0.0011037742951884866,-0.09052783995866776,0.003359150141477585,0.0018878406845033169,0.006201097276061773,0,0,-1000,4,2,6,-1,1,-152,220.0,90.0,1500.0
14:00:43.521,GUIDED,-35.363262,149.1652373,45812,0.0014222764875739813,0.0011037742951884866,-0.09052783995866776,0.003359150141477585,0.0018878406845033169,0.006201097276061773,0,0,-1000,4,2,6,-1,1,-152,220.0,90.0,1500.0
14:00:43.724,GUIDED,-35.363262,149.1652373,45812,0.0014222764875739813,0.0011037742951884866,-0.09052783995866776,0.003359150141477585,0.0018878406845033169,0.006201097276061773,0,0,-1000,4,2,6,-1,1,-152,220.0,90.0,1500.0
14:00:43.927,GUIDED,-35.363262,149.1652373,45812,0.0014222764875739813,0.0011037742951884866,-0.09052783995866776,0.003359150141477585,0.0018878406845033169,0.006201097276061773,0,0,-1000,4,2,6,-1,1,-152,220.0,90.0,1500.0
14:00:44.132,GUIDED,-35.363262,149.1652373,45812,0.0014222764875739813,0.0011037742951884866,-0.09052783995866776,0.003359150141477585,0.0018878406845033169,0.006201097276061773,0,0,-1000,4,2,6,-1,1,-152,220.0,90.0,1500.0
14:00:44.340,GUIDED,-35.363262,149.1652373,45812,0.0014222764875739813,0.0011037742951884866,-0.09052783995866776,0.003359150141477585,0.0018878406845033169,0.006201097276061773,0,0,-1000,4,2,6,-1,1,-152,220.0,90.0,1500.0
