time_stamp,MODE,roll,pitch,yaw,rollspeed,pitchspeed,yawspeed,lat,lon,relative_alt,vx,vy,vz,xacc,yacc,zacc,xgyro,ygyro,zgyro,RTL_ALT
12:14:07,STABILIZE,-0.00027343172405380756,0.0009360546246170998,0.024030709639191628,0.0002172777458326891,0.00023243989562615752,0.001946126634720713,-35.3632621,149.1652374,51.0,-1.0,1.0,-2.0,0.0,1.0,-1000.0,0.5,0.0,0.0,1500.0
12:14:17,AUTO,-0.0009435754618607461,0.0009943261393345892,0.020907294005155563,0.0003434664977248758,0.00024442101130262017,0.0014933563070371747,-35.3632622,149.1652375,5.5,-1.0,1.0,2.0,0.0,1.5,-1000.0,0.5,0.0,0.5,1500.0
12:14:18,AUTO,-0.0007845489599276334,0.0012053120008204132,0.020680586341768503,3.070462844334543e-05,0.00030984621844254434,0.0013913110014982522,-35.3632621,149.1652375,1.0,0.0,0.0,1.25,0.0,3.0,-997.25,0.25,0.5,0.25,258817.0
12:14:19,AUTO,-0.000403395839384757,0.0014059667009860277,0.020514954812824726,0.0002508010948076844,0.00022647532750852406,0.0013782961177639663,-35.3632621,149.1652375,0.0,0.0,0.0,2.0,0.0,1.5,-1000.0,0.5,0.5,0.0,258817.0
12:14:21,AUTO,0.0032063976395875216,0.0006045149712008424,0.02007420640438795,-0.002702446188777685,0.004072441137395799,0.0021590719697996974,-35.3632621,149.1652375,295.0,0.0,1.0,-82.0,0.0,-0.5,-1117.5,-2.5,4.5,1.5,258817.0
12:14:22,AUTO,0.03719133650884032,-0.0037020787567598745,0.019904857967048883,0.04341699089854956,-0.008732596761547029,0.00279415788827464,-35.363261924999996,149.16523800000002,1940.75,2.0,15.0,-146.0,0.25,-1.75,-1007.25,43.5,-7.5,1.75,108918.0
12:14:23,AUTO,0.05487173981964588,-0.0009062071330845356,-0.01656340411864221,-0.04611897189170122,0.053252551006153226,-0.06587827485054731,-35.3632615,149.1652402,3093.5,9.0,45.5,-146.0,2.0,-9.5,-993.0,-45.5,54.0,-66.0,108918.0
12:14:25,AUTO,-0.07058877125382423,0.0029159593395888805,-0.10075632855296135,0.04376976191997528,-0.00039015780203044415,-0.023544603027403355,-35.3632607,149.165246,6153.0,-1.5,-27.5,-148.0,-2.0,3.5,-1003.0,44.0,0.0,-23.5,108918.0
12:14:26,AUTO,0.007304019498405978,0.010806438629515469,-0.11158694140613079,0.0683080404996872,0.008971446892246604,-0.00046073837438598275,-35.3632616,149.16523884999998,8079.5,-16.0,-56.0,-150.5,-5.25,13.0,-1003.5,68.5,9.25,-0.75,102154.0
12:14:27,AUTO,0.0575264748185873,0.014233481138944626,-0.10876607894897461,0.06396029889583588,-0.0027447815518826246,0.004628540948033333,-35.36326295,149.1652349,9258.0,-24.0,-26.0,-153.0,0.0,9.0,-1002.5,64.0,-2.0,3.5,102154.0
12:14:29,AUTO,-0.032947296276688576,0.0006699149962514639,-0.1016748733818531,-0.005693596322089434,0.05205956660211086,-0.0906534194946289,-35.363262199999994,149.1652375,12338.5,35.0,8.5,-150.5,-4.5,-7.5,-1005.5,-5.0,52.5,-90.5,102154.0
12:14:30,AUTO,0.0031760605925228447,0.027285342570394278,-0.17208471149206161,0.03570542484521866,0.003855426679365337,-0.021629877941450104,-35.363259725,149.165236175,14293.75,4.75,-15.0,-153.0,-4.25,1.75,-1000.25,35.75,4.5,-21.75,174184.0
12:14:31,AUTO,0.018920455127954483,0.020913464948534966,-0.1751384735107422,0.0018157928716391325,-0.016605841927230358,0.008367054630070925,-35.3632597,149.16523510000002,15468.0,-11.5,-3.5,-152.5,-0.5,2.0,-999.0,2.5,-15.5,7.5,174184.0
12:14:33,AUTO,0.01096809608861804,-0.009468093048781157,0.04068208485841751,0.15273920446634293,-0.1270863376557827,0.054990157412248664,-35.363263200000006,149.16523225,18391.0,-35.0,-37.0,-111.0,3.5,11.0,-949.5,153.5,-125.5,54.5,174184.0
12:14:34,AUTO,0.05211000330746174,-0.025255398824810982,0.02140477765351534,-0.03640487999655306,0.03216510731726885,-0.005789346207166091,-35.36326475,149.1652311,19463.5,5.25,25.25,-61.75,0.5,-4.75,-971.25,-35.0,32.25,-6.25,179699.0
12:14:35,AUTO,0.01760542904958129,-7.648894097656012e-05,0.019644509069621563,-0.03951053507626057,0.03024481236934662,0.003038921859115362,-35.3632639,149.16523375,19870.5,17.5,43.0,-43.0,0.0,-10.5,-978.5,-38.0,30.5,2.0,179699.0
12:14:37,AUTO,-0.04883430153131485,0.027204365469515324,0.014714229386299849,0.020136795938014984,0.012280912604182959,-0.0038765529170632362,-35.3632615,149.1652398,20228.5,-1.5,2.0,14.5,0.0,-0.5,-973.0,20.5,13.0,-3.5,179699.0
12:14:38,AUTO,-0.02739587612450123,0.03639048617333174,0.012365458300337195,0.07788273692131042,0.014485715422779322,-0.010273346561007202,-35.363263225000004,149.16523695,20033.25,-34.75,-34.5,5.5,1.75,13.25,-1019.5,78.75,14.5,-9.75,264003.0
12:14:39,AUTO,-0.04462265595793724,0.04242381453514099,-0.1342065092176199,0.40289081633090973,-0.010254755150526762,-0.6444703191518784,-35.3632663,149.16523345,20007.5,-62.0,-50.5,-3.0,4.0,39.5,-1012.0,403.5,-9.0,-644.0,264003.0
12:14:41,AUTO,-0.08821083977818489,-0.13956375420093536,-1.65084308385849,0.12231472507119179,-0.04400182329118252,-0.7081165909767151,-35.36328775,149.16521355,20130.5,-191.0,-151.0,-10.0,-57.0,15.5,-1009.0,123.0,-43.0,-708.0,264003.0
12:14:42,AUTO,0.04799354122951627,-0.18488023802638054,-2.433078110218048,-0.011278765741735697,-0.022554787923581898,-0.2930139880627394,-35.36331515,149.165186775,20285.75,-293.5,-240.75,-15.75,-76.75,-44.5,-1006.25,-10.5,-21.0,-292.75,206094.0
12:14:43,AUTO,0.06051272340118885,-0.19726207107305527,-2.4634207487106323,0.0019391458481550217,0.0033809638116508722,0.08298297226428986,-35.36333675,149.16516489999998,20407.0,-355.5,-294.0,-19.0,-95.0,-55.5,-1010.5,3.0,4.0,82.5,206094.0
12:14:45,AUTO,0.06767774373292923,-0.16362807899713516,-2.4452831745147705,0.020175831159576774,0.023887441493570805,-0.0022911090636625886,-35.36341165,149.16508825,20949.5,-465.5,-385.0,-32.5,-131.0,-60.0,-1001.0,20.5,24.5,-2.0,206094.0
12:14:46,AUTO,0.07380996085703373,-0.13392282463610172,-2.444680631160736,0.00988918135408312,0.03848497453145683,-0.0003213004383724183,-35.363466075000005,149.16503315,21370.75,-490.0,-405.5,-34.0,-127.0,-76.25,-991.0,10.75,39.0,0.0,200.0
12:14:47,AUTO,0.07699449360370636,-0.12150976061820984,-2.445768117904663,-0.006958704441785812,-0.016486867738422006,0.002161090960726142,-35.3634994,149.1649994,21624.5,-490.0,-404.5,-32.5,-129.5,-71.5,-982.0,-6.0,-15.0,2.0,200.0
12:14:49,AUTO,0.07400527969002724,-0.04129755683243275,-2.4444068670272827,-0.008898846339434385,0.03834176529198885,-0.000955778217758052,-35.3635853,149.16491195,22228.0,-443.5,-368.0,-30.0,-113.0,-66.5,-988.0,-7.5,39.0,-1.0,200.0
12:14:50,AUTO,0.06564842350780964,0.01824265487084631,-2.443818747997284,-0.06645934376865625,0.05429451074451208,-0.001205549924634397,-35.363630475,149.16486577499998,22534.5,-358.25,-296.75,-20.25,-95.0,-64.75,-991.5,-65.25,54.75,-1.0,300000.0
12:14:51,AUTO,0.061983952298760414,0.055539095774292946,-2.444977879524231,0.6337236166000366,0.038211673498153687,-0.013004161650314927,-35.363652599999995,149.16484294999998,22655.0,-290.0,-242.5,-11.0,-77.5,-28.5,-993.0,634.5,39.0,-13.0,300000.0
12:14:53,AUTO,0.021697903983294964,0.07789425551891327,-2.4431252479553223,-0.5717439651489258,-0.0037700068205595016,9.707733988761902e-05,-35.3636887,149.1648059,22773.5,-112.5,-98.5,-4.5,-32.0,-39.5,-1000.0,-570.5,-3.0,0.0,300000.0
12:14:54,AUTO,0.019170429091900587,0.04671048745512962,-2.4438267946243286,-0.028154242783784866,-0.01655489532276988,-0.002360844111535698,-35.3636972,149.16479802499998,22808.5,-34.75,-38.5,-1.75,-13.0,-7.25,-999.25,-26.75,-15.0,-2.75,225901.0
12:14:55,AUTO,0.019428350031375885,0.03337869048118591,-2.4453946352005005,0.11544941365718842,-0.019424832426011562,0.002803202485665679,-35.363699350000005,149.1647964,22817.0,-6.0,-17.0,-1.5,-5.5,-9.5,-999.5,115.5,-18.0,2.0,225901.0
12:14:57,RTL,0.020095480605959892,-0.005260336096398532,-2.448241353034973,0.46971988677978516,-0.01171821029856801,0.009323755744844675,-35.3637001,149.16479705,22823.5,11.5,-8.0,0.0,0.0,15.5,-1003.5,471.0,-11.0,9.0,225901.0
12:14:58,RTL,0.015466446755453944,0.005460372834932059,-2.4499558210372925,-0.01611578930169344,0.01319497576332651,0.009199845837429166,-35.36370065,149.1647967,22846.25,7.0,-14.75,-7.0,-2.5,0.25,-1022.25,-14.0,14.0,9.0,300000.0
12:14:59,RTL,0.022502709180116653,0.007012783549726009,-2.450284719467163,0.2599831372499466,-0.0017843577661551535,0.011234099511057138,-35.3637012,149.16479665,22964.5,12.0,-12.0,-28.5,-1.5,12.0,-1040.0,262.0,-0.5,11.5,300000.0
12:15:01,RTL,0.015437532681971788,0.0007353527762461454,-2.449105143547058,-0.002920927479863167,0.0016569092404097319,0.006583694834262133,-35.36370115,149.16479705,24458.0,19.0,-14.0,-117.5,0.5,-1.0,-1044.0,0.0,2.5,6.5,300000.0
12:15:02,RTL,0.03862023213878274,-0.008898329280782491,-2.4498950242996216,0.03879521228373051,-0.014258221723139286,0.003473276272416115,-35.363700324999996,149.164796075,26230.25,20.75,-24.75,-147.5,2.0,-3.75,-1003.75,40.75,-12.5,4.0,300000.0
12:15:03,RTL,0.04773206636309624,-0.0056202353443950415,-2.4649497270584106,-0.06120018847286701,0.07220657728612423,-0.09230405651032925,-35.36369915,149.16479355,27377.0,28.5,-50.0,-146.0,3.0,-11.5,-993.5,-58.0,73.5,-91.0,300000.0
12:15:05,RTL,-0.046352896839380264,-0.005394561216235161,-2.554798126220703,0.05402440391480923,-0.00013037689495831728,-0.009720952482894063,-35.363697,149.16478999999998,30429.5,-19.5,35.0,-149.0,-2.0,5.5,-1000.0,56.0,1.5,-8.5,300000.0
12:15:06,RTL,0.020174842327833176,-0.0005448080810310785,-2.556673526763916,0.02754385187290609,0.001134865975473076,0.002399386379693169,-35.363699525,149.16479499999997,32371.75,-16.75,34.75,-151.0,-3.25,7.75,-1000.25,30.0,2.5,3.0,277721.0
12:15:07,RTL,0.018154578283429146,-0.003635273431427777,-2.553053617477417,-0.024795242585241795,-0.006506766425445676,0.0030624085338786244,-35.36370015,149.16479685000002,33541.0,-3.5,16.5,-150.0,0.0,3.0,-998.5,-21.5,-4.5,3.0,277721.0
12:15:09,RTL,-0.0029589919140562415,-0.003472195705398917,-2.5800559520721436,-0.002020662068389356,0.004362316569313407,-0.023121362552046776,-35.363700050000006,149.16479715,36651.5,-3.5,2.0,-151.0,0.0,-1.0,-1000.0,0.0,5.5,-22.0,277721.0
12:15:10,RTL,-0.0014081878471188247,-7.280777936102822e-05,-2.6078113317489624,-0.0009167520911432803,0.0016685895388945937,-0.020339922979474068,-35.3637002,149.1647968,38596.5,-3.0,2.0,-151.5,0.0,-0.25,-1000.0,1.5,2.75,-18.75,73768.0
12:15:11,RTL,-0.0013358193100430071,0.00043485201604198664,-2.6225621700286865,-0.0005212101386860013,3.106601070612669e-05,-0.01905091106891632,-35.3637002,149.16479655,39766.0,-1.0,2.0,-152.0,0.0,0.0,-1000.5,1.5,1.0,-17.5,73768.0
12:15:13,RTL,-0.0018885844037868083,-6.755966023774818e-05,-2.6609376668930054,-0.0005921145202592015,-0.0003169270930811763,-0.019769983366131783,-35.36369995,149.164796,42885.5,1.0,2.5,-152.0,0.0,0.0,-1000.0,1.5,0.5,-18.5,73768.0
12:15:14,RTL,-0.0017021938983816653,-0.0013903769431635737,-2.684845745563507,-0.0002600166480988264,-0.0008538253896404058,-0.0189627967774868,-35.3636997,149.164795825,44836.5,0.75,3.0,-152.0,0.0,0.0,-1000.25,1.75,0.5,-17.5,97108.0
12:15:15,RTL,-0.0019182483665645123,-0.001991218887269497,-2.6989611387252808,-0.0006542213959619403,0.000328555004671216,-0.019412090070545673,-35.3636996,149.16479575,46007.5,0.0,2.5,-152.0,0.0,0.0,-1000.0,1.5,1.5,-18.0,97108.0
12:15:17,RTL,0.001734419958665967,0.0015395143418572843,-2.7032352685928345,-0.005471000913530588,-0.00031932798447087407,0.024657667614519596,-35.363699350000005,149.1647956,49117.0,2.5,1.0,-152.0,0.0,0.0,-999.5,-2.5,0.5,25.0,97108.0
12:15:18,RTL,-0.0017582141881575808,-0.0013454662839649245,-2.6693384647369385,-0.0024446357565466315,-0.0022184012341313064,0.025954570155590773,-35.363698975,149.16479535000002,51061.0,3.0,1.0,-152.0,0.0,0.0,-1000.0,0.0,-0.25,26.5,300000.0
12:15:19,RTL,-0.001964460243470967,-0.002838407759554684,-2.651614189147949,0.0004747628699988127,4.247279139235616e-05,0.021799838170409203,-35.3636988,149.1647953,52234.5,1.5,1.5,-152.0,0.0,0.0,-1000.0,2.0,1.5,22.5,300000.0
12:15:21,RTL,-0.0004508930287556723,-0.0016983250970952213,-2.6151645183563232,0.0004537618951871991,0.002202804898843169,0.015225033275783062,-35.3636988,149.1647953,55334.5,-1.0,2.0,-152.0,0.0,0.0,-999.5,2.5,3.5,15.5,300000.0
12:15:22,RTL,-0.00015155643086472992,-0.0019349260837770998,-2.5972611904144287,4.3103587813675404e-05,-0.0003612969012465328,0.013454978819936514,-35.3636989,149.1647953,57277.25,-1.0,2.0,-152.0,0.0,0.0,-1000.0,1.75,0.75,14.0,200.0
12:15:23,RTL,-2.6938678274746053e-05,-0.0018439918640069664,-2.58780574798584,-0.00047258910490199924,0.0004066011752001941,0.013327314984053373,-35.36369895,149.1647953,58442.5,-1.0,2.0,-152.0,0.0,0.0,-1000.0,1.0,1.5,14.0,200.0
12:15:25,RTL,0.0014704065979458392,-0.0010731866932474077,-2.5673069953918457,0.0013446846278384328,-2.1432642824947834e-05,0.00904758321121335,-35.3636992,149.1647955,61558.5,0.0,1.0,-152.0,0.0,0.0,-1000.5,3.0,1.0,9.5,200.0
12:15:26,RTL,0.0011684279597830027,-0.0010996779310517013,-2.557129204273224,-0.0006825628515798599,0.0012804063444491476,0.007918746559880674,-35.3636993,149.1647955,63501.75,0.0,1.0,-152.0,0.0,0.0,-999.5,0.5,2.5,8.25,300000.0
12:15:27,RTL,0.0011193553800694644,-0.0009773031051736325,-2.5520154237747192,0.0007961055962368846,0.0008734973380342126,0.007190218428149819,-35.3636993,149.1647955,64669.0,0.0,1.0,-152.0,0.0,0.0,-1000.0,2.5,2.5,8.0,300000.0
12:15:29,RTL,0.0009364000870846212,-0.0011596361873671412,-2.5391308069229126,-0.0001618531532585621,0.00019893390708602965,0.006574845407158136,-35.3636993,149.1647955,67774.5,0.0,1.0,-152.0,0.0,0.0,-1000.0,1.5,1.5,7.0,300000.0
12:15:30,RTL,0.001119218795793131,-0.0009942847973434255,-2.532246232032776,0.00038966030115261674,3.241750528104603e-05,0.006947069545276463,-35.3636993,149.1647955,69716.75,0.0,1.0,-152.0,0.0,0.0,-1000.25,1.75,1.25,7.75,48408.0
12:15:31,RTL,0.0012137141893617809,-0.0010876476881094277,-2.5284204483032227,-0.0010583029361441731,0.0005658395239152014,0.004739476600661874,-35.3636993,149.1647955,70882.0,0.0,0.0,-152.0,0.0,0.0,-999.5,1.0,2.0,5.5,48408.0
12:15:33,RTL,0.0016341822920367122,-0.0008256266009993851,-2.5185497999191284,0.0013189708115532994,0.00046976812882348895,0.006919404258951545,-35.3636994,149.16479555,73992.0,0.0,0.0,-152.0,0.0,0.0,-1000.0,3.0,2.0,8.0,48408.0
12:15:34,RTL,0.0015294190670829266,-0.0010364957997808233,-2.5127464532852173,0.00016199814854189754,-0.0001734844991005957,0.006153737660497427,-35.3636994,149.1647956,75930.5,1.0,0.0,-152.0,0.0,0.0,-999.75,1.75,0.75,6.75,17263.0
12:15:35,RTL,0.0016130662406794727,-0.0014016189379617572,-2.509631872177124,0.001279118238016963,0.0001733487588353455,0.004197840578854084,-35.3636994,149.1647956,77096.0,1.0,0.0,-152.0,0.0,0.0,-1000.5,2.5,1.5,5.0,17263.0
12:15:37,RTL,0.0021110298112034798,-0.0005191744712647051,-2.5023319721221924,0.0006968830712139606,0.0012024539755657315,0.005756725324317813,-35.3636995,149.1647956,80203.5,1.0,0.0,-152.0,0.0,0.0,-999.5,2.5,2.5,6.5,17263.0
12:15:38,RTL,0.0021789299498777837,-0.001094312552595511,-2.4981651306152344,0.00014570439816452563,-0.0002624510379973799,0.0037134913145564497,-35.3636995,149.16479565,82147.75,1.0,0.0,-152.0,0.0,0.0,-999.5,1.75,1.25,4.5,200.0
12:15:39,RTL,0.0020144926966167986,-0.0017503020935691893,-2.4959263801574707,0.000617548415903002,-0.000750650477129966,0.0043329421896487474,-35.3636995,149.1647957,83314.0,1.0,0.0,-152.0,0.0,0.0,-1000.0,2.0,1.0,5.0,200.0
12:15:41,RTL,0.0017281300388276577,-0.001132747100200504,-2.4905805587768555,-2.58756335824728e-06,0.00038076710188761353,0.003964614705182612,-35.3636995,149.1647957,86421.0,1.0,0.0,-152.0,0.0,0.0,-999.5,1.5,1.5,4.5,200.0
12:15:42,RTL,0.0015732207393739372,-0.0007751510274829343,-2.4872496128082275,0.0005796799378003925,0.0002434136113151908,0.0030663292855024338,-35.3636995,149.1647957,88369.0,1.0,0.0,-152.0,0.0,0.0,-1000.25,2.5,1.5,4.0,37170.0
12:15:43,RTL,0.001797580101992935,-0.0007624699210282415,-2.4854652881622314,0.0004458902985788882,0.0008369518909603357,0.0026240776060149074,-35.3636995,149.1647957,89536.5,1.0,0.0,-152.0,0.0,0.0,-1000.0,2.5,2.5,3.5,37170.0
12:15:45,RTL,0.002386071952059865,-0.0004959265934303403,-2.481303095817566,-0.000685084261931479,-0.00019496335880830884,0.0028903151978738606,-35.3636995,149.1647957,92645.0,1.5,0.0,-152.0,0.0,0.0,-1000.0,1.5,1.0,4.0,37170.0
12:15:46,RTL,0.0027252439176663756,-0.0012060526642017066,-2.4788784980773926,-0.00014662308967672288,-0.0006160761840874329,0.0034769584890455008,-35.3636995,149.1647957,94588.0,2.0,0.0,-152.0,0.0,0.0,-999.75,1.75,1.0,4.75,174925.0
12:15:47,RTL,0.002517106244340539,-0.0010887850658036768,-2.4773393869400024,0.00037035613786429167,0.0015868687187321484,0.0017283512861467898,-35.3636995,149.1647957,95753.5,2.0,0.0,-152.0,0.0,0.0,-999.5,2.0,3.0,2.5,174925.0
12:15:49,RTL,0.00200112332822755,-0.0011963985743932426,-2.474379777908325,-0.0018572848057374358,-0.000913491880055517,0.0022082749055698514,-35.3636995,149.1647957,98861.0,2.0,0.0,-152.0,0.0,0.0,-1000.0,0.0,1.0,3.5,174925.0
12:15:50,RTL,0.0019171013263985515,-0.0012368819734547287,-2.472439706325531,0.0005830061563756317,0.0008189879299607128,0.002992723457282409,-35.3636995,149.1647957,100805.0,1.0,0.0,-152.0,0.0,0.0,-1000.0,2.5,2.5,4.0,300000.0
12:15:51,RTL,0.0023029266158118844,-0.0012783953570760787,-2.4710313081741333,0.003657244029454887,0.0019162187236361206,0.003026086138561368,-35.3636995,149.1647957,101973.0,1.0,0.0,-152.0,0.0,0.0,-1000.0,5.0,3.5,4.0,300000.0
12:15:53,RTL,0.0023917689686641097,7.114667550922604e-05,-2.4686938524246216,0.0019084870582446456,0.0008605346083641052,0.002304194262251258,-35.3636995,149.1647957,105080.5,1.0,0.0,-152.0,0.0,0.0,-1000.5,3.5,2.0,3.5,300000.0
12:15:54,RTL,0.0021395073854364455,-0.0005099434602016117,-2.4672927856445312,-0.00020623713498935103,-0.0012416899553500116,0.001779086800524965,-35.3636995,149.1647957,107019.25,2.0,0.0,-152.0,0.0,0.0,-1000.25,1.5,0.75,3.0,51880.0
12:15:55,RTL,0.002151543623767793,-0.0010701593710109591,-2.4665058851242065,-0.00016422639600932598,-0.00044842076022177935,0.002449544845148921,-35.3636995,149.1647957,108185.0,2.0,0.0,-152.0,0.0,0.0,-1000.0,1.5,1.0,3.5,51880.0
12:15:57,RTL,0.0026359332259744406,-0.001042243151459843,-2.4648936986923218,-0.0017982727149501443,-0.00013553688768297434,0.002855764585547149,-35.3636995,149.1647957,111292.0,2.0,0.0,-152.0,0.0,0.0,-999.5,0.5,2.0,4.0,51880.0
12:15:58,RTL,0.0025272101629525423,-0.0007501953805331141,-2.4636990427970886,-0.0008023431291803718,0.0005790205323137343,0.00028414100233931094,-35.3636995,149.1647957,113236.25,2.0,0.0,-152.0,0.0,0.0,-999.75,1.0,2.25,1.5,207335.0
12:15:59,RTL,0.002341455197893083,-0.0007694369123782963,-2.463266968727112,-0.00021046842448413372,-0.0009787669405341148,0.0015123415505513549,-35.3636995,149.1647957,114404.0,2.0,0.0,-152.0,0.0,0.0,-1000.0,1.5,1.0,3.0,207335.0
12:16:01,RTL,0.002221799921244383,-0.001397084619384259,-2.461990714073181,0.0003990178811363876,-0.0005373597959987819,-0.00010931241558864713,-35.3636995,149.1647957,117512.0,1.0,0.0,-152.0,0.0,0.0,-1000.5,2.5,1.0,1.5,207335.0
12:16:02,RTL,0.002698032883927226,-0.000869113253429532,-2.461069166660309,0.00011766451643779874,0.0018290547304786742,0.0012800551194231957,-35.3636995,149.1647957,119456.0,1.0,0.0,-152.0,0.0,0.0,-1000.0,2.0,3.5,2.75,151900.0
12:16:03,RTL,0.003127492149360478,-0.00021805654978379607,-2.4605427980422974,-0.0004678463446907699,0.0003811520291492343,-9.142377530224621e-05,-35.3636995,149.1647957,120624.5,1.0,0.0,-152.0,0.0,0.0,-1000.0,1.0,2.0,1.5,151900.0
12:16:05,RTL,0.0024948952486738563,-0.0007894124428275973,-2.459770917892456,-0.0005262219347059727,-0.0003934749402105808,0.0006861333968117833,-35.3636995,149.1647957,123731.0,2.0,0.0,-152.0,0.0,0.0,-1000.0,1.0,1.0,2.0,151900.0
12:16:06,RTL,0.002479379065334797,-0.0007225446461234242,-2.4587639570236206,0.000843697926029563,0.0003426997282076627,0.0015158966416493058,-35.3636995,149.1647957,125677.0,2.0,0.0,-152.0,0.0,0.0,-1000.0,2.75,2.0,2.75,200.0
12:16:07,RTL,0.0023319729370996356,-0.0009260452352464199,-2.4578754901885986,-0.000603599357418716,-0.0006842681905254722,0.0013279385748319328,-35.3636995,149.1647957,126848.0,2.0,0.0,-152.0,0.0,0.0,-1000.0,1.5,1.0,2.5,200.0
12:16:09,RTL,0.0025184364058077335,-0.0009046989143826067,-2.4573041200637817,-0.00023875257465988398,8.889846503734589e-05,0.00033302203519269824,-35.3636995,149.1647957,129948.5,2.0,0.0,-152.0,0.0,0.0,-1000.0,1.5,1.5,2.0,200.0
12:16:10,RTL,0.0022701038396917284,-0.0013223715941421688,-2.4566314816474915,-0.001555545488372445,-0.0010282587609253824,0.0012498850410338491,-35.3636995,149.1647957,131890.5,2.0,0.0,-152.0,0.0,0.0,-999.75,0.75,0.75,2.5,94414.0
12:16:11,RTL,0.0018913403037004173,-0.001512915245257318,-2.4567519426345825,-0.0015267572598531842,0.00022733933292329311,0.001219090772792697,-35.3636995,149.1647957,133056.5,1.0,0.0,-152.0,0.0,0.0,-999.5,0.0,2.0,2.0,94414.0
12:16:13,RTL,0.0028621264500543475,-0.0006907926290296018,-2.456163167953491,-0.0009281752863898873,0.0009406701428815722,-0.0005312919383868575,-35.3636995,149.1647957,136173.5,1.0,0.0,-152.0,0.0,0.0,-1000.0,1.5,2.5,0.5,94414.0
12:16:14,RTL,0.003058014903217554,-0.00041328287625219673,-2.4559395909309387,-6.984523497521877e-05,-0.00026885420083999634,0.001187691930681467,-35.363699525,149.1647957,138117.0,2.0,0.0,-152.0,0.0,0.0,-999.75,2.0,2.0,2.5,200.0
12:16:15,RTL,0.0029268728103488684,-0.0005042562988819554,-2.455934524536133,-0.0008608276257291436,0.00021122966427356005,-5.39646134711802e-05,-35.3636996,149.1647957,139285.0,2.0,0.0,-152.0,0.0,0.0,-1000.0,1.5,2.5,1.5,200.0
12:16:17,RTL,0.002632344258017838,-0.0006143137288745493,-2.455271005630493,-0.0024342092219740152,-0.001171393261756748,0.00010899000335484743,-35.3636996,149.1647957,142389.5,2.0,0.0,-152.0,0.0,0.0,-1000.0,0.0,1.0,1.5,200.0
12:16:18,RTL,0.002432927896734327,-0.0008890406024875119,-2.455082416534424,0.00010636699153110385,0.0002723646175581962,0.0008645956986583769,-35.3636996,149.1647957,144331.75,2.0,0.0,-152.0,0.0,0.0,-999.75,2.25,2.25,2.0,36897.0
12:16:19,RTL,0.002438677242025733,-0.0012689661234617233,-2.454776644706726,-0.0016283190343528986,-0.002616463112644851,0.0031079950276762247,-35.3636995,149.1647957,145497.0,2.0,0.0,-152.0,0.0,0.0,-1000.0,0.5,0.0,4.5,36897.0
12:16:21,RTL,0.0023570184130221605,-0.0011561804567463696,-2.4548683166503906,0.002086538472212851,-7.802504114806652e-06,-0.00011483929120004177,-35.3636995,149.1647957,148610.0,1.0,0.0,-152.0,0.0,0.0,-1000.0,4.0,2.0,1.5,36897.0
12:16:22,RTL,0.0031682824483141303,-0.0002886586134991376,-2.454506993293762,-3.938033478334546e-05,0.0008673759293742478,0.0008196162525564432,-35.3636995,149.1647957,150549.0,1.5,0.0,-152.0,0.0,0.0,-1000.0,2.25,3.0,2.0,200.0
12:16:23,RTL,0.0026956157526001334,-0.0004575960338115692,-2.4535528421401978,-0.00013039621990174055,-0.0011505064321681857,0.0013696129899471998,-35.3636995,149.1647957,151718.5,2.0,0.0,-152.0,0.0,0.0,-1000.5,2.0,1.0,3.0,200.0
12:16:25,RTL,0.0026331308763474226,-0.0008367886766791344,-2.4536434412002563,-0.001198911399114877,-1.854822039604187e-05,0.0003062031464651227,-35.3636995,149.1647957,154822.5,2.0,0.0,-152.0,0.0,0.0,-1000.0,1.0,2.0,2.0,200.0
12:16:26,RTL,0.002618350088596344,-0.0007548073190264404,-2.4534595012664795,-1.1554957988361517e-05,-0.00023440225049853325,0.00023602841732402643,-35.3636995,149.1647957,156730.0,2.0,0.0,-152.0,0.0,0.0,-1000.0,2.3333333333333335,2.0,2.0,161787.0
12:16:27,RTL,0.00258464467090865,-0.0008470706137207648,-2.4534056186676025,0.0013094917715837557,0.0002143666691457232,0.0005212436662986875,-35.3636995,149.1647957,157900.66666666666,2.0,0.0,-152.0,0.0,0.0,-1000.0,3.3333333333333335,2.0,2.3333333333333335,161787.0
12:16:29,RTL,0.002564473310485482,-0.0007665175071451813,-2.4533159732818604,-0.0005471097538247705,-0.00031439459417015314,-0.0010747729684226215,-35.3636995,149.1647957,161042.5,2.0,0.0,-152.0,0.0,0.0,-1000.0,2.0,1.5,0.5,161787.0
12:16:30,RTL,0.0023455043168117604,-0.0012314639946756263,-2.4531448682149253,-0.0005420447171976169,-0.0013492134554932516,0.0012596548379709323,-35.3636995,149.1647957,162946.33333333334,2.0,0.0,-152.0,0.0,0.0,-1000.3333333333334,1.6666666666666667,1.0,3.0,259867.0
12:16:31,RTL,0.002071173395961523,-0.0015518157354866464,-2.4531307220458984,0.001205288494626681,0.0011566233200331528,5.260214675217867e-05,-35.3636995,149.1647957,164111.66666666666,1.3333333333333333,0.0,-152.0,0.0,0.0,-1000.0,3.6666666666666665,3.3333333333333335,1.6666666666666667,259867.0
12:16:33,RTL,0.002858595224097371,-0.0007849861576687545,-2.453084150950114,0.0014201991725713015,0.001045906450599432,0.0023180675537635884,-35.3636995,149.1647957,167228.0,1.0,0.0,-152.0,0.0,0.0,-1000.0,3.6666666666666665,3.0,4.0,259867.0
12:16:34,RTL,0.0029935240745544434,-0.0005168318166397512,-2.4531055092811584,0.0001022635551635176,-0.00037577273906208575,0.0005579036078415811,-35.3636995,149.1647957,169210.0,2.0,0.0,-152.0,0.0,0.0,-1000.25,2.5,2.0,2.25,271298.0
12:16:35,RTL,0.0027358399238437414,-0.0006855835672467947,-2.4531575441360474,-0.0010357382707297802,-0.0009354635840281844,0.002035344485193491,-35.3636995,149.1647957,170377.0,2.0,0.0,-152.0,0.0,0.0,-1000.0,1.5,1.0,3.5,271298.0
12:16:37,RTL,0.0025895879759142795,-0.0007956102296399573,-2.4531216621398926,0.0008615948415050904,0.0013381006040920813,0.001178043894469738,-35.3636995,149.1647957,173443.33333333334,2.0,0.0,-152.0,0.0,0.0,-999.6666666666666,3.3333333333333335,3.6666666666666665,3.0,271298.0
12:16:38,RTL,0.0028259641646097102,-0.000901823960399876,-2.4529025554656982,0.00022925871113936105,-0.00010828891148169835,0.0004327920808767279,-35.3636995,149.1647957,175385.66666666666,2.0,0.0,-152.0,0.0,0.0,-999.6666666666666,2.6666666666666665,2.3333333333333335,2.3333333333333335,300000.0
12:16:39,RTL,0.0027963240475704274,-0.0009072354878298938,-2.452237844467163,0.00039701156007746857,-0.00033232150599360466,0.0008034660713747144,-35.3636995,149.1647957,176551.0,2.0,0.0,-152.0,0.0,0.0,-1000.0,2.6666666666666665,2.0,2.6666666666666665,300000.0
12:16:41,RTL,0.0026464078885813556,-0.0008821489949089786,-2.452333847681681,-0.001558843379219373,-0.0005592041028042635,0.0010330396859596174,-35.3636995,149.1647958,179663.33333333334,2.0,0.0,-152.0,0.0,0.0,-1000.0,1.3333333333333333,1.3333333333333333,2.6666666666666665,300000.0
12:16:42,RTL,0.002455740934237838,-0.0007047786105734607,-2.452037254969279,0.0002866541811575492,0.0002328231930732727,0.0009098056859026352,-35.3636995,149.1647958,181601.66666666666,2.0,0.0,-152.0,0.0,0.0,-1000.0,2.6666666666666665,2.6666666666666665,3.0,228750.0
12:16:43,RTL,0.001783821654195587,-0.0014533779661481578,-2.4519828160603843,-0.0001495711039751768,-0.00025707487172136706,0.0001283431968962153,-35.3636995,149.1647958,182768.33333333334,1.6666666666666667,0.0,-152.0,0.0,0.0,-1000.0,2.3333333333333335,2.0,2.0,228750.0
12:16:45,RTL,0.0007760306374014666,0.05757858604192734,-2.452197472254435,-0.002834564889781177,0.03457041581471761,0.0026746124494820833,-35.36369826666667,149.16479690000003,185856.33333333334,31.0,23.0,-149.0,4.333333333333333,3.0,-997.3333333333334,0.0,37.0,4.666666666666667,228750.0
12:16:46,RTL,-0.008687131882955631,0.10166030625502269,-2.4508403142293296,-0.02172116593768199,0.05390531197190285,0.020910655536378425,-35.3636918,149.16480323333334,187717.66666666666,94.66666666666667,72.33333333333333,-139.66666666666666,21.666666666666668,8.0,-984.3333333333334,-18.333333333333332,56.333333333333336,22.666666666666668,139802.0
12:16:47,RTL,-0.03543159986535708,0.18686617414156595,-2.2778799533843994,-0.08025399347146352,0.0860835388302803,0.441253662109375,-35.363683933333334,149.1648114333333,188688.66666666666,144.0,132.66666666666666,-106.0,35.0,13.666666666666666,-940.6666666666666,-77.33333333333333,88.66666666666667,443.3333333333333,139802.0
12:16:49,RTL,0.09485415865977605,0.14828469355901083,-1.8890760739644368,0.055889310936133065,0.06834279621640842,0.021898873150348663,-35.36364473333333,149.1648564333333,189529.33333333334,309.3333333333333,230.0,15.0,89.0,1.0,-963.6666666666666,59.333333333333336,70.33333333333333,23.666666666666668,139802.0
12:16:50,RTL,0.05126368999481201,0.20240137974421182,-1.9125510851542156,-0.01198281099398931,-0.003974717886497577,-0.04433297831565142,-35.36360356666666,149.16489246666666,189213.0,419.6666666666667,298.6666666666667,19.0,120.33333333333333,-10.0,-1023.0,-9.0,-1.0,-41.333333333333336,286482.0
12:16:51,RTL,0.01795830267171065,0.20224744578202566,-1.9484814405441284,-0.04736533512671789,-0.014292792727549871,-0.03928819298744202,-35.36357396666667,149.16491923333334,189112.0,460.0,347.0,4.666666666666667,132.66666666666666,3.3333333333333335,-1009.3333333333334,-44.0,-11.333333333333334,-36.666666666666664,286482.0
12:16:53,RTL,-0.01867883900801341,0.15236036479473114,-2.031412442525228,-0.005443204194307327,-0.03438160568475723,-0.037584407875935234,-35.36348676666667,149.16500596666666,189149.0,498.3333333333333,415.3333333333333,-6.0,150.0,16.666666666666668,-991.6666666666666,-2.6666666666666665,-31.0,-34.666666666666664,286482.0
12:16:54,RTL,-0.026707664132118225,0.1288200964530309,-2.0764413674672446,-0.05039931554347277,-0.045060226072867714,-0.03556635727485021,-35.36343123333334,149.16506359999997,189196.0,491.6666666666667,412.6666666666667,-1.6666666666666667,139.66666666666666,26.666666666666668,-987.3333333333334,-47.333333333333336,-41.666666666666664,-32.333333333333336,126568.0
12:16:55,RTL,-0.04050100470582644,0.09411634753147761,-2.099398215611776,-0.07227195799350739,-0.02672843635082245,-0.03998446254990995,-35.36339866666666,149.1650973333333,189218.0,472.6666666666667,395.6666666666667,-3.0,141.0,16.333333333333332,-985.0,-69.33333333333333,-23.333333333333332,-37.333333333333336,126568.0
12:16:57,RTL,-0.06130161260565122,-0.002479878099014362,-2.143624226252238,0.478418259570996,-0.053086609890063606,0.01777661529680093,-35.36332336666667,149.16517483333334,189223.33333333334,348.0,294.3333333333333,1.3333333333333333,108.66666666666667,58.333333333333336,-1003.0,482.3333333333333,-49.666666666666664,20.0,126568.0
12:16:58,RTL,-0.05021679153045019,-0.046286153296629585,-2.167261997858683,-0.1288850555817286,-0.014331363762418428,0.0013276546572645505,-35.36329129999999,149.16520936666666,189182.66666666666,233.66666666666666,199.0,3.3333333333333335,68.33333333333333,35.666666666666664,-1005.0,-124.66666666666667,-10.666666666666666,3.6666666666666665,264301.0
12:16:59,RTL,-0.02465602196753025,-0.061222308625777565,-2.180745999018351,0.321040799220403,-0.02535455549756686,-0.013855270420511564,-35.36327826666667,149.16522393333332,189153.66666666666,171.33333333333334,142.0,1.6666666666666667,49.666666666666664,18.666666666666668,-1015.3333333333334,323.3333333333333,-22.0,-11.0,264301.0
12:17:01,RTL,-0.00850012405620267,-0.042207655807336174,-2.208521048227946,-0.2855236480633418,0.014678885228931904,-0.012144022776434818,-35.363262066666664,149.16524143333334,189135.0,44.666666666666664,23.666666666666668,-0.3333333333333333,10.333333333333334,-8.0,-1000.6666666666666,-282.0,17.0,-9.0,264301.0
12:17:02,RTL,0.005525246262550354,-0.019015726012488205,-2.2205683390299478,-0.25888074437777203,0.024274615570902824,-0.011700336200495562,-35.36326023333333,149.16524296666668,189145.66666666666,11.0,-5.666666666666667,-1.0,0.6666666666666666,-19.333333333333332,-1002.3333333333334,-256.0,26.666666666666668,-8.666666666666666,200.0
12:17:03,RTL,0.009868991871674856,0.0006271130405366421,-2.2266151905059814,0.28454911708831787,0.018514951458200812,-0.005580859879652659,-35.363260266666664,149.16524263333335,189153.0,7.333333333333333,-10.333333333333334,-0.3333333333333333,-0.3333333333333333,20.0,-1006.3333333333334,288.6666666666667,21.0,-2.6666666666666665,200.0
12:17:05,RTL,0.011205650866031647,-0.009388830357541641,-2.240362564722697,-0.48597005506356555,0.007049829776709278,-0.01163841069986423,-35.3632608,149.165242,189163.33333333334,4.333333333333333,-15.333333333333334,0.3333333333333333,-2.0,-24.0,-994.3333333333334,-482.0,9.333333333333334,-8.666666666666666,200.0
12:17:06,RTL,0.02470143387715022,-0.0037237046441684165,-2.248612642288208,-0.2158211568991343,0.002183653491859635,-0.011639676367243132,-35.3632622,149.16524143333334,189164.33333333334,6.333333333333333,-18.333333333333332,0.0,-3.3333333333333335,-13.666666666666666,-1001.0,-212.0,4.666666666666667,-8.666666666666666,200.0
12:17:07,RTL,0.0345852958659331,-0.000931997990240537,-2.2526801427205405,0.35689887901147205,0.004604277977099021,-0.010115394679208597,-35.363263100000005,149.16524123333332,189166.66666666666,12.0,-21.0,0.0,-2.6666666666666665,14.0,-1001.0,361.3333333333333,7.0,-7.0,200.0
12:17:09,RTL,0.005670907907187939,0.003915309129903714,-2.2643911043802896,-0.8268477121988932,-0.0009375818384190401,-0.005917703500017524,-35.36326363333333,149.1652397,189016.33333333334,18.0,-18.666666666666668,42.333333333333336,1.3333333333333333,-42.666666666666664,-928.0,-822.0,1.6666666666666667,-3.6666666666666665,200.0
12:17:10,RTL,-0.022129780302445095,0.0035957729754348597,-2.2706758181254068,-1.252661406993866,-0.0010493901014948885,-0.0034858031819264093,-35.363262999999996,149.16523856666666,187995.0,14.0,-12.0,115.0,2.0,-27.0,-981.6666666666666,-1245.6666666666667,1.3333333333333333,-1.3333333333333333,300000.0
12:17:11,RTL,-0.018345034991701443,0.0025722182666261992,-2.275053103764852,-1.5045060714085896,-0.00018177957584460577,-0.008451117513080439,-35.3632624,149.1652379,187114.0,9.0,-6.666666666666667,107.66666666666667,1.3333333333333333,-67.0,-1025.0,-1499.3333333333333,2.0,-5.333333333333333,300000.0
12:17:13,RTL,-0.01945158528784911,-0.0011254816975754995,-2.283246119817098,-1.114312211672465,-0.00510381495890518,-0.0003025566693395376,-35.363261466666664,149.16523693333332,185015.0,-2.6666666666666665,3.6666666666666665,101.66666666666667,0.3333333333333333,-27.666666666666668,-1019.6666666666666,-1108.0,-2.0,2.0,300000.0
12:17:14,RTL,-0.0027577111031860113,-0.003539260554437836,-2.2874022324879966,0.3753340144952138,-0.0006528270896524191,-0.007825042431553205,-35.36326173333333,149.16523733333335,183729.66666666666,-2.0,2.6666666666666665,98.0,-1.6666666666666667,56.0,-986.6666666666666,382.6666666666667,2.3333333333333335,-4.666666666666667,166896.0
12:17:15,RTL,0.018190714841087658,-0.004706337116658688,-2.2895068327585855,1.1210105419158936,0.0011466424136112134,-0.0011314644943922758,-35.36326223333333,149.1652379,182956.33333333334,0.3333333333333333,0.3333333333333333,97.33333333333333,-3.0,77.0,-992.3333333333334,1127.6666666666667,4.333333333333333,1.0,166896.0
12:17:17,RTL,0.05381413300832113,-0.003956497646868229,-2.2963016033172607,1.3102412621180217,0.0031139633307854333,-0.0010446743108332157,-35.3632646,149.16524023333332,180907.66666666666,17.0,-15.0,96.0,-2.0,58.0,-1044.3333333333333,1315.3333333333333,5.666666666666667,1.6666666666666667,166896.0
12:17:18,RTL,0.04728671039144198,-0.0003091216470541743,-2.2989322344462075,1.3892614841461182,0.005593096138909459,0.003368035734941562,-35.363265500000004,149.165241,179636.33333333334,29.333333333333332,-26.666666666666668,95.66666666666667,-0.3333333333333333,73.66666666666667,-992.3333333333334,1396.0,8.0,5.666666666666667,200.0
12:17:19,RTL,0.04739552612106005,0.0012895135441794991,-2.302382787068685,1.3258243799209595,0.004014900885522366,0.006405878656854232,-35.3632656,149.1652409,178885.33333333334,32.666666666666664,-28.666666666666668,96.33333333333333,-0.3333333333333333,59.333333333333336,-1013.3333333333334,1332.0,6.333333333333333,8.333333333333334,200.0
12:17:21,RTL,0.039874417086442314,0.0025398589204996824,-2.306094169616699,1.1895219882329304,-0.003017576721807321,0.0015131613860527675,-35.36326493333333,149.16524003333333,176843.66666666666,29.666666666666668,-24.333333333333332,99.0,1.6666666666666667,27.333333333333332,-1007.0,1195.0,0.0,4.0,200.0
12:17:22,RTL,0.02062490799774726,0.004426689973721902,-2.3085012435913086,0.6884403228759766,0.00025799327219525975,-0.0012037641524026792,-35.36326386666667,149.1652388,175582.0,22.666666666666668,-18.0,100.66666666666667,3.6666666666666665,-7.333333333333333,-993.6666666666666,693.3333333333334,3.0,1.6666666666666667,141501.0
12:17:23,RTL,0.0004805678327102214,0.004355927774061759,-2.310686190923055,-0.5352333337068558,-0.004351346210266153,-0.005282725052287181,-35.36326296666667,149.16523786666667,174813.66666666666,15.0,-10.666666666666666,100.33333333333333,4.0,-60.0,-982.0,-530.0,-1.0,-2.3333333333333335,141501.0
12:17:25,RTL,-0.0081321542772154,-0.0010640875698300079,-2.3136545022328696,-1.0750846862792969,-0.00577145457888643,-0.0035269964331140122,-35.363261666666666,149.1652366333333,172765.0,-1.3333333333333333,6.0,97.66666666666667,-1.3333333333333333,-70.0,-1002.6666666666666,-1069.6666666666667,-2.0,-0.6666666666666666,141501.0
12:17:26,RTL,0.011897647753357887,-0.003372194323067864,-2.3157333532969155,-1.0355428258577983,-0.0032471067582567534,-0.003797689996038874,-35.3632624,149.16523766666668,171485.33333333334,0.6666666666666666,2.3333333333333335,97.66666666666667,-2.0,-63.666666666666664,-1034.0,-1029.3333333333333,-0.6666666666666666,-1.0,97811.0
12:17:27,RTL,0.015385707219441732,-0.0032104377169162035,-2.316399017969767,-1.170289158821106,-0.0024733537963281074,-0.003067575084666411,-35.363263100000005,149.16523843333334,170728.66666666666,5.0,-1.3333333333333333,99.0,-3.3333333333333335,-67.0,-1008.3333333333334,-1164.3333333333333,0.6666666666666666,-0.3333333333333333,97811.0
12:17:29,RTL,0.01196338872735699,0.0013596640734855707,-2.319517135620117,-1.2654385169347127,0.005437696197380622,0.001644732275356849,-35.3632649,149.16524016666665,168699.66666666666,22.666666666666668,-19.333333333333332,102.0,0.6666666666666666,-41.0,-1002.6666666666666,-1256.3333333333333,8.0,4.0,97811.0
12:17:30,RTL,-0.005924916515747706,0.00641904662673672,-2.320507049560547,-0.42295941710472107,0.001104759130006035,0.0034508314759780965,-35.3632643,149.1652391,167428.33333333334,23.666666666666668,-19.333333333333332,101.33333333333333,2.6666666666666665,10.666666666666666,-995.3333333333334,-412.0,3.6666666666666665,5.666666666666667,113970.0
12:17:31,RTL,-0.014399942941963673,0.005084379964197676,-2.32104754447937,-0.027533702552318573,-0.00313864229246974,0.002897894475609064,-35.36326356666667,149.16523823333333,166649.66666666666,19.666666666666668,-14.0,102.33333333333333,2.3333333333333335,35.0,-988.0,-16.666666666666668,0.0,5.666666666666667,113970.0
12:17:33,RTL,-0.009696472280969223,0.0013172634256382783,-2.322378953297933,0.7547134757041931,0.0043032217072322965,0.0036017759703099728,-35.36326223333334,149.16523713333333,164614.66666666666,6.0,-1.0,100.66666666666667,0.6666666666666666,65.0,-974.3333333333334,764.6666666666666,7.0,6.666666666666667,113970.0
12:17:34,RTL,0.0014083206964035828,-0.0005904076097067446,-2.324596722920736,1.0006128152211506,0.0003486810407290856,0.0037352744645128646,-35.3632619,149.165237,163326.0,0.6666666666666666,2.0,98.33333333333333,-0.3333333333333333,70.66666666666667,-1030.0,1010.3333333333334,3.3333333333333335,6.333333333333333,30464.0
12:17:35,RTL,-0.0033966409197698035,-0.0008265456223549942,-2.325122594833374,0.9307942191759745,0.0013553043827414513,-0.0025794348136211434,-35.3632619,149.165237,162563.66666666666,0.0,2.0,99.33333333333333,-1.6666666666666667,70.66666666666667,-1007.3333333333334,941.0,4.666666666666667,0.3333333333333333,30464.0
12:17:37,RTL,0.024690456688404083,-0.001598288518531869,-2.327209949493408,1.3670488595962524,0.0035220924764871597,0.0030206115916371346,-35.363262666666664,149.16523793333332,160540.33333333334,3.0,-1.0,100.0,-0.3333333333333333,65.33333333333333,-1013.6666666666666,1376.0,6.666666666666667,5.666666666666667,30464.0
12:17:38,RTL,0.017329496331512928,0.0019602148483196893,-2.327285369237264,0.7527916630109152,0.002321234050517281,-0.0008890497653434674,-35.36326259999999,149.16523773333333,159269.33333333334,3.0,-2.6666666666666665,102.0,2.0,-3.6666666666666665,-1002.0,759.0,5.333333333333333,2.0,200.0
12:17:39,RTL,0.0059459826443344355,0.0035040494985878468,-2.328334331512451,0.0846645583709081,0.0019450880742321412,-0.0029090639824668565,-35.3632622,149.16523716666666,158501.66666666666,0.6666666666666666,-0.3333333333333333,100.66666666666667,2.6666666666666665,-38.666666666666664,-990.0,90.66666666666667,4.666666666666667,0.3333333333333333,200.0
12:17:41,RTL,-0.018001398382087547,0.0029064257008334002,-2.3294970989227295,-0.5053107043107351,-0.001089279695103566,-0.0030247222942610583,-35.36326063333333,149.1652353,156462.33333333334,-12.0,15.0,99.66666666666667,1.6666666666666667,-61.666666666666664,-981.3333333333334,-499.6666666666667,2.3333333333333335,0.3333333333333333,200.0
12:17:42,RTL,-0.013001194223761559,0.0012155298803312082,-2.3299816449483237,0.02568153291940689,-0.005566716038932403,-0.003376319616412123,-35.363260000000004,149.16523456666667,155191.33333333334,-18.666666666666668,21.666666666666668,103.0,0.6666666666666666,-42.0,-955.3333333333334,30.666666666666668,-1.3333333333333333,0.3333333333333333,148500.0
12:17:43,RTL,-0.006930631585419178,-0.0009119057018930713,-2.330331484476725,0.2227663608888785,-0.002741219631085793,0.0049674428688983125,-35.36325996666667,149.1652347,154427.33333333334,-21.0,23.666666666666668,101.0,0.0,-26.666666666666668,-981.0,227.33333333333334,0.6666666666666666,7.666666666666667,148500.0
12:17:45,RTL,-0.009587566057840982,0.0024790007543439665,-2.33140762646993,-0.5696515639623007,0.008475749442974726,0.004683751457681258,-35.3632604,149.1652351666667,152390.66666666666,-19.333333333333332,20.0,103.66666666666667,0.3333333333333333,-70.0,-963.6666666666666,-564.3333333333334,11.666666666666666,7.666666666666667,148500.0
12:17:46,RTL,-0.024770942827065785,0.0010736814777677257,-2.3308093547821045,-0.964992086092631,-0.007603740241999428,-0.004043317399919033,-35.36326016666667,149.1652347,151108.33333333334,-21.333333333333332,24.333333333333332,101.0,-1.3333333333333333,-64.66666666666667,-1012.6666666666666,-960.0,-3.6666666666666665,-0.6666666666666666,225356.0
12:17:47,RTL,-0.011698761954903603,-0.0008920471591409296,-2.3316331704457602,-0.8246206045150757,-0.002370032792290052,-0.0002214023843407631,-35.36326043333333,149.16523500000002,150334.33333333334,-20.666666666666668,24.666666666666668,102.0,-2.6666666666666665,-65.0,-967.6666666666666,-820.0,1.3333333333333333,2.6666666666666665,225356.0
12:17:49,RTL,0.02486102655529976,-0.005363603743414084,-2.3325980504353843,-0.2661297594507535,-0.002422222945218285,-0.01216634021451076,-35.36326223333334,149.1652374,148277.33333333334,-7.333333333333333,11.0,99.33333333333333,-3.3333333333333335,-46.666666666666664,-982.6666666666666,-262.0,1.3333333333333333,-8.333333333333334,225356.0
12:17:50,RTL,0.0205437820404768,-0.0029903377095858255,-2.332710027694702,-1.087185839811961,0.002933208287383119,0.001504654452825586,-35.36326363333333,149.16523903333334,147004.66666666666,4.333333333333333,-2.0,98.0,-2.6666666666666665,-70.33333333333333,-1001.3333333333334,-1082.6666666666667,6.333333333333333,4.333333333333333,200.0
12:17:51,RTL,0.015604963215688864,-6.349112178819875e-06,-2.3332629203796387,-1.3578784068425496,0.0036316299811005592,-0.003175692710404595,-35.36326416666667,149.1652395,146237.66666666666,12.333333333333334,-10.0,99.33333333333333,-0.3333333333333333,-65.33333333333333,-1016.3333333333334,-1352.0,6.666666666666667,0.0,200.0
12:17:53,RTL,-0.013055121215681234,0.0029791403406610093,-2.3339600563049316,-0.881436844666799,0.0003592721962680419,0.002885775873437524,-35.36326363333334,149.16523856666666,144205.66666666666,16.0,-12.0,100.66666666666667,0.6666666666666666,-8.333333333333334,-997.3333333333334,-872.6666666666666,3.3333333333333335,5.666666666666667,200.0
12:17:54,RTL,-0.008462393035491308,-0.0002365866287921866,-2.332831780115763,0.19894238809744516,-0.004776493490984042,0.0003447968823214372,-35.363262999999996,149.1652381,142932.33333333334,11.666666666666666,-7.0,101.0,-0.3333333333333333,50.333333333333336,-995.3333333333334,208.33333333333334,-0.6666666666666666,3.3333333333333335,180820.0
12:17:55,RTL,0.0045222456101328135,-0.0017573585112889607,-2.333967129389445,0.5623808602492014,-0.0008074014913290739,0.0005917408658812443,-35.36326293333334,149.1652382,142164.33333333334,9.0,-5.666666666666667,99.66666666666667,0.3333333333333333,59.333333333333336,-1002.6666666666666,571.0,2.6666666666666665,3.6666666666666665,180820.0
12:17:57,RTL,0.024275369321306545,-0.0007169406938677033,-2.334665854771932,1.3640539646148682,0.002549141567821304,0.002900087429831425,-35.3632631,149.1652386,140134.0,9.0,-9.666666666666666,99.66666666666667,0.3333333333333333,62.666666666666664,-1024.3333333333333,1371.6666666666667,5.666666666666667,6.333333333333333,180820.0
12:17:58,RTL,0.01506696610401074,0.0013445442697654169,-2.3342219988505044,1.3547284205754597,0.0016262091230601072,0.004027768969535828,-35.3632625,149.16523786666667,138856.33333333334,6.0,-7.666666666666667,100.66666666666667,3.0,49.333333333333336,-1045.3333333333333,1361.3333333333333,5.0,7.333333333333333,297433.0
12:17:59,RTL,0.006117438121388356,0.0023285599891096354,-2.334477504094442,1.1075841188430786,-0.003299300791695714,-0.0012935629735390346,-35.36326186666667,149.1652371,138080.33333333334,1.6666666666666667,-2.6666666666666665,100.0,0.6666666666666666,19.0,-991.3333333333334,1113.3333333333333,0.6666666666666666,2.6666666666666665,297433.0
12:18:01,RTL,0.0040586877924700575,-0.001999892139186462,-2.334635575612386,-0.14520049095153809,-0.0031551032637556395,-0.007244928972795606,-35.36326136666667,149.16523653333334,136038.66666666666,-7.666666666666667,8.666666666666666,101.0,-0.6666666666666666,-42.333333333333336,-986.3333333333334,-140.33333333333334,0.6666666666666666,-3.3333333333333335,297433.0
12:18:02,RTL,0.004725462388402472,-0.004097423050552607,-2.335036834081014,-1.1647803386052449,-0.00393910853502651,0.004980149989326795,-35.36326223333333,149.16523759999998,134768.0,-3.6666666666666665,5.0,100.33333333333333,-4.0,-66.66666666666667,-997.3333333333334,-1159.0,-0.3333333333333333,8.0,200.0
12:18:03,RTL,0.014043748999635378,-0.004145890086268385,-2.334514617919922,-1.2989441553751628,0.0007847656961530447,-0.0023533934727311134,-35.363262999999996,149.1652385333333,133997.33333333334,1.3333333333333333,-0.3333333333333333,100.0,-3.3333333333333335,-67.0,-1018.3333333333334,-1293.0,4.333333333333333,1.0,200.0
12:18:05,RTL,0.0011335961607983336,0.0028702126195033393,-2.3351969718933105,-1.0757512052853901,0.0006694239564239979,0.0020812101817379394,-35.363263999999994,149.16523926666665,131957.66666666666,15.0,-14.333333333333334,99.66666666666667,1.6666666666666667,-33.0,-1017.0,-1066.3333333333333,3.6666666666666665,5.333333333333333,200.0
12:18:06,RTL,-0.011888955409328142,0.0032921964302659035,-2.335381110509237,-0.1748704587419828,-0.001951996935531497,0.0025522266514599323,-35.36326336666667,149.1652383,130683.66666666667,14.333333333333334,-11.333333333333334,101.66666666666667,1.0,33.0,-989.0,-164.33333333333334,1.6666666666666667,6.0,147179.0
12:18:07,RTL,-0.0062113674357533455,0.00188772426918149,-2.3351778189341226,0.18490992486476898,-0.0013499966201682885,0.005115532161047061,-35.36326296666667,149.1652379,129913.0,11.0,-7.0,99.66666666666667,0.3333333333333333,42.0,-995.6666666666666,195.33333333333334,2.0,8.333333333333334,147179.0
12:18:09,RTL,0.0012165016184250514,0.0011332249268889427,-2.335637172063192,1.3188867568969727,0.0015603182061264913,0.0032706866040825844,-35.36326196666667,149.16523696666667,127883.33333333333,2.3333333333333335,-0.3333333333333333,100.0,0.6666666666666666,74.66666666666667,-1003.0,1327.6666666666667,5.0,6.333333333333333,147179.0
12:18:10,RTL,0.008818671417733034,-0.0015090458327904344,-2.3350077470143638,1.4971465667088826,-0.0021463362500071526,-0.0004366782959550619,-35.36326176666666,149.16523686666665,126604.66666666667,-1.3333333333333333,3.6666666666666665,101.66666666666667,-0.3333333333333333,81.0,-987.0,1505.6666666666667,1.6666666666666667,2.6666666666666665,300000.0
12:18:11,RTL,0.013709936911861101,-0.0012095414567738771,-2.3364994525909424,1.4116422732671101,0.0007386162566641966,0.004029047520210345,-35.36326183333333,149.16523706666666,125840.66666666667,-1.6666666666666667,3.3333333333333335,99.0,-0.3333333333333333,67.0,-1017.6666666666666,1420.0,3.6666666666666665,7.333333333333333,300000.0
12:18:13,RTL,0.018373027443885803,-0.0013848383290072281,-2.3348830540974936,0.6305509209632874,-0.0005511920899152756,-0.0036143758334219456,-35.363262033333335,149.16523723333333,123803.0,-2.0,3.0,100.66666666666667,-1.0,-5.0,-983.6666666666666,636.0,3.0,0.0,300000.0
12:18:14,RTL,0.021537601326902706,-0.0018898145062848926,-2.335452397664388,-0.3799985647201538,-0.0003236965276300907,0.0008351687186708053,-35.3632628,149.16523809999998,122515.33333333333,1.6666666666666667,0.0,101.0,-1.0,-51.333333333333336,-984.0,-374.0,3.3333333333333335,4.333333333333333,200.0
12:18:15,RTL,0.017641352179149788,-0.0010625267944609125,-2.336782375971476,-0.6768816163142523,0.0004938941759367784,-0.006808356770003836,-35.36326303333333,149.16523833333335,121742.0,4.333333333333333,-3.0,101.33333333333333,0.3333333333333333,-67.0,-985.6666666666666,-671.0,4.0,-3.0,200.0
12:18:17,RTL,-0.015864521885911625,0.0003232619152792419,-2.3371193408966064,-1.3859919706980388,0.002569421504934629,0.0033342628739774227,-35.36326293333334,149.16523813333333,119703.0,6.666666666666667,-5.666666666666667,99.33333333333333,0.6666666666666666,-46.666666666666664,-990.3333333333334,-1377.6666666666667,6.0,7.0,200.0
12:18:18,RTL,-0.026121602083245914,0.0031525890808552504,-2.3362996578216553,-0.8454481561978658,0.0011993291166921456,0.004538591330250104,-35.363262299999995,149.16523736666667,118430.33333333333,4.666666666666667,-4.0,100.33333333333333,2.3333333333333335,-12.0,-989.6666666666666,-835.0,5.333333333333333,8.0,97603.0
12:18:19,RTL,-0.02466828500231107,0.002313623670488596,-2.3360076745351157,0.1656422366698583,-0.0013010169689853985,0.008371334367742142,-35.3632617,149.1652366,117656.66666666667,0.6666666666666666,0.3333333333333333,99.66666666666667,2.0,44.0,-984.3333333333334,176.0,2.0,12.0,97603.0
12:18:21,RTL,-0.0036672385952745876,-0.002835663113122185,-2.336663802464803,0.9489555954933167,0.0024645013424257436,0.0010149709414690733,-35.363261066666674,149.16523630000003,115608.0,-8.333333333333334,9.666666666666666,97.33333333333333,-1.0,73.33333333333333,-994.0,958.3333333333334,6.0,4.333333333333333,97603.0
12:18:22,RTL,0.009588743094354868,-0.003211009626587232,-2.3355294863382974,1.2876497109731038,-0.003069590777158737,0.0012170174159109592,-35.3632615,149.16523683333335,114335.66666666667,-7.333333333333333,6.666666666666667,97.0,-1.6666666666666667,77.0,-1001.0,1296.6666666666667,1.0,5.0,166919.0
12:18:23,RTL,0.022913860778013866,-0.003101753148560723,-2.335480292638143,1.4074019591013591,0.001754471566528082,0.0032530028062562146,-35.363261900000005,149.1652373,113573.66666666667,-4.666666666666667,4.333333333333333,97.33333333333333,-1.6666666666666667,58.0,-1015.3333333333334,1414.6666666666667,5.666666666666667,7.0,166919.0
12:18:25,RTL,0.023828644305467606,0.0007007622237627705,-2.3364920616149902,0.8598156968752543,0.0017081566620618105,-0.0008553406223654747,-35.36326276666667,149.16523816666668,111544.33333333333,3.0,-4.333333333333333,100.0,0.3333333333333333,12.333333333333334,-969.3333333333334,865.3333333333334,5.333333333333333,3.0,166919.0
12:18:26,RTL,-0.010501989241068562,0.005158676610638698,-2.3364384174346924,-0.3417968402306239,0.0007753880539288124,-0.0036150936502963305,-35.363261933333334,149.16523676666668,110284.0,-0.3333333333333333,0.0,99.66666666666667,3.6666666666666665,-59.666666666666664,-968.0,-336.6666666666667,4.333333333333333,0.3333333333333333,151308.0
12:18:27,RTL,-0.038771690179904304,0.005724191355208556,-2.3365755875905356,-1.3036447763442993,-0.001328356098383665,-0.00601072368832926,-35.363261099999995,149.1652357,109521.33333333333,-6.666666666666667,7.666666666666667,99.66666666666667,3.6666666666666665,-76.66666666666667,-1002.6666666666666,-1297.6666666666667,2.0,-1.6666666666666667,151308.0
12:18:29,RTL,-0.04912926256656647,-0.0002972122262387226,-2.3358822663625083,-1.3892539739608765,-0.005939184222370386,-0.0004116012714803219,-35.36325903333333,149.1652335,107481.33333333333,-26.0,28.666666666666668,99.0,0.0,-63.333333333333336,-1018.3333333333334,-1383.6666666666667,-1.6666666666666667,4.0,151308.0
12:18:30,RTL,-0.03056636080145836,-0.005541477507601182,-2.3345640500386557,-1.397026817003886,-0.0019198190420866013,-0.005117070395499468,-35.36325943333333,149.1652344,106213.33333333333,-30.0,31.666666666666668,100.66666666666667,-4.666666666666667,-47.666666666666664,-1018.0,-1390.3333333333333,2.3333333333333335,-1.0,200.0
12:18:31,RTL,-0.02459477198620637,-0.006727713781098525,-2.334959030151367,-1.23576158285141,-0.0039951429547121125,-0.0012215397631128628,-35.363260200000006,149.16523543333332,105446.0,-24.0,25.0,101.66666666666667,-5.0,-22.666666666666668,-987.0,-1228.3333333333333,0.3333333333333333,2.6666666666666665,200.0
12:18:33,RTL,0.025476565584540367,-0.005950788501650095,-2.3357301553090415,0.4915878027677536,0.002421577926725149,-0.00361866798872749,-35.3632633,149.165239,103396.0,1.3333333333333333,-1.6666666666666667,101.33333333333333,-5.666666666666667,64.66666666666667,-990.0,500.3333333333333,6.0,0.3333333333333333,200.0
12:18:34,RTL,0.0393403929968675,-0.0021367817147014043,-2.3360963662465415,0.8738650182882944,0.002765205455943942,0.0015188957719753187,-35.36326463333333,149.16524033333334,102119.0,17.0,-17.0,99.0,-1.3333333333333333,68.66666666666667,-1013.0,882.0,6.666666666666667,5.333333333333333,300000.0
12:18:35,RTL,0.03962715590993563,0.00023782695401071882,-2.3355597654978433,1.4165313243865967,0.002473739286263784,0.004212221674000223,-35.3632649,149.16524046666666,101359.66666666667,22.333333333333332,-22.333333333333332,99.66666666666667,0.6666666666666666,69.0,-1023.3333333333334,1424.3333333333333,6.0,7.666666666666667,300000.0
12:18:37,RTL,0.02082214504480362,0.003163143371542295,-2.335731824239095,0.9636087616284689,-0.0029935818165540695,-0.0010410016402602196,-35.36326366666666,149.16523883333335,99323.33333333333,18.333333333333332,-17.0,101.0,4.333333333333333,5.333333333333333,-994.6666666666666,969.0,1.0,3.0,300000.0
12:18:38,RTL,0.0015381942115103204,0.0011838427162729204,-2.3349997202555337,-0.11321136107047398,-0.0005222612526267767,0.003152931264291207,-35.36326246666667,149.16523759999998,98043.0,7.333333333333333,-6.0,103.0,3.0,-44.0,-971.6666666666666,-108.33333333333333,3.3333333333333335,7.0,200.0
12:18:39,RTL,-0.007408741240700086,-0.0005588756466750056,-2.336090644200643,-0.6053914626439413,-0.00401409746458133,-0.009527153335511684,-35.36326193333333,149.16523716666669,97272.33333333333,1.3333333333333333,-0.6666666666666666,100.66666666666667,1.3333333333333333,-63.666666666666664,-989.6666666666666,-600.6666666666666,0.0,-4.666666666666667,200.0
12:18:41,RTL,-0.024803454677263897,-0.002052034134976566,-2.3359424273173013,-1.4578326145807903,-5.8702814082304634e-05,-0.0006037371543546518,-35.36326136666667,149.16523673333333,95221.66666666667,-7.0,5.666666666666667,100.33333333333333,0.0,-62.0,-1017.0,-1451.0,3.3333333333333335,3.3333333333333335,200.0
12:18:42,RTL,-0.02761056460440159,-0.0004744384447500731,-2.3355085055033364,-0.8597831130027771,0.0005533822501699129,0.007296731385091941,-35.36326126666666,149.1652366,93945.66666666667,-6.666666666666667,4.666666666666667,99.66666666666667,1.3333333333333333,-2.3333333333333335,-993.3333333333334,-851.0,4.0,11.0,248383.0
12:18:43,RTL,-0.028964728116989136,0.00015546737025336674,-2.3358165423075357,-0.6699680884679159,-0.0015138161058227222,-0.0014333076154192288,-35.3632611,149.16523633333333,93167.33333333333,-9.0,7.0,98.66666666666667,-0.3333333333333333,2.6666666666666665,-1013.0,-661.0,2.6666666666666665,2.3333333333333335,248383.0
12:18:45,RTL,0.003158915787935257,-0.003834713250398636,-2.335991303126017,1.0783772865931194,0.00045096214550236863,0.0008117047448952993,-35.363261200000004,149.1652366,91135.0,-9.666666666666666,8.666666666666666,97.33333333333333,-0.6666666666666666,71.33333333333333,-1009.6666666666666,1086.6666666666667,4.0,4.333333333333333,248383.0
12:18:46,RTL,0.02407281349102656,-0.0032893371923516193,-2.3359227975209556,1.3729949792226155,0.002859449557339152,0.002170653703312079,-35.3632617,149.1652372,89860.0,-6.0,4.0,101.0,-1.0,40.333333333333336,-1003.0,1378.0,6.333333333333333,6.0,165896.0
12:18:47,RTL,0.02375713363289833,-0.002804580299804608,-2.3358777364095054,1.258359710375468,0.0003089381692310174,-0.004451654385775328,-35.3632619,149.16523743333332,89086.66666666667,-4.333333333333333,2.0,99.0,0.0,34.333333333333336,-987.0,1263.6666666666667,4.0,-0.6666666666666666,165896.0
12:18:49,RTL,0.019378010494013626,0.00016277128209670386,-2.335479259490967,0.8848395546277364,0.0031140954233705997,0.000538654625415802,-35.363262166666665,149.16523753333334,87049.33333333333,-1.6666666666666667,0.0,99.66666666666667,1.6666666666666667,-0.3333333333333333,-987.0,889.0,7.0,4.333333333333333,165896.0
12:18:50,RTL,-0.003337591925325493,0.0018342977079252403,-2.335181395212809,0.44652628898620605,0.0007421003344158331,0.0030346855831642947,-35.3632613,149.16523636666668,85788.0,-5.666666666666667,4.0,100.0,1.6666666666666667,-21.333333333333332,-987.0,450.0,4.333333333333333,6.666666666666667,36402.0
12:18:51,RTL,-0.0037590799620375037,-0.00039292600316305953,-2.3355890909830728,0.5971223711967468,-0.0028992545946190753,0.0018959053171177704,-35.363260833333335,149.16523586666668,85020.66666666667,-10.0,9.333333333333334,100.33333333333333,1.3333333333333333,-12.0,-991.3333333333334,600.6666666666666,1.0,5.333333333333333,36402.0
12:18:53,RTL,-0.024971472720305126,-0.003836805078511437,-2.3352534770965576,-1.3767203489939372,-0.004597261548042297,0.004899993849297364,-35.36326076666666,149.1652361,82977.0,-15.0,13.666666666666666,101.0,-0.6666666666666666,-61.333333333333336,-1014.3333333333334,-1371.3333333333333,0.0,8.666666666666666,36402.0
12:18:54,RTL,-0.01193654645855228,-0.004460639941195647,-2.3347667853037515,-1.2509681582450867,-0.001535585771004359,0.0018232470999161403,-35.36326123333333,149.1652368,81706.66666666667,-12.666666666666666,9.666666666666666,100.0,-0.3333333333333333,-62.0,-992.3333333333334,-1245.6666666666667,2.6666666666666665,5.333333333333333,270324.0
12:18:55,RTL,-0.011544183362275362,-0.004351437867929538,-2.3348899682362876,-0.8921492844820023,-0.0011553882310787837,-0.0029140544744829335,-35.363261666666666,149.1652373,80951.33333333333,-8.333333333333334,5.333333333333333,100.0,-2.6666666666666665,-11.333333333333334,-1002.3333333333334,-885.0,2.0,1.0,270324.0
12:18:57,RTL,0.010399842634797096,-0.0026882453045497337,-2.335257371266683,0.9673518737157186,0.0030373953438053527,-0.001443843279654781,-35.3632624,149.1652381,78912.66666666667,0.3333333333333333,-3.6666666666666665,100.33333333333333,0.0,68.33333333333333,-995.0,974.6666666666666,6.666666666666667,2.3333333333333335,270324.0
12:18:58,RTL,0.02042680171628793,-0.0020755069563165307,-2.334383964538574,1.351838747660319,0.0032914949115365744,0.0017124226627250512,-35.3632625,149.16523813333333,77627.66666666667,2.0,-4.0,99.33333333333333,-1.0,61.333333333333336,-1020.0,1357.6666666666667,7.0,5.333333333333333,200.0
12:18:59,RTL,0.030229391530156136,-0.002816462035601338,-2.334763209025065,1.3088802893956502,0.00085256970487535,-0.005353710846975446,-35.3632627,149.1652383,76868.33333333333,2.3333333333333335,-4.333333333333333,100.33333333333333,-0.6666666666666666,37.666666666666664,-1012.6666666666666,1313.6666666666667,4.333333333333333,-1.3333333333333333,200.0
12:19:01,RTL,0.018166393352051575,-0.0012737711852726836,-2.335298697153727,0.04796286051472028,0.0089506721124053,0.005875286180526018,-35.36326259999999,149.16523826666665,74832.0,2.0,-5.333333333333333,100.0,3.3333333333333335,-36.666666666666664,-995.0,51.0,12.333333333333334,9.0,200.0
