time_stamp,MODE,lat,lon,relative_alt,roll,pitch,yaw,rollspeed,pitchspeed,yawspeed,xacc,yacc,zacc,xgyro,ygyro,zgyro,vx,vy,vz,RTL_ALT
11:16:24.224,STABILIZE,-35.3632621,149.1652374,0,0.00014177968841977417,0.0012560420436784625,0.029796697199344635,0.00027223690995015204,0.00031188176944851875,0.002602617722004652,0,1,-1000,0,0,0,0,0,1,1500.0
11:16:24.425,STABILIZE,-35.3632621,149.1652374,0,0.00014177968841977417,0.0012560420436784625,0.029796697199344635,0.00027223690995015204,0.00031188176944851875,0.002602617722004652,0,1,-1000,0,0,0,0,0,1,1500.0
11:16:24.626,STABILIZE,-35.3632621,149.1652374,0,0.00014177968841977417,0.0012560420436784625,0.029796697199344635,0.00027223690995015204,0.00031188176944851875,0.002602617722004652,0,1,-1000,0,0,0,0,0,1,1500.0
11:16:24.827,STABILIZE,-35.3632621,149.1652375,0,0.00024137615400832146,0.0015724173281341791,0.027778279036283493,0.000364642939530313,0.0003324103308841586,0.0022930563427507877,0,1,-1000,0,0,0,-1,2,0,1500.0
11:16:25.028,STABILIZE,-35.3632621,149.1652375,0,0.0005061480915173888,0.0015436045359820127,0.027603276073932648,1.1738011380657554e-05,0.0003253858885727823,0.002201678464189172,0,3,-997,0,0,0,-2,3,1,1500.0
11:16:25.229,STABILIZE,-35.3632621,149.1652375,0,0.0005061480915173888,0.0015436045359820127,0.027603276073932648,1.1738011380657554e-05,0.0003253858885727823,0.002201678464189172,0,3,-997,0,0,0,-2,3,1,1500.0
11:16:25.430,STABILIZE,-35.3632621,149.1652375,0,0.000414138165069744,0.0015053715324029326,0.027440475299954414,0.00026486936258152127,0.0002304658410139382,0.002457093447446823,0,1,-1000,0,0,0,-2,3,1,1500.0
11:16:25.632,STABILIZE,-35.3632622,149.1652375,0,0.0002755086461547762,0.0014484026469290257,0.02725421078503132,0.00021279996144585311,0.0003561759367585182,0.0021539288572967052,0,1,-1000,0,0,0,-2,3,1,1500.0
11:16:25.834,STABILIZE,-35.3632622,149.1652375,0,0.0002755086461547762,0.0014484026469290257,0.02725421078503132,0.00021279996144585311,0.0003561759367585182,0.0021539288572967052,0,1,-1000,0,0,0,-2,3,1,1500.0
11:16:26.035,STABILIZE,-35.3632622,149.1652376,0,8.990286005428061e-06,0.0013603749684989452,0.02694692835211754,0.00028974219458177686,0.00023478761431761086,0.002129488857463002,0,1,-1000,0,0,0,-2,2,1,1500.0
11:16:26.236,STABILIZE,-35.3632622,149.1652376,0,8.990286005428061e-06,0.0013603749684989452,0.02694692835211754,0.00028974219458177686,0.00023478761431761086,0.002129488857463002,0,1,-1000,0,0,0,-2,2,1,1500.0
11:16:26.438,STABILIZE,-35.3632622,149.1652376,0,8.990286005428061e-06,0.0013603749684989452,0.02694692835211754,0.00028974219458177686,0.00023478761431761086,0.002129488857463002,0,1,-1000,0,0,0,-2,2,1,1500.0
11:16:26.639,STABILIZE,-35.3632622,149.1652376,0,8.990286005428061e-06,0.0013603749684989452,0.02694692835211754,0.00028974219458177686,0.00023478761431761086,0.002129488857463002,0,1,-1000,0,0,0,-2,2,1,1500.0
11:16:26.840,STABILIZE,-35.3632622,149.1652375,0,-0.0003489064401946962,0.0012033478124067187,0.026496002450585365,0.00023807038087397814,0.0003347769088577479,0.0020947647280991077,0,1,-1000,0,0,0,-1,2,0,1500.0
11:16:27.042,STABILIZE,-35.3632622,149.1652375,0,-0.00045394268818199635,0.001161620719358325,0.026351219043135643,0.00021277088671922684,0.00032160119735635817,0.0021043848246335983,0,1,-1000,0,0,0,-1,2,0,1500.0
11:16:27.243,STABILIZE,-35.3632622,149.1652375,0,-0.00045394268818199635,0.001161620719358325,0.026351219043135643,0.00021277088671922684,0.00032160119735635817,0.0021043848246335983,0,1,-1000,0,0,0,-1,2,0,1500.0
11:16:27.444,STABILIZE,-35.3632622,149.1652375,0,-0.00045394268818199635,0.001161620719358325,0.026351219043135643,0.00021277088671922684,0.00032160119735635817,0.0021043848246335983,0,1,-1000,0,0,0,-1,2,0,1500.0
11:16:27.646,STABILIZE,-35.3632622,149.1652375,0,-0.00045394268818199635,0.001161620719358325,0.026351219043135643,0.00021277088671922684,0.00032160119735635817,0.0021043848246335983,0,1,-1000,0,0,0,-1,1,0,1500.0
11:16:27.847,STABILIZE,-35.3632622,149.1652375,0,-0.00045394268818199635,0.001161620719358325,0.026351219043135643,0.00021277088671922684,0.00032160119735635817,0.0021043848246335983,0,1,-1000,0,0,0,-1,1,0,1500.0
11:16:28.048,STABILIZE,-35.3632622,149.1652375,0,-0.00045394268818199635,0.001161620719358325,0.026351219043135643,0.00021277088671922684,0.00032160119735635817,0.0021043848246335983,0,1,-1000,0,0,0,-1,1,0,1500.0
11:16:28.250,STABILIZE,-35.3632622,149.1652375,0,-0.00045394268818199635,0.001161620719358325,0.026351219043135643,0.00021277088671922684,0.00032160119735635817,0.0021043848246335983,0,1,-1000,0,0,0,-1,1,0,1500.0
11:16:28.451,STABILIZE,-35.3632622,149.1652375,0,-0.00045394268818199635,0.001161620719358325,0.026351219043135643,0.00021277088671922684,0.00032160119735635817,0.0021043848246335983,0,1,-1000,0,0,0,-1,1,0,1500.0
11:16:28.652,STABILIZE,-35.3632622,149.1652375,0,-0.00045394268818199635,0.001161620719358325,0.026351219043135643,0.00021277088671922684,0.00032160119735635817,0.0021043848246335983,0,1,-1000,0,0,0,-1,1,0,1500.0
11:16:28.854,STABILIZE,-35.3632621,149.1652375,0,-0.0009053486282937229,0.0009857144905254245,0.025557707995176315,0.00016103044617921114,0.00019568079733289778,0.001998784253373742,0,1,-1000,0,1,0,-1,1,0,1500.0
11:16:29.055,STABILIZE,-35.3632621,149.1652375,0,-0.0009053486282937229,0.0009857144905254245,0.025557707995176315,0.00016103044617921114,0.00019568079733289778,0.001998784253373742,0,1,-1000,0,1,0,-1,1,0,1500.0
11:16:29.256,STABILIZE,-35.3632621,149.1652375,0,-0.0009053486282937229,0.0009857144905254245,0.025557707995176315,0.00016103044617921114,0.00019568079733289778,0.001998784253373742,0,1,-1000,0,1,0,-1,1,0,1500.0
11:16:29.457,STABILIZE,-35.3632621,149.1652375,0,-0.0009689720463939011,0.0009707410936243832,0.025401122868061066,0.00024632568238303065,0.0002583515306469053,0.0018782815895974636,0,1,-1000,0,1,0,-1,0,0,1500.0
11:16:29.659,STABILIZE,-35.3632621,149.1652375,0,-0.0009689720463939011,0.0009707410936243832,0.025401122868061066,0.00024632568238303065,0.0002583515306469053,0.0018782815895974636,0,1,-1000,0,1,0,-1,0,0,1500.0
11:16:29.860,STABILIZE,-35.3632621,149.1652375,0,-0.0009689720463939011,0.0009707410936243832,0.025401122868061066,0.00024632568238303065,0.0002583515306469053,0.0018782815895974636,0,1,-1000,0,1,0,-1,0,0,1500.0
11:16:30.061,STABILIZE,-35.3632621,149.1652375,0,-0.0009689720463939011,0.0009707410936243832,0.025401122868061066,0.00024632568238303065,0.0002583515306469053,0.0018782815895974636,0,1,-1000,0,1,0,-1,0,0,1500.0
11:16:30.263,STABILIZE,-35.3632621,149.1652375,0,-0.0009689720463939011,0.0009707410936243832,0.025401122868061066,0.00024632568238303065,0.0002583515306469053,0.0018782815895974636,0,1,-1000,0,1,0,-1,0,0,1500.0
11:16:30.465,STABILIZE,-35.3632621,149.1652375,0,-0.0009689720463939011,0.0009707410936243832,0.025401122868061066,0.00024632568238303065,0.0002583515306469053,0.0018782815895974636,0,1,-1000,0,1,0,-1,0,0,1500.0
11:16:30.666,STABILIZE,-35.3632621,149.1652375,0,-0.0009689720463939011,0.0009707410936243832,0.025401122868061066,0.00024632568238303065,0.0002583515306469053,0.0018782815895974636,0,1,-1000,0,1,0,-1,0,0,1500.0
11:16:30.867,STABILIZE,-35.3632621,149.1652375,0,-0.0009689720463939011,0.0009707410936243832,0.025401122868061066,0.00024632568238303065,0.0002583515306469053,0.0018782815895974636,0,1,-1000,0,1,0,-1,0,0,1500.0
11:16:31.069,STABILIZE,-35.3632621,149.1652375,0,-0.0009689720463939011,0.0009707410936243832,0.025401122868061066,0.00024632568238303065,0.0002583515306469053,0.0018782815895974636,0,1,-1000,0,1,0,-1,0,0,1500.0
11:16:31.270,STABILIZE,-35.3632621,149.1652375,0,-0.0009689720463939011,0.0009707410936243832,0.025401122868061066,0.00024632568238303065,0.0002583515306469053,0.0018782815895974636,0,1,-1000,0,1,0,-1,0,0,1500.0
11:16:31.471,STABILIZE,-35.3632621,149.1652375,0,-0.0009689720463939011,0.0009707410936243832,0.025401122868061066,0.00024632568238303065,0.0002583515306469053,0.0018782815895974636,0,1,-1000,0,1,0,-1,0,0,1500.0
11:16:31.673,STABILIZE,-35.3632621,149.1652375,0,-0.0009689720463939011,0.0009707410936243832,0.025401122868061066,0.00024632568238303065,0.0002583515306469053,0.0018782815895974636,0,1,-1000,0,1,0,-1,0,0,1500.0
11:16:31.874,STABILIZE,-35.3632621,149.1652375,0,-0.001062940340489149,0.00093006034148857,0.024591369554400444,0.0002043499262072146,0.00014356814790517092,0.0018509465735405684,0,1,-1000,0,0,1,-1,0,0,1500.0
11:16:32.076,STABILIZE,-35.3632621,149.1652375,0,-0.001062940340489149,0.00093006034148857,0.024591369554400444,0.0002043499262072146,0.00014356814790517092,0.0018509465735405684,0,1,-1000,0,0,1,-1,0,0,1500.0
11:16:32.290,STABILIZE,-35.3632621,149.1652375,0,-0.001062940340489149,0.00093006034148857,0.024591369554400444,0.0002043499262072146,0.00014356814790517092,0.0018509465735405684,0,1,-1000,0,0,1,-1,0,0,1500.0
11:16:32.494,STABILIZE,-35.3632621,149.1652375,0,-0.001062940340489149,0.00093006034148857,0.024591369554400444,0.0002043499262072146,0.00014356814790517092,0.0018509465735405684,0,1,-1000,0,0,1,-1,0,0,1500.0
11:16:32.695,STABILIZE,-35.3632621,149.1652375,0,-0.001062940340489149,0.00093006034148857,0.024591369554400444,0.0002043499262072146,0.00014356814790517092,0.0018509465735405684,0,1,-1000,0,0,1,-1,0,0,1500.0
11:16:32.896,STABILIZE,-35.3632621,149.1652374,0,-0.0009012417867779732,0.0009350171312689781,0.02426823228597641,0.00022201507817953825,0.00021649041445925832,0.001820114441215992,0,2,-1000,0,0,0,-1,0,-3,1500.0
11:16:33.097,STABILIZE,-35.3632621,149.1652374,0,-0.0009012417867779732,0.0009350171312689781,0.02426823228597641,0.00022201507817953825,0.00021649041445925832,0.001820114441215992,0,2,-1000,0,0,0,-1,0,-3,1500.0
11:16:33.299,STABILIZE,-35.3632621,149.1652374,0,-0.0009012417867779732,0.0009350171312689781,0.02426823228597641,0.00022201507817953825,0.00021649041445925832,0.001820114441215992,0,1,-1000,0,0,0,-1,0,-3,1500.0
11:16:33.500,STABILIZE,-35.3632621,149.1652374,0,-0.0009012417867779732,0.0009350171312689781,0.02426823228597641,0.00022201507817953825,0.00021649041445925832,0.001820114441215992,0,1,-1000,0,0,0,-1,0,-3,1500.0
11:16:33.701,STABILIZE,-35.3632621,149.1652374,0,-0.0009012417867779732,0.0009350171312689781,0.02426823228597641,0.00022201507817953825,0.00021649041445925832,0.001820114441215992,0,1,-1000,0,0,0,-1,0,-3,1500.0
11:16:33.902,STABILIZE,-35.3632621,149.1652375,0,-0.0007060689968056977,0.0009502058965153992,0.02395256608724594,0.00020490598399192095,0.0002158117131330073,0.001714685233309865,0,2,-1000,0,1,0,-1,0,-2,1500.0
11:16:34.103,STABILIZE,-35.3632621,149.1652375,0,-0.0006777376402169466,0.0009531212272122502,0.02386321872472763,0.0001344808260910213,0.0002859363448806107,0.0017833691090345383,0,2,-1000,0,1,0,-1,0,-2,1500.0
11:16:34.305,STABILIZE,-35.3632621,149.1652375,0,-0.0006777376402169466,0.0009531212272122502,0.02386321872472763,0.0001344808260910213,0.0002859363448806107,0.0017833691090345383,0,2,-1000,0,1,0,-1,0,-2,1500.0
11:16:34.506,STABILIZE,-35.3632621,149.1652375,0,-0.0006777376402169466,0.0009531212272122502,0.02386321872472763,0.0001344808260910213,0.0002859363448806107,0.0017833691090345383,0,2,-1000,0,1,0,-1,0,-2,1500.0
11:16:34.708,STABILIZE,-35.3632621,149.1652375,0,-0.0006777376402169466,0.0009531212272122502,0.02386321872472763,0.0001344808260910213,0.0002859363448806107,0.0017833691090345383,0,2,-1000,0,1,0,-1,0,-2,1500.0
11:16:34.909,STABILIZE,-35.3632622,149.1652375,0,-0.0006298713851720095,0.0009573089773766696,0.023596132174134254,0.00020633620442822576,0.0002934339572675526,0.0015889692585915327,0,1,-1000,0,1,0,-1,1,-2,1500.0
11:16:35.111,STABILIZE,-35.3632622,149.1652375,0,-0.0006324777496047318,0.0009545120410621166,0.023513825610280037,0.00023891497403383255,0.0002312572905793786,0.0016975682228803635,0,1,-1000,0,1,0,-1,1,-1,1500.0
11:16:35.312,STABILIZE,-35.3632622,149.1652375,0,-0.0006324777496047318,0.0009545120410621166,0.023513825610280037,0.00023891497403383255,0.0002312572905793786,0.0016975682228803635,0,1,-1000,0,1,0,-1,1,-1,1500.0
11:16:35.513,STABILIZE,-35.3632622,149.1652375,0,-0.0006324777496047318,0.0009545120410621166,0.023513825610280037,0.00023891497403383255,0.0002312572905793786,0.0016975682228803635,0,1,-1000,0,1,0,-1,1,-1,1500.0
11:16:35.715,STABILIZE,-35.3632622,149.1652375,0,-0.0006324777496047318,0.0009545120410621166,0.023513825610280037,0.00023891497403383255,0.0002312572905793786,0.0016975682228803635,0,1,-1000,0,1,0,-1,1,-1,1500.0
11:16:35.916,STABILIZE,-35.3632622,149.1652375,0,-0.0003348622703924775,0.0009646027465350926,0.023236306384205818,0.0004045822424814105,0.0002779286587610841,0.0016401782631874084,0,1,-1000,0,0,0,-1,2,0,1500.0
11:16:36.118,STABILIZE,-35.3632622,149.1652375,0,-0.0003348622703924775,0.0009646027465350926,0.023236306384205818,0.0004045822424814105,0.0002779286587610841,0.0016401782631874084,0,2,-1000,0,0,0,-1,2,0,1500.0
11:16:36.319,STABILIZE,-35.3632622,149.1652375,0,-0.0003348622703924775,0.0009646027465350926,0.023236306384205818,0.0004045822424814105,0.0002779286587610841,0.0016401782631874084,0,2,-1000,0,0,0,-1,2,0,1500.0
11:16:36.520,STABILIZE,-35.3632622,149.1652375,0,-0.0003348622703924775,0.0009646027465350926,0.023236306384205818,0.0004045822424814105,0.0002779286587610841,0.0016401782631874084,0,2,-1000,0,0,0,-1,2,0,1500.0
11:16:36.722,STABILIZE,-35.3632622,149.1652375,0,-0.0003348622703924775,0.0009646027465350926,0.023236306384205818,0.0004045822424814105,0.0002779286587610841,0.0016401782631874084,0,2,-1000,0,0,0,-1,2,0,1500.0
11:16:36.923,STABILIZE,-35.3632622,149.1652375,0,-0.0003348622703924775,0.0009646027465350926,0.023236306384205818,0.0004045822424814105,0.0002779286587610841,0.0016401782631874084,0,2,-1000,0,0,0,-1,2,0,1500.0
11:16:37.124,STABILIZE,-35.3632622,149.1652375,0,-0.0003348622703924775,0.0009646027465350926,0.023236306384205818,0.0004045822424814105,0.0002779286587610841,0.0016401782631874084,0,2,-1000,0,0,0,-1,2,0,1500.0
11:16:37.326,STABILIZE,-35.3632622,149.1652375,0,-0.0003348622703924775,0.0009646027465350926,0.023236306384205818,0.0004045822424814105,0.0002779286587610841,0.0016401782631874084,0,2,-1000,0,0,0,-1,2,0,1500.0
11:16:37.527,STABILIZE,-35.3632622,149.1652375,0,-0.0003348622703924775,0.0009646027465350926,0.023236306384205818,0.0004045822424814105,0.0002779286587610841,0.0016401782631874084,0,2,-1000,0,0,0,-1,2,0,1500.0
11:16:37.729,STABILIZE,-35.3632622,149.1652375,0,-0.0003348622703924775,0.0009646027465350926,0.023236306384205818,0.0004045822424814105,0.0002779286587610841,0.0016401782631874084,0,2,-1000,0,0,0,-1,2,0,1500.0
11:16:37.930,STABILIZE,-35.3632622,149.1652375,0,-0.0006918555591255426,0.0009697387577034533,0.02255249209702015,0.0002193437539972365,0.00016459106700494885,0.0014590178616344929,0,2,-1000,0,0,0,-1,2,0,1500.0
11:16:38.131,STABILIZE,-35.3632622,149.1652375,0,-0.0007370366947725415,0.0009693799656815827,0.02247382514178753,0.0002964450977742672,0.00028570578433573246,0.0016394909471273422,0,1,-1000,1,1,1,-1,2,0,1500.0
11:16:38.333,STABILIZE,-35.3632622,149.1652375,0,-0.0007370366947725415,0.0009693799656815827,0.02247382514178753,0.0002964450977742672,0.00028570578433573246,0.0016394909471273422,0,1,-1000,1,1,1,-1,2,0,1500.0
11:16:38.534,STABILIZE,-35.3632622,149.1652375,0,-0.0007370366947725415,0.0009693799656815827,0.02247382514178753,0.0002964450977742672,0.00028570578433573246,0.0016394909471273422,0,1,-1000,1,1,1,-1,2,0,1500.0
11:16:38.735,STABILIZE,-35.3632622,149.1652375,0,-0.0007370366947725415,0.0009693799656815827,0.02247382514178753,0.0002964450977742672,0.00028570578433573246,0.0016394909471273422,0,1,-1000,1,1,1,-1,2,0,1500.0
11:16:38.937,STABILIZE,-35.3632622,149.1652375,0,-0.0008346058311872184,0.0009863122832030058,0.02226349338889122,0.00021407089661806822,0.00017930858302861452,0.0015758485533297062,0,2,-1000,0,1,1,-1,1,0,1500.0
11:16:39.138,STABILIZE,-35.3632622,149.1652375,0,-0.0008346058311872184,0.0009863122832030058,0.02226349338889122,0.00021407089661806822,0.00017930858302861452,0.0015758485533297062,0,2,-1000,0,1,1,-1,1,0,1500.0
11:16:39.341,AUTO,-35.3632622,149.1652375,0,-0.0007143344264477491,0.0009856311371549964,0.02215363271534443,0.00017369305714964867,0.00023648684145882726,0.001554226502776146,0,1,-1000,1,0,0,-1,0,-2,1500.0
11:16:39.542,AUTO,-35.3632622,149.1652375,6,-0.000687552965246141,0.0009937395807355642,0.02210432104766369,0.00023965118452906609,0.00024194252910092473,0.0015571158146485686,0,1,-1000,1,0,1,-1,0,-1,1500.0
11:16:39.743,AUTO,-35.3632622,149.1652375,6,-0.000687552965246141,0.0009937395807355642,0.02210432104766369,0.00023965118452906609,0.00024194252910092473,0.0015571158146485686,0,1,-1000,1,0,1,-1,0,-1,1500.0
11:16:39.945,AUTO,-35.3632622,149.1652375,8,-0.0006611840217374265,0.0009887669002637267,0.0220284853130579,0.00024246436078101397,0.00024337542708963156,0.0014873745385557413,0,1,-1000,0,1,1,-1,0,-1,1500.0
11:16:40.147,AUTO,-35.3632621,149.1652375,9,-0.0006460652220994234,0.0009920833399519324,0.021963905543088913,0.00024285505060106516,0.0003285596612840891,0.0014754408039152622,0,1,-1000,0,1,0,-1,0,-1,1500.0
11:16:40.349,AUTO,-35.3632621,149.1652375,9,-0.0006460652220994234,0.0009920833399519324,0.021963905543088913,0.00024285505060106516,0.0003285596612840891,0.0014754408039152622,0,1,-1000,0,1,0,-1,0,-1,1500.0
11:16:40.550,AUTO,-35.3632621,149.1652375,9,-0.0006460652220994234,0.0009920833399519324,0.021963905543088913,0.00024285505060106516,0.0003285596612840891,0.0014754408039152622,0,1,-1000,0,1,0,-1,0,-1,1500.0
11:16:40.752,AUTO,-35.3632621,149.1652375,9,-0.0006460652220994234,0.0009920833399519324,0.021963905543088913,0.00024285505060106516,0.0003285596612840891,0.0014754408039152622,0,1,-1000,0,1,0,-1,0,-1,1500.0
11:16:40.954,AUTO,-35.3632621,149.1652375,10,-0.0005421292153187096,0.0011083955178037286,0.021789798513054848,0.00025254947831854224,0.00012503069592639804,0.0015617485623806715,0,2,-1000,0,1,1,0,0,-1,1500.0
11:16:41.155,AUTO,-35.3632621,149.1652375,11,-0.0004972037859261036,0.0011640307493507862,0.021721139550209045,0.0002842381363734603,0.00019251374760642648,0.001502610626630485,0,1,-1000,0,1,0,0,0,-1,1500.0
11:16:41.408,AUTO,-35.3632621,149.1652375,11,-0.0004437663883436471,0.0012248670682311058,0.021632708609104156,0.0002844295813702047,0.00036526785697788,0.0015281501691788435,0,2,-1000,0,1,0,0,0,-1,1500.0
11:16:41.734,AUTO,-35.3632621,149.1652375,11,-0.0003841262951027602,0.0012898198328912258,0.02156279981136322,0.000337744306307286,0.00035070220474153757,0.0015033227391541004,0,1,-1000,0,0,0,0,0,0,1500.0
11:16:41.963,AUTO,-35.3632621,149.1652375,11,-0.00032642699079588056,0.001359824906103313,0.021490134298801422,0.00035490113077685237,0.00029976479709148407,0.001440631109289825,0,1,-1000,0,1,0,0,0,0,1500.0
11:16:42.203,AUTO,-35.3632621,149.1652375,11,-0.00026758419699035585,0.001426210510544479,0.02139967866241932,0.000348589732311666,0.0003110136021859944,0.0014634020626544952,0,2,-1000,1,0,0,0,0,0,1500.0
11:16:42.420,AUTO,-35.3632621,149.1652375,11,-0.00026758419699035585,0.001426210510544479,0.02139967866241932,0.000348589732311666,0.0003110136021859944,0.0014634020626544952,0,2,-1000,1,0,0,0,0,0,1500.0
11:16:42.703,AUTO,-35.3632621,149.1652375,11,-0.00026758419699035585,0.001426210510544479,0.02139967866241932,0.000348589732311666,0.0003110136021859944,0.0014634020626544952,0,2,-1000,1,0,0,0,0,0,1500.0
11:16:42.908,AUTO,-35.3632621,149.1652374,14,-7.493254815926775e-05,0.0016423726920038462,0.02116517536342144,0.0002531341160647571,0.00030667975079268217,0.0014781999634578824,0,1,-1000,1,0,0,0,0,-1,1500.0
11:16:43.110,AUTO,-35.3632621,149.1652374,14,-3.491190909699071e-06,0.0017244818154722452,0.021077372133731842,0.0003553355927579105,0.0003700412344187498,0.0014463987899944186,0,1,-1000,0,1,0,0,0,-1,1500.0
11:16:43.312,AUTO,-35.3632621,149.1652374,15,0.001302216318435967,0.001220228150486946,0.021065084263682365,0.009735236875712872,-0.011562627740204334,0.00225767120718956,0,0,-1079,10,-10,1,0,0,-6,1500.0
11:16:43.516,AUTO,-35.3632621,149.1652374,15,0.001302216318435967,0.001220228150486946,0.021065084263682365,0.009735236875712872,-0.011562627740204334,0.00225767120718956,0,0,-1079,10,-10,1,0,0,-6,37709.0
11:16:43.717,AUTO,-35.3632621,149.1652375,70,0.004419534932821989,-0.000534196209628135,0.021028678864240646,0.005505666136741638,-0.001871471293270588,0.0038698783610016108,0,0,-1141,6,-1,3,0,0,-39,37709.0
11:16:43.919,AUTO,-35.3632621,149.1652375,209,0.0038104229606688023,0.00011130044003948569,0.02107386663556099,0.016029050573706627,0.003702379297465086,0.0011754933511838317,0,0,-1131,16,4,0,0,1,-72,37709.0
11:16:44.121,AUTO,-35.3632621,149.1652375,425,0.0019249345641583204,0.0011418982176110148,0.021159717813134193,-0.020692484453320503,0.002530478872358799,0.0010580088710412383,0,-1,-1110,-19,2,0,0,1,-101,37709.0
11:16:44.323,AUTO,-35.3632621,149.1652375,425,0.0019249345641583204,0.0011418982176110148,0.021159717813134193,-0.020692484453320503,0.002530478872358799,0.0010580088710412383,0,-1,-1110,-19,2,0,0,1,-101,37709.0
11:16:44.525,AUTO,-35.3632621,149.1652375,425,0.0019249345641583204,0.0011418982176110148,0.021159717813134193,-0.020692484453320503,0.002530478872358799,0.0010580088710412383,0,-1,-1110,-19,2,0,0,1,-101,37709.0
11:16:44.726,AUTO,-35.3632621,149.1652375,425,0.0019249345641583204,0.0011418982176110148,0.021159717813134193,-0.020692484453320503,0.002530478872358799,0.0010580088710412383,0,-1,-1110,-19,2,0,0,1,-101,37709.0
11:16:44.928,AUTO,-35.3632621,149.1652375,1406,0.02304351143538952,-0.0010583713883534074,0.020806770771741867,0.04672331362962723,-0.007278044708073139,0.0023860172368586063,0,0,-1017,47,-6,2,1,6,-145,37709.0
11:16:45.130,AUTO,-35.363262,149.1652378,1781,0.03449247404932976,-0.0029893757309764624,0.020969728007912636,0.044545795768499374,-0.007878335192799568,0.0030788430012762547,0,-1,-1007,45,-7,2,1,12,-148,37709.0
11:16:45.332,AUTO,-35.3632619,149.1652382,2162,0.04526061937212944,-0.005233142524957657,0.02117362804710865,0.04194681718945503,-0.00946736428886652,0.003301705699414015,0,-3,-1002,42,-8,2,3,21,-149,37709.0
11:16:45.533,AUTO,-35.3632618,149.1652388,2546,0.05542011186480522,-0.00788871105760336,0.0214486513286829,0.03948429971933365,-0.011084301397204399,0.004024101886898279,1,-4,-1000,39,-10,3,5,31,-149,37709.0
11:16:45.735,AUTO,-35.3632618,149.1652388,2546,0.05542011186480522,-0.00788871105760336,0.0214486513286829,0.03948429971933365,-0.011084301397204399,0.004024101886898279,1,-4,-1000,39,-10,3,5,31,-149,37709.0
11:16:45.937,AUTO,-35.3632616,149.1652398,2929,0.061760313808918,-0.008770499378442764,-0.008529424667358398,-0.01615370251238346,0.026556750759482384,-0.04592666029930115,0,-8,-992,-15,27,-46,8,44,-148,37709.0
11:16:46.139,AUTO,-35.3632613,149.1652411,3306,0.040516603738069534,0.013863947242498398,-0.03184874728322029,-0.1403011977672577,0.09879793971776962,-0.1027962863445282,2,-10,-991,-139,99,-103,10,53,-145,37709.0
11:16:46.341,AUTO,-35.3632613,149.1652411,3306,0.040516603738069534,0.013863947242498398,-0.03184874728322029,-0.1403011977672577,0.09879793971776962,-0.1027962863445282,2,-10,-991,-139,99,-103,10,53,-145,37709.0
11:16:46.543,AUTO,-35.3632613,149.1652411,3306,0.040516603738069534,0.013863947242498398,-0.03184874728322029,-0.1403011977672577,0.09879793971776962,-0.1027962863445282,2,-10,-991,-139,99,-103,10,53,-145,37709.0
11:16:46.745,AUTO,-35.3632613,149.1652411,3306,0.040516603738069534,0.013863947242498398,-0.03184874728322029,-0.1403011977672577,0.09879793971776962,-0.1027962863445282,2,-10,-991,-139,99,-103,10,53,-145,37709.0
11:16:46.947,AUTO,-35.3632609,149.1652451,4439,-0.031524863094091415,0.005258094519376755,-0.06382407248020172,-0.041995901614427567,-0.01787988469004631,-0.03296671435236931,4,-9,-1003,-41,-17,-33,2,37,-149,37709.0
11:16:47.149,AUTO,-35.3632608,149.1652459,4822,-0.046879325062036514,0.0033339213114231825,-0.07200641185045242,-0.07585150748491287,0.0034394883550703526,-0.04043148458003998,3,-6,-1000,-75,4,-40,2,25,-149,37709.0
11:16:47.351,AUTO,-35.3632607,149.1652464,5208,-0.07040934264659882,0.004296864382922649,-0.08256162703037262,-0.10265307873487473,0.010245022363960743,-0.04555359110236168,2,-4,-999,-101,11,-45,1,9,-148,37709.0
11:16:47.569,AUTO,-35.3632607,149.1652464,5590,-0.08048072457313538,0.00417620362713933,-0.09152788668870926,0.021931659430265427,-0.004874477628618479,-0.02981182001531124,0,0,-1007,22,-4,-30,0,-11,-148,37709.0
11:16:48.044,AUTO,-35.3632608,149.1652449,6356,-0.055782072246074677,0.0022205940913408995,-0.10221659392118454,0.05739855766296387,0.001950012519955635,-0.013734640553593636,-2,4,-1000,58,2,-14,-5,-43,-148,37709.0
11:16:48.421,AUTO,-35.3632608,149.1652449,6356,-0.055782072246074677,0.0022205940913408995,-0.10221659392118454,0.05739855766296387,0.001950012519955635,-0.013734640553593636,-2,4,-1000,58,2,-14,-5,-43,-148,37709.0
11:16:48.742,AUTO,-35.3632608,149.1652449,6356,-0.055782072246074677,0.0022205940913408995,-0.10221659392118454,0.05739855766296387,0.001950012519955635,-0.013734640553593636,-2,4,-1000,58,2,-14,-5,-43,-148,37709.0
11:16:48.947,AUTO,-35.3632613,149.1652403,7502,-0.008334933780133724,0.007762161549180746,-0.10789105296134949,0.06842654943466187,0.011188916862010956,-0.0027257376350462437,-7,16,-1003,69,11,-2,-13,-60,-150,37709.0
11:16:49.148,AUTO,-35.3632616,149.1652387,7888,0.00857146829366684,0.010185281746089458,-0.10788880288600922,0.068601094186306,0.009503357112407684,0.0003892859094776213,-4,12,-1004,69,10,0,-15,-57,-150,37709.0
11:16:49.351,AUTO,-35.363262,149.1652371,8277,0.02574246935546398,0.012314138934016228,-0.1072436273097992,0.06830661743879318,0.007344219367951155,0.001668719109147787,-5,15,-1004,68,8,1,-18,-50,-151,26242.0
11:16:49.553,AUTO,-35.3632625,149.1652358,8667,0.042389191687107086,0.013422106392681599,-0.10631268471479416,0.06632018834352493,0.002238633343949914,0.003925882279872894,0,8,-1003,67,2,3,-21,-39,-152,26242.0
11:16:49.755,AUTO,-35.3632625,149.1652358,8667,0.042389191687107086,0.013422106392681599,-0.10631268471479416,0.06632018834352493,0.002238633343949914,0.003925882279872894,0,8,-1003,67,2,3,-21,-39,-152,26242.0
11:16:49.957,AUTO,-35.363263,149.1652348,9059,0.05855030193924904,0.013378333300352097,-0.10514150559902191,0.06339597702026367,-0.0025835721753537655,0.004268988501280546,-1,10,-1002,64,-1,4,-22,-25,-152,26242.0
11:16:50.159,AUTO,-35.3632635,149.1652343,9451,0.06888683885335922,0.007896795868873596,-0.09951205551624298,0.0006751869805157185,-0.05557294934988022,0.05486059561371803,3,5,-996,1,-54,54,-23,-7,-151,26242.0
11:16:50.361,AUTO,-35.3632635,149.1652343,9451,0.06888683885335922,0.007896795868873596,-0.09951205551624298,0.0006751869805157185,-0.05557294934988022,0.05486059561371803,3,5,-996,1,-54,54,-23,-7,-151,26242.0
11:16:50.564,AUTO,-35.3632635,149.1652343,9451,0.06888683885335922,0.007896795868873596,-0.09951205551624298,0.0006751869805157185,-0.05557294934988022,0.05486059561371803,3,5,-996,1,-54,54,-23,-7,-151,26242.0
11:16:50.766,AUTO,-35.3632635,149.1652343,9451,0.06888683885335922,0.007896795868873596,-0.09951205551624298,0.0006751869805157185,-0.05557294934988022,0.05486059561371803,3,5,-996,1,-54,54,-23,-7,-151,26242.0
11:16:50.968,AUTO,-35.3632643,149.1652351,10613,0.02748386189341545,-0.06388823688030243,-0.03364360332489014,-0.11601153761148453,0.010394756682217121,0.02825801633298397,1,-3,-995,-115,10,27,6,28,-147,26242.0
11:16:51.170,AUTO,-35.3632641,149.1652359,10991,7.995864871190861e-05,-0.04793575406074524,-0.03922160342335701,-0.0954362079501152,0.09160511940717697,-0.054562393575906754,1,-8,-1001,-94,92,-55,21,28,-147,26242.0
11:16:51.371,AUTO,-35.3632635,149.1652365,11371,-0.017827562987804413,-0.024694133549928665,-0.05888878554105759,-0.05708007141947746,0.08856408298015594,-0.08794467896223068,-3,-7,-1005,-56,89,-88,30,23,-148,26242.0
11:16:51.573,AUTO,-35.3632628,149.165237,11753,-0.02721925638616085,-0.00719030573964119,-0.08274281769990921,-0.026582445949316025,0.061518143862485886,-0.0926024466753006,-3,-7,-1006,-26,62,-93,33,14,-149,26242.0
11:16:51.775,AUTO,-35.3632628,149.165237,11753,-0.02721925638616085,-0.00719030573964119,-0.08274281769990921,-0.026582445949316025,0.061518143862485886,-0.0926024466753006,-3,-7,-1006,-26,62,-93,33,14,-149,26242.0
11:16:51.977,AUTO,-35.363262,149.1652372,12147,-0.02941870130598545,0.005369092803448439,-0.10668086260557175,0.006048870738595724,0.043728768825531006,-0.08139683306217194,-5,-6,-1005,6,44,-81,32,4,-150,26242.0
11:16:52.180,AUTO,-35.3632613,149.1652372,12535,-0.026233866810798645,0.013277352787554264,-0.1262618750333786,0.01762508414685726,0.026668226346373558,-0.06553972512483597,-5,-4,-1002,17,27,-66,27,-3,-151,26242.0
11:16:52.382,AUTO,-35.3632613,149.1652372,12535,-0.026233866810798645,0.013277352787554264,-0.1262618750333786,0.01762508414685726,0.026668226346373558,-0.06553972512483597,-5,-4,-1002,17,27,-66,27,-3,-151,26242.0
11:16:52.597,AUTO,-35.3632613,149.1652372,12535,-0.026233866810798645,0.013277352787554264,-0.1262618750333786,0.01762508414685726,0.026668226346373558,-0.06553972512483597,-5,-4,-1002,17,27,-66,27,-3,-151,26242.0
11:16:52.801,AUTO,-35.36326,149.1652362,13698,-0.0010623916750773787,0.02477431483566761,-0.16229842603206635,0.03966454043984413,0.007411835249513388,-0.027008261531591415,-4,1,-1000,40,8,-27,8,-15,-152,26242.0
11:16:53.003,AUTO,-35.36326,149.1652362,13698,-0.0010623916750773787,0.02477431483566761,-0.16229842603206635,0.03966454043984413,0.007411835249513388,-0.027008261531591415,-4,1,-1000,40,8,-27,8,-15,-152,26242.0
11:16:53.205,AUTO,-35.3632599,149.1652358,14090,0.0072060758247971535,0.025227198377251625,-0.16701184213161469,0.03218691423535347,-0.002682345686480403,-0.010939477011561394,-3,1,-1000,33,-2,-11,2,-13,-152,26242.0
11:16:53.431,AUTO,-35.3632598,149.1652354,14480,0.012925219722092152,0.024025583639740944,-0.16891829669475555,0.019312188029289246,-0.0067445882596075535,-0.004066315479576588,-2,1,-999,19,-6,-4,-3,-10,-152,26242.0
11:16:53.731,AUTO,-35.3632599,149.1652351,14870,0.016576234251260757,0.021223798394203186,-0.16835834085941315,0.00970748532563448,-0.012130195274949074,0.0034786099568009377,-1,1,-998,10,-11,3,-7,-6,-151,26242.0
11:16:53.993,AUTO,-35.36326,149.165235,15260,0.01744854636490345,0.017772261053323746,-0.16668590903282166,0.0009672684827819467,-0.014972489327192307,0.008029530756175518,0,2,-999,1,-14,7,-11,-1,-151,26242.0
11:16:54.228,AUTO,-35.3632602,149.1652349,15649,0.01628134213387966,0.01379032339900732,-0.16458168625831604,-0.0069401804357767105,-0.014398249797523022,0.00662158103659749,1,1,-999,-6,-13,6,-13,2,-151,26242.0
11:16:54.431,AUTO,-35.3632602,149.1652349,15649,0.01628134213387966,0.01379032339900732,-0.16458168625831604,-0.0069401804357767105,-0.014398249797523022,0.00662158103659749,1,1,-999,-6,-13,6,-13,2,-151,26242.0
11:16:54.635,AUTO,-35.3632602,149.1652349,15649,0.01628134213387966,0.01379032339900732,-0.16458168625831604,-0.0069401804357767105,-0.014398249797523022,0.00662158103659749,1,1,-999,-6,-13,6,-13,2,-151,26242.0
11:16:54.837,AUTO,-35.363261,149.1652352,16812,0.008402430452406406,0.00383959012106061,-0.16240768134593964,-0.010095025412738323,-0.009937665425240993,-0.0055258204229176044,2,0,-1000,-9,-9,-5,-14,10,-151,26242.0
11:16:55.039,AUTO,-35.3632613,149.1652354,17200,0.00545757170766592,0.0012691594893112779,-0.16376937925815582,-0.011046161875128746,-0.00867767445743084,-0.00790326576679945,3,0,-1000,-10,-7,-8,-12,10,-151,26242.0
11:16:55.241,AUTO,-35.3632613,149.1652354,17200,0.00545757170766592,0.0012691594893112779,-0.16376937925815582,-0.011046161875128746,-0.00867767445743084,-0.00790326576679945,3,0,-1000,-10,-7,-8,-12,10,-151,52089.0
11:16:55.443,AUTO,-35.3632615,149.1652356,17588,0.002295857761055231,-0.0010093061719089746,-0.1660550832748413,-0.014011460356414318,-0.007494328543543816,-0.013408190570771694,3,0,-1000,-13,-6,-13,-11,10,-151,52089.0
11:16:55.644,AUTO,-35.3632617,149.1652358,17976,-0.012961640022695065,-0.0021104053594172,-0.17005719244480133,-0.09213365614414215,-0.0020875539630651474,-0.017954403534531593,1,0,-995,-91,-1,-18,-9,8,-150,52089.0
11:16:55.846,AUTO,-35.3632619,149.1652359,18360,-0.040857210755348206,-0.0027935258112847805,-0.1755950152873993,-0.119722880423069,0.0012227322440594435,-0.026767972856760025,2,0,-996,-118,2,-27,-9,0,-149,52089.0
11:16:56.048,AUTO,-35.3632621,149.1652357,18739,-0.061814531683921814,0.00753980316221714,-0.16309668123722076,-0.03826463967561722,0.0868181586265564,0.16441327333450317,0,1,-980,-37,87,164,-10,-12,-146,52089.0
11:16:56.250,AUTO,-35.3632621,149.1652357,18739,-0.061814531683921814,0.00753980316221714,-0.16309668123722076,-0.03826463967561722,0.0868181586265564,0.16441327333450317,0,1,-980,-37,87,164,-10,-12,-146,52089.0
11:16:56.452,AUTO,-35.3632621,149.1652357,18739,-0.061814531683921814,0.00753980316221714,-0.16309668123722076,-0.03826463967561722,0.0868181586265564,0.16441327333450317,0,1,-980,-37,87,164,-10,-12,-146,52089.0
11:16:56.653,AUTO,-35.3632621,149.1652357,18739,-0.061814531683921814,0.00753980316221714,-0.16309668123722076,-0.03826463967561722,0.0868181586265564,0.16441327333450317,0,1,-980,-37,87,164,-10,-12,-146,52089.0
11:16:56.855,AUTO,-35.3632634,149.1652331,19774,0.00177347706630826,0.0015430278144776821,0.05284689739346504,0.1581273078918457,-0.15640753507614136,0.09145787358283997,1,11,-952,159,-155,91,-31,-40,-118,52089.0
11:16:57.057,AUTO,-35.3632641,149.165232,20062,0.035834651440382004,-0.02810114622116089,0.06031525880098343,0.11231601983308792,-0.08203437179327011,-0.011520733125507832,2,11,-956,113,-81,-11,-27,-33,-106,52089.0
11:16:57.260,AUTO,-35.3632641,149.165232,20062,0.035834651440382004,-0.02810114622116089,0.06031525880098343,0.11231601983308792,-0.08203437179327011,-0.011520733125507832,2,11,-956,113,-81,-11,-27,-33,-106,52089.0
11:16:57.462,AUTO,-35.3632646,149.1652312,20324,0.05682973191142082,-0.039601463824510574,0.052412837743759155,0.05398694798350334,-0.023657575249671936,-0.04101176559925079,1,8,-960,54,-22,-41,-19,-19,-96,52089.0
11:16:57.664,AUTO,-35.3632649,149.1652308,20560,0.0654226765036583,-0.040363941341638565,0.04251386597752571,0.019294295459985733,0.007394914980977774,-0.037058666348457336,0,3,-964,20,8,-37,-9,-4,-86,52089.0
11:16:57.866,AUTO,-35.363265,149.1652308,20774,0.06399055570363998,-0.03513312712311745,0.03600268065929413,-0.023790603503584862,0.027431748807430267,-0.017365939915180206,0,0,-968,-23,28,-17,0,11,-77,52089.0
11:16:58.068,AUTO,-35.363265,149.1652311,20963,0.054799553006887436,-0.027377720922231674,0.03295309841632843,-0.04801163077354431,0.0341498963534832,-0.006860461551696062,0,-4,-972,-47,34,-7,6,24,-69,52089.0
11:16:58.270,AUTO,-35.363265,149.1652311,20963,0.054799553006887436,-0.027377720922231674,0.03295309841632843,-0.04801163077354431,0.0341498963534832,-0.006860461551696062,0,-4,-972,-47,34,-7,6,24,-69,52089.0
11:16:58.473,AUTO,-35.363265,149.1652311,20963,0.054799553006887436,-0.027377720922231674,0.03295309841632843,-0.04801163077354431,0.0341498963534832,-0.006860461551696062,0,-4,-972,-47,34,-7,6,24,-69,52089.0
11:16:58.675,AUTO,-35.363265,149.1652311,20963,0.054799553006887436,-0.027377720922231674,0.03295309841632843,-0.04801163077354431,0.0341498963534832,-0.006860461551696062,0,-4,-972,-47,34,-7,6,24,-69,52089.0
11:16:58.877,AUTO,-35.3632639,149.1652337,21423,0.020030291751027107,-0.0010802855249494314,0.031252454966306686,-0.03911696374416351,0.027859773486852646,-0.00025770743377506733,0,-10,-978,-38,28,0,18,42,-51,52089.0
11:16:59.079,AUTO,-35.3632635,149.1652348,21546,0.009752731770277023,0.004911214113235474,0.0306936614215374,-0.04452617093920708,0.022029411047697067,0.002356053562834859,0,-10,-978,-43,22,2,18,42,-45,52089.0
11:16:59.303,AUTO,-35.363263,149.1652359,21654,0.0011701922630891204,0.009851022623479366,0.030230512842535973,-0.029397092759609222,0.015968365594744682,0.0032948970329016447,0,-10,-978,-28,16,2,17,39,-40,52089.0
11:16:59.505,AUTO,-35.363263,149.1652359,21654,0.0011701922630891204,0.009851022623479366,0.030230512842535973,-0.029397092759609222,0.015968365594744682,0.0032948970329016447,0,-10,-978,-28,16,2,17,39,-40,52089.0
11:16:59.750,AUTO,-35.3632626,149.1652369,21749,-0.004873389378190041,0.013089373707771301,0.02984382025897503,-0.012347112409770489,0.012954527512192726,0.0009587932145223022,1,-9,-977,-11,13,0,15,36,-34,52089.0
11:16:59.985,AUTO,-35.3632622,149.1652378,21829,-0.009140582755208015,0.015002348460257053,0.029401129111647606,-0.017071373760700226,0.004207424353808165,0.00036997569259256124,0,-8,-976,-16,5,0,13,31,-28,52089.0
11:17:00.217,AUTO,-35.3632619,149.1652385,21893,-0.011961257085204124,0.015173017047345638,0.028739212080836296,-0.019609995186328888,-0.0016740241553634405,-0.001558948657475412,1,-7,-975,-18,0,-1,10,26,-22,52089.0
11:17:00.419,AUTO,-35.3632619,149.1652385,21893,-0.011961257085204124,0.015173017047345638,0.028739212080836296,-0.019609995186328888,-0.0016740241553634405,-0.001558948657475412,1,-7,-975,-18,0,-1,10,26,-22,52089.0
11:17:00.627,AUTO,-35.3632619,149.1652385,21893,-0.011961257085204124,0.015173017047345638,0.028739212080836296,-0.019609995186328888,-0.0016740241553634405,-0.001558948657475412,1,-7,-975,-18,0,-1,10,26,-22,52089.0
11:17:00.829,AUTO,-35.3632614,149.16524,21981,-0.02741944044828415,0.017136912792921066,0.025927115231752396,-0.4952872097492218,0.13445211946964264,-0.00877704843878746,-2,-18,-940,-494,135,-8,2,10,1,52089.0
11:17:01.035,AUTO,-35.3632614,149.16524,21981,-0.02741944044828415,0.017136912792921066,0.025927115231752396,-0.4952872097492218,0.13445211946964264,-0.00877704843878746,-2,-18,-940,-494,135,-8,2,10,1,52089.0
11:17:01.237,AUTO,-35.3632613,149.1652401,21954,-0.050293952226638794,0.026446206495165825,0.02479083649814129,0.13928700983524323,-0.005999854765832424,-0.005078752990812063,0,19,-958,141,-4,-5,-1,1,16,16066.0
11:17:01.439,AUTO,-35.3632613,149.1652401,21899,-0.018325544893741608,0.023327689617872238,0.024494674056768417,0.7855405807495117,-0.005186295602470636,-0.0007934283930808306,0,44,-1001,787,-4,0,-7,-7,23,16066.0
11:17:01.641,AUTO,-35.3632614,149.1652398,21844,0.020198483020067215,0.02368045784533024,0.024163469672203064,0.7827869057655334,0.008004607632756233,0.00021646344976034015,0,23,-1016,783,8,0,-12,-8,18,16066.0
11:17:01.842,AUTO,-35.3632617,149.1652395,21798,0.0441560372710228,0.02689722366631031,0.02418367750942707,0.465709924697876,0.01893228106200695,-0.007159594912081957,2,-3,-1001,465,19,-7,-17,-4,16,16066.0
11:17:02.044,AUTO,-35.3632622,149.1652394,21763,0.050180044025182724,0.031239692121744156,0.024551158770918846,-0.4354744255542755,0.01841087080538273,-0.010750372894108295,4,-30,-1018,-435,19,-11,-24,6,8,16066.0
11:17:02.246,AUTO,-35.3632622,149.1652394,21763,0.050180044025182724,0.031239692121744156,0.024551158770918846,-0.4354744255542755,0.01841087080538273,-0.010750372894108295,4,-30,-1018,-435,19,-11,-24,6,8,16066.0
11:17:02.448,AUTO,-35.3632622,149.1652394,21763,0.050180044025182724,0.031239692121744156,0.024551158770918846,-0.4354744255542755,0.01841087080538273,-0.010750372894108295,4,-30,-1018,-435,19,-11,-24,6,8,16066.0
11:17:02.650,AUTO,-35.3632622,149.1652394,21763,0.050180044025182724,0.031239692121744156,0.024551158770918846,-0.4354744255542755,0.01841087080538273,-0.010750372894108295,4,-30,-1018,-435,19,-11,-24,6,8,16066.0
11:17:02.851,AUTO,-35.3632644,149.1652414,21729,0.09973404556512833,0.04426811262965202,0.09614215046167374,0.5793854594230652,0.04189819097518921,0.39937084913253784,14,14,-1008,580,42,399,-46,55,0,16066.0
11:17:03.053,AUTO,-35.3632655,149.1652429,21730,0.10635363310575485,0.03949473798274994,0.21016675233840942,-0.18534360826015472,0.030146313831210136,0.4609676003456116,20,-33,-1009,-185,31,460,-55,74,-2,16066.0
11:17:03.255,AUTO,-35.3632655,149.1652429,21730,0.10635363310575485,0.03949473798274994,0.21016675233840942,-0.18534360826015472,0.030146313831210136,0.4609676003456116,20,-33,-1009,-185,31,460,-55,74,-2,16066.0
11:17:03.457,AUTO,-35.3632668,149.1652451,21735,0.11142120510339737,0.03434276953339577,0.3279382586479187,-0.45804673433303833,0.025484301149845123,0.4506455063819885,21,-35,-1008,-456,26,450,-66,95,-3,16066.0
11:17:03.659,AUTO,-35.3632684,149.1652479,21743,0.12955830991268158,0.02785630151629448,0.43777531385421753,0.19164209067821503,0.030894789844751358,0.4277135133743286,22,-2,-997,193,31,427,-78,118,-4,16066.0
11:17:03.861,AUTO,-35.3632703,149.1652512,21752,0.1518569141626358,0.021113721653819084,0.5400477647781372,0.51568204164505,0.033235982060432434,0.3952256143093109,21,-16,-1011,516,34,394,-90,140,-5,16066.0
11:17:04.063,AUTO,-35.3632724,149.1652552,21764,0.15962384641170502,0.012625813484191895,0.6370177268981934,-0.11989663541316986,0.023766353726387024,0.37526386976242065,23,-57,-1002,-119,24,374,-104,163,-5,16066.0
11:17:04.265,AUTO,-35.3632724,149.1652552,21764,0.15962384641170502,0.012625813484191895,0.6370177268981934,-0.11989663541316986,0.023766353726387024,0.37526386976242065,23,-57,-1002,-119,24,374,-104,163,-5,16066.0
11:17:04.467,AUTO,-35.3632724,149.1652552,21764,0.15962384641170502,0.012625813484191895,0.6370177268981934,-0.11989663541316986,0.023766353726387024,0.37526386976242065,23,-57,-1002,-119,24,374,-104,163,-5,16066.0
11:17:04.669,AUTO,-35.3632724,149.1652552,21764,0.15962384641170502,0.012625813484191895,0.6370177268981934,-0.11989663541316986,0.023766353726387024,0.37526386976242065,23,-57,-1002,-119,24,374,-104,163,-5,16066.0
11:17:04.871,AUTO,-35.363281,149.1652713,21804,0.1950635462999344,-0.027327340096235275,0.9236876964569092,0.19762524962425232,-0.0028431741520762444,0.391621470451355,17,-65,-1009,198,-1,391,-155,239,-6,16066.0
11:17:05.073,AUTO,-35.3632847,149.1652781,21820,0.1873200535774231,-0.04148264601826668,1.0206536054611206,-0.2141018658876419,0.022725781425833702,0.39566901326179504,13,-84,-1010,-212,23,395,-173,265,-7,16066.0
11:17:05.348,AUTO,-35.3632887,149.1652856,21840,0.18493664264678955,-0.0521915927529335,1.1182222366333008,0.0031420777086168528,0.02588493376970291,0.39648130536079407,3,-73,-1011,4,26,396,-191,289,-9,16066.0
11:17:05.576,AUTO,-35.3632932,149.1652938,21864,0.1808163821697235,-0.06718660891056061,1.2153311967849731,0.16441059112548828,0.010312991216778755,0.39594677090644836,0,-77,-1011,165,11,395,-208,312,-11,16066.0
11:17:05.855,AUTO,-35.363298,149.1653026,21893,0.17589500546455383,-0.08268434554338455,1.3118447065353394,-0.02386072278022766,-0.00428038788959384,0.3958474397659302,-13,-98,-1005,-22,-3,395,-224,333,-12,16066.0
11:17:06.136,AUTO,-35.3633033,149.165312,21924,0.17204783856868744,-0.10081271827220917,1.40774667263031,-0.03775138407945633,-0.004666144959628582,0.39102572202682495,-25,-100,-1002,-36,-3,390,-239,355,-12,16066.0
11:17:06.403,AUTO,-35.3633033,149.165312,21924,0.17204783856868744,-0.10081271827220917,1.40774667263031,-0.03775138407945633,-0.004666144959628582,0.39102572202682495,-25,-100,-1002,-36,-3,390,-239,355,-12,16066.0
11:17:06.605,AUTO,-35.3633033,149.165312,21924,0.17204783856868744,-0.10081271827220917,1.40774667263031,-0.03775138407945633,-0.004666144959628582,0.39102572202682495,-25,-100,-1002,-36,-3,390,-239,355,-12,16066.0
11:17:06.810,AUTO,-35.363321,149.1653436,22023,0.1509966254234314,-0.15679673850536346,1.6977306604385376,-0.012437883764505386,0.016434483230113983,0.3930434286594391,-70,-84,-1005,-11,17,393,-286,419,-14,16066.0
11:17:07.024,AUTO,-35.363321,149.1653436,22023,0.1509966254234314,-0.15679673850536346,1.6977306604385376,-0.012437883764505386,0.016434483230113983,0.3930434286594391,-70,-84,-1005,-11,17,393,-286,419,-14,16066.0
11:17:07.227,AUTO,-35.3633277,149.1653554,22061,0.13115344941616058,-0.16048318147659302,1.7968475818634033,-0.018725121393799782,0.04979453980922699,0.3927572965621948,-69,-96,-1017,-17,50,392,-301,439,-18,121641.0
11:17:07.429,AUTO,-35.3633346,149.1653677,22108,0.108519047498703,-0.16703590750694275,1.9218465089797974,-0.009173339232802391,0.023804711177945137,0.6694557666778564,-92,-88,-1006,-7,24,669,-313,455,-21,121641.0
11:17:07.631,AUTO,-35.3633418,149.1653805,22161,0.07380867749452591,-0.17775540053844452,2.1215219497680664,0.022008270025253296,0.06451339274644852,0.7358402013778687,-106,-57,-1001,23,65,735,-324,471,-22,121641.0
11:17:07.833,AUTO,-35.3633493,149.1653937,22220,0.05522755905985832,-0.17201818525791168,2.2483296394348145,0.0223703570663929,0.04554443061351776,0.29962649941444397,-134,-61,-1007,23,46,299,-333,484,-26,121641.0
11:17:08.035,AUTO,-35.3633493,149.1653937,22220,0.05522755905985832,-0.17201818525791168,2.2483296394348145,0.0223703570663929,0.04554443061351776,0.29962649941444397,-134,-61,-1007,23,46,299,-333,484,-26,121641.0
11:17:08.237,AUTO,-35.363357,149.1654073,22285,0.053598083555698395,-0.16455413401126862,2.278916835784912,0.04116828367114067,0.011444177478551865,-0.00336848059669137,-116,-59,-996,42,12,-3,-342,494,-28,121641.0
11:17:08.440,AUTO,-35.363357,149.1654073,22285,0.053598083555698395,-0.16455413401126862,2.278916835784912,0.04116828367114067,0.011444177478551865,-0.00336848059669137,-116,-59,-996,42,12,-3,-342,494,-28,121641.0
11:17:08.642,AUTO,-35.363357,149.1654073,22285,0.053598083555698395,-0.16455413401126862,2.278916835784912,0.04116828367114067,0.011444177478551865,-0.00336848059669137,-116,-59,-996,42,12,-3,-342,494,-28,121641.0
11:17:08.844,AUTO,-35.3633808,149.1654493,22478,0.06771270185709,-0.16785022616386414,2.2157106399536133,0.003801340004429221,0.02524344064295292,-0.05491635203361511,-150,-63,-1004,5,26,-54,-361,520,-24,121641.0
11:17:09.046,AUTO,-35.3633889,149.1654638,22540,0.07040481269359589,-0.1590711921453476,2.2070159912109375,0.01684250682592392,0.03284585475921631,-0.02336755208671093,-131,-66,-993,17,33,-23,-367,528,-25,121641.0
11:17:09.248,AUTO,-35.3633889,149.1654638,22540,0.07040481269359589,-0.1590711921453476,2.2070159912109375,0.01684250682592392,0.03284585475921631,-0.02336755208671093,-131,-66,-993,17,33,-23,-367,528,-25,121641.0
11:17:09.450,AUTO,-35.3633972,149.1654785,22604,0.07095880061388016,-0.15447576344013214,2.205458402633667,0.014941978268325329,0.025803089141845703,0.00983901135623455,-130,-79,-999,16,26,9,-371,533,-26,121641.0
11:17:09.652,AUTO,-35.3634056,149.1654933,22670,0.07665055245161057,-0.14819753170013428,2.2061688899993896,-0.005754726007580757,0.04362308979034424,0.005242507439106703,-125,-62,-989,-4,44,5,-374,538,-26,121641.0
11:17:09.854,AUTO,-35.3634141,149.1655084,22739,0.07901736348867416,-0.13911940157413483,2.2080633640289307,-0.01286680530756712,0.06078002229332924,0.004364206921309233,-124,-61,-990,-11,61,4,-376,540,-27,121641.0
11:17:10.057,AUTO,-35.3634226,149.1655234,22809,0.0773020014166832,-0.12683452665805817,2.209465265274048,0.010359412990510464,0.04861702397465706,-0.0028859057929366827,-126,-75,-987,11,49,-3,-377,540,-28,121641.0
11:17:10.259,AUTO,-35.3634226,149.1655234,22809,0.0773020014166832,-0.12683452665805817,2.209465265274048,0.010359412990510464,0.04861702397465706,-0.0028859057929366827,-126,-75,-987,11,49,-3,-377,540,-28,121641.0
11:17:10.461,AUTO,-35.3634226,149.1655234,22809,0.0773020014166832,-0.12683452665805817,2.209465265274048,0.010359412990510464,0.04861702397465706,-0.0028859057929366827,-126,-75,-987,11,49,-3,-377,540,-28,121641.0
11:17:10.663,AUTO,-35.3634226,149.1655234,22809,0.0773020014166832,-0.12683452665805817,2.209465265274048,0.010359412990510464,0.04861702397465706,-0.0028859057929366827,-126,-75,-987,11,49,-3,-377,540,-28,121641.0
11:17:10.866,AUTO,-35.3634479,149.1655679,23007,0.07886375486850739,-0.1251475065946579,2.2071118354797363,-0.027972323819994926,0.006210173945873976,0.0005570848006755114,-120,-76,-972,-26,7,0,-375,534,-22,121641.0
11:17:11.103,AUTO,-35.3634564,149.1655827,23060,0.07762917876243591,-0.11574174463748932,2.2070555686950684,-0.005835391581058502,0.03748073801398277,-0.004042817745357752,-134,-75,-998,-4,38,-3,-375,533,-21,121641.0
11:17:11.451,AUTO,-35.3634648,149.1655973,23114,0.07611100375652313,-0.10427599400281906,2.207209587097168,-0.019911693409085274,0.04375593736767769,-0.004028659779578447,-125,-73,-993,-18,44,-4,-373,529,-22,121641.0
11:17:11.673,AUTO,-35.3634731,149.1656118,23170,0.07685091346502304,-0.09260065853595734,2.2068891525268555,0.06302157789468765,0.046967532485723495,-0.009353142231702805,-127,-84,-994,64,47,-9,-368,523,-23,121641.0
11:17:11.903,AUTO,-35.3634813,149.1656261,23228,0.07601645588874817,-0.08109487593173981,2.2067394256591797,0.007347563281655312,0.07217318564653397,-0.0023136369418352842,-124,-78,-992,8,72,-2,-362,515,-23,121641.0
11:17:12.168,AUTO,-35.3634894,149.1656402,23287,0.07464170455932617,-0.06409402936697006,2.2069613933563232,-0.04522998258471489,0.06479764729738235,-0.008174624294042587,-116,-95,-997,-44,65,-8,-355,505,-24,121641.0
11:17:12.421,AUTO,-35.3634894,149.1656402,23287,0.07464170455932617,-0.06409402936697006,2.2069613933563232,-0.04522998258471489,0.06479764729738235,-0.008174624294042587,-116,-95,-997,-44,65,-8,-355,505,-24,121641.0
11:17:12.624,AUTO,-35.3634894,149.1656402,23287,0.07464170455932617,-0.06409402936697006,2.2069613933563232,-0.04522998258471489,0.06479764729738235,-0.008174624294042587,-116,-95,-997,-44,65,-8,-355,505,-24,121641.0
11:17:12.827,AUTO,-35.3635125,149.1656806,23462,0.0758705586194992,-0.030504705384373665,2.2056846618652344,-0.06703916192054749,0.034611936658620834,0.0005957764806225896,-117,-71,-984,-65,35,0,-325,460,-21,121641.0
11:17:13.029,AUTO,-35.3635125,149.1656806,23462,0.0758705586194992,-0.030504705384373665,2.2056846618652344,-0.06703916192054749,0.034611936658620834,0.0005957764806225896,-117,-71,-984,-65,35,0,-325,460,-21,121641.0
11:17:13.231,AUTO,-35.3635198,149.1656932,23511,0.07432199269533157,-0.01517633255571127,2.2060797214508057,0.01817709021270275,0.0724276453256607,-0.004344689194113016,-101,-67,-994,19,73,-4,-313,444,-19,119642.0
11:17:13.433,AUTO,-35.3635267,149.1657052,23558,0.07357390224933624,-0.00012710208829957992,2.2058937549591064,0.09553612768650055,0.050520822405815125,-0.006923268549144268,-103,-55,-989,96,51,-7,-301,424,-18,119642.0
11:17:13.635,AUTO,-35.3635333,149.1657165,23600,0.0642448216676712,0.008835471235215664,2.2063214778900146,-0.24020765721797943,0.03647078573703766,0.017659520730376244,-91,-75,-984,-239,37,17,-286,403,-15,119642.0
11:17:13.837,AUTO,-35.3635396,149.1657274,23636,0.06289967894554138,0.02207878790795803,2.205890417098999,0.008380109444260597,0.06357139348983765,-0.012173161841928959,-95,-53,-995,10,64,-12,-271,381,-13,119642.0
11:17:14.039,AUTO,-35.3635396,149.1657274,23636,0.06289967894554138,0.02207878790795803,2.205890417098999,0.008380109444260597,0.06357139348983765,-0.012173161841928959,-95,-53,-995,10,64,-12,-271,381,-13,119642.0
11:17:14.241,AUTO,-35.3635457,149.1657378,23666,0.07080816477537155,0.03700621798634529,2.2051289081573486,0.5351943373680115,0.0579344816505909,-0.01803148165345192,-95,-32,-993,536,59,-17,-254,356,-10,119642.0
11:17:14.444,AUTO,-35.3635457,149.1657378,23666,0.07080816477537155,0.03700621798634529,2.2051289081573486,0.5351943373680115,0.0579344816505909,-0.01803148165345192,-95,-32,-993,536,59,-17,-254,356,-10,119642.0
11:17:14.646,AUTO,-35.3635457,149.1657378,23666,0.07080816477537155,0.03700621798634529,2.2051289081573486,0.5351943373680115,0.0579344816505909,-0.01803148165345192,-95,-32,-993,536,59,-17,-254,356,-10,119642.0
11:17:14.848,AUTO,-35.363561,149.1657639,23715,0.039979565888643265,0.055923864245414734,2.2032768726348877,-0.7727394104003906,-0.005459878593683243,0.013663924299180508,-74,-79,-1002,-771,-4,13,-200,279,-4,119642.0
11:17:15.050,AUTO,-35.3635654,149.1657712,23726,0.032876815646886826,0.05576557666063309,2.2032487392425537,-0.4263976812362671,0.007465394213795662,-0.004418933764100075,-63,-46,-994,-424,8,-4,-183,255,-2,119642.0
11:17:15.252,AUTO,-35.3635654,149.1657712,23726,0.032876815646886826,0.05576557666063309,2.2032487392425537,-0.4263976812362671,0.007465394213795662,-0.004418933764100075,-63,-46,-994,-424,8,-4,-183,255,-2,119642.0
11:17:15.454,AUTO,-35.3635694,149.1657779,23733,0.03527892380952835,0.0592966228723526,2.202512502670288,0.26699045300483704,0.0037473058328032494,-0.03096800670027733,-61,-11,-1007,269,4,-31,-167,231,-2,119642.0
11:17:15.656,AUTO,-35.363573,149.165784,23741,0.04291212186217308,0.06293834000825882,2.2018847465515137,0.7117151021957397,0.020786184817552567,-0.01708322949707508,-49,0,-1012,713,21,-17,-150,209,-3,119642.0
11:17:15.858,AUTO,-35.3635763,149.1657894,23751,0.03880481794476509,0.06774601340293884,2.2018606662750244,0.4609767496585846,0.015571866184473038,0.0037132345605641603,-41,-33,-1005,461,16,3,-133,187,-4,119642.0
11:17:16.060,AUTO,-35.3635793,149.1657942,23762,0.02506464533507824,0.07467290014028549,2.201563596725464,-0.36075371503829956,0.03310327231884003,0.012785482220351696,-41,-60,-1003,-360,34,12,-116,165,-4,119642.0
11:17:16.262,AUTO,-35.3635793,149.1657942,23762,0.02506464533507824,0.07467290014028549,2.201563596725464,-0.36075371503829956,0.03310327231884003,0.012785482220351696,-41,-60,-1003,-360,34,12,-116,165,-4,119642.0
11:17:16.465,AUTO,-35.3635793,149.1657942,23762,0.02506464533507824,0.07467290014028549,2.201563596725464,-0.36075371503829956,0.03310327231884003,0.012785482220351696,-41,-60,-1003,-360,34,12,-116,165,-4,119642.0
11:17:16.668,AUTO,-35.3635793,149.1657942,23762,0.02506464533507824,0.07467290014028549,2.201563596725464,-0.36075371503829956,0.03310327231884003,0.012785482220351696,-41,-60,-1003,-360,34,12,-116,165,-4,119642.0
11:17:16.870,AUTO,-35.3635793,149.1657942,23762,0.02506464533507824,0.07467290014028549,2.201563596725464,-0.36075371503829956,0.03310327231884003,0.012785482220351696,-41,-60,-1003,-360,34,12,-116,165,-4,119642.0
11:17:17.072,AUTO,-35.3635868,149.1658057,23791,0.011001672595739365,0.07304114103317261,2.199326992034912,0.0917816087603569,-0.035786014050245285,0.013951716013252735,-21,-30,-1002,91,-34,14,-62,93,-2,119642.0
11:17:17.293,AUTO,-35.3635883,149.1658079,23797,-0.007978638634085655,0.06454160809516907,2.1991043090820312,-0.6573799252510071,-0.027017828077077866,0.007927188649773598,-18,-47,-996,-656,-25,8,-48,77,-1,119642.0
11:17:17.594,AUTO,-35.3635895,149.1658097,23800,-0.011781376786530018,0.058625269681215286,2.1985092163085938,-0.33498266339302063,-0.018028978258371353,-0.0057903616689145565,-14,-12,-1007,-333,-17,-5,-37,63,0,119642.0
11:17:17.838,AUTO,-35.3635905,149.1658111,23802,-0.009554751217365265,0.05300367251038551,2.1986207962036133,0.41960594058036804,-0.024861924350261688,-0.008821341209113598,-11,17,-1000,421,-23,-8,-25,51,0,119642.0
11:17:18.040,AUTO,-35.3635913,149.1658122,23803,0.0017135681118816137,0.048954401165246964,2.1979551315307617,0.5817955732345581,-0.01767760142683983,0.00032207267940975726,-6,20,-1016,582,-16,0,-15,40,0,119642.0
11:17:18.288,AUTO,-35.3635918,149.1658131,23806,-0.007077841088175774,0.0448882170021534,2.198195457458496,-0.01527588814496994,-0.014620868489146233,0.0040067886002361774,-6,-21,-996,-15,-13,4,-6,31,0,119642.0
11:17:18.491,AUTO,-35.3635918,149.1658131,23806,-0.007077841088175774,0.0448882170021534,2.198195457458496,-0.01527588814496994,-0.014620868489146233,0.0040067886002361774,-6,-21,-996,-15,-13,4,-6,31,0,119642.0
11:17:18.694,AUTO,-35.3635918,149.1658131,23806,-0.007077841088175774,0.0448882170021534,2.198195457458496,-0.01527588814496994,-0.014620868489146233,0.0040067886002361774,-6,-21,-996,-15,-13,4,-6,31,0,119642.0
11:17:18.903,AUTO,-35.3635918,149.1658131,23806,-0.007077841088175774,0.0448882170021534,2.198195457458496,-0.01527588814496994,-0.014620868489146233,0.0040067886002361774,-6,-21,-996,-15,-13,4,-6,31,0,119642.0
11:17:19.106,AUTO,-35.3635925,149.1658143,23812,-0.012887850403785706,0.0302034430205822,2.1983087062835693,0.30567628145217896,-0.02857029251754284,-0.009261584840714931,-1,28,-999,307,-27,-9,12,9,0,17155.0
11:17:19.307,AUTO,-35.3635927,149.1658144,23812,-0.008143173530697823,0.023931782692670822,2.198342800140381,0.6721001267433167,-0.025619491934776306,6.33364834357053e-06,-1,34,-990,673,-24,0,16,5,1,17155.0
11:17:19.509,AUTO,-35.3635926,149.1658145,23812,-0.007261326536536217,0.016575846821069717,2.1983089447021484,0.10507984459400177,-0.02799895778298378,-0.00016342141316272318,0,-7,-1007,104,-26,0,20,3,0,17155.0
11:17:19.711,AUTO,-35.3635924,149.1658145,23815,-0.015566572546958923,0.008491924963891506,2.1981444358825684,-0.6352163553237915,-0.02825327031314373,-0.002100706333294511,0,-29,-997,-634,-27,-1,22,1,0,17155.0
11:17:19.913,AUTO,-35.3635922,149.1658145,23815,-0.017641231417655945,0.0006707449210807681,2.198094367980957,-0.39178481698036194,-0.028852561488747597,-0.008411213755607605,0,-2,-1005,-390,-27,-8,21,0,0,17155.0
11:17:20.115,AUTO,-35.3635922,149.1658145,23815,-0.017641231417655945,0.0006707449210807681,2.198094367980957,-0.39178481698036194,-0.028852561488747597,-0.008411213755607605,0,-2,-1005,-390,-27,-8,21,0,0,17155.0
11:17:20.317,AUTO,-35.363592,149.1658145,23816,-0.0076487865298986435,-0.0047087580896914005,2.198293924331665,0.4236733615398407,-0.00200869282707572,-0.0014908142620697618,-1,33,-1008,425,-1,-1,19,1,0,17155.0
11:17:20.519,RTL,-35.363592,149.1658145,23816,-0.0076487865298986435,-0.0047087580896914005,2.198293924331665,0.4236733615398407,-0.00200869282707572,-0.0014908142620697618,-1,33,-1008,425,-1,-1,19,1,0,17155.0
11:17:20.721,RTL,-35.363592,149.1658145,23816,-0.0076487865298986435,-0.0047087580896914005,2.198293924331665,0.4236733615398407,-0.00200869282707572,-0.0014908142620697618,-1,33,-1008,425,-1,-1,19,1,0,17155.0
11:17:20.923,RTL,-35.3635916,149.1658148,23819,-0.01078457199037075,0.0023936363868415356,2.1969025135040283,-0.604914665222168,0.00691633764654398,-0.0033641073387116194,-1,-23,-1009,-604,8,-3,17,3,0,17155.0
11:17:21.125,RTL,-35.3635916,149.1658148,23819,-0.01078457199037075,0.0023936363868415356,2.1969025135040283,-0.604914665222168,0.00691633764654398,-0.0033641073387116194,-1,-23,-1009,-604,8,-3,17,3,0,17155.0
11:17:21.327,RTL,-35.3635915,149.165815,23825,-0.009219318628311157,0.003670670557767153,2.1961405277252197,-0.12988772988319397,0.007591106928884983,-0.004279015120118856,-3,18,-1019,-128,8,-4,15,2,-3,17155.0
11:17:21.529,RTL,-35.3635913,149.1658151,23844,0.0034396867267787457,0.004302449058741331,2.195711135864258,0.5462164282798767,0.00995316356420517,-0.0026010784786194563,-2,28,-1030,547,11,-2,15,1,-9,17155.0
11:17:21.730,RTL,-35.3635912,149.1658153,23880,0.004825945012271404,0.00478979991748929,2.195408344268799,-0.08956586569547653,0.0005190959200263023,-0.00478020217269659,0,-14,-1028,-90,1,-4,14,0,-17,17155.0
11:17:21.932,RTL,-35.3635911,149.1658154,23936,-0.0033336575143039227,0.004925948102027178,2.1951069831848145,-0.411054402589798,-0.00044081651140004396,-0.0008138460107147694,-2,-14,-1038,-410,0,0,12,0,-26,17155.0
11:17:22.134,RTL,-35.3635911,149.1658154,23936,-0.0033336575143039227,0.004925948102027178,2.1951069831848145,-0.411054402589798,-0.00044081651140004396,-0.0008138460107147694,-2,-14,-1038,-410,0,0,12,0,-26,17155.0
11:17:22.337,RTL,-35.363591,149.1658156,24017,0.001230906811542809,0.005172390025109053,2.1946606636047363,0.14100494980812073,0.0015377450035884976,-0.001148110255599022,0,16,-1049,142,2,0,11,-2,-36,17155.0
11:17:22.539,RTL,-35.363591,149.1658156,24017,0.001230906811542809,0.005172390025109053,2.1946606636047363,0.14100494980812073,0.0015377450035884976,-0.001148110255599022,0,16,-1049,142,2,0,11,-2,-36,17155.0
11:17:22.741,RTL,-35.363591,149.1658156,24017,0.001230906811542809,0.005172390025109053,2.1946606636047363,0.14100494980812073,0.0015377450035884976,-0.001148110255599022,0,16,-1049,142,2,0,11,-2,-36,17155.0
11:17:22.942,RTL,-35.363591,149.1658156,24434,-0.0034042682964354753,0.005147222429513931,2.194525957107544,-0.07347525656223297,-0.0012501646997407079,-0.00222774432040751,0,0,-1046,-72,0,-2,9,-4,-71,17155.0
11:17:23.229,RTL,-35.363591,149.1658158,24632,-0.0010617671068757772,0.005746197886765003,2.1942596435546875,0.11751127243041992,4.482944495975971e-05,-0.0008433035691268742,0,5,-1045,117,1,0,9,-4,-82,17155.0
