time_stamp,MODE,lat,lon,relative_alt,roll,pitch,yaw,rollspeed,pitchspeed,yawspeed,xacc,yacc,zacc,xgyro,ygyro,zgyro,vx,vy,vz,RTL_ALT
14:42:07.046,STABILIZE,-35.3632621,149.1652374,0,-0.00045188231160864234,0.001630114042200148,0.02713482640683651,0.00027242867508903146,0.0003055382694583386,0.002290545031428337,0,1,-1000,0,0,0,-2,1,0,1500.0
14:42:07.247,STABILIZE,-35.3632621,149.1652374,0,-0.00045188231160864234,0.001630114042200148,0.02713482640683651,0.00027242867508903146,0.0003055382694583386,0.002290545031428337,0,1,-1000,0,0,0,-2,1,0,1500.0
14:42:07.448,STABILIZE,-35.3632622,149.1652374,0,-0.00045188231160864234,0.001630114042200148,0.02713482640683651,0.00027242867508903146,0.0003055382694583386,0.002290545031428337,0,1,-1000,0,0,0,-2,3,2,1500.0
14:42:07.648,STABILIZE,-35.3632622,149.1652374,0,-0.00045188231160864234,0.001630114042200148,0.02713482640683651,0.00027242867508903146,0.0003055382694583386,0.002290545031428337,0,1,-1000,0,0,0,-2,3,2,1500.0
14:42:07.849,STABILIZE,-35.3632622,149.1652374,0,-0.00045188231160864234,0.001630114042200148,0.02713482640683651,0.00027242867508903146,0.0003055382694583386,0.002290545031428337,0,1,-1000,0,0,0,-2,3,2,1500.0
14:42:08.050,STABILIZE,-35.3632622,149.1652374,0,-0.00045188231160864234,0.001630114042200148,0.02713482640683651,0.00027242867508903146,0.0003055382694583386,0.002290545031428337,0,1,-1000,0,0,0,-2,3,2,1500.0
14:42:08.250,STABILIZE,-35.3632622,149.1652375,0,-0.0006298843072727323,0.0014146128669381142,0.02651619166135788,0.00019377691205590963,0.00023638020502403378,0.0021149672102183104,0,1,-1000,0,0,0,-2,2,1,1500.0
14:42:08.452,STABILIZE,-35.3632622,149.1652375,0,-0.0006298843072727323,0.0014146128669381142,0.02651619166135788,0.00019377691205590963,0.00023638020502403378,0.0021149672102183104,0,1,-1000,0,0,0,-2,2,1,1500.0
14:42:08.653,STABILIZE,-35.3632622,149.1652375,0,-0.0006298843072727323,0.0014146128669381142,0.02651619166135788,0.00019377691205590963,0.00023638020502403378,0.0021149672102183104,0,1,-1000,0,0,0,-2,2,1,1500.0
14:42:08.854,STABILIZE,-35.3632622,149.1652375,0,-0.0006298843072727323,0.0014146128669381142,0.02651619166135788,0.00019377691205590963,0.00023638020502403378,0.0021149672102183104,0,1,-1000,0,0,0,-2,2,1,1500.0
14:42:09.055,STABILIZE,-35.3632622,149.1652375,0,-0.0009585602092556655,0.0012437955010682344,0.02620207704603672,0.00027494586538523436,0.00021070436923764646,0.002178318565711379,0,1,-1000,0,0,0,-1,1,1,1500.0
14:42:09.256,STABILIZE,-35.3632622,149.1652375,0,-0.0009585602092556655,0.0012437955010682344,0.02620207704603672,0.00027494586538523436,0.00021070436923764646,0.002178318565711379,0,1,-1000,0,0,0,-1,1,1,1500.0
14:42:09.457,STABILIZE,-35.3632622,149.1652375,0,-0.001113556674681604,0.0011557522229850292,0.02598957158625126,0.00017422792734578252,0.00021912716329097748,0.0019224454881623387,0,1,-1000,0,0,0,-1,1,1,1500.0
14:42:09.659,STABILIZE,-35.3632622,149.1652375,0,-0.001113556674681604,0.0011557522229850292,0.02598957158625126,0.00017422792734578252,0.00021912716329097748,0.0019224454881623387,0,1,-1000,0,0,0,-1,1,1,1500.0
14:42:09.860,STABILIZE,-35.3632622,149.1652375,0,-0.001113556674681604,0.0011557522229850292,0.02598957158625126,0.00017422792734578252,0.00021912716329097748,0.0019224454881623387,0,1,-1000,0,0,0,-1,1,1,1500.0
14:42:10.061,STABILIZE,-35.3632622,149.1652375,0,-0.001113556674681604,0.0011557522229850292,0.02598957158625126,0.00017422792734578252,0.00021912716329097748,0.0019224454881623387,0,1,-1000,0,1,0,-1,1,1,1500.0
14:42:10.262,STABILIZE,-35.3632622,149.1652375,0,-0.001113556674681604,0.0011557522229850292,0.02598957158625126,0.00017422792734578252,0.00021912716329097748,0.0019224454881623387,0,1,-1000,0,1,0,-1,1,1,1500.0
14:42:10.463,STABILIZE,-35.3632622,149.1652375,0,-0.001113556674681604,0.0011557522229850292,0.02598957158625126,0.00017422792734578252,0.00021912716329097748,0.0019224454881623387,0,1,-1000,0,1,0,-1,1,1,1500.0
14:42:10.664,STABILIZE,-35.3632622,149.1652375,0,-0.001113556674681604,0.0011557522229850292,0.02598957158625126,0.00017422792734578252,0.00021912716329097748,0.0019224454881623387,0,1,-1000,0,1,0,-1,1,1,1500.0
14:42:10.865,STABILIZE,-35.3632622,149.1652375,0,-0.001113556674681604,0.0011557522229850292,0.02598957158625126,0.00017422792734578252,0.00021912716329097748,0.0019224454881623387,0,1,-1000,0,1,0,-1,1,1,1500.0
14:42:11.067,STABILIZE,-35.3632622,149.1652375,0,-0.0013289276976138353,0.001001404132694006,0.0255129374563694,7.800670573487878e-05,0.00020160988788120449,0.0020507487934082747,0,1,-1000,1,1,0,-1,0,0,1500.0
14:42:11.268,STABILIZE,-35.3632621,149.1652375,0,-0.001341590890660882,0.0009887439664453268,0.02544260397553444,0.00015161052579060197,0.00035039029899053276,0.0019803261384367943,0,1,-1000,0,0,0,-1,0,0,1500.0
14:42:11.469,STABILIZE,-35.3632621,149.1652375,0,-0.001341590890660882,0.0009887439664453268,0.02544260397553444,0.00015161052579060197,0.00035039029899053276,0.0019803261384367943,0,1,-1000,0,0,0,-1,0,0,1500.0
14:42:11.671,STABILIZE,-35.3632621,149.1652375,0,-0.001341590890660882,0.0009887439664453268,0.02544260397553444,0.00015161052579060197,0.00035039029899053276,0.0019803261384367943,0,1,-1000,0,0,0,-1,0,0,1500.0
14:42:11.872,STABILIZE,-35.3632621,149.1652375,0,-0.001341590890660882,0.0009887439664453268,0.02544260397553444,0.00015161052579060197,0.00035039029899053276,0.0019803261384367943,0,1,-1000,0,0,0,-1,0,0,1500.0
14:42:12.073,STABILIZE,-35.3632621,149.1652375,0,-0.0013252908829599619,0.0009615116869099438,0.025245292112231255,0.0002614809782244265,0.00018505653133615851,0.0020019812509417534,0,1,-1000,0,0,0,-1,0,0,1500.0
14:42:12.275,STABILIZE,-35.3632621,149.1652375,0,-0.0013252908829599619,0.0009615116869099438,0.025245292112231255,0.0002614809782244265,0.00018505653133615851,0.0020019812509417534,0,1,-1000,0,0,0,-1,0,0,1500.0
14:42:12.476,STABILIZE,-35.3632621,149.1652375,0,-0.0013252908829599619,0.0009615116869099438,0.025245292112231255,0.0002614809782244265,0.00018505653133615851,0.0020019812509417534,0,1,-1000,0,0,0,-1,0,0,1500.0
14:42:12.677,STABILIZE,-35.3632621,149.1652375,0,-0.0013252908829599619,0.0009615116869099438,0.025245292112231255,0.0002614809782244265,0.00018505653133615851,0.0020019812509417534,0,1,-1000,0,0,0,-1,0,0,1500.0
14:42:12.879,STABILIZE,-35.3632621,149.1652375,0,-0.0013252908829599619,0.0009615116869099438,0.025245292112231255,0.0002614809782244265,0.00018505653133615851,0.0020019812509417534,0,1,-1000,0,0,0,-1,0,0,1500.0
14:42:13.080,STABILIZE,-35.3632621,149.1652375,0,-0.0012994323624297976,0.0009436800610274076,0.024983789771795273,0.00012584449723362923,0.00018326533609069884,0.0018996907165274024,0,1,-1000,0,0,0,-1,0,0,1500.0
14:42:13.281,STABILIZE,-35.3632621,149.1652375,0,-0.0012994323624297976,0.0009436800610274076,0.024983789771795273,0.00012584449723362923,0.00018326533609069884,0.0018996907165274024,0,1,-1000,0,0,0,-1,0,0,1500.0
14:42:13.482,STABILIZE,-35.3632621,149.1652375,0,-0.0012799216201528907,0.0009295407799072564,0.024836864322423935,0.0001354528358206153,0.00019522459479048848,0.001974572893232107,0,1,-1000,0,1,1,-1,0,0,1500.0
14:42:13.684,STABILIZE,-35.3632621,149.1652375,0,-0.0012642049696296453,0.000936295313294977,0.02476343885064125,0.0002232622355222702,0.0002630187082104385,0.0019389032386243343,0,2,-1000,1,0,0,-1,0,0,1500.0
14:42:13.885,STABILIZE,-35.3632621,149.1652375,0,-0.0012642049696296453,0.000936295313294977,0.02476343885064125,0.0002232622355222702,0.0002630187082104385,0.0019389032386243343,0,2,-1000,1,0,0,-1,0,0,1500.0
14:42:14.086,STABILIZE,-35.3632621,149.1652375,0,-0.0012642049696296453,0.000936295313294977,0.02476343885064125,0.0002232622355222702,0.0002630187082104385,0.0019389032386243343,0,2,-1000,1,0,0,-1,0,0,1500.0
14:42:14.288,STABILIZE,-35.3632621,149.1652375,0,-0.0012642049696296453,0.000936295313294977,0.02476343885064125,0.0002232622355222702,0.0002630187082104385,0.0019389032386243343,0,2,-1000,1,0,0,-1,0,0,1500.0
14:42:14.489,STABILIZE,-35.3632621,149.1652375,0,-0.0012642049696296453,0.000936295313294977,0.02476343885064125,0.0002232622355222702,0.0002630187082104385,0.0019389032386243343,0,2,-1000,1,0,0,-1,0,0,1500.0
14:42:14.691,STABILIZE,-35.3632621,149.1652375,0,-0.0012642049696296453,0.000936295313294977,0.02476343885064125,0.0002232622355222702,0.0002630187082104385,0.0019389032386243343,0,2,-1000,1,0,0,-1,0,0,1500.0
14:42:14.902,STABILIZE,-35.3632621,149.1652375,0,-0.0012642049696296453,0.000936295313294977,0.02476343885064125,0.0002232622355222702,0.0002630187082104385,0.0019389032386243343,0,2,-1000,1,0,0,-1,0,0,1500.0
14:42:15.105,STABILIZE,-35.3632621,149.1652375,0,-0.0012642049696296453,0.000936295313294977,0.02476343885064125,0.0002232622355222702,0.0002630187082104385,0.0019389032386243343,0,2,-1000,1,0,0,-1,0,0,1500.0
14:42:15.306,STABILIZE,-35.3632621,149.1652375,0,-0.0012642049696296453,0.000936295313294977,0.02476343885064125,0.0002232622355222702,0.0002630187082104385,0.0019389032386243343,0,2,-1000,1,0,0,-1,0,0,1500.0
14:42:15.508,STABILIZE,-35.3632621,149.1652375,0,-0.0012642049696296453,0.000936295313294977,0.02476343885064125,0.0002232622355222702,0.0002630187082104385,0.0019389032386243343,0,1,-1000,0,0,0,-1,0,0,1500.0
14:42:15.709,STABILIZE,-35.3632621,149.1652374,0,-0.000685672799590975,0.0009400742710568011,0.024179836735129356,0.00044906942639499903,0.00018728693248704076,0.0017680326709523797,0,1,-1000,0,0,0,-1,0,-3,1500.0
14:42:15.910,STABILIZE,-35.3632621,149.1652374,0,-0.0006243619718588889,0.0009510148083791137,0.024085091426968575,0.0002523514558561146,0.00027989991940557957,0.00172958814073354,0,1,-1000,0,1,1,-1,0,-3,1500.0
14:42:16.112,STABILIZE,-35.3632621,149.1652374,0,-0.0006243619718588889,0.0009510148083791137,0.024085091426968575,0.0002523514558561146,0.00027989991940557957,0.00172958814073354,0,1,-1000,0,1,1,-1,0,-3,1500.0
14:42:16.313,STABILIZE,-35.3632621,149.1652374,0,-0.0006243619718588889,0.0009510148083791137,0.024085091426968575,0.0002523514558561146,0.00027989991940557957,0.00172958814073354,0,1,-1000,0,1,1,-1,0,-3,1500.0
14:42:16.514,STABILIZE,-35.3632621,149.1652374,0,-0.0006243619718588889,0.0009510148083791137,0.024085091426968575,0.0002523514558561146,0.00027989991940557957,0.00172958814073354,0,1,-1000,0,1,1,-1,0,-3,1500.0
14:42:16.715,STABILIZE,-35.3632621,149.1652374,0,-0.0006243619718588889,0.0009510148083791137,0.024085091426968575,0.0002523514558561146,0.00027989991940557957,0.00172958814073354,0,1,-1000,0,1,1,-1,0,-3,1500.0
14:42:16.917,STABILIZE,-35.3632622,149.1652374,0,-0.0004751318192575127,0.0009554541320540011,0.023699017241597176,9.918032446876168e-05,0.00024966540513560176,0.001595561159774661,0,1,-1000,1,0,0,-1,1,-2,1500.0
14:42:17.118,STABILIZE,-35.3632622,149.1652374,0,-0.0004751318192575127,0.0009554541320540011,0.023699017241597176,9.918032446876168e-05,0.00024966540513560176,0.001595561159774661,0,1,-1000,1,0,0,-1,1,-2,1500.0
14:42:17.319,STABILIZE,-35.3632622,149.1652374,0,-0.00047173493658192456,0.0009643814410082996,0.023607663810253143,0.0002684024511836469,0.00029289472149685025,0.001609554747119546,0,1,-1000,1,0,0,-1,1,-2,1500.0
14:42:17.521,STABILIZE,-35.3632621,149.1652374,0,-0.0004655119846574962,0.0009609871194697917,0.02349632792174816,0.0002996667171828449,0.0001974998158402741,0.0015919876750558615,0,2,-1000,1,0,0,-1,1,-2,1500.0
14:42:17.722,STABILIZE,-35.3632622,149.1652375,0,-0.00013996050984133035,0.0009578416356816888,0.023397207260131836,-0.0002494526852387935,0.00020453747129067779,0.0016658646054565907,0,2,-1000,1,0,0,-1,3,0,1500.0
14:42:17.924,STABILIZE,-35.3632622,149.1652375,0,-0.0001794322597561404,0.0009668820421211421,0.0232953280210495,0.0002543005393818021,0.0002396499621681869,0.0016860223840922117,0,2,-1000,1,0,0,-1,3,1,1500.0
14:42:18.125,STABILIZE,-35.3632622,149.1652375,0,-0.0001794322597561404,0.0009668820421211421,0.0232953280210495,0.0002543005393818021,0.0002396499621681869,0.0016860223840922117,0,2,-1000,1,0,0,-1,3,1,1500.0
14:42:18.326,STABILIZE,-35.3632622,149.1652375,0,-0.0001794322597561404,0.0009668820421211421,0.0232953280210495,0.0002543005393818021,0.0002396499621681869,0.0016860223840922117,0,2,-1000,1,0,0,-1,3,1,1500.0
14:42:18.527,STABILIZE,-35.3632622,149.1652375,0,-0.0001794322597561404,0.0009668820421211421,0.0232953280210495,0.0002543005393818021,0.0002396499621681869,0.0016860223840922117,0,2,-1000,1,0,0,-1,3,1,1500.0
14:42:18.729,STABILIZE,-35.3632622,149.1652375,0,-0.0001794322597561404,0.0009668820421211421,0.0232953280210495,0.0002543005393818021,0.0002396499621681869,0.0016860223840922117,0,2,-1000,1,0,0,-1,3,1,1500.0
14:42:18.931,STABILIZE,-35.3632622,149.1652376,0,-0.0004756459384225309,0.0009611984132789075,0.02291307970881462,0.00022799766156822443,0.00020198069978505373,0.0017204727046191692,0,1,-1000,0,1,1,-1,3,0,1500.0
14:42:19.132,STABILIZE,-35.3632622,149.1652376,0,-0.0004756459384225309,0.0009611984132789075,0.02291307970881462,0.00022799766156822443,0.00020198069978505373,0.0017204727046191692,0,1,-1000,0,1,1,-1,3,0,1500.0
14:42:19.334,STABILIZE,-35.3632622,149.1652376,0,-0.0004756459384225309,0.0009611984132789075,0.02291307970881462,0.00022799766156822443,0.00020198069978505373,0.0017204727046191692,0,1,-1000,0,1,1,-1,3,0,1500.0
14:42:19.535,STABILIZE,-35.3632622,149.1652376,0,-0.0004756459384225309,0.0009611984132789075,0.02291307970881462,0.00022799766156822443,0.00020198069978505373,0.0017204727046191692,0,1,-1000,0,1,1,-1,3,0,1500.0
14:42:19.736,STABILIZE,-35.3632622,149.1652376,0,-0.0006842741277068853,0.0009579187026247382,0.022642433643341064,0.00022198574151843786,0.00029626942705363035,0.0016589153092354536,0,2,-1000,0,1,0,-1,2,0,1500.0
14:42:19.938,STABILIZE,-35.3632622,149.1652376,0,-0.0006842741277068853,0.0009579187026247382,0.022642433643341064,0.00022198574151843786,0.00029626942705363035,0.0016589153092354536,0,1,-1000,0,0,0,-1,2,0,1500.0
14:42:20.139,STABILIZE,-35.3632622,149.1652376,0,-0.0006842741277068853,0.0009579187026247382,0.022642433643341064,0.00022198574151843786,0.00029626942705363035,0.0016589153092354536,0,1,-1000,0,1,0,-1,2,0,1500.0
14:42:20.341,STABILIZE,-35.3632622,149.1652376,0,-0.0006842741277068853,0.0009579187026247382,0.022642433643341064,0.00022198574151843786,0.00029626942705363035,0.0016589153092354536,0,1,-1000,0,1,0,-1,2,0,1500.0
14:42:20.543,AUTO,-35.3632622,149.1652376,0,-0.0006842741277068853,0.0009579187026247382,0.022642433643341064,0.00022198574151843786,0.00029626942705363035,0.0016589153092354536,0,1,-1000,0,1,0,-1,2,0,1500.0
14:42:20.744,AUTO,-35.3632622,149.1652376,0,-0.0006842741277068853,0.0009579187026247382,0.022642433643341064,0.00022198574151843786,0.00029626942705363035,0.0016589153092354536,0,1,-1000,0,1,0,-1,2,0,38874.0
14:42:20.946,AUTO,-35.3632622,149.1652375,2,-0.000931542890612036,0.0009798203827813268,0.02227170206606388,0.00025429570814594626,0.00020599825074896216,0.0015665965620428324,0,1,-1000,0,0,0,-1,1,0,38874.0
14:42:21.148,AUTO,-35.3632621,149.1652375,2,-0.0008110296912491322,0.0009931951062753797,0.02221749909222126,0.0002937753451988101,0.00033115007681772113,0.0016178165096789598,0,1,-1000,1,0,0,-1,1,0,38874.0
14:42:21.349,AUTO,-35.3632621,149.1652375,2,-0.0008110296912491322,0.0009931951062753797,0.02221749909222126,0.0002937753451988101,0.00033115007681772113,0.0016178165096789598,0,1,-1000,1,0,0,-1,1,0,38874.0
14:42:21.551,AUTO,-35.3632621,149.1652375,1,-0.0008214227273128927,0.0010165966814383864,0.022160347551107407,0.00024894700618460774,0.0002681875484995544,0.001536114839836955,0,1,-1000,0,0,0,0,0,0,38874.0
14:42:21.753,AUTO,-35.3632621,149.1652375,1,-0.0008092082571238279,0.0010503894882276654,0.02208581008017063,0.00032476073829457164,0.00028172420570626855,0.001470060320571065,0,1,-1000,0,0,0,0,0,0,38874.0
14:42:21.954,AUTO,-35.3632621,149.1652375,1,-0.0007798201986588538,0.0010934473248198628,0.022031623870134354,0.00028591969748958945,0.0002275009755976498,0.0014629982179030776,0,2,-1000,0,1,1,0,0,0,38874.0
14:42:22.156,AUTO,-35.3632621,149.1652375,0,-0.000745947880204767,0.0011485255090519786,0.021976793184876442,0.00020004279213026166,0.00023521942785009742,0.001432993682101369,0,1,-1000,0,0,1,0,0,0,38874.0
14:42:22.357,AUTO,-35.3632621,149.1652375,0,-0.000745947880204767,0.0011485255090519786,0.021976793184876442,0.00020004279213026166,0.00023521942785009742,0.001432993682101369,0,1,-1000,0,0,1,0,0,0,38874.0
14:42:22.559,AUTO,-35.3632621,149.1652375,0,-0.000745947880204767,0.0011485255090519786,0.021976793184876442,0.00020004279213026166,0.00023521942785009742,0.001432993682101369,0,1,-1000,0,0,1,0,0,0,38874.0
14:42:22.760,AUTO,-35.3632621,149.1652375,0,-0.000745947880204767,0.0011485255090519786,0.021976793184876442,0.00020004279213026166,0.00023521942785009742,0.001432993682101369,0,1,-1000,0,0,1,0,0,0,38874.0
14:42:22.961,AUTO,-35.3632621,149.1652375,0,-0.0005897648516111076,0.0013548149727284908,0.021789750084280968,0.0002370848087593913,0.0002538710250519216,0.0014490971807390451,0,1,-1000,0,0,1,0,0,0,38874.0
14:42:23.163,AUTO,-35.3632621,149.1652375,0,-0.0005384672549553216,0.001428831135854125,0.021719196811318398,0.0003081429749727249,0.00031385570764541626,0.0014395677717402577,0,1,-1000,1,1,1,0,0,0,38874.0
14:42:23.364,AUTO,-35.3632621,149.1652375,0,-0.0005384672549553216,0.001428831135854125,0.021719196811318398,0.0003081429749727249,0.00031385570764541626,0.0014395677717402577,0,1,-1000,1,1,1,0,0,0,38874.0
14:42:23.565,AUTO,-35.3632621,149.1652374,0,-0.0004828553937841207,0.0014998572878539562,0.021634943783283234,0.00030045275343582034,0.0002685060608200729,0.0015200087800621986,0,1,-1000,0,1,0,0,0,0,145953.0
14:42:23.766,AUTO,-35.3632621,149.1652374,0,-0.0004203469434287399,0.0015744823031127453,0.02157561480998993,0.0003296316717751324,0.000341684150043875,0.0015298023354262114,0,1,-1000,1,1,1,0,0,0,145953.0
14:42:23.967,AUTO,-35.3632621,149.1652374,0,-0.0003577726020012051,0.0016445975052192807,0.021510010585188866,0.00032321130856871605,0.00025403196923434734,0.0014486375730484724,0,1,-1000,0,1,0,0,0,0,145953.0
14:42:24.171,AUTO,-35.3632621,149.1652374,0,-0.0002856054634321481,0.0017176151741296053,0.02141723409295082,0.0004388398374430835,0.0002142502344213426,0.0014064942952245474,0,2,-1000,0,0,0,0,0,0,145953.0
14:42:24.373,AUTO,-35.3632621,149.1652374,0,-0.0002856054634321481,0.0017176151741296053,0.02141723409295082,0.0004388398374430835,0.0002142502344213426,0.0014064942952245474,0,2,-1000,0,0,0,0,0,0,145953.0
14:42:24.574,AUTO,-35.3632621,149.1652374,0,-0.0002856054634321481,0.0017176151741296053,0.02141723409295082,0.0004388398374430835,0.0002142502344213426,0.0014064942952245474,0,2,-1000,0,0,0,0,0,0,145953.0
14:42:24.775,AUTO,-35.3632621,149.1652374,0,-0.0002856054634321481,0.0017176151741296053,0.02141723409295082,0.0004388398374430835,0.0002142502344213426,0.0014064942952245474,0,2,-1000,0,0,0,0,0,0,145953.0
14:42:24.977,AUTO,-35.3632621,149.1652375,348,0.002372486051172018,0.0007668703910894692,0.021414916962385178,-0.005028402898460627,0.004368039779365063,0.0019022859632968903,0,0,-1116,-4,5,1,0,0,-97,145953.0
14:42:25.178,AUTO,-35.3632621,149.1652375,624,0.0014384723035618663,0.0014952262863516808,0.021303629502654076,-0.002201056806370616,0.00188171723857522,0.0020750463008880615,0,0,-1084,-1,2,1,0,0,-121,145953.0
14:42:25.380,AUTO,-35.3632621,149.1652375,624,0.0014384723035618663,0.0014952262863516808,0.021303629502654076,-0.002201056806370616,0.00188171723857522,0.0020750463008880615,0,0,-1084,-1,2,1,0,0,-121,145953.0
14:42:25.581,AUTO,-35.3632621,149.1652375,950,0.0017339306650683284,0.0016979285283014178,0.02080431394279003,0.005375088192522526,-0.0018379006069153547,-0.0025925366207957268,0,0,-1044,6,-1,-2,0,0,-136,145953.0
14:42:25.783,AUTO,-35.3632621,149.1652375,1308,0.0010560766095295548,0.0021993734408169985,0.020249037072062492,-0.004163581412285566,0.005125889554619789,0.002219181740656495,0,0,-1010,-3,5,1,0,0,-142,145953.0
14:42:25.984,AUTO,-35.363262,149.1652375,1676,0.00044343736954033375,0.0030075577087700367,0.02078251726925373,-0.0017890334129333496,0.001837941468693316,0.0025759960990399122,0,0,-998,-1,2,2,0,0,-142,145953.0
14:42:26.186,AUTO,-35.363262,149.1652375,2045,0.0007119901711121202,0.003018028801307082,0.021195465698838234,-6.327038863673806e-05,-0.0006944613996893167,0.0016183172119781375,0,0,-1007,0,0,1,0,0,-143,145953.0
14:42:26.397,AUTO,-35.363262,149.1652375,2045,0.0007119901711121202,0.003018028801307082,0.021195465698838234,-6.327038863673806e-05,-0.0006944613996893167,0.0016183172119781375,0,0,-1007,0,0,1,0,0,-143,145953.0
14:42:26.599,AUTO,-35.363262,149.1652375,2045,0.0007119901711121202,0.003018028801307082,0.021195465698838234,-6.327038863673806e-05,-0.0006944613996893167,0.0016183172119781375,0,0,-1007,0,0,1,0,0,-143,293159.0
14:42:26.800,AUTO,-35.363262,149.1652375,2045,0.0007119901711121202,0.003018028801307082,0.021195465698838234,-6.327038863673806e-05,-0.0006944613996893167,0.0016183172119781375,0,0,-1007,0,0,1,0,0,-143,293159.0
14:42:27.002,AUTO,-35.363262,149.1652375,3186,0.028346944600343704,-0.0007206270238384604,-0.006974817253649235,0.04632484167814255,-0.007475586142390966,0.00305031705647707,0,0,-1002,46,-6,2,0,7,-149,293159.0
14:42:27.204,AUTO,-35.363262,149.1652378,3573,0.03962770476937294,-0.0028884538915008307,-0.006268797442317009,0.044166747480630875,-0.008763665333390236,0.0033638067543506622,0,-1,-1000,44,-8,2,1,14,-149,293159.0
14:42:27.405,AUTO,-35.3632619,149.1652383,3960,0.05024251714348793,-0.005448411218822002,-0.005768890958279371,0.041264209896326065,-0.01072472520172596,0.0039546978659927845,1,-3,-999,42,-9,3,3,24,-149,293159.0
14:42:27.607,AUTO,-35.3632619,149.1652383,3960,0.05024251714348793,-0.005448411218822002,-0.005768890958279371,0.041264209896326065,-0.01072472520172596,0.0039546978659927845,1,-3,-999,42,-9,3,3,24,-149,293159.0
14:42:27.808,AUTO,-35.3632618,149.165239,4347,0.06005098670721054,-0.008413486182689667,-0.005635440815240145,0.03815365582704544,-0.011693495325744152,0.0035025530960410833,1,-6,-998,38,-10,3,5,35,-149,293159.0
14:42:28.010,AUTO,-35.3632616,149.1652401,4731,0.05842360854148865,-0.002664498519152403,-0.015835056081414223,-0.06741438806056976,0.07754234224557877,-0.09187863022089005,2,-8,-990,-66,78,-92,9,48,-147,293159.0
14:42:28.212,AUTO,-35.3632613,149.1652416,5111,0.025503739714622498,0.019760174676775932,-0.0403946191072464,-0.15769371390342712,0.05302979424595833,-0.08808764070272446,3,-9,-998,-157,53,-88,8,55,-145,293159.0
14:42:28.416,AUTO,-35.3632613,149.1652416,5111,0.025503739714622498,0.019760174676775932,-0.0403946191072464,-0.15769371390342712,0.05302979424595833,-0.08808764070272446,3,-9,-998,-157,53,-88,8,55,-145,293159.0
14:42:28.619,AUTO,-35.3632613,149.1652416,5111,0.025503739714622498,0.019760174676775932,-0.0403946191072464,-0.15769371390342712,0.05302979424595833,-0.08808764070272446,3,-9,-998,-157,53,-88,8,55,-145,293159.0
14:42:28.822,AUTO,-35.3632613,149.1652416,5111,0.025503739714622498,0.019760174676775932,-0.0403946191072464,-0.15769371390342712,0.05302979424595833,-0.08808764070272446,3,-9,-998,-157,53,-88,8,55,-145,293159.0
14:42:29.025,AUTO,-35.3632611,149.1652458,6250,-0.014537271112203598,0.019713381305336952,-0.08989397436380386,-0.07037143409252167,-0.022069577127695084,-0.04022365063428879,6,-9,-998,-69,-21,-40,-3,46,-149,293159.0
14:42:29.227,AUTO,-35.3632611,149.165247,6634,-0.03620739281177521,0.010959728620946407,-0.09606922417879105,-0.09483849257230759,-0.040788013488054276,-0.016486452892422676,5,-6,-1001,-93,-40,-16,-5,38,-149,293159.0
14:42:29.429,AUTO,-35.3632612,149.1652479,7019,-0.06016439199447632,0.000146047881571576,-0.09692386537790298,-0.0917695090174675,-0.04255833104252815,-0.002888335147872567,5,-5,-1002,-91,-41,-3,-6,24,-149,293159.0
14:42:29.632,AUTO,-35.3632612,149.1652479,7019,-0.06016439199447632,0.000146047881571576,-0.09692386537790298,-0.0917695090174675,-0.04255833104252815,-0.002888335147872567,5,-5,-1002,-91,-41,-3,-6,24,-149,167066.0
14:42:29.834,AUTO,-35.3632613,149.1652483,7402,-0.08167703449726105,-0.009633991867303848,-0.09433576464653015,-0.07819948345422745,-0.03549686074256897,0.003197935875505209,3,-2,-1001,-77,-34,2,-4,4,-149,167066.0
14:42:30.036,AUTO,-35.3632613,149.1652481,7785,-0.09382399171590805,-0.016373369842767715,-0.09095190465450287,0.009519596584141254,-0.009491842240095139,-0.0029086628928780556,0,1,-1006,10,-8,-3,-2,-18,-148,167066.0
14:42:30.238,AUTO,-35.3632613,149.1652474,8168,-0.08319193869829178,-0.017357734963297844,-0.08961829543113708,0.05318169295787811,-0.0004602381959557533,0.0009540255414322019,-3,5,-1002,54,0,0,0,-39,-148,167066.0
14:42:30.441,AUTO,-35.3632613,149.1652474,8168,-0.08319193869829178,-0.017357734963297844,-0.08961829543113708,0.05318169295787811,-0.0004602381959557533,0.0009540255414322019,-3,5,-1002,54,0,0,0,-39,-148,167066.0
14:42:30.643,AUTO,-35.3632613,149.1652474,8168,-0.08319193869829178,-0.017357734963297844,-0.08961829543113708,0.05318169295787811,-0.0004602381959557533,0.0009540255414322019,-3,5,-1002,54,0,0,0,-39,-148,167066.0
14:42:30.845,AUTO,-35.3632613,149.1652474,8168,-0.08319193869829178,-0.017357734963297844,-0.08961829543113708,0.05318169295787811,-0.0004602381959557533,0.0009540255414322019,-3,5,-1002,54,0,0,0,-39,-148,167066.0
14:42:31.047,AUTO,-35.3632612,149.1652423,9310,-0.036557868123054504,-0.008213559165596962,-0.08534083515405655,0.06853918731212616,0.02202041819691658,0.003046461148187518,-10,13,-1003,69,22,2,3,-78,-148,167066.0
14:42:31.248,AUTO,-35.3632611,149.16524,9696,-0.018919844180345535,-0.0021095280535519123,-0.08379735052585602,0.07123871147632599,0.025889089331030846,0.0034821550361812115,-10,15,-1004,71,26,2,2,-82,-149,167066.0
14:42:31.450,AUTO,-35.363261,149.1652377,10080,-0.001085214433260262,0.004451279994100332,-0.08207812905311584,0.0718136802315712,0.026860201731324196,0.00390332518145442,-12,16,-1005,72,27,3,0,-81,-151,167066.0
14:42:31.652,AUTO,-35.3632611,149.1652354,10469,0.01691533252596855,0.010780694894492626,-0.0802193135023117,0.07227745652198792,0.025155965238809586,0.0043910592794418335,-9,15,-1006,73,25,4,-3,-76,-152,167066.0
14:42:31.853,AUTO,-35.3632611,149.1652354,10469,0.01691533252596855,0.010780694894492626,-0.0802193135023117,0.07227745652198792,0.025155965238809586,0.0043910592794418335,-9,15,-1006,73,25,4,-3,-76,-152,167066.0
14:42:32.056,AUTO,-35.3632612,149.1652334,10861,0.03478744998574257,0.01638716086745262,-0.07814981788396835,0.07116306573152542,0.021295908838510513,0.00505457678809762,-7,15,-1005,71,21,4,-7,-66,-153,167066.0
14:42:32.258,AUTO,-35.3632613,149.1652317,11256,0.052198439836502075,0.02078183926641941,-0.07616395503282547,0.06921273469924927,0.014376695267856121,0.0053407978266477585,-8,13,-1004,69,15,4,-12,-52,-154,167066.0
14:42:32.460,AUTO,-35.3632613,149.1652317,11256,0.052198439836502075,0.02078183926641941,-0.07616395503282547,0.06921273469924927,0.014376695267856121,0.0053407978266477585,-8,13,-1004,69,15,4,-12,-52,-154,167066.0
14:42:32.661,AUTO,-35.3632613,149.1652317,11256,0.052198439836502075,0.02078183926641941,-0.07616395503282547,0.06921273469924927,0.014376695267856121,0.0053407978266477585,-8,13,-1004,69,15,4,-12,-52,-154,175586.0
14:42:32.863,AUTO,-35.3632613,149.1652317,11256,0.052198439836502075,0.02078183926641941,-0.07616395503282547,0.06921273469924927,0.014376695267856121,0.0053407978266477585,-8,13,-1004,69,15,4,-12,-52,-154,175586.0
14:42:33.065,AUTO,-35.3632624,149.1652293,12442,0.09878746420145035,0.021810060366988182,-0.07185143232345581,0.05495333671569824,-0.01142263412475586,0.005806674249470234,2,4,-998,55,-10,5,-24,8,-153,175586.0
14:42:33.267,AUTO,-35.3632629,149.1652297,12832,0.11151786148548126,0.017245912924408913,-0.07167209684848785,0.04812043905258179,-0.02192731946706772,0.006198046263307333,6,0,-996,48,-21,5,-24,33,-151,175586.0
14:42:33.469,AUTO,-35.3632634,149.1652309,13215,0.12021443992853165,0.008519616909325123,-0.06983993947505951,-0.01030427310615778,-0.06549859046936035,0.051580172032117844,8,-4,-988,-9,-64,51,-23,60,-148,175586.0
14:42:33.671,AUTO,-35.3632638,149.1652328,13591,0.09939952194690704,-0.028545476496219635,-0.049185093492269516,-0.14230051636695862,-0.17059564590454102,0.11726252734661102,11,-11,-988,-141,-169,116,-16,83,-144,175586.0
14:42:33.873,AUTO,-35.3632638,149.1652328,13591,0.09939952194690704,-0.028545476496219635,-0.049185093492269516,-0.14230051636695862,-0.17059564590454102,0.11726252734661102,11,-11,-988,-141,-169,116,-16,83,-144,175586.0
14:42:34.075,AUTO,-35.363264,149.1652352,13957,0.05056839808821678,-0.04910869151353836,-0.04255266860127449,-0.19901682436466217,0.006394967902451754,-0.01545789372175932,9,-15,-1000,-198,7,-15,-1,97,-141,175586.0
14:42:34.277,AUTO,-35.3632639,149.1652379,14322,0.0023653197567909956,-0.034902423620224,-0.06080896034836769,-0.18554913997650146,0.07661455869674683,-0.09773228317499161,11,-23,-1013,-184,77,-98,13,96,-143,175586.0
14:42:34.478,AUTO,-35.3632639,149.1652379,14322,0.0023653197567909956,-0.034902423620224,-0.06080896034836769,-0.18554913997650146,0.07661455869674683,-0.09773228317499161,11,-23,-1013,-184,77,-98,13,96,-143,175586.0
14:42:34.680,AUTO,-35.3632639,149.1652379,14322,0.0023653197567909956,-0.034902423620224,-0.06080896034836769,-0.18554913997650146,0.07661455869674683,-0.09773228317499161,11,-23,-1013,-184,77,-98,13,96,-143,175586.0
14:42:34.882,AUTO,-35.3632639,149.1652379,14322,0.0023653197567909956,-0.034902423620224,-0.06080896034836769,-0.18554913997650146,0.07661455869674683,-0.09773228317499161,11,-23,-1013,-184,77,-98,13,96,-143,175586.0
14:42:35.084,AUTO,-35.3632622,149.1652437,15463,-0.10471101850271225,-0.017119552940130234,-0.13086919486522675,-0.12092806398868561,0.05240541696548462,-0.1127542182803154,1,-15,-1009,-120,53,-112,31,37,-151,175586.0
14:42:35.286,AUTO,-35.3632615,149.1652443,15851,-0.12210098654031754,-0.005536825396120548,-0.16087879240512848,0.0003574002184905112,0.040262509137392044,-0.09100274741649628,-1,-8,-1011,1,40,-91,29,5,-152,175586.0
14:42:35.487,AUTO,-35.3632609,149.165244,16247,-0.11440245062112808,-0.0037066529039293528,-0.18055911362171173,0.040505845099687576,0.010751527734100819,-0.0643569603562355,-5,-2,-1001,41,11,-64,24,-25,-151,175586.0
14:42:35.690,AUTO,-35.3632603,149.165243,16632,-0.10304675996303558,-0.0017183336894959211,-0.1944153606891632,0.04957845062017441,0.018357152119278908,-0.047065332531929016,-9,3,-998,50,19,-47,19,-52,-150,238010.0
14:42:35.893,AUTO,-35.3632603,149.165243,16632,-0.10304675996303558,-0.0017183336894959211,-0.1944153606891632,0.04957845062017441,0.018357152119278908,-0.047065332531929016,-9,3,-998,50,19,-47,19,-52,-150,238010.0
14:42:36.095,AUTO,-35.36326,149.1652413,17013,-0.08951856940984726,0.0028517977334558964,-0.20449696481227875,0.059100065380334854,0.026535077020525932,-0.034758180379867554,-12,7,-998,59,27,-35,12,-73,-148,238010.0
14:42:36.297,AUTO,-35.3632597,149.165239,17390,-0.07401412725448608,0.009765907190740108,-0.2118261605501175,0.06583382189273834,0.03385729342699051,-0.02474614419043064,-14,13,-1000,66,34,-24,4,-90,-147,238010.0
14:42:36.506,AUTO,-35.3632597,149.165239,17390,-0.07401412725448608,0.009765907190740108,-0.2118261605501175,0.06583382189273834,0.03385729342699051,-0.02474614419043064,-14,13,-1000,66,34,-24,4,-90,-147,238010.0
14:42:36.708,AUTO,-35.3632597,149.165239,17390,-0.07401412725448608,0.009765907190740108,-0.2118261605501175,0.06583382189273834,0.03385729342699051,-0.02474614419043064,-14,13,-1000,66,34,-24,4,-90,-147,238010.0
14:42:36.910,AUTO,-35.3632602,149.1652304,18518,-0.019322123378515244,0.03643117845058441,-0.2214110642671585,0.08199457824230194,0.03578558564186096,-0.006307415198534727,-13,19,-1007,82,36,-6,-25,-108,-150,238010.0
14:42:37.112,AUTO,-35.3632602,149.1652304,18518,-0.019322123378515244,0.03643117845058441,-0.2214110642671585,0.08199457824230194,0.03578558564186096,-0.006307415198534727,-13,19,-1007,82,36,-6,-25,-108,-150,238010.0
14:42:37.314,AUTO,-35.3632608,149.1652274,18902,0.001192464609630406,0.04477262869477272,-0.22148624062538147,0.08373182266950607,0.03179492801427841,-0.0027428281027823687,-11,21,-1008,84,32,-3,-36,-103,-151,238010.0
14:42:37.515,AUTO,-35.3632617,149.1652246,19289,0.021994609385728836,0.051452651619911194,-0.22071592509746552,0.08490823209285736,0.023158958181738853,0.0005849091103300452,-10,24,-1008,85,23,0,-48,-92,-153,238010.0
14:42:37.717,AUTO,-35.3632629,149.1652222,19680,0.0429840050637722,0.05580911785364151,-0.21934014558792114,0.08455910533666611,0.012845417484641075,0.0037687793374061584,-2,25,-1007,85,13,3,-59,-76,-154,238010.0
14:42:37.920,AUTO,-35.3632643,149.1652202,20074,0.06368619203567505,0.05713281407952309,-0.21748679876327515,0.08246438950300217,-6.887217750772834e-05,0.005615927278995514,-1,21,-1005,83,0,5,-69,-56,-154,238010.0
14:42:38.123,AUTO,-35.3632643,149.1652202,20074,0.06368619203567505,0.05713281407952309,-0.21748679876327515,0.08246438950300217,-6.887217750772834e-05,0.005615927278995514,-1,21,-1005,83,0,5,-69,-56,-154,238010.0
14:42:38.325,AUTO,-35.3632659,149.1652189,20468,0.08377344906330109,0.05496879667043686,-0.21517860889434814,0.07855880260467529,-0.013994269073009491,0.007730994839221239,4,20,-1004,79,-13,7,-76,-32,-154,238010.0
14:42:38.527,AUTO,-35.3632659,149.1652189,20468,0.08377344906330109,0.05496879667043686,-0.21517860889434814,0.07855880260467529,-0.013994269073009491,0.007730994839221239,4,20,-1004,79,-13,7,-76,-32,-154,238010.0
14:42:38.729,AUTO,-35.3632659,149.1652189,20468,0.08377344906330109,0.05496879667043686,-0.21517860889434814,0.07855880260467529,-0.013994269073009491,0.007730994839221239,4,20,-1004,79,-13,7,-76,-32,-154,187995.0
14:42:38.933,AUTO,-35.3632712,149.1652196,21640,0.13536986708641052,0.02602456696331501,-0.21100176870822906,0.05715865269303322,-0.05848931521177292,0.011429262347519398,19,7,-997,58,-57,11,-76,59,-149,187995.0
14:42:39.135,AUTO,-35.3632712,149.1652196,21640,0.13536986708641052,0.02602456696331501,-0.21100176870822906,0.05715865269303322,-0.05848931521177292,0.011429262347519398,19,7,-997,58,-57,11,-76,59,-149,187995.0
14:42:39.337,AUTO,-35.3632727,149.1652214,22017,0.14804202318191528,0.009422482922673225,-0.21040122210979462,0.04617613926529884,-0.07076527923345566,0.012173198163509369,24,1,-995,47,-70,11,-67,92,-145,187995.0
14:42:39.538,AUTO,-35.3632741,149.1652243,22383,0.14736692607402802,-0.0198669396340847,-0.20239666104316711,-0.046600647270679474,-0.15274101495742798,0.0824267789721489,26,-8,-992,-45,-151,82,-52,124,-141,187995.0
14:42:39.740,AUTO,-35.3632749,149.165228,22739,0.12966445088386536,-0.06864362955093384,-0.1815110146999359,-0.07496362924575806,-0.1919015794992447,0.13333706557750702,28,-12,-1002,-73,-191,133,-28,150,-138,187995.0
14:42:39.942,AUTO,-35.3632752,149.1652323,23091,0.1091388538479805,-0.11794377118349075,-0.15237662196159363,-0.08222481608390808,-0.18055500090122223,0.1631118357181549,26,-23,-1005,-81,-179,162,5,168,-137,187995.0
14:42:40.146,AUTO,-35.3632747,149.165237,23437,0.07353127002716064,-0.16083599627017975,-0.12089315056800842,-0.17367829382419586,-0.0798402801156044,0.07874006778001785,18,-37,-1001,-172,-78,78,47,176,-134,187995.0
14:42:40.348,AUTO,-35.3632747,149.165237,23437,0.07353127002716064,-0.16083599627017975,-0.12089315056800842,-0.17367829382419586,-0.0798402801156044,0.07874006778001785,18,-37,-1001,-172,-78,78,47,176,-134,187995.0
14:42:40.550,AUTO,-35.3632747,149.165237,23437,0.07353127002716064,-0.16083599627017975,-0.12089315056800842,-0.17367829382419586,-0.0798402801156044,0.07874006778001785,18,-37,-1001,-172,-78,78,47,176,-134,187995.0
14:42:40.751,AUTO,-35.3632747,149.165237,23437,0.07353127002716064,-0.16083599627017975,-0.12089315056800842,-0.17367829382419586,-0.0798402801156044,0.07874006778001785,18,-37,-1001,-172,-78,78,47,176,-134,187995.0
14:42:40.953,AUTO,-35.3632674,149.1652502,24464,-0.05558425188064575,-0.09410852193832397,-0.1905575692653656,-0.16469039022922516,0.1133323684334755,-0.16128501296043396,-2,-49,-1032,-163,114,-161,150,131,-140,187995.0
14:42:41.155,AUTO,-35.363264,149.1652533,24828,-0.08962762355804443,-0.07065239548683167,-0.23213587701320648,-0.14056548476219177,0.09595214575529099,-0.1552763730287552,-11,-42,-1032,-139,96,-155,163,97,-146,187995.0
14:42:41.357,AUTO,-35.363264,149.1652533,24828,-0.08962762355804443,-0.07065239548683167,-0.23213587701320648,-0.14056548476219177,0.09595214575529099,-0.1552763730287552,-11,-42,-1032,-139,96,-155,163,97,-146,187995.0
14:42:41.558,AUTO,-35.3632602,149.1652555,25208,-0.12265462428331375,-0.05057729035615921,-0.27439793944358826,-0.2256999909877777,0.09794977307319641,-0.15078455209732056,-16,-44,-1014,-224,98,-151,166,57,-150,187995.0
14:42:41.760,AUTO,-35.3632566,149.1652565,25593,-0.1585419625043869,-0.03083796426653862,-0.3163069188594818,-0.10345033556222916,0.11565336585044861,-0.14319010078907013,-18,-33,-1026,-102,116,-143,159,12,-152,47986.0
14:42:41.962,AUTO,-35.3632531,149.1652562,25982,-0.17260724306106567,-0.009405695833265781,-0.35654324293136597,-0.03366784751415253,0.10604110360145569,-0.13064447045326233,-25,-27,-1018,-32,106,-130,142,-34,-153,47986.0
14:42:42.164,AUTO,-35.3632502,149.1652548,26368,-0.1682446300983429,0.015370408073067665,-0.3834517300128937,0.055906739085912704,0.1278471052646637,-0.05738529935479164,-28,-16,-1007,56,128,-57,118,-75,-151,47986.0
14:42:42.365,AUTO,-35.3632502,149.1652548,26368,-0.1682446300983429,0.015370408073067665,-0.3834517300128937,0.055906739085912704,0.1278471052646637,-0.05738529935479164,-28,-16,-1007,56,128,-57,118,-75,-151,47986.0
14:42:42.567,AUTO,-35.3632502,149.1652548,26368,-0.1682446300983429,0.015370408073067665,-0.3834517300128937,0.055906739085912704,0.1278471052646637,-0.05738529935479164,-28,-16,-1007,56,128,-57,118,-75,-151,47986.0
14:42:42.769,AUTO,-35.3632502,149.1652548,26368,-0.1682446300983429,0.015370408073067665,-0.3834517300128937,0.055906739085912704,0.1278471052646637,-0.05738529935479164,-28,-16,-1007,56,128,-57,118,-75,-151,47986.0
14:42:42.971,AUTO,-35.3632453,149.1652451,27493,-0.12126302719116211,0.09988552331924438,-0.40963804721832275,0.06328161060810089,0.0911177471280098,-0.012366303242743015,-30,9,-1007,64,91,-12,16,-149,-146,47986.0
14:42:43.172,AUTO,-35.3632452,149.1652409,27862,-0.10418430715799332,0.12053214758634567,-0.4140090346336365,0.07751148194074631,0.08129925280809402,-0.007721617352217436,-26,19,-1005,78,82,-7,-22,-158,-144,47986.0
14:42:43.374,AUTO,-35.3632452,149.1652409,27862,-0.10418430715799332,0.12053214758634567,-0.4140090346336365,0.07751148194074631,0.08129925280809402,-0.007721617352217436,-26,19,-1005,78,82,-7,-22,-158,-144,47986.0
14:42:43.576,AUTO,-35.3632461,149.1652365,28224,-0.0831763818860054,0.13901691138744354,-0.41643616557121277,0.09163618087768555,0.06981014460325241,-0.002104851184412837,-29,26,-1005,92,70,-2,-64,-158,-141,47986.0
14:42:43.778,AUTO,-35.363248,149.1652322,28581,-0.0588194839656353,0.15382061898708344,-0.4178076982498169,0.10397489368915558,0.05116952955722809,0.0011764965020120144,-18,36,-1005,105,51,1,-106,-150,-139,47986.0
14:42:43.980,AUTO,-35.3632508,149.1652282,28933,-0.032024554908275604,0.16409265995025635,-0.4172665476799011,0.11024978011846542,0.03404949977993965,0.00870971754193306,-11,35,-1004,111,34,8,-144,-135,-137,47986.0
14:42:44.182,AUTO,-35.3632543,149.1652248,29279,-0.0023095165379345417,0.1687447428703308,-0.41463223099708557,0.11904007941484451,0.0075225322507321835,0.010597259737551212,0,49,-1006,119,8,10,-180,-112,-135,47986.0
14:42:44.384,AUTO,-35.3632543,149.1652248,29279,-0.0023095165379345417,0.1687447428703308,-0.41463223099708557,0.11904007941484451,0.0075225322507321835,0.010597259737551212,0,49,-1006,119,8,10,-180,-112,-135,47986.0
14:42:44.585,AUTO,-35.3632543,149.1652248,29279,-0.0023095165379345417,0.1687447428703308,-0.41463223099708557,0.11904007941484451,0.0075225322507321835,0.010597259737551212,0,49,-1006,119,8,10,-180,-112,-135,47986.0
14:42:44.787,AUTO,-35.3632543,149.1652248,29279,-0.0023095165379345417,0.1687447428703308,-0.41463223099708557,0.11904007941484451,0.0075225322507321835,0.010597259737551212,0,49,-1006,119,8,10,-180,-112,-135,83492.0
14:42:44.989,AUTO,-35.3632688,149.1652194,30291,0.07034698128700256,0.11615833640098572,-0.3782024085521698,0.04746861755847931,-0.15660333633422852,0.10477438569068909,24,43,-1015,48,-155,104,-246,-10,-131,83492.0
14:42:45.191,AUTO,-35.3632744,149.1652194,30631,0.08744599670171738,0.07310739904642105,-0.3541165590286255,0.07060521095991135,-0.16380587220191956,0.1069956123828888,38,39,-1029,71,-162,106,-250,22,-135,83492.0
14:42:45.393,AUTO,-35.3632744,149.1652194,30631,0.08744599670171738,0.07310739904642105,-0.3541165590286255,0.07060521095991135,-0.16380587220191956,0.1069956123828888,38,39,-1029,71,-162,106,-250,22,-135,83492.0
14:42:45.594,AUTO,-35.3632799,149.1652204,30981,0.07866522669792175,0.012296450324356556,-0.30824944376945496,-0.17493930459022522,-0.33342522382736206,0.3084135055541992,46,40,-1020,-174,-332,308,-239,52,-139,83492.0
14:42:45.796,AUTO,-35.3632849,149.1652219,31337,0.053325355052948,-0.14869415760040283,-0.23230154812335968,0.07979469746351242,-0.832593560218811,0.49433085322380066,52,20,-1015,80,-831,494,-206,66,-141,83492.0
14:42:45.998,AUTO,-35.3632888,149.1652238,31685,0.05811362713575363,-0.37011998891830444,-0.11418896168470383,0.10938963294029236,-0.7846806645393372,0.39121606945991516,42,17,-976,110,-783,391,-130,73,-127,83492.0
14:42:46.200,AUTO,-35.3632905,149.1652258,31970,0.04219890385866165,-0.5227622985839844,-0.05495166406035423,-0.02017301321029663,-0.20310993492603302,0.14320418238639832,16,-4,-983,-18,-202,143,-16,76,-93,83492.0
14:42:46.411,AUTO,-35.3632905,149.1652258,31970,0.04219890385866165,-0.5227622985839844,-0.05495166406035423,-0.02017301321029663,-0.20310993492603302,0.14320418238639832,16,-4,-983,-18,-202,143,-16,76,-93,83492.0
14:42:46.613,AUTO,-35.3632905,149.1652258,31970,0.04219890385866165,-0.5227622985839844,-0.05495166406035423,-0.02017301321029663,-0.20310993492603302,0.14320418238639832,16,-4,-983,-18,-202,143,-16,76,-93,83492.0
14:42:46.821,AUTO,-35.3632905,149.1652258,31970,0.04219890385866165,-0.5227622985839844,-0.05495166406035423,-0.02017301321029663,-0.20310993492603302,0.14320418238639832,16,-4,-983,-18,-202,143,-16,76,-93,83492.0
14:42:47.024,AUTO,-35.3632824,149.1652312,32375,0.007221688982099295,-0.11725836247205734,-0.05507483705878258,0.011598741635680199,0.607215404510498,-0.055427439510822296,-37,-37,-1007,12,608,-55,217,56,-33,83492.0
14:42:47.226,AUTO,-35.3632775,149.1652325,32463,0.004011701326817274,0.004616443533450365,-0.0670948177576065,0.00011172366794198751,0.37337660789489746,-0.0387362502515316,-33,-35,-1008,1,374,-38,220,45,-36,83492.0
14:42:47.428,AUTO,-35.3632727,149.1652335,32554,-0.00505071273073554,0.07205621898174286,-0.0730278268456459,-0.271660715341568,0.19097140431404114,-0.0075773936696350574,-33,-44,-997,-270,192,-7,200,36,-36,83492.0
14:42:47.632,AUTO,-35.3632727,149.1652335,32554,-0.00505071273073554,0.07205621898174286,-0.0730278268456459,-0.271660715341568,0.19097140431404114,-0.0075773936696350574,-33,-44,-997,-270,192,-7,200,36,-36,83492.0
14:42:47.836,AUTO,-35.3632684,149.1652343,32633,-0.003394417930394411,0.10646789520978928,-0.07500198483467102,0.3098427951335907,0.08981554955244064,0.0031307488679885864,-30,0,-974,311,90,3,171,30,-28,140490.0
14:42:48.038,AUTO,-35.3632649,149.165235,32699,0.004597207065671682,0.12257564067840576,-0.07629428803920746,0.7107277512550354,0.03832124173641205,-0.003438544925302267,-24,0,-1019,711,39,-3,137,23,-27,140490.0
14:42:48.240,AUTO,-35.363262,149.1652355,32761,0.005554746836423874,0.12298602610826492,-0.07613248378038406,0.2935398817062378,-0.01699937880039215,0.004457416944205761,-17,-24,-995,294,-16,4,102,18,-24,140490.0
14:42:48.441,AUTO,-35.363262,149.1652355,32761,0.005554746836423874,0.12298602610826492,-0.07613248378038406,0.2935398817062378,-0.01699937880039215,0.004457416944205761,-17,-24,-995,294,-16,4,102,18,-24,140490.0
14:42:48.643,AUTO,-35.363262,149.1652355,32761,0.005554746836423874,0.12298602610826492,-0.07613248378038406,0.2935398817062378,-0.01699937880039215,0.004457416944205761,-17,-24,-995,294,-16,4,102,18,-24,140490.0
14:42:48.845,AUTO,-35.363262,149.1652355,32761,0.005554746836423874,0.12298602610826492,-0.07613248378038406,0.2935398817062378,-0.01699937880039215,0.004457416944205761,-17,-24,-995,294,-16,4,102,18,-24,140490.0
14:42:49.046,AUTO,-35.3632578,149.1652368,32857,-0.03798322379589081,0.16761036217212677,-0.07777520269155502,-0.7117477655410767,0.15223842859268188,-0.05865577235817909,2,-29,-1003,-710,153,-58,13,8,-2,140490.0
14:42:49.248,AUTO,-35.3632577,149.1652372,32857,-0.041927237063646317,0.12569579482078552,-0.08408372104167938,-0.2747936546802521,-0.29700252413749695,-0.0657166838645935,5,7,-983,-273,-295,-65,-23,5,0,140490.0
14:42:49.450,AUTO,-35.3632584,149.1652373,32850,-0.03243611752986908,0.0509062334895134,-0.08602795004844666,0.48217567801475525,-0.2625289559364319,-0.036056213080883026,8,42,-1019,484,-261,-36,-42,0,0,140490.0
14:42:49.652,AUTO,-35.3632594,149.1652374,32851,-0.029410308226943016,-0.0026149519253522158,-0.08780849725008011,0.5655469298362732,-0.17172931134700775,0.004159948322921991,9,25,-1022,566,-170,4,-45,-6,-5,140490.0
14:42:49.854,AUTO,-35.3632594,149.1652374,32851,-0.029410308226943016,-0.0026149519253522158,-0.08780849725008011,0.5655469298362732,-0.17172931134700775,0.004159948322921991,9,25,-1022,566,-170,4,-45,-6,-5,140490.0
14:42:50.055,AUTO,-35.3632604,149.1652373,32865,-0.0350898839533329,-0.038580890744924545,-0.0891418382525444,-0.16848435997962952,-0.12828724086284637,-0.0001890509738586843,6,-10,-1021,-168,-127,0,-38,-14,-9,140490.0
14:42:50.257,AUTO,-35.3632612,149.1652372,32889,-0.04414923116564751,-0.06280369311571121,-0.09084141999483109,-0.5833840370178223,-0.08201046288013458,-0.00502700824290514,5,-27,-993,-583,-81,-4,-25,-21,-12,140490.0
14:42:50.459,AUTO,-35.3632612,149.1652372,32889,-0.04414923116564751,-0.06280369311571121,-0.09084141999483109,-0.5833840370178223,-0.08201046288013458,-0.00502700824290514,5,-27,-993,-583,-81,-4,-25,-21,-12,140490.0
14:42:50.661,AUTO,-35.3632612,149.1652372,32889,-0.04414923116564751,-0.06280369311571121,-0.09084141999483109,-0.5833840370178223,-0.08201046288013458,-0.00502700824290514,5,-27,-993,-583,-81,-4,-25,-21,-12,117165.0
14:42:50.863,AUTO,-35.3632612,149.1652372,32889,-0.04414923116564751,-0.06280369311571121,-0.09084141999483109,-0.5833840370178223,-0.08201046288013458,-0.00502700824290514,5,-27,-993,-583,-81,-4,-25,-21,-12,117165.0
14:42:51.064,AUTO,-35.3632614,149.165235,33017,-0.014657508581876755,-0.08859744668006897,-0.14177490770816803,0.4962608218193054,-0.03355495259165764,-0.41761136054992676,-7,29,-1026,497,-32,-417,28,-43,-26,117165.0
14:42:51.266,AUTO,-35.3632608,149.1652339,33084,0.0032463674433529377,-0.09076879918575287,-0.3103870153427124,0.1009710431098938,-0.021723004058003426,-0.76435786485672,-12,-8,-1016,101,-20,-764,46,-49,-30,117165.0
14:42:51.468,AUTO,-35.3632597,149.1652327,33160,0.010432187467813492,-0.08995141834020615,-0.46023789048194885,-0.4572761058807373,-0.009708494879305363,-0.409610778093338,-15,-27,-1018,-456,-9,-409,63,-55,-34,117165.0
14:42:51.669,AUTO,-35.3632583,149.1652313,33248,0.011931284330785275,-0.08953572809696198,-0.5160178542137146,-0.15263354778289795,-0.006836466491222382,-0.09652546793222427,-19,-8,-1019,-151,-6,-96,80,-61,-39,117165.0
14:42:51.871,AUTO,-35.3632583,149.1652313,33248,0.011931284330785275,-0.08953572809696198,-0.5160178542137146,-0.15263354778289795,-0.006836466491222382,-0.09652546793222427,-19,-8,-1019,-151,-6,-96,80,-61,-39,117165.0
14:42:52.073,AUTO,-35.3632564,149.1652297,33349,0.021019529551267624,-0.09182129055261612,-0.5151843428611755,0.34515637159347534,-0.003213836345821619,0.04866714030504227,-23,7,-1026,346,-2,48,95,-67,-44,117165.0
14:42:52.275,AUTO,-35.3632542,149.1652279,33464,0.022247053682804108,-0.09355106204748154,-0.4972173571586609,0.1872810274362564,-0.00921610463410616,0.07623597234487534,-24,-11,-1028,187,-8,76,110,-74,-50,117165.0
14:42:52.477,AUTO,-35.3632542,149.1652279,33464,0.022247053682804108,-0.09355106204748154,-0.4972173571586609,0.1872810274362564,-0.00921610463410616,0.07623597234487534,-24,-11,-1028,187,-8,76,110,-74,-50,117165.0
14:42:52.679,AUTO,-35.3632542,149.1652279,33464,0.022247053682804108,-0.09355106204748154,-0.4972173571586609,0.1872810274362564,-0.00921610463410616,0.07623597234487534,-24,-11,-1028,187,-8,76,110,-74,-50,117165.0
14:42:52.881,AUTO,-35.3632542,149.1652279,33464,0.022247053682804108,-0.09355106204748154,-0.4972173571586609,0.1872810274362564,-0.00921610463410616,0.07623597234487534,-24,-11,-1028,187,-8,76,110,-74,-50,117165.0
14:42:53.082,AUTO,-35.3632457,149.1652215,33910,0.018953481689095497,-0.08553773909807205,-0.4763234257698059,0.20962806046009064,0.021442029625177383,-0.014492147602140903,-34,-8,-1027,210,22,-14,151,-92,-70,117165.0
14:42:53.284,AUTO,-35.3632423,149.165219,34093,0.020805252715945244,-0.07694055140018463,-0.4787181317806244,0.05834012106060982,0.037443485110998154,-0.009869913570582867,-39,-22,-1026,58,38,-9,161,-97,-76,117165.0
14:42:53.486,AUTO,-35.3632386,149.1652164,34294,0.0170133113861084,-0.06807801872491837,-0.48145902156829834,-0.16044455766677856,0.031267642974853516,-0.010560457594692707,-39,-30,-1024,-159,31,-10,168,-101,-83,117165.0
14:42:53.688,AUTO,-35.3632349,149.1652138,34509,0.02056335099041462,-0.06489137560129166,-0.4841751158237457,0.11058435589075089,0.010035366751253605,-0.013526695780456066,-38,-14,-1018,111,10,-13,173,-104,-88,135737.0
14:42:53.889,AUTO,-35.3632349,149.1652138,34509,0.02056335099041462,-0.06489137560129166,-0.4841751158237457,0.11058435589075089,0.010035366751253605,-0.013526695780456066,-38,-14,-1018,111,10,-13,173,-104,-88,135737.0
14:42:54.091,AUTO,-35.363231,149.165211,34729,0.021173493936657906,-0.062277935445308685,-0.48559314012527466,0.012733139097690582,0.00752737233415246,-0.003246519947424531,-37,-21,-964,13,8,-3,178,-107,-84,135737.0
14:42:54.293,AUTO,-35.363227,149.1652082,34937,0.018320653587579727,-0.060091134160757065,-0.48652011156082153,-0.1552327424287796,0.013304203748703003,-0.004253708757460117,-42,-31,-999,-154,13,-3,181,-110,-82,135737.0
14:42:54.495,AUTO,-35.363227,149.1652082,34937,0.018320653587579727,-0.060091134160757065,-0.48652011156082153,-0.1552327424287796,0.013304203748703003,-0.004253708757460117,-42,-31,-999,-154,13,-3,181,-110,-82,135737.0
14:42:54.697,AUTO,-35.363227,149.1652082,34937,0.018320653587579727,-0.060091134160757065,-0.48652011156082153,-0.1552327424287796,0.013304203748703003,-0.004253708757460117,-42,-31,-999,-154,13,-3,181,-110,-82,135737.0
14:42:54.899,AUTO,-35.363227,149.1652082,34937,0.018320653587579727,-0.060091134160757065,-0.48652011156082153,-0.1552327424287796,0.013304203748703003,-0.004253708757460117,-42,-31,-999,-154,13,-3,181,-110,-82,135737.0
14:42:55.101,AUTO,-35.3632145,149.1651993,35599,0.019275762140750885,-0.05198805034160614,-0.4899929165840149,-0.09923998266458511,0.0050170086324214935,-0.01118942815810442,-36,-28,-1018,-98,5,-10,189,-116,-94,135737.0
14:42:55.302,AUTO,-35.3632102,149.1651962,35845,0.021482251584529877,-0.050571877509355545,-0.4913250803947449,0.09704063087701797,0.0073141129687428474,-0.005646485835313797,-47,-21,-1016,97,7,-5,190,-117,-99,135737.0
14:42:55.504,AUTO,-35.3632059,149.1651932,36100,0.02040168084204197,-0.048184413462877274,-0.4923226535320282,-0.045201919972896576,0.023491572588682175,-0.0017067373264580965,-45,-28,-1010,-44,24,-1,191,-118,-102,135737.0
14:42:55.706,AUTO,-35.3632016,149.16519,36363,0.02001366764307022,-0.042520809918642044,-0.4934937357902527,-0.0371558852493763,0.02044169418513775,-0.006904771085828543,-42,-22,-1006,-36,21,-6,191,-119,-104,135737.0
14:42:55.909,AUTO,-35.3631973,149.1651869,36630,0.021311601623892784,-0.03872586041688919,-0.494764506816864,0.0679599791765213,0.0020269614178687334,-0.00731817027553916,-39,-24,-998,68,2,-6,190,-119,-105,135737.0
14:42:56.111,AUTO,-35.3631973,149.1651869,36630,0.021311601623892784,-0.03872586041688919,-0.494764506816864,0.0679599791765213,0.0020269614178687334,-0.00731817027553916,-39,-24,-998,68,2,-6,190,-119,-105,135737.0
14:42:56.314,AUTO,-35.3631931,149.1651838,36898,0.021487407386302948,-0.04281677305698395,-0.4958726465702057,-0.0051897489465773106,-0.03626096993684769,-0.0032710335217416286,-47,-27,-995,-4,-35,-2,188,-119,-105,135737.0
14:42:56.517,AUTO,-35.3631931,149.1651838,36898,0.021487407386302948,-0.04281677305698395,-0.4958726465702057,-0.0051897489465773106,-0.03626096993684769,-0.0032710335217416286,-47,-27,-995,-4,-35,-2,188,-119,-105,135737.0
14:42:56.720,AUTO,-35.3631931,149.1651838,36898,0.021487407386302948,-0.04281677305698395,-0.4958726465702057,-0.0051897489465773106,-0.03626096993684769,-0.0032710335217416286,-47,-27,-995,-4,-35,-2,188,-119,-105,192762.0
14:42:56.924,AUTO,-35.3631802,149.1651743,37697,0.022868875414133072,-0.0286225825548172,-0.4990486204624176,0.03932395577430725,0.04384273663163185,-0.0020798505283892155,-48,-30,-1035,39,44,-1,186,-119,-108,192762.0
14:42:57.126,AUTO,-35.3631802,149.1651743,37697,0.022868875414133072,-0.0286225825548172,-0.4990486204624176,0.03932395577430725,0.04384273663163185,-0.0020798505283892155,-48,-30,-1035,39,44,-1,186,-119,-108,192762.0
14:42:57.327,AUTO,-35.363176,149.1651712,37978,0.02516222558915615,-0.018554002046585083,-0.4999433159828186,-0.03623246029019356,0.03222603350877762,0.00046241184463724494,-48,-27,-1001,-35,32,0,182,-117,-111,192762.0
14:42:57.529,AUTO,-35.3631719,149.1651681,38260,0.024117361754179,-0.009911737404763699,-0.5009868144989014,-0.008679579012095928,0.04279294237494469,-0.0015073306858539581,-45,-24,-983,-7,43,-1,176,-113,-109,192762.0
14:42:57.731,AUTO,-35.363168,149.1651652,38532,0.02493405155837536,0.0011604111641645432,-0.5019223690032959,0.027576128020882607,0.046604376286268234,-0.0027709431014955044,-43,-22,-974,27,46,-2,169,-108,-103,192762.0
14:42:57.933,AUTO,-35.3631642,149.1651623,38791,0.02525695413351059,0.010179325938224792,-0.5026726126670837,-0.01940535008907318,0.03674452751874924,-0.0017306950176134706,-39,-24,-969,-18,37,-1,159,-103,-96,192762.0
14:42:58.135,AUTO,-35.3631642,149.1651623,38791,0.02525695413351059,0.010179325938224792,-0.5026726126670837,-0.01940535008907318,0.03674452751874924,-0.0017306950176134706,-39,-24,-969,-18,37,-1,159,-103,-96,192762.0
14:42:58.337,AUTO,-35.3631606,149.1651596,39028,0.024677127599716187,0.01991884969174862,-0.5033960342407227,-0.0076484535820782185,0.03930274024605751,-0.0008703501662239432,-36,-17,-967,-7,39,0,149,-96,-88,192762.0
14:42:58.539,AUTO,-35.3631606,149.1651596,39028,0.024677127599716187,0.01991884969174862,-0.5033960342407227,-0.0076484535820782185,0.03930274024605751,-0.0008703501662239432,-36,-17,-967,-7,39,0,149,-96,-88,192762.0
14:42:58.741,AUTO,-35.3631606,149.1651596,39028,0.024677127599716187,0.01991884969174862,-0.5033960342407227,-0.0076484535820782185,0.03930274024605751,-0.0008703501662239432,-36,-17,-967,-7,39,0,149,-96,-88,192762.0
14:42:58.943,AUTO,-35.3631516,149.1651529,39608,0.019882937893271446,0.04963298887014389,-0.5057271718978882,-0.11469166725873947,0.047389909625053406,-0.0016324567841365933,-27,-20,-964,-114,48,-1,110,-70,-62,192762.0
14:42:59.144,AUTO,-35.3631516,149.1651529,39608,0.019882937893271446,0.04963298887014389,-0.5057271718978882,-0.11469166725873947,0.047389909625053406,-0.0016324567841365933,-27,-20,-964,-114,48,-1,110,-70,-62,192762.0
14:42:59.346,AUTO,-35.3631492,149.1651511,39756,0.022304607555270195,0.06069280952215195,-0.5066749453544617,0.2353024184703827,0.04257139563560486,-0.005517447367310524,-27,-1,-965,236,43,-4,95,-60,-52,192762.0
14:42:59.548,AUTO,-35.3631471,149.1651497,39879,0.02091837115585804,0.06643930822610855,-0.5073437094688416,-0.01430451963096857,0.013822359032928944,0.0015950463712215424,-19,-27,-953,-14,14,2,78,-50,-41,192762.0
14:42:59.749,AUTO,-35.3631454,149.1651485,39972,0.01204389613121748,0.06793396174907684,-0.5079599618911743,-0.598172664642334,-0.006010710261762142,0.0034092054702341557,-15,-45,-956,-598,-5,3,61,-40,-30,104425.0
14:42:59.951,AUTO,-35.3631441,149.1651475,40040,0.0069954898208379745,0.062068041414022446,-0.5082160830497742,-0.45326218008995056,-0.04245924577116966,-0.004455908201634884,-14,-13,-976,-452,-41,-4,47,-28,-22,104425.0
14:43:00.155,AUTO,-35.3631431,149.1651469,40095,0.011408302001655102,0.049356892704963684,-0.5089783072471619,0.33436137437820435,-0.04982810840010643,-0.008227992802858353,-9,21,-978,335,-49,-7,34,-20,-18,104425.0
14:43:00.357,AUTO,-35.3631431,149.1651469,40095,0.011408302001655102,0.049356892704963684,-0.5089783072471619,0.33436137437820435,-0.04982810840010643,-0.008227992802858353,-9,21,-978,335,-49,-7,34,-20,-18,104425.0
14:43:00.559,AUTO,-35.3631431,149.1651469,40095,0.011408302001655102,0.049356892704963684,-0.5089783072471619,0.33436137437820435,-0.04982810840010643,-0.008227992802858353,-9,21,-978,335,-49,-7,34,-20,-18,104425.0
14:43:00.760,AUTO,-35.3631431,149.1651469,40095,0.011408302001655102,0.049356892704963684,-0.5089783072471619,0.33436137437820435,-0.04982810840010643,-0.008227992802858353,-9,21,-978,335,-49,-7,34,-20,-18,104425.0
14:43:00.962,AUTO,-35.3631414,149.1651458,40177,0.0003497536526992917,0.0227335374802351,-0.511368453502655,-0.17393943667411804,-0.022408079355955124,-0.003978200256824493,-3,-26,-981,-174,-21,-3,12,-7,-4,104425.0
14:43:01.164,AUTO,-35.3631411,149.1651456,40186,-0.003940569702535868,0.0174801517277956,-0.5117881894111633,-0.6272816061973572,-0.02193758822977543,-0.002697568153962493,-2,-33,-994,-627,-21,-2,7,-6,-4,104425.0
14:43:01.365,AUTO,-35.3631411,149.1651456,40186,-0.003940569702535868,0.0174801517277956,-0.5117881894111633,-0.6272816061973572,-0.02193758822977543,-0.002697568153962493,-2,-33,-994,-627,-21,-2,7,-6,-4,104425.0
14:43:01.567,AUTO,-35.363141,149.1651455,40191,-0.004642169456928968,0.013013353571295738,-0.5125786662101746,-0.38686028122901917,-0.020423317328095436,-0.005114533007144928,-3,-4,-985,-385,-19,-4,4,-3,0,104425.0
14:43:01.769,AUTO,-35.3631409,149.1651453,40188,-0.0011189613724127412,0.009081192314624786,-0.5135989785194397,0.26729196310043335,-0.013101501390337944,0.0018466506153345108,-2,32,-976,269,-12,2,2,-1,1,104425.0
14:43:01.971,AUTO,-35.3631409,149.1651452,40181,0.008370274677872658,0.005964536219835281,-0.5147680044174194,0.7397823333740234,-0.007526641711592674,-0.006468690931797028,-2,37,-998,740,-6,-6,0,-1,1,104425.0
14:43:02.173,AUTO,-35.3631409,149.1651451,40173,0.012800351716578007,0.0021944879554212093,-0.5151776671409607,0.616289496421814,-0.016560794785618782,-0.0041077095083892345,-1,26,-1008,616,-15,-3,0,0,3,104425.0
14:43:02.375,AUTO,-35.3631409,149.1651451,40173,0.012800351716578007,0.0021944879554212093,-0.5151776671409607,0.616289496421814,-0.016560794785618782,-0.0041077095083892345,-1,26,-1008,616,-15,-3,0,0,3,104425.0
14:43:02.576,AUTO,-35.3631409,149.1651451,40173,0.012800351716578007,0.0021944879554212093,-0.5151776671409607,0.616289496421814,-0.016560794785618782,-0.0041077095083892345,-1,26,-1008,616,-15,-3,0,0,3,104425.0
14:43:02.778,AUTO,-35.3631409,149.1651451,40173,0.012800351716578007,0.0021944879554212093,-0.5151776671409607,0.616289496421814,-0.016560794785618782,-0.0041077095083892345,-1,26,-1008,616,-15,-3,0,0,3,85190.0
14:43:02.980,AUTO,-35.363141,149.1651444,40155,0.002226614160463214,-0.011486027389764786,-0.5173459649085999,-0.5223987698554993,-0.000347129040164873,0.005386845208704472,-2,-2,-1001,-521,0,5,3,0,0,85190.0
14:43:03.181,AUTO,-35.3631411,149.165144,40150,0.01124104205518961,-0.008515091612935066,-0.518280565738678,0.19510871171951294,0.01042218692600727,0.003917133901268244,-3,29,-1009,196,11,4,6,0,0,85190.0
14:43:03.383,AUTO,-35.3631411,149.165144,40150,0.01124104205518961,-0.008515091612935066,-0.518280565738678,0.19510871171951294,0.01042218692600727,0.003917133901268244,-3,29,-1009,196,11,4,6,0,0,85190.0
