time_stamp,MODE,lat,lon,relative_alt,roll,pitch,yaw,rollspeed,pitchspeed,yawspeed,xacc,yacc,zacc,xgyro,ygyro,zgyro,vx,vy,vz,RTL_ALT
19:49:37.169,STABILIZE,-35.3632622,149.1652375,26,-0.001014403416775167,0.001025655190460384,0.025479454547166824,0.00033310800790786743,0.0003031196538358927,0.0019665381405502558,0,2,-1000,0,0,0,-1,2,0,1500.0
19:49:37.370,STABILIZE,-35.3632622,149.1652375,26,-0.001014403416775167,0.001025655190460384,0.025479454547166824,0.00033310800790786743,0.0003031196538358927,0.0019665381405502558,0,2,-1000,0,0,0,-1,2,0,1500.0
19:49:37.575,STABILIZE,-35.3632622,149.1652375,26,-0.001014403416775167,0.001025655190460384,0.025479454547166824,0.00033310800790786743,0.0003031196538358927,0.0019665381405502558,0,2,-1000,0,0,0,-1,2,0,1500.0
19:49:37.776,STABILIZE,-35.3632622,149.1652375,26,-0.001014403416775167,0.001025655190460384,0.025479454547166824,0.00033310800790786743,0.0003031196538358927,0.0019665381405502558,0,2,-1000,0,0,0,-1,2,0,1500.0
19:49:37.978,STABILIZE,-35.3632622,149.1652375,26,-0.001014403416775167,0.001025655190460384,0.025479454547166824,0.00033310800790786743,0.0003031196538358927,0.0019665381405502558,0,2,-1000,0,0,0,-1,2,0,1500.0
19:49:38.181,STABILIZE,-35.3632622,149.1652375,26,-0.001014403416775167,0.001025655190460384,0.025479454547166824,0.00033310800790786743,0.0003031196538358927,0.0019665381405502558,0,2,-1000,0,0,0,-1,2,0,1500.0
19:49:38.384,STABILIZE,-35.3632622,149.1652375,26,-0.001014403416775167,0.001025655190460384,0.025479454547166824,0.00033310800790786743,0.0003031196538358927,0.0019665381405502558,0,2,-1000,0,0,0,-1,2,0,1500.0
19:49:38.586,STABILIZE,-35.3632622,149.1652375,26,-0.001014403416775167,0.001025655190460384,0.025479454547166824,0.00033310800790786743,0.0003031196538358927,0.0019665381405502558,0,2,-1000,0,0,0,-1,2,0,1500.0
19:49:38.789,STABILIZE,-35.3632621,149.1652375,25,-0.0012202018406242132,0.0009600464254617691,0.024990180507302284,0.00030709110433235765,0.00029972963966429234,0.0018731544259935617,0,2,-1000,0,0,0,-1,1,0,1500.0
19:49:38.991,STABILIZE,-35.3632621,149.1652375,25,-0.0012563173659145832,0.0009466756018809974,0.024786055088043213,0.00019521138165146112,0.00023753810091875494,0.00192136294208467,0,1,-1000,0,0,0,-1,1,0,1500.0
19:49:39.192,STABILIZE,-35.3632621,149.1652375,25,-0.0012563173659145832,0.0009466756018809974,0.024786055088043213,0.00019521138165146112,0.00023753810091875494,0.00192136294208467,0,1,-1000,0,0,0,-1,1,0,1500.0
19:49:39.394,STABILIZE,-35.3632621,149.1652375,25,-0.0012563173659145832,0.0009466756018809974,0.024786055088043213,0.00019521138165146112,0.00023753810091875494,0.00192136294208467,0,1,-1000,0,0,0,-1,1,0,1500.0
19:49:39.596,STABILIZE,-35.3632621,149.1652375,25,-0.0012563173659145832,0.0009466756018809974,0.024786055088043213,0.00019521138165146112,0.00023753810091875494,0.00192136294208467,0,1,-1000,0,0,0,-1,1,0,1500.0
19:49:39.799,STABILIZE,-35.3632621,149.1652375,25,-0.0012563173659145832,0.0009466756018809974,0.024786055088043213,0.00019521138165146112,0.00023753810091875494,0.00192136294208467,0,1,-1000,0,0,0,-1,1,0,1500.0
19:49:40.000,STABILIZE,-35.3632621,149.1652375,25,-0.0012563173659145832,0.0009466756018809974,0.024786055088043213,0.00019521138165146112,0.00023753810091875494,0.00192136294208467,0,1,-1000,0,0,0,-1,1,0,1500.0
19:49:40.202,STABILIZE,-35.3632621,149.1652375,25,-0.0012563173659145832,0.0009466756018809974,0.024786055088043213,0.00019521138165146112,0.00023753810091875494,0.00192136294208467,0,1,-1000,0,0,0,-1,1,0,1500.0
19:49:40.405,STABILIZE,-35.3632621,149.1652375,25,-0.0012563173659145832,0.0009466756018809974,0.024786055088043213,0.00019521138165146112,0.00023753810091875494,0.00192136294208467,0,1,-1000,0,0,0,-1,1,0,1500.0
19:49:40.607,STABILIZE,-35.3632621,149.1652375,25,-0.0012563173659145832,0.0009466756018809974,0.024786055088043213,0.00019521138165146112,0.00023753810091875494,0.00192136294208467,0,1,-1000,0,0,0,-1,1,0,1500.0
19:49:40.810,STABILIZE,-35.3632621,149.1652375,27,-0.001267937128432095,0.00091984384926036,0.024528807029128075,0.0002829034347087145,0.0001592534244991839,0.0016376713756471872,0,2,-1000,0,0,0,-1,0,0,1500.0
19:49:41.013,STABILIZE,-35.3632621,149.1652375,27,-0.0012314380146563053,0.0009264905820600688,0.024124175310134888,0.0002937477547675371,0.00019824836635962129,0.0017343752551823854,0,1,-1000,0,0,0,-1,0,0,1500.0
19:49:41.215,STABILIZE,-35.3632621,149.1652375,27,-0.0012314380146563053,0.0009264905820600688,0.024124175310134888,0.0002937477547675371,0.00019824836635962129,0.0017343752551823854,0,1,-1000,0,0,0,-1,0,0,1500.0
19:49:41.422,STABILIZE,-35.3632621,149.1652375,27,-0.0012314380146563053,0.0009264905820600688,0.024124175310134888,0.0002937477547675371,0.00019824836635962129,0.0017343752551823854,0,1,-1000,0,0,0,-1,0,0,1500.0
19:49:41.623,STABILIZE,-35.3632621,149.1652375,27,-0.0012314380146563053,0.0009264905820600688,0.024124175310134888,0.0002937477547675371,0.00019824836635962129,0.0017343752551823854,0,1,-1000,0,0,0,-1,0,0,1500.0
19:49:41.826,STABILIZE,-35.3632621,149.1652375,27,-0.0012314380146563053,0.0009264905820600688,0.024124175310134888,0.0002937477547675371,0.00019824836635962129,0.0017343752551823854,0,1,-1000,0,0,0,-1,0,0,1500.0
19:49:42.027,STABILIZE,-35.3632621,149.1652375,27,-0.0012314380146563053,0.0009264905820600688,0.024124175310134888,0.0002937477547675371,0.00019824836635962129,0.0017343752551823854,0,1,-1000,0,0,0,-1,0,0,1500.0
19:49:42.230,STABILIZE,-35.3632621,149.1652375,27,-0.0012314380146563053,0.0009264905820600688,0.024124175310134888,0.0002937477547675371,0.00019824836635962129,0.0017343752551823854,0,1,-1000,0,0,0,-1,0,0,1500.0
19:49:42.441,STABILIZE,-35.3632621,149.1652375,27,-0.0012314380146563053,0.0009264905820600688,0.024124175310134888,0.0002937477547675371,0.00019824836635962129,0.0017343752551823854,0,1,-1000,0,0,0,-1,0,0,1500.0
19:49:42.643,STABILIZE,-35.3632621,149.1652375,38,-0.0010438290191814303,0.0009264654945582151,0.0237568411976099,0.00030491274083033204,0.00021455582464113832,0.001636785687878728,0,2,-1000,0,0,1,-1,0,-1,1500.0
19:49:42.845,STABILIZE,-35.3632621,149.1652375,39,-0.0009242960368283093,0.0009329098975285888,0.02352130599319935,0.0003289227024652064,0.0002524865558370948,0.0016564708203077316,0,1,-1000,0,0,0,-1,0,-1,1500.0
19:49:43.046,STABILIZE,-35.3632621,149.1652375,39,-0.0009242960368283093,0.0009329098975285888,0.02352130599319935,0.0003289227024652064,0.0002524865558370948,0.0016564708203077316,0,1,-1000,0,0,0,-1,0,-1,1500.0
19:49:43.251,STABILIZE,-35.3632621,149.1652375,39,-0.0009242960368283093,0.0009329098975285888,0.02352130599319935,0.0003289227024652064,0.0002524865558370948,0.0016564708203077316,0,1,-1000,0,0,0,-1,0,-1,1500.0
19:49:43.457,STABILIZE,-35.3632621,149.1652375,39,-0.0009242960368283093,0.0009329098975285888,0.02352130599319935,0.0003289227024652064,0.0002524865558370948,0.0016564708203077316,0,1,-1000,0,0,0,-1,0,-1,1500.0
19:49:43.667,STABILIZE,-35.3632621,149.1652375,39,-0.0009242960368283093,0.0009329098975285888,0.02352130599319935,0.0003289227024652064,0.0002524865558370948,0.0016564708203077316,0,1,-1000,0,0,0,-1,0,-1,1500.0
19:49:43.870,STABILIZE,-35.3632621,149.1652375,39,-0.0009242960368283093,0.0009329098975285888,0.02352130599319935,0.0003289227024652064,0.0002524865558370948,0.0016564708203077316,0,1,-1000,0,0,0,-1,0,-1,1500.0
19:49:44.073,STABILIZE,-35.3632621,149.1652375,39,-0.0009242960368283093,0.0009329098975285888,0.02352130599319935,0.0003289227024652064,0.0002524865558370948,0.0016564708203077316,0,1,-1000,0,0,0,-1,0,-1,1500.0
19:49:44.275,STABILIZE,-35.3632621,149.1652375,39,-0.0009242960368283093,0.0009329098975285888,0.02352130599319935,0.0003289227024652064,0.0002524865558370948,0.0016564708203077316,0,1,-1000,0,0,0,-1,0,-1,1500.0
19:49:44.479,STABILIZE,-35.3632622,149.1652375,41,-0.0008314599399454892,0.0009498785948380828,0.023222217336297035,0.0003516077995300293,0.0002834330080077052,0.0017292107222601771,0,1,-1000,0,0,0,-1,1,-1,1500.0
19:49:44.682,STABILIZE,-35.3632621,149.1652375,41,-0.0008314599399454892,0.0009498785948380828,0.023222217336297035,0.0003516077995300293,0.0002834330080077052,0.0017292107222601771,0,2,-1000,0,1,0,-1,1,-1,1500.0
19:49:44.883,STABILIZE,-35.3632621,149.1652375,41,-0.0008314599399454892,0.0009498785948380828,0.023222217336297035,0.0003516077995300293,0.0002834330080077052,0.0017292107222601771,0,2,-1000,1,1,0,-1,1,-1,1500.0
19:49:45.085,STABILIZE,-35.3632621,149.1652375,41,-0.0008314599399454892,0.0009498785948380828,0.023222217336297035,0.0003516077995300293,0.0002834330080077052,0.0017292107222601771,0,2,-1000,1,1,0,-1,1,-1,1500.0
19:49:45.286,STABILIZE,-35.3632621,149.1652375,41,-0.0008314599399454892,0.0009498785948380828,0.023222217336297035,0.0003516077995300293,0.0002834330080077052,0.0017292107222601771,0,2,-1000,1,1,0,-1,1,-1,1500.0
19:49:45.488,STABILIZE,-35.3632621,149.1652375,41,-0.0008314599399454892,0.0009498785948380828,0.023222217336297035,0.0003516077995300293,0.0002834330080077052,0.0017292107222601771,0,2,-1000,1,1,0,-1,1,-1,1500.0
19:49:45.690,STABILIZE,-35.3632621,149.1652375,41,-0.0008314599399454892,0.0009498785948380828,0.023222217336297035,0.0003516077995300293,0.0002834330080077052,0.0017292107222601771,0,2,-1000,1,1,0,-1,1,-1,1500.0
19:49:45.892,STABILIZE,-35.3632621,149.1652375,41,-0.0008314599399454892,0.0009498785948380828,0.023222217336297035,0.0003516077995300293,0.0002834330080077052,0.0017292107222601771,0,2,-1000,1,1,0,-1,1,-1,1500.0
19:49:46.094,STABILIZE,-35.3632621,149.1652375,41,-0.0008314599399454892,0.0009498785948380828,0.023222217336297035,0.0003516077995300293,0.0002834330080077052,0.0017292107222601771,0,2,-1000,1,1,0,-1,1,-1,1500.0
19:49:46.296,STABILIZE,-35.3632621,149.1652375,41,-0.0008314599399454892,0.0009498785948380828,0.023222217336297035,0.0003516077995300293,0.0002834330080077052,0.0017292107222601771,0,2,-1000,1,1,0,-1,1,-1,1500.0
19:49:46.497,STABILIZE,-35.3632621,149.1652375,41,-0.0008314599399454892,0.0009498785948380828,0.023222217336297035,0.0003516077995300293,0.0002834330080077052,0.0017292107222601771,0,2,-1000,1,1,0,-1,1,-1,1500.0
19:49:46.699,STABILIZE,-35.3632621,149.1652375,46,-0.000612314441241324,0.0009516702266409993,0.0225773174315691,0.00019676523515954614,0.00022940023336559534,0.001656938111409545,0,1,-1000,1,0,1,-1,0,-2,1500.0
19:49:46.900,STABILIZE,-35.3632622,149.1652375,47,-0.0005598757998086512,0.0009612791473045945,0.022242587059736252,0.00021963502513244748,0.0003208970301784575,0.0015381830744445324,0,1,-1000,0,1,0,-1,1,-1,1500.0
19:49:47.101,STABILIZE,-35.3632622,149.1652375,47,-0.0005598757998086512,0.0009612791473045945,0.022242587059736252,0.00021963502513244748,0.0003208970301784575,0.0015381830744445324,0,1,-1000,0,1,0,-1,1,-1,1500.0
19:49:47.303,STABILIZE,-35.3632622,149.1652375,47,-0.0005598757998086512,0.0009612791473045945,0.022242587059736252,0.00021963502513244748,0.0003208970301784575,0.0015381830744445324,0,1,-1000,0,1,0,-1,1,-1,1500.0
19:49:47.505,STABILIZE,-35.3632622,149.1652375,47,-0.0005598757998086512,0.0009612791473045945,0.022242587059736252,0.00021963502513244748,0.0003208970301784575,0.0015381830744445324,0,1,-1000,0,1,0,-1,1,-1,1500.0
19:49:47.710,STABILIZE,-35.3632622,149.1652375,47,-0.0005598757998086512,0.0009612791473045945,0.022242587059736252,0.00021963502513244748,0.0003208970301784575,0.0015381830744445324,0,1,-1000,0,1,0,-1,1,-1,1500.0
19:49:47.912,STABILIZE,-35.3632622,149.1652375,47,-0.0005598757998086512,0.0009612791473045945,0.022242587059736252,0.00021963502513244748,0.0003208970301784575,0.0015381830744445324,0,1,-1000,0,1,0,-1,1,-1,1500.0
19:49:48.118,STABILIZE,-35.3632622,149.1652375,47,-0.0005598757998086512,0.0009612791473045945,0.022242587059736252,0.00021963502513244748,0.0003208970301784575,0.0015381830744445324,0,1,-1000,0,1,0,-1,1,-1,1500.0
19:49:48.321,STABILIZE,-35.3632622,149.1652375,47,-0.0005598757998086512,0.0009612791473045945,0.022242587059736252,0.00021963502513244748,0.0003208970301784575,0.0015381830744445324,0,1,-1000,0,1,0,-1,1,-1,1500.0
19:49:48.527,STABILIZE,-35.3632622,149.1652375,47,-0.0005598757998086512,0.0009612791473045945,0.022242587059736252,0.00021963502513244748,0.0003208970301784575,0.0015381830744445324,0,1,-1000,0,1,0,-1,1,-1,1500.0
19:49:48.730,STABILIZE,-35.3632622,149.1652375,44,-0.0006141596240922809,0.000989545020274818,0.021769069135189056,0.0002795349573716521,0.0002868128358386457,0.0016179626109078526,0,2,-1000,0,0,0,-1,1,0,1500.0
19:49:48.932,AUTO,-35.3632622,149.1652375,8,-0.0004841728659812361,0.0009809333132579923,0.02163667231798172,0.0003114468418061733,0.00024555512936785817,0.0015798343811184168,0,1,-1000,1,0,1,-1,0,-2,1500.0
19:49:49.136,AUTO,-35.3632622,149.1652375,8,-0.0004841728659812361,0.0009809333132579923,0.02163667231798172,0.0003114468418061733,0.00024555512936785817,0.0015798343811184168,0,1,-1000,1,0,1,-1,0,-2,1500.0
19:49:49.338,AUTO,-35.3632622,149.1652375,8,-0.0004841728659812361,0.0009809333132579923,0.02163667231798172,0.0003114468418061733,0.00024555512936785817,0.0015798343811184168,0,1,-1000,1,0,1,-1,0,-2,1500.0
19:49:49.540,AUTO,-35.3632622,149.1652375,8,-0.0004841728659812361,0.0009809333132579923,0.02163667231798172,0.0003114468418061733,0.00024555512936785817,0.0015798343811184168,0,1,-1000,1,0,1,-1,0,-2,1500.0
19:49:49.742,AUTO,-35.3632622,149.1652375,8,-0.0004841728659812361,0.0009809333132579923,0.02163667231798172,0.0003114468418061733,0.00024555512936785817,0.0015798343811184168,0,1,-1000,1,0,1,-1,0,-2,1500.0
19:49:49.944,AUTO,-35.3632622,149.1652375,8,-0.0004841728659812361,0.0009809333132579923,0.02163667231798172,0.0003114468418061733,0.00024555512936785817,0.0015798343811184168,0,1,-1000,1,0,1,-1,0,-2,1500.0
19:49:50.146,AUTO,-35.3632622,149.1652375,8,-0.0004841728659812361,0.0009809333132579923,0.02163667231798172,0.0003114468418061733,0.00024555512936785817,0.0015798343811184168,0,1,-1000,1,0,1,-1,0,-2,1500.0
19:49:50.348,AUTO,-35.3632622,149.1652375,8,-0.0004841728659812361,0.0009809333132579923,0.02163667231798172,0.0003114468418061733,0.00024555512936785817,0.0015798343811184168,0,1,-1000,1,0,1,-1,0,-2,1500.0
19:49:50.555,AUTO,-35.3632621,149.1652375,14,-0.00039812992326915264,0.0010275521781295538,0.02140180766582489,0.00028226530412212014,0.00023290119133889675,0.0015254102181643248,0,1,-1000,1,0,0,0,0,-2,1500.0
19:49:50.759,AUTO,-35.3632621,149.1652375,15,-0.00021018805273342878,0.0012449665227904916,0.02109280787408352,0.000295058183837682,0.0001403299975208938,0.001468201633542776,0,1,-1000,1,0,0,0,0,-1,1500.0
19:49:50.962,AUTO,-35.3632621,149.1652375,15,-0.00015882957086432725,0.001299802795983851,0.021000098437070847,0.00023758038878440857,0.00013493525329977274,0.0012962499167770147,0,1,-1000,0,1,1,0,0,-1,1500.0
19:49:51.164,AUTO,-35.3632621,149.1652375,15,-0.00015882957086432725,0.001299802795983851,0.021000098437070847,0.00023758038878440857,0.00013493525329977274,0.0012962499167770147,0,1,-1000,0,1,1,0,0,-1,1500.0
19:49:51.367,AUTO,-35.3632621,149.1652375,15,-0.00015882957086432725,0.001299802795983851,0.021000098437070847,0.00023758038878440857,0.00013493525329977274,0.0012962499167770147,0,1,-1000,0,1,1,0,0,-1,1500.0
19:49:51.569,AUTO,-35.3632621,149.1652375,15,-0.00015882957086432725,0.001299802795983851,0.021000098437070847,0.00023758038878440857,0.00013493525329977274,0.0012962499167770147,0,1,-1000,0,1,1,0,0,-1,1500.0
19:49:51.771,AUTO,-35.3632621,149.1652375,15,-0.00015882957086432725,0.001299802795983851,0.021000098437070847,0.00023758038878440857,0.00013493525329977274,0.0012962499167770147,0,1,-1000,0,1,1,0,0,-1,1500.0
19:49:51.973,AUTO,-35.3632621,149.1652375,15,-0.00015882957086432725,0.001299802795983851,0.021000098437070847,0.00023758038878440857,0.00013493525329977274,0.0012962499167770147,0,1,-1000,0,1,1,0,0,-1,1500.0
19:49:52.176,AUTO,-35.3632621,149.1652375,15,-0.00015882957086432725,0.001299802795983851,0.021000098437070847,0.00023758038878440857,0.00013493525329977274,0.0012962499167770147,0,1,-1000,0,1,1,0,0,-1,1500.0
19:49:52.377,AUTO,-35.3632621,149.1652375,15,-0.00015882957086432725,0.001299802795983851,0.021000098437070847,0.00023758038878440857,0.00013493525329977274,0.0012962499167770147,0,1,-1000,0,1,1,0,0,-1,1500.0
19:49:52.581,AUTO,-35.3632621,149.1652375,15,-0.00015882957086432725,0.001299802795983851,0.021000098437070847,0.00023758038878440857,0.00013493525329977274,0.0012962499167770147,0,1,-1000,0,1,1,0,0,-1,1500.0
19:49:52.783,AUTO,-35.3632621,149.1652375,22,0.002487639896571636,0.00040550457197241485,0.020504267886281013,0.005971588660031557,-0.010969302617013454,0.0021328418515622616,0,0,-1137,6,-10,1,0,0,-15,1500.0
19:49:52.985,AUTO,-35.3632621,149.1652375,106,0.0038346373476088047,-0.0004805978969670832,0.020517531782388687,0.0015266758855432272,0.001526838866993785,0.0019372149836272001,0,0,-1141,2,2,1,0,0,-50,1500.0
19:49:53.189,AUTO,-35.3632621,149.1652375,106,0.0038346373476088047,-0.0004805978969670832,0.020517531782388687,0.0015266758855432272,0.001526838866993785,0.0019372149836272001,0,0,-1141,2,2,1,0,0,-50,1500.0
19:49:53.391,AUTO,-35.3632621,149.1652375,106,0.0038346373476088047,-0.0004805978969670832,0.020517531782388687,0.0015266758855432272,0.001526838866993785,0.0019372149836272001,0,0,-1141,2,2,1,0,0,-50,1500.0
19:49:53.592,AUTO,-35.3632621,149.1652375,106,0.0038346373476088047,-0.0004805978969670832,0.020517531782388687,0.0015266758855432272,0.001526838866993785,0.0019372149836272001,0,0,-1141,2,2,1,0,0,-50,1500.0
19:49:53.794,AUTO,-35.3632621,149.1652375,106,0.0038346373476088047,-0.0004805978969670832,0.020517531782388687,0.0015266758855432272,0.001526838866993785,0.0019372149836272001,0,0,-1141,2,2,1,0,0,-50,1500.0
19:49:53.996,AUTO,-35.3632621,149.1652375,106,0.0038346373476088047,-0.0004805978969670832,0.020517531782388687,0.0015266758855432272,0.001526838866993785,0.0019372149836272001,0,0,-1141,2,2,1,0,0,-50,1500.0
19:49:54.197,AUTO,-35.3632621,149.1652375,106,0.0038346373476088047,-0.0004805978969670832,0.020517531782388687,0.0015266758855432272,0.001526838866993785,0.0019372149836272001,0,0,-1141,2,2,1,0,0,-50,1500.0
19:49:54.400,AUTO,-35.3632621,149.1652375,106,0.0038346373476088047,-0.0004805978969670832,0.020517531782388687,0.0015266758855432272,0.001526838866993785,0.0019372149836272001,0,0,-1141,2,2,1,0,0,-50,1500.0
19:49:54.604,AUTO,-35.3632621,149.1652375,106,0.0038346373476088047,-0.0004805978969670832,0.020517531782388687,0.0015266758855432272,0.001526838866993785,0.0019372149836272001,0,0,-1141,2,2,1,0,0,-50,1500.0
19:49:54.806,AUTO,-35.3632619,149.1652383,2281,0.0490918830037117,-0.005883486475795507,0.020196503028273582,0.041364636272192,-0.009724398143589497,0.0033057983964681625,1,-4,-1001,42,-8,2,3,24,-148,1500.0
19:49:55.007,AUTO,-35.3632618,149.165239,2663,0.058891668915748596,-0.008663896471261978,0.02040908671915531,0.037870775908231735,-0.011970875784754753,0.0035679510328918695,0,-5,-999,38,-11,3,6,35,-148,1500.0
19:49:55.210,AUTO,-35.3632618,149.165239,2663,0.058891668915748596,-0.008663896471261978,0.02040908671915531,0.037870775908231735,-0.011970875784754753,0.0035679510328918695,0,-5,-999,38,-11,3,6,35,-148,1500.0
19:49:55.413,AUTO,-35.3632618,149.165239,2663,0.058891668915748596,-0.008663896471261978,0.02040908671915531,0.037870775908231735,-0.011970875784754753,0.0035679510328918695,0,-5,-999,38,-11,3,6,35,-148,1500.0
19:49:55.614,AUTO,-35.3632618,149.165239,2663,0.058891668915748596,-0.008663896471261978,0.02040908671915531,0.037870775908231735,-0.011970875784754753,0.0035679510328918695,0,-5,-999,38,-11,3,6,35,-148,1500.0
19:49:55.818,AUTO,-35.3632618,149.165239,2663,0.058891668915748596,-0.008663896471261978,0.02040908671915531,0.037870775908231735,-0.011970875784754753,0.0035679510328918695,0,-5,-999,38,-11,3,6,35,-148,1500.0
19:49:56.020,AUTO,-35.3632618,149.165239,2663,0.058891668915748596,-0.008663896471261978,0.02040908671915531,0.037870775908231735,-0.011970875784754753,0.0035679510328918695,0,-5,-999,38,-11,3,6,35,-148,1500.0
19:49:56.221,AUTO,-35.3632618,149.165239,2663,0.058891668915748596,-0.008663896471261978,0.02040908671915531,0.037870775908231735,-0.011970875784754753,0.0035679510328918695,0,-5,-999,38,-11,3,6,35,-148,1500.0
19:49:56.424,AUTO,-35.3632618,149.165239,2663,0.058891668915748596,-0.008663896471261978,0.02040908671915531,0.037870775908231735,-0.011970875784754753,0.0035679510328918695,0,-5,-999,38,-11,3,6,35,-148,1500.0
19:49:56.626,AUTO,-35.3632611,149.165243,3795,-0.01140605565160513,0.02141866646707058,-0.054573170840740204,-0.09800306707620621,-0.025518180802464485,-0.048158254474401474,0,-5,-999,38,-11,3,5,53,-145,1500.0
19:49:56.827,AUTO,-35.3632607,149.1652465,5332,-0.07571254670619965,0.0034336999524384737,-0.08675923943519592,-0.10079323500394821,0.004774296656250954,-0.039338380098342896,1,-3,-999,-100,5,-39,1,4,-147,1500.0
19:49:57.029,AUTO,-35.3632607,149.1652463,5715,-0.07917403429746628,0.002619190840050578,-0.09496904909610748,0.035321276634931564,-0.004699597600847483,-0.026646792888641357,0,0,-1005,36,-4,-26,0,-16,-148,1500.0
19:49:57.231,AUTO,-35.3632607,149.1652463,5715,-0.07917403429746628,0.002619190840050578,-0.09496904909610748,0.035321276634931564,-0.004699597600847483,-0.026646792888641357,0,0,-1005,36,-4,-26,0,-16,-148,1500.0
19:49:57.432,AUTO,-35.3632607,149.1652463,5715,-0.07917403429746628,0.002619190840050578,-0.09496904909610748,0.035321276634931564,-0.004699597600847483,-0.026646792888641357,0,0,-1005,36,-4,-26,0,-16,-148,1500.0
19:49:57.635,AUTO,-35.3632607,149.1652463,5715,-0.07917403429746628,0.002619190840050578,-0.09496904909610748,0.035321276634931564,-0.004699597600847483,-0.026646792888641357,0,0,-1005,36,-4,-26,0,-16,-148,1500.0
19:49:57.837,AUTO,-35.3632607,149.1652463,5715,-0.07917403429746628,0.002619190840050578,-0.09496904909610748,0.035321276634931564,-0.004699597600847483,-0.026646792888641357,0,0,-1005,36,-4,-26,0,-16,-148,1500.0
19:49:58.039,AUTO,-35.3632607,149.1652463,5715,-0.07917403429746628,0.002619190840050578,-0.09496904909610748,0.035321276634931564,-0.004699597600847483,-0.026646792888641357,0,0,-1005,36,-4,-26,0,-16,-148,1500.0
19:49:58.241,AUTO,-35.3632607,149.1652463,5715,-0.07917403429746628,0.002619190840050578,-0.09496904909610748,0.035321276634931564,-0.004699597600847483,-0.026646792888641357,0,0,-1005,36,-4,-26,0,-16,-148,1500.0
19:49:58.443,AUTO,-35.3632607,149.1652463,5715,-0.07917403429746628,0.002619190840050578,-0.09496904909610748,0.035321276634931564,-0.004699597600847483,-0.026646792888641357,0,0,-1005,36,-4,-26,0,-16,-148,1500.0
19:49:58.646,AUTO,-35.3632609,149.1652431,6865,-0.03784318268299103,0.0029061383102089167,-0.10690165311098099,0.06313567608594894,0.007970280945301056,-0.007545463275164366,0,0,-1005,36,-4,-26,-7,-56,-148,1500.0
19:49:58.848,AUTO,-35.363262,149.1652366,8412,0.02923554927110672,0.012644397094845772,-0.10818614810705185,0.06724373251199722,0.006710969377309084,0.002874083584174514,-4,12,-1004,67,7,2,-18,-49,-151,1500.0
19:49:59.051,AUTO,-35.3632625,149.1652353,8807,0.04611721634864807,0.013744035735726357,-0.10693193227052689,0.06610190868377686,0.002347704255953431,0.003449810901656747,-2,11,-1003,66,3,2,-21,-38,-152,1500.0
19:49:59.252,AUTO,-35.3632625,149.1652353,8807,0.04611721634864807,0.013744035735726357,-0.10693193227052689,0.06610190868377686,0.002347704255953431,0.003449810901656747,-2,11,-1003,66,3,2,-21,-38,-152,1500.0
19:49:59.455,AUTO,-35.3632625,149.1652353,8807,0.04611721634864807,0.013744035735726357,-0.10693193227052689,0.06610190868377686,0.002347704255953431,0.003449810901656747,-2,11,-1003,66,3,2,-21,-38,-152,1500.0
19:49:59.657,AUTO,-35.3632625,149.1652353,8807,0.04611721634864807,0.013744035735726357,-0.10693193227052689,0.06610190868377686,0.002347704255953431,0.003449810901656747,-2,11,-1003,66,3,2,-21,-38,-152,1500.0
19:49:59.860,AUTO,-35.3632625,149.1652353,8807,0.04611721634864807,0.013744035735726357,-0.10693193227052689,0.06610190868377686,0.002347704255953431,0.003449810901656747,-2,11,-1003,66,3,2,-21,-38,-152,1500.0
19:50:00.063,AUTO,-35.3632625,149.1652353,8807,0.04611721634864807,0.013744035735726357,-0.10693193227052689,0.06610190868377686,0.002347704255953431,0.003449810901656747,-2,11,-1003,66,3,2,-21,-38,-152,1500.0
19:50:00.265,AUTO,-35.3632625,149.1652353,8807,0.04611721634864807,0.013744035735726357,-0.10693193227052689,0.06610190868377686,0.002347704255953431,0.003449810901656747,-2,11,-1003,66,3,2,-21,-38,-152,1500.0
19:50:00.469,AUTO,-35.3632625,149.1652353,8807,0.04611721634864807,0.013744035735726357,-0.10693193227052689,0.06610190868377686,0.002347704255953431,0.003449810901656747,-2,11,-1003,66,3,2,-21,-38,-152,1500.0
19:50:00.670,AUTO,-35.3632625,149.1652353,8807,0.04611721634864807,0.013744035735726357,-0.10693193227052689,0.06610190868377686,0.002347704255953431,0.003449810901656747,-2,11,-1003,66,3,2,-21,-38,-152,1500.0
19:50:00.872,AUTO,-35.3632644,149.1652348,10592,0.04274860769510269,-0.06247914582490921,-0.040484245866537094,-0.10693858563899994,-0.06920237839221954,0.08033834397792816,5,0,-998,-40,-119,119,0,31,-148,1500.0
19:50:01.075,AUTO,-35.3632631,149.1652372,11737,-0.029175035655498505,-0.01470795925706625,-0.07621089369058609,-0.039074186235666275,0.07040867954492569,-0.09155862033367157,-4,-8,-1007,-38,70,-92,33,21,-148,1500.0
19:50:04.857,AUTO,-35.3632631,149.1652372,11737,-0.029175035655498505,-0.01470795925706625,-0.07621089369058609,-0.039074186235666275,0.07040867954492569,-0.09155862033367157,-4,-8,-1007,-38,70,-92,33,21,-148,1500.0
19:50:05.059,AUTO,-35.3632631,149.1652372,11737,-0.029175035655498505,-0.01470795925706625,-0.07621089369058609,-0.039074186235666275,0.07040867954492569,-0.09155862033367157,-4,-8,-1007,-38,70,-92,33,21,-148,1500.0
19:50:05.261,AUTO,-35.3632631,149.1652372,11737,-0.029175035655498505,-0.01470795925706625,-0.07621089369058609,-0.039074186235666275,0.07040867954492569,-0.09155862033367157,-4,-8,-1007,-38,70,-92,33,21,-148,1500.0
19:50:05.463,AUTO,-35.3632631,149.1652372,11737,-0.029175035655498505,-0.01470795925706625,-0.07621089369058609,-0.039074186235666275,0.07040867954492569,-0.09155862033367157,-4,-8,-1007,-38,70,-92,33,21,-148,1500.0
19:50:05.665,AUTO,-35.3632631,149.1652372,11737,-0.029175035655498505,-0.01470795925706625,-0.07621089369058609,-0.039074186235666275,0.07040867954492569,-0.09155862033367157,-4,-8,-1007,-38,70,-92,33,21,-148,1500.0
19:50:05.867,AUTO,-35.3632631,149.1652372,11737,-0.029175035655498505,-0.01470795925706625,-0.07621089369058609,-0.039074186235666275,0.07040867954492569,-0.09155862033367157,-4,-8,-1007,-38,70,-92,33,21,-148,1500.0
19:50:06.071,AUTO,-35.3632631,149.1652372,11737,-0.029175035655498505,-0.01470795925706625,-0.07621089369058609,-0.039074186235666275,0.07040867954492569,-0.09155862033367157,-4,-8,-1007,-38,70,-92,33,21,-148,1500.0
19:50:06.273,AUTO,-35.3632631,149.1652372,11737,-0.029175035655498505,-0.01470795925706625,-0.07621089369058609,-0.039074186235666275,0.07040867954492569,-0.09155862033367157,-4,-8,-1007,-38,70,-92,33,21,-148,1500.0
19:50:06.475,AUTO,-35.3632605,149.1652373,13289,-0.018170442432165146,0.020331736654043198,-0.15311814844608307,0.04020369052886963,0.017696687951683998,-0.047983091324567795,-6,-3,-1003,31,25,-60,19,-14,-152,1500.0
19:50:06.677,AUTO,-35.3632597,149.1652354,14859,0.0166521854698658,0.02418423257768154,-0.1759079545736313,0.014151985757052898,-0.014220979064702988,0.003947673365473747,-1,2,-999,14,-13,3,-6,-10,-152,1500.0
19:50:06.879,AUTO,-35.3632597,149.1652354,14859,0.0166521854698658,0.02418423257768154,-0.1759079545736313,0.014151985757052898,-0.014220979064702988,0.003947673365473747,-1,2,-999,14,-13,3,-6,-10,-152,1500.0
19:50:07.081,AUTO,-35.3632597,149.1652354,14859,0.0166521854698658,0.02418423257768154,-0.1759079545736313,0.014151985757052898,-0.014220979064702988,0.003947673365473747,-1,2,-999,14,-13,3,-6,-10,-152,1500.0
19:50:07.282,AUTO,-35.3632597,149.1652354,14859,0.0166521854698658,0.02418423257768154,-0.1759079545736313,0.014151985757052898,-0.014220979064702988,0.003947673365473747,-1,2,-999,14,-13,3,-6,-10,-152,1500.0
19:50:07.488,AUTO,-35.3632597,149.1652354,14859,0.0166521854698658,0.02418423257768154,-0.1759079545736313,0.014151985757052898,-0.014220979064702988,0.003947673365473747,-1,2,-999,14,-13,3,-6,-10,-152,1500.0
19:50:07.698,AUTO,-35.3632597,149.1652354,14859,0.0166521854698658,0.02418423257768154,-0.1759079545736313,0.014151985757052898,-0.014220979064702988,0.003947673365473747,-1,2,-999,14,-13,3,-6,-10,-152,1500.0
19:50:07.901,AUTO,-35.3632597,149.1652354,14859,0.0166521854698658,0.02418423257768154,-0.1759079545736313,0.014151985757052898,-0.014220979064702988,0.003947673365473747,-1,2,-999,14,-13,3,-6,-10,-152,1500.0
19:50:08.104,AUTO,-35.3632612,149.1652354,17202,0.006511255633085966,0.002192138694226742,-0.1675015091896057,-0.010663636028766632,-0.008738243021070957,-0.006527590565383434,2,0,-1000,-10,-7,-6,-14,10,-151,1500.0
19:50:08.306,AUTO,-35.3632612,149.1652354,17202,0.006511255633085966,0.002192138694226742,-0.1675015091896057,-0.010663636028766632,-0.008738243021070957,-0.006527590565383434,2,0,-1000,-10,-7,-6,-14,10,-151,1500.0
19:50:08.511,AUTO,-35.3632612,149.1652354,17202,0.006511255633085966,0.002192138694226742,-0.1675015091896057,-0.010663636028766632,-0.008738243021070957,-0.006527590565383434,2,0,-1000,-10,-7,-6,-14,10,-151,1500.0
19:50:08.719,AUTO,-35.3632612,149.1652354,17202,0.006511255633085966,0.002192138694226742,-0.1675015091896057,-0.010663636028766632,-0.008738243021070957,-0.006527590565383434,2,0,-1000,-10,-7,-6,-14,10,-151,1500.0
19:50:08.925,AUTO,-35.3632612,149.1652354,17202,0.006511255633085966,0.002192138694226742,-0.1675015091896057,-0.010663636028766632,-0.008738243021070957,-0.006527590565383434,2,0,-1000,-10,-7,-6,-14,10,-151,1500.0
19:50:09.131,AUTO,-35.3632612,149.1652354,17202,0.006511255633085966,0.002192138694226742,-0.1675015091896057,-0.010663636028766632,-0.008738243021070957,-0.006527590565383434,2,0,-1000,-10,-7,-6,-14,10,-151,1500.0
19:50:09.342,AUTO,-35.3632612,149.1652354,17202,0.006511255633085966,0.002192138694226742,-0.1675015091896057,-0.010663636028766632,-0.008738243021070957,-0.006527590565383434,2,0,-1000,-10,-7,-6,-14,10,-151,1500.0
19:50:09.549,AUTO,-35.3632619,149.1652361,18529,-0.0003017010458279401,-0.0027192363049834967,-0.17934714257717133,-0.0024224910885095596,-0.001655867788940668,-0.021006466820836067,2,0,-1000,-1,0,-21,-8,8,-151,1500.0
19:50:09.753,AUTO,-35.3632621,149.1652364,19701,-4.879460539086722e-05,-0.0018945905612781644,-0.19797585904598236,0.0048811468295753,0.003809596411883831,-0.025809302926063538,0,0,-1000,5,4,-26,-3,4,-152,1500.0
19:50:09.955,AUTO,-35.3632621,149.1652364,19701,-4.879460539086722e-05,-0.0018945905612781644,-0.19797585904598236,0.0048811468295753,0.003809596411883831,-0.025809302926063538,0,0,-1000,5,4,-26,-3,4,-152,1500.0
19:50:10.157,AUTO,-35.3632621,149.1652364,19701,-4.879460539086722e-05,-0.0018945905612781644,-0.19797585904598236,0.0048811468295753,0.003809596411883831,-0.025809302926063538,0,0,-1000,5,4,-26,-3,4,-152,1500.0
19:50:10.360,AUTO,-35.3632621,149.1652364,19701,-4.879460539086722e-05,-0.0018945905612781644,-0.19797585904598236,0.0048811468295753,0.003809596411883831,-0.025809302926063538,0,0,-1000,5,4,-26,-3,4,-152,1500.0
19:50:10.566,AUTO,-35.3632621,149.1652364,19701,-4.879460539086722e-05,-0.0018945905612781644,-0.19797585904598236,0.0048811468295753,0.003809596411883831,-0.025809302926063538,0,0,-1000,5,4,-26,-3,4,-152,1500.0
19:50:10.794,AUTO,-35.3632621,149.1652364,19701,-4.879460539086722e-05,-0.0018945905612781644,-0.19797585904598236,0.0048811468295753,0.003809596411883831,-0.025809302926063538,0,0,-1000,5,4,-26,-3,4,-152,1500.0
19:50:11.036,AUTO,-35.3632621,149.1652364,19701,-4.879460539086722e-05,-0.0018945905612781644,-0.19797585904598236,0.0048811468295753,0.003809596411883831,-0.025809302926063538,0,0,-1000,5,4,-26,-3,4,-152,1500.0
19:50:11.272,AUTO,-35.3632621,149.1652364,19701,-4.879460539086722e-05,-0.0018945905612781644,-0.19797585904598236,0.0048811468295753,0.003809596411883831,-0.025809302926063538,0,0,-1000,5,4,-26,-3,4,-152,1500.0
19:50:11.492,AUTO,-35.3632621,149.1652364,19701,-4.879460539086722e-05,-0.0018945905612781644,-0.19797585904598236,0.0048811468295753,0.003809596411883831,-0.025809302926063538,0,0,-1000,5,4,-26,-3,4,-152,1500.0
19:50:11.722,AUTO,-35.3632621,149.1652364,19701,-4.879460539086722e-05,-0.0018945905612781644,-0.19797585904598236,0.0048811468295753,0.003809596411883831,-0.025809302926063538,0,0,-1000,5,4,-26,-3,4,-152,1500.0
19:50:11.937,AUTO,-35.3632622,149.1652364,22438,0.004357862286269665,0.0033471088390797377,-0.24293436110019684,0.002253452781587839,0.002494107000529766,-0.022409573197364807,0,0,-1000,2,3,-22,0,2,-152,1500.0
19:50:12.146,AUTO,-35.3632622,149.1652364,22438,0.004357862286269665,0.0033471088390797377,-0.24293436110019684,0.002253452781587839,0.002494107000529766,-0.022409573197364807,0,0,-1000,2,3,-22,0,2,-152,1500.0
19:50:12.351,AUTO,-35.3632622,149.1652364,22438,0.004357862286269665,0.0033471088390797377,-0.24293436110019684,0.002253452781587839,0.002494107000529766,-0.022409573197364807,0,0,-1000,2,3,-22,0,2,-152,1500.0
19:50:12.572,AUTO,-35.3632622,149.1652364,22438,0.004357862286269665,0.0033471088390797377,-0.24293436110019684,0.002253452781587839,0.002494107000529766,-0.022409573197364807,0,0,-1000,2,3,-22,0,2,-152,1500.0
19:50:12.775,AUTO,-35.3632622,149.1652364,22438,0.004357862286269665,0.0033471088390797377,-0.24293436110019684,0.002253452781587839,0.002494107000529766,-0.022409573197364807,0,0,-1000,2,3,-22,0,2,-152,1500.0
19:50:12.979,AUTO,-35.3632622,149.1652364,22438,0.004357862286269665,0.0033471088390797377,-0.24293436110019684,0.002253452781587839,0.002494107000529766,-0.022409573197364807,0,0,-1000,2,3,-22,0,2,-152,1500.0
19:50:13.181,AUTO,-35.3632621,149.1652367,25174,-0.005824423395097256,0.0041481503285467625,-0.274892657995224,-0.06832928955554962,0.01067763939499855,0.0028163015376776457,0,0,-996,-67,11,2,-1,3,-151,1500.0
19:50:13.383,AUTO,-35.3632621,149.1652367,25174,-0.005824423395097256,0.0041481503285467625,-0.274892657995224,-0.06832928955554962,0.01067763939499855,0.0028163015376776457,0,0,-996,-67,11,2,-1,3,-151,1500.0
19:50:13.584,AUTO,-35.3632621,149.1652367,25561,-0.010652442462742329,0.006300941575318575,-0.2730644941329956,0.021217336878180504,0.006193532608449459,0.013387156650424004,0,0,-1003,22,7,13,-2,0,-151,1500.0
19:50:13.787,AUTO,-35.3632621,149.1652367,25951,-0.002010689117014408,0.0063346377573907375,-0.2692747712135315,0.03789401054382324,-0.0011225873604416847,0.017695428803563118,0,0,-1002,38,0,17,-4,-1,-152,1500.0
19:50:13.994,AUTO,-35.3632621,149.1652367,25951,-0.002010689117014408,0.0063346377573907375,-0.2692747712135315,0.03789401054382324,-0.0011225873604416847,0.017695428803563118,0,0,-1002,38,0,17,-4,-1,-152,1500.0
19:50:14.196,AUTO,-35.3632621,149.1652367,25951,-0.002010689117014408,0.0063346377573907375,-0.2692747712135315,0.03789401054382324,-0.0011225873604416847,0.017695428803563118,0,0,-1002,38,0,17,-4,-1,-152,1500.0
19:50:14.399,AUTO,-35.3632621,149.1652367,25951,-0.002010689117014408,0.0063346377573907375,-0.2692747712135315,0.03789401054382324,-0.0011225873604416847,0.017695428803563118,0,0,-1002,38,0,17,-4,-1,-152,1500.0
19:50:14.607,AUTO,-35.3632621,149.1652367,25951,-0.002010689117014408,0.0063346377573907375,-0.2692747712135315,0.03789401054382324,-0.0011225873604416847,0.017695428803563118,0,0,-1002,38,0,17,-4,-1,-152,1500.0
19:50:14.809,AUTO,-35.3632621,149.1652367,25951,-0.002010689117014408,0.0063346377573907375,-0.2692747712135315,0.03789401054382324,-0.0011225873604416847,0.017695428803563118,0,0,-1002,38,0,17,-4,-1,-152,1500.0
19:50:15.015,AUTO,-35.3632621,149.1652367,25951,-0.002010689117014408,0.0063346377573907375,-0.2692747712135315,0.03789401054382324,-0.0011225873604416847,0.017695428803563118,0,0,-1002,38,0,17,-4,-1,-152,1500.0
19:50:15.220,AUTO,-35.3632624,149.1652368,28141,0.00840665865689516,0.0017163570737466216,-0.23366421461105347,-0.009932979941368103,0.0006585012888535857,0.023236747831106186,0,0,-999,-2,0,24,-2,7,-152,1500.0
19:50:15.424,AUTO,-35.3632624,149.1652369,28531,0.006404420826584101,0.0016789097571745515,-0.228196918964386,-0.007487735711038113,0.0011550462804734707,0.021682070568203926,1,0,-1000,-6,1,21,-2,8,-152,1500.0
19:50:15.643,AUTO,-35.3632624,149.1652371,28919,0.004679324571043253,0.0016977946506813169,-0.22304339706897736,-0.0030032063368707895,0.0011483074631541967,0.021249979734420776,1,0,-1000,-2,2,20,-1,9,-152,1500.0
19:50:15.858,AUTO,-35.3632624,149.1652371,28919,0.004679324571043253,0.0016977946506813169,-0.22304339706897736,-0.0030032063368707895,0.0011483074631541967,0.021249979734420776,1,0,-1000,-2,2,20,-1,9,-152,1500.0
19:50:16.128,AUTO,-35.3632624,149.1652371,28919,0.004679324571043253,0.0016977946506813169,-0.22304339706897736,-0.0030032063368707895,0.0011483074631541967,0.021249979734420776,1,0,-1000,-2,2,20,-1,9,-152,1500.0
19:50:16.400,AUTO,-35.3632624,149.1652371,28919,0.004679324571043253,0.0016977946506813169,-0.22304339706897736,-0.0030032063368707895,0.0011483074631541967,0.021249979734420776,1,0,-1000,-2,2,20,-1,9,-152,1500.0
19:50:16.634,AUTO,-35.3632624,149.1652371,28919,0.004679324571043253,0.0016977946506813169,-0.22304339706897736,-0.0030032063368707895,0.0011483074631541967,0.021249979734420776,1,0,-1000,-2,2,20,-1,9,-152,1500.0
19:50:16.845,AUTO,-35.3632624,149.1652371,28919,0.004679324571043253,0.0016977946506813169,-0.22304339706897736,-0.0030032063368707895,0.0011483074631541967,0.021249979734420776,1,0,-1000,-2,2,20,-1,9,-152,1500.0
19:50:17.065,AUTO,-35.3632624,149.1652371,28919,0.004679324571043253,0.0016977946506813169,-0.22304339706897736,-0.0030032063368707895,0.0011483074631541967,0.021249979734420776,1,0,-1000,-2,2,20,-1,9,-152,1500.0
19:50:17.271,AUTO,-35.3632624,149.1652379,30866,-0.0007903727819211781,0.0013689444167539477,-0.1990884691476822,0.0035457410849630833,0.0013047819957137108,0.01800670474767685,0,-1,-1000,-2,0,19,0,5,-152,1500.0
19:50:17.475,AUTO,-35.3632624,149.1652381,31646,-0.0009894343093037605,0.001083972048945725,-0.19084350764751434,-0.00344533147290349,-0.0012832547072321177,0.014982718043029308,0,0,-1000,-2,0,14,0,3,-152,1500.0
19:50:17.677,AUTO,-35.3632624,149.1652381,32036,-0.0005214284174144268,0.001005413825623691,-0.18686793744564056,0.004080061800777912,0.0005705326911993325,0.015636082738637924,0,0,-1000,5,1,15,0,2,-152,1500.0
19:50:17.879,AUTO,-35.3632624,149.1652381,32036,-0.0005214284174144268,0.001005413825623691,-0.18686793744564056,0.004080061800777912,0.0005705326911993325,0.015636082738637924,0,0,-1000,5,1,15,0,2,-152,1500.0
19:50:18.086,AUTO,-35.3632624,149.1652381,32036,-0.0005214284174144268,0.001005413825623691,-0.18686793744564056,0.004080061800777912,0.0005705326911993325,0.015636082738637924,0,0,-1000,5,1,15,0,2,-152,1500.0
19:50:18.288,AUTO,-35.3632624,149.1652381,32036,-0.0005214284174144268,0.001005413825623691,-0.18686793744564056,0.004080061800777912,0.0005705326911993325,0.015636082738637924,0,0,-1000,5,1,15,0,2,-152,1500.0
19:50:18.490,AUTO,-35.3632624,149.1652381,32036,-0.0005214284174144268,0.001005413825623691,-0.18686793744564056,0.004080061800777912,0.0005705326911993325,0.015636082738637924,0,0,-1000,5,1,15,0,2,-152,1500.0
19:50:18.692,AUTO,-35.3632624,149.1652381,32036,-0.0005214284174144268,0.001005413825623691,-0.18686793744564056,0.004080061800777912,0.0005705326911993325,0.015636082738637924,0,0,-1000,5,1,15,0,2,-152,1500.0
19:50:18.895,AUTO,-35.3632624,149.1652381,32036,-0.0005214284174144268,0.001005413825623691,-0.18686793744564056,0.004080061800777912,0.0005705326911993325,0.015636082738637924,0,0,-1000,5,1,15,0,2,-152,1500.0
19:50:19.097,AUTO,-35.3632624,149.1652381,32036,-0.0005214284174144268,0.001005413825623691,-0.18686793744564056,0.004080061800777912,0.0005705326911993325,0.015636082738637924,0,0,-1000,5,1,15,0,2,-152,1500.0
19:50:19.299,AUTO,-35.3632623,149.1652381,34383,0.001781396334990859,0.001061120186932385,-0.16574141383171082,0.0045679179020226,0.002523541683331132,0.013535179197788239,0,0,-1000,5,3,13,0,0,-152,1500.0
19:50:19.501,AUTO,-35.3632623,149.1652381,34773,0.0017524096183478832,0.0012462858576327562,-0.16264072060585022,-0.001225944608449936,0.00017455883789807558,0.011323272250592709,0,0,-1000,0,1,11,0,0,-152,1500.0
19:50:19.703,AUTO,-35.3632623,149.165238,35162,0.0016691874479874969,0.0011561836581677198,-0.1598236858844757,-0.0027036527171730995,2.876855432987213e-06,0.013472086749970913,0,0,-999,-1,0,13,0,0,-152,1500.0
19:50:19.940,AUTO,-35.3632623,149.165238,35162,0.0016691874479874969,0.0011561836581677198,-0.1598236858844757,-0.0027036527171730995,2.876855432987213e-06,0.013472086749970913,0,0,-999,-1,0,13,0,0,-152,1500.0
19:50:20.146,AUTO,-35.3632623,149.165238,35162,0.0016691874479874969,0.0011561836581677198,-0.1598236858844757,-0.0027036527171730995,2.876855432987213e-06,0.013472086749970913,0,0,-999,-1,0,13,0,0,-152,1500.0
19:50:20.355,AUTO,-35.3632623,149.165238,35162,0.0016691874479874969,0.0011561836581677198,-0.1598236858844757,-0.0027036527171730995,2.876855432987213e-06,0.013472086749970913,0,0,-999,-1,0,13,0,0,-152,1500.0
19:50:20.565,AUTO,-35.3632623,149.165238,35162,0.0016691874479874969,0.0011561836581677198,-0.1598236858844757,-0.0027036527171730995,2.876855432987213e-06,0.013472086749970913,0,0,-999,-1,0,13,0,0,-152,1500.0
19:50:20.776,AUTO,-35.3632623,149.165238,35162,0.0016691874479874969,0.0011561836581677198,-0.1598236858844757,-0.0027036527171730995,2.876855432987213e-06,0.013472086749970913,0,0,-999,-1,0,13,0,0,-152,1500.0
19:50:20.985,AUTO,-35.3632623,149.165238,35162,0.0016691874479874969,0.0011561836581677198,-0.1598236858844757,-0.0027036527171730995,2.876855432987213e-06,0.013472086749970913,0,0,-999,-1,0,13,0,0,-152,1500.0
19:50:21.236,AUTO,-35.3632623,149.165238,35162,0.0016691874479874969,0.0011561836581677198,-0.1598236858844757,-0.0027036527171730995,2.876855432987213e-06,0.013472086749970913,0,0,-999,-1,0,13,0,0,-152,1500.0
19:50:21.444,AUTO,-35.3632622,149.1652378,37103,0.0021885631140321493,0.0009154179715551436,-0.1466168314218521,0.0033665955998003483,-0.0009305604035034776,0.00856147613376379,0,0,-1000,0,0,9,0,0,-152,1500.0
19:50:21.646,AUTO,-35.3632622,149.1652377,38272,0.0024476165417581797,0.001332274405285716,-0.13970248401165009,-0.0004108981811441481,0.0005414290353655815,0.00980839878320694,0,0,-1000,0,1,9,0,0,-152,1500.0
19:50:21.849,AUTO,-35.3632622,149.1652377,38272,0.0024476165417581797,0.001332274405285716,-0.13970248401165009,-0.0004108981811441481,0.0005414290353655815,0.00980839878320694,0,0,-1000,0,1,9,0,0,-152,1500.0
19:50:22.051,AUTO,-35.3632622,149.1652377,38272,0.0024476165417581797,0.001332274405285716,-0.13970248401165009,-0.0004108981811441481,0.0005414290353655815,0.00980839878320694,0,0,-1000,0,1,9,0,0,-152,1500.0
19:50:22.254,AUTO,-35.3632622,149.1652377,38272,0.0024476165417581797,0.001332274405285716,-0.13970248401165009,-0.0004108981811441481,0.0005414290353655815,0.00980839878320694,0,0,-1000,0,1,9,0,0,-152,1500.0
19:50:22.459,AUTO,-35.3632622,149.1652377,38272,0.0024476165417581797,0.001332274405285716,-0.13970248401165009,-0.0004108981811441481,0.0005414290353655815,0.00980839878320694,0,0,-1000,0,1,9,0,0,-152,1500.0
19:50:22.667,AUTO,-35.3632622,149.1652377,38272,0.0024476165417581797,0.001332274405285716,-0.13970248401165009,-0.0004108981811441481,0.0005414290353655815,0.00980839878320694,0,0,-1000,0,1,9,0,0,-152,1500.0
19:50:22.871,AUTO,-35.3632622,149.1652377,38272,0.0024476165417581797,0.001332274405285716,-0.13970248401165009,-0.0004108981811441481,0.0005414290353655815,0.00980839878320694,0,0,-1000,0,1,9,0,0,-152,1500.0
19:50:23.075,AUTO,-35.3632622,149.1652377,38272,0.0024476165417581797,0.001332274405285716,-0.13970248401165009,-0.0004108981811441481,0.0005414290353655815,0.00980839878320694,0,0,-1000,0,1,9,0,0,-152,1500.0
19:50:23.277,AUTO,-35.3632621,149.1652376,39449,0.002760512987151742,0.0017674710834398866,-0.1331016719341278,-0.0016820465680211782,-6.573833525180817e-05,0.007849129848182201,0,0,-1001,0,1,7,0,0,-152,1500.0
19:50:23.479,AUTO,-35.3632621,149.1652375,41009,0.002463512122631073,0.0015482145827263594,-0.12615056335926056,-0.00155598483979702,-0.0019449666142463684,0.007739533670246601,0,0,-1000,0,0,7,0,0,-152,1500.0
19:50:23.680,AUTO,-35.3632621,149.1652375,41398,0.0023578316904604435,0.001366861630231142,-0.12423013895750046,-0.0014125823508948088,-0.001920939888805151,0.00598914036527276,0,0,-1000,0,0,6,-1,0,-152,1500.0
19:50:23.881,AUTO,-35.3632621,149.1652375,41398,0.0023578316904604435,0.001366861630231142,-0.12423013895750046,-0.0014125823508948088,-0.001920939888805151,0.00598914036527276,0,0,-1000,0,0,6,-1,0,-152,1500.0
19:50:24.084,AUTO,-35.3632621,149.1652375,41398,0.0023578316904604435,0.001366861630231142,-0.12423013895750046,-0.0014125823508948088,-0.001920939888805151,0.00598914036527276,0,0,-1000,0,0,6,-1,0,-152,1500.0
19:50:24.286,AUTO,-35.3632621,149.1652375,41398,0.0023578316904604435,0.001366861630231142,-0.12423013895750046,-0.0014125823508948088,-0.001920939888805151,0.00598914036527276,0,0,-1000,0,0,6,-1,0,-152,1500.0
19:50:24.488,AUTO,-35.3632621,149.1652375,41398,0.0023578316904604435,0.001366861630231142,-0.12423013895750046,-0.0014125823508948088,-0.001920939888805151,0.00598914036527276,0,0,-1000,0,0,6,-1,0,-152,1500.0
19:50:24.690,AUTO,-35.3632621,149.1652375,41398,0.0023578316904604435,0.001366861630231142,-0.12423013895750046,-0.0014125823508948088,-0.001920939888805151,0.00598914036527276,0,0,-1000,0,0,6,-1,0,-152,1500.0
19:50:24.893,AUTO,-35.3632621,149.1652375,42567,0.0025619224179536104,0.001507302513346076,-0.11908254027366638,0.0006468583596870303,0.0006673552561551332,0.004966315347701311,0,0,-1001,1,1,5,-1,1,-152,1500.0
19:50:25.094,AUTO,-35.3632621,149.1652374,43346,0.00234502786770463,0.0016206026775762439,-0.11607376486063004,0.0015929487999528646,-7.930584251880646e-05,0.009973513893783092,0,0,-1000,2,0,10,-1,1,-152,1500.0
19:50:25.295,AUTO,-35.363262,149.1652374,43739,0.0024040499702095985,0.0015179653419181705,-0.11432304233312607,0.0017210659570991993,0.0002704107901081443,0.009377474896609783,0,0,-999,2,1,9,-1,1,-152,1500.0
19:50:25.500,AUTO,-35.363262,149.1652374,44129,0.0022034754510968924,0.0015463996678590775,-0.11296547204256058,-0.0013685299782082438,0.0011253994889557362,0.006772611290216446,0,0,-999,0,2,7,-1,1,-152,1500.0
19:50:25.702,AUTO,-35.363262,149.1652374,44518,0.0020063375122845173,0.001396604347974062,-0.11150136590003967,3.150745760649443e-05,-0.0013452008133754134,0.009975273162126541,0,0,-1000,1,0,10,-1,1,-152,1500.0
19:50:25.906,AUTO,-35.363262,149.1652374,44518,0.0020063375122845173,0.001396604347974062,-0.11150136590003967,3.150745760649443e-05,-0.0013452008133754134,0.009975273162126541,0,0,-1000,1,0,10,-1,1,-152,1500.0
19:50:26.146,AUTO,-35.363262,149.1652374,44518,0.0020063375122845173,0.001396604347974062,-0.11150136590003967,3.150745760649443e-05,-0.0013452008133754134,0.009975273162126541,0,0,-1000,1,0,10,-1,1,-152,1500.0
19:50:26.378,AUTO,-35.363262,149.1652374,44518,0.0020063375122845173,0.001396604347974062,-0.11150136590003967,3.150745760649443e-05,-0.0013452008133754134,0.009975273162126541,0,0,-1000,1,0,10,-1,1,-152,1500.0
19:50:26.579,AUTO,-35.363262,149.1652374,44518,0.0020063375122845173,0.001396604347974062,-0.11150136590003967,3.150745760649443e-05,-0.0013452008133754134,0.009975273162126541,0,0,-1000,1,0,10,-1,1,-152,1500.0
19:50:26.781,AUTO,-35.363262,149.1652374,44518,0.0020063375122845173,0.001396604347974062,-0.11150136590003967,3.150745760649443e-05,-0.0013452008133754134,0.009975273162126541,0,0,-1000,1,0,10,-1,1,-152,1500.0
19:50:26.984,AUTO,-35.363262,149.1652374,44518,0.0020063375122845173,0.001396604347974062,-0.11150136590003967,3.150745760649443e-05,-0.0013452008133754134,0.009975273162126541,0,0,-1000,1,0,10,-1,1,-152,1500.0
19:50:27.186,AUTO,-35.363262,149.1652374,44518,0.0020063375122845173,0.001396604347974062,-0.11150136590003967,3.150745760649443e-05,-0.0013452008133754134,0.009975273162126541,0,0,-1000,1,0,10,-1,1,-152,1500.0
19:50:27.393,AUTO,-35.363262,149.1652374,46463,0.0021883691661059856,0.0013463671784847975,-0.10490787774324417,0.004539004527032375,0.0012842764845117927,0.007320329546928406,0,0,-1000,1,1,4,-1,1,-152,1500.0
19:50:27.596,AUTO,-35.363262,149.1652374,47238,-0.008095243014395237,0.01136898621916771,-0.08059540390968323,-0.09446924179792404,0.09075459092855453,0.20229443907737732,0,0,-969,-93,91,202,-2,0,-148,1500.0
19:50:27.798,AUTO,-35.363262,149.1652373,47606,-0.037512559443712234,0.0442635603249073,0.005331146065145731,-0.15120038390159607,0.13464906811714172,0.4752224087715149,0,0,-971,-150,135,475,-8,-5,-140,1500.0
19:50:27.999,AUTO,-35.363262,149.1652373,47606,-0.037512559443712234,0.0442635603249073,0.005331146065145731,-0.15120038390159607,0.13464906811714172,0.4752224087715149,0,0,-971,-150,135,475,-8,-5,-140,1500.0
19:50:28.202,AUTO,-35.363262,149.1652373,47606,-0.037512559443712234,0.0442635603249073,0.005331146065145731,-0.15120038390159607,0.13464906811714172,0.4752224087715149,0,0,-971,-150,135,475,-8,-5,-140,1500.0
19:50:28.405,AUTO,-35.363262,149.1652373,47606,-0.037512559443712234,0.0442635603249073,0.005331146065145731,-0.15120038390159607,0.13464906811714172,0.4752224087715149,0,0,-971,-150,135,475,-8,-5,-140,1500.0
19:50:28.609,AUTO,-35.363262,149.1652373,47606,-0.037512559443712234,0.0442635603249073,0.005331146065145731,-0.15120038390159607,0.13464906811714172,0.4752224087715149,0,0,-971,-150,135,475,-8,-5,-140,1500.0
19:50:28.811,AUTO,-35.363262,149.1652373,47606,-0.037512559443712234,0.0442635603249073,0.005331146065145731,-0.15120038390159607,0.13464906811714172,0.4752224087715149,0,0,-971,-150,135,475,-8,-5,-140,1500.0
19:50:29.014,AUTO,-35.363262,149.1652373,47606,-0.037512559443712234,0.0442635603249073,0.005331146065145731,-0.15120038390159607,0.13464906811714172,0.4752224087715149,0,0,-971,-150,135,475,-8,-5,-140,1500.0
19:50:29.216,AUTO,-35.363262,149.1652373,47606,-0.037512559443712234,0.0442635603249073,0.005331146065145731,-0.15120038390159607,0.13464906811714172,0.4752224087715149,0,0,-971,-150,135,475,-8,-5,-140,1500.0
19:50:29.420,AUTO,-35.3632636,149.1652352,48547,-0.01664336584508419,-0.011122891679406166,0.27063533663749695,0.1164216622710228,-0.16995571553707123,0.11867298185825348,3,9,-947,117,-168,118,-31,-37,-101,1500.0
19:50:29.623,AUTO,-35.3632648,149.1652325,49365,0.04021964967250824,-0.04862741380929947,0.2802107632160187,-0.015475071035325527,0.03534995764493942,-0.03043348714709282,-1,0,-971,-14,36,-30,4,0,-61,1500.0
19:50:29.824,AUTO,-35.3632647,149.1652324,49513,0.03860227018594742,-0.03831757605075836,0.27139151096343994,-0.029371725395321846,0.04315143823623657,-0.036165751516819,-2,-1,-976,-27,44,-35,12,10,-55,1500.0
19:50:30.027,AUTO,-35.3632647,149.1652324,49513,0.03860227018594742,-0.03831757605075836,0.27139151096343994,-0.029371725395321846,0.04315143823623657,-0.036165751516819,-2,-1,-976,-27,44,-35,12,10,-55,1500.0
19:50:30.228,AUTO,-35.3632647,149.1652324,49513,0.03860227018594742,-0.03831757605075836,0.27139151096343994,-0.029371725395321846,0.04315143823623657,-0.036165751516819,-2,-1,-976,-27,44,-35,12,10,-55,1500.0
19:50:30.430,AUTO,-35.3632647,149.1652324,49513,0.03860227018594742,-0.03831757605075836,0.27139151096343994,-0.029371725395321846,0.04315143823623657,-0.036165751516819,-2,-1,-976,-27,44,-35,12,10,-55,1500.0
19:50:30.633,AUTO,-35.3632647,149.1652324,49513,0.03860227018594742,-0.03831757605075836,0.27139151096343994,-0.029371725395321846,0.04315143823623657,-0.036165751516819,-2,-1,-976,-27,44,-35,12,10,-55,1500.0
19:50:30.835,AUTO,-35.3632647,149.1652324,49513,0.03860227018594742,-0.03831757605075836,0.27139151096343994,-0.029371725395321846,0.04315143823623657,-0.036165751516819,-2,-1,-976,-27,44,-35,12,10,-55,1500.0
19:50:31.039,AUTO,-35.3632647,149.1652324,49513,0.03860227018594742,-0.03831757605075836,0.27139151096343994,-0.029371725395321846,0.04315143823623657,-0.036165751516819,-2,-1,-976,-27,44,-35,12,10,-55,1500.0
19:50:31.241,AUTO,-35.3632647,149.1652324,49513,0.03860227018594742,-0.03831757605075836,0.27139151096343994,-0.029371725395321846,0.04315143823623657,-0.036165751516819,-2,-1,-976,-27,44,-35,12,10,-55,1500.0
19:50:31.447,AUTO,-35.363262,149.1652364,50088,0.0013683985453099012,0.012562785297632217,0.219826802611351,-0.40421411395072937,0.015634611248970032,-0.0314260795712471,-1,-40,-958,-406,16,-31,16,28,-19,1500.0
19:50:31.649,AUTO,-35.3632617,149.1652371,50132,-0.010051765479147434,0.014735983684659004,0.2137245237827301,-0.6514346599578857,0.003945281729102135,-0.020826905965805054,0,-36,-991,-651,5,-20,13,25,-17,1500.0
19:50:31.852,AUTO,-35.3632614,149.1652378,50165,-0.011398223228752613,0.016411885619163513,0.2076476365327835,-0.2944715619087219,0.008487299084663391,-0.027232464402914047,0,0,-969,-289,9,-26,10,23,-10,1500.0
19:50:32.077,AUTO,-35.3632614,149.1652378,50165,-0.011398223228752613,0.016411885619163513,0.2076476365327835,-0.2944715619087219,0.008487299084663391,-0.027232464402914047,0,0,-969,-289,9,-26,10,23,-10,1500.0
19:50:32.282,AUTO,-35.3632614,149.1652378,50165,-0.011398223228752613,0.016411885619163513,0.2076476365327835,-0.2944715619087219,0.008487299084663391,-0.027232464402914047,0,0,-969,-289,9,-26,10,23,-10,1500.0
19:50:32.500,AUTO,-35.3632614,149.1652378,50165,-0.011398223228752613,0.016411885619163513,0.2076476365327835,-0.2944715619087219,0.008487299084663391,-0.027232464402914047,0,0,-969,-289,9,-26,10,23,-10,1500.0
19:50:32.708,AUTO,-35.3632614,149.1652378,50165,-0.011398223228752613,0.016411885619163513,0.2076476365327835,-0.2944715619087219,0.008487299084663391,-0.027232464402914047,0,0,-969,-289,9,-26,10,23,-10,1500.0
19:50:32.910,AUTO,-35.3632614,149.1652378,50165,-0.011398223228752613,0.016411885619163513,0.2076476365327835,-0.2944715619087219,0.008487299084663391,-0.027232464402914047,0,0,-969,-289,9,-26,10,23,-10,1500.0
19:50:33.112,AUTO,-35.3632611,149.1652389,50040,-0.026418641209602356,-0.017838817089796066,0.18029473721981049,-0.20227423310279846,-0.05040601268410683,-0.02344733104109764,0,-23,-998,-206,-49,-23,0,-15,11,1500.0
19:50:33.313,AUTO,-35.3632611,149.1652385,50009,-0.028761936351656914,-0.027731114998459816,0.1739940643310547,-0.519293487071991,-0.04143473878502846,-0.018791355192661285,-1,-38,-1013,-521,-40,-18,5,-20,8,1500.0
19:50:33.515,AUTO,-35.363261,149.165238,49990,-0.034403227269649506,-0.035987526178359985,0.16879400610923767,-0.7848032712936401,-0.03412920981645584,-0.017508305609226227,-4,-23,-1019,-784,-32,-17,12,-23,3,1500.0
19:50:33.716,AUTO,-35.3632607,149.1652374,49976,-0.035009391605854034,-0.04546487703919411,0.16337892413139343,-0.38973870873451233,-0.03702859953045845,-0.023564087226986885,-6,6,-1012,-385,-35,-23,21,-26,2,1500.0
19:50:33.919,AUTO,-35.3632607,149.1652374,49976,-0.035009391605854034,-0.04546487703919411,0.16337892413139343,-0.38973870873451233,-0.03702859953045845,-0.023564087226986885,-6,6,-1012,-385,-35,-23,21,-26,2,1500.0
19:50:34.123,AUTO,-35.3632607,149.1652374,49976,-0.035009391605854034,-0.04546487703919411,0.16337892413139343,-0.38973870873451233,-0.03702859953045845,-0.023564087226986885,-6,6,-1012,-385,-35,-23,21,-26,2,1500.0
19:50:34.325,AUTO,-35.3632607,149.1652374,49976,-0.035009391605854034,-0.04546487703919411,0.16337892413139343,-0.38973870873451233,-0.03702859953045845,-0.023564087226986885,-6,6,-1012,-385,-35,-23,21,-26,2,1500.0
19:50:34.527,AUTO,-35.3632607,149.1652374,49976,-0.035009391605854034,-0.04546487703919411,0.16337892413139343,-0.38973870873451233,-0.03702859953045845,-0.023564087226986885,-6,6,-1012,-385,-35,-23,21,-26,2,1500.0
19:50:34.729,AUTO,-35.3632607,149.1652374,49976,-0.035009391605854034,-0.04546487703919411,0.16337892413139343,-0.38973870873451233,-0.03702859953045845,-0.023564087226986885,-6,6,-1012,-385,-35,-23,21,-26,2,1500.0
19:50:34.931,AUTO,-35.3632607,149.1652374,49976,-0.035009391605854034,-0.04546487703919411,0.16337892413139343,-0.38973870873451233,-0.03702859953045845,-0.023564087226986885,-6,6,-1012,-385,-35,-23,21,-26,2,1500.0
19:50:35.133,AUTO,-35.3632607,149.1652374,49976,-0.035009391605854034,-0.04546487703919411,0.16337892413139343,-0.38973870873451233,-0.03702859953045845,-0.023564087226986885,-6,6,-1012,-385,-35,-23,21,-26,2,1500.0
19:50:35.335,AUTO,-35.3632566,149.1652336,49960,-0.011761333793401718,-0.10568802058696747,-0.1667211800813675,-0.4899871349334717,-0.04041215404868126,-0.7238965034484863,-16,7,-1007,375,-73,-688,81,-47,-2,1500.0
19:50:35.537,AUTO,-35.3632493,149.1652286,49950,0.0073163313791155815,-0.1340322643518448,-0.34408503770828247,0.057692933827638626,-0.041061945259571075,0.02378951758146286,-35,-3,-992,62,-39,24,143,-73,0,1500.0
19:50:35.748,AUTO,-35.3632459,149.1652265,49949,0.019287994131445885,-0.14275628328323364,-0.32904770970344543,0.5704856514930725,-0.009720711968839169,0.04911118373274803,-44,-1,-1005,572,-8,49,166,-83,-2,1500.0
19:50:35.955,AUTO,-35.3632459,149.1652265,49949,0.019287994131445885,-0.14275628328323364,-0.32904770970344543,0.5704856514930725,-0.009720711968839169,0.04911118373274803,-44,-1,-1005,572,-8,49,166,-83,-2,1500.0
19:50:36.160,AUTO,-35.3632459,149.1652265,49949,0.019287994131445885,-0.14275628328323364,-0.32904770970344543,0.5704856514930725,-0.009720711968839169,0.04911118373274803,-44,-1,-1005,572,-8,49,166,-83,-2,1500.0
19:50:36.367,AUTO,-35.3632459,149.1652265,49949,0.019287994131445885,-0.14275628328323364,-0.32904770970344543,0.5704856514930725,-0.009720711968839169,0.04911118373274803,-44,-1,-1005,572,-8,49,166,-83,-2,1500.0
19:50:36.575,AUTO,-35.3632459,149.1652265,49949,0.019287994131445885,-0.14275628328323364,-0.32904770970344543,0.5704856514930725,-0.009720711968839169,0.04911118373274803,-44,-1,-1005,572,-8,49,166,-83,-2,1500.0
19:50:36.777,AUTO,-35.3632459,149.1652265,49949,0.019287994131445885,-0.14275628328323364,-0.32904770970344543,0.5704856514930725,-0.009720711968839169,0.04911118373274803,-44,-1,-1005,572,-8,49,166,-83,-2,1500.0
19:50:36.983,AUTO,-35.3632459,149.1652265,49949,0.019287994131445885,-0.14275628328323364,-0.32904770970344543,0.5704856514930725,-0.009720711968839169,0.04911118373274803,-44,-1,-1005,572,-8,49,166,-83,-2,1500.0
19:50:40.771,AUTO,-35.3632459,149.1652265,49949,0.019287994131445885,-0.14275628328323364,-0.32904770970344543,0.5704856514930725,-0.009720711968839169,0.04911118373274803,-44,-1,-1005,572,-8,49,166,-83,-2,1500.0
19:50:40.976,AUTO,-35.3632459,149.1652265,49949,0.019287994131445885,-0.14275628328323364,-0.32904770970344543,0.5704856514930725,-0.009720711968839169,0.04911118373274803,-44,-1,-1005,572,-8,49,166,-83,-2,1500.0
19:50:41.189,AUTO,-35.3632459,149.1652265,49949,0.019287994131445885,-0.14275628328323364,-0.32904770970344543,0.5704856514930725,-0.009720711968839169,0.04911118373274803,-44,-1,-1005,572,-8,49,166,-83,-2,1500.0
19:50:41.391,AUTO,-35.3632217,149.1652123,49949,0.01257078442722559,-0.17158198356628418,-0.31531211733818054,0.27760791778564453,-0.16573435068130493,-0.060028985142707825,-55,-13,-985,281,-164,-59,264,-129,0,1500.0
19:50:41.595,AUTO,-35.3631942,149.1651957,49957,0.042798496782779694,-0.08901229500770569,-0.3344472646713257,0.18148799240589142,-0.052290625870227814,-0.07036973536014557,-77,-19,-997,185,-51,-69,333,-164,-9,1500.0
19:50:41.797,AUTO,-35.3631942,149.1651957,49957,0.042798496782779694,-0.08901229500770569,-0.3344472646713257,0.18148799240589142,-0.052290625870227814,-0.07036973536014557,-77,-19,-997,185,-51,-69,333,-164,-9,1500.0
19:50:41.999,AUTO,-35.3631942,149.1651957,49957,0.042798496782779694,-0.08901229500770569,-0.3344472646713257,0.18148799240589142,-0.052290625870227814,-0.07036973536014557,-77,-19,-997,185,-51,-69,333,-164,-9,1500.0
19:50:42.200,AUTO,-35.3631942,149.1651957,49957,0.042798496782779694,-0.08901229500770569,-0.3344472646713257,0.18148799240589142,-0.052290625870227814,-0.07036973536014557,-77,-19,-997,185,-51,-69,333,-164,-9,1500.0
