time_stamp,roll,pitch,yaw,rollspeed,pitchspeed,yawspeed,lat,lon,relative_alt,vx,vy,vz,xacc,yacc,zacc,xgyro,ygyro,zgyro,MODE,RTL_ALT
09:04:36,-0.0006090795795898885,0.0009572829585522413,0.023338782601058483,0.00024395354557782412,0.0002502166316844523,0.0017332250718027353,-35.36326215,149.1652375,6.0,-1.0,1.0,-1.0,0.0,1.0,-1000.0,0.0,0.0,0.0,STABILIZE,1500.0
09:04:38,-0.0007664106669835746,0.00096549978479743,0.022548280656337738,0.00036001892294734716,0.0002743192599155009,0.001621628412976861,-35.3632622,149.1652376,0.0,-1.0,2.0,1.0,0.0,1.0,-1000.0,0.0,1.0,0.0,STABILIZE,1500.0
09:04:40,-0.0009190491691697389,0.0010004647192545235,0.022084332071244717,0.0002426024293527007,0.00023592746583744884,0.0015401331475004554,-35.3632622,149.1652375,0.0,-1.0,2.0,2.0,0.0,1.0,-1000.0,0.5,0.5,0.5,AUTO,1500.0
09:04:41,-0.0009432831866433844,0.0010864016658160836,0.021913417614996433,0.0002844285045284778,0.0002798819186864421,0.0014727138041052967,-35.3632621,149.1652375,0.0,-0.25,0.25,1.25,0.0,1.75,-1000.0,0.25,0.25,0.0,AUTO,208570.0
09:04:42,-0.0007253829098772258,0.001402113412041217,0.021630415692925453,0.000297377206152305,0.00033494221861474216,0.0014400051441043615,-35.3632621,149.16523745,0.0,0.0,0.0,1.0,0.0,1.0,-1000.0,0.5,0.0,0.0,AUTO,208570.0
09:04:44,0.0026361002819612622,0.0005755378224421293,0.021169421263039112,0.0016171402530744672,0.0038034869357943535,0.0011574517120607197,-35.3632621,149.1652375,284.0,0.0,0.0,-82.5,0.0,0.0,-1119.5,2.0,4.0,0.5,AUTO,208570.0
09:04:45,0.015293895616196096,-4.400881880428642e-05,0.02098459005355835,0.033030923921614885,-0.005013983813114464,0.0019698554824572057,-35.363262075,149.16523755,1189.75,0.25,3.75,-137.25,0.0,-0.5,-1041.0,33.25,-4.25,0.75,AUTO,300000.0
09:04:46,0.05440804548561573,-0.0007460336200892925,-0.01545515633188188,-0.04894927889108658,0.05451770103536546,-0.06765635870397091,-35.363261550000004,149.16524015,3082.0,9.0,45.5,-147.0,1.5,-7.0,-992.5,-48.5,55.5,-67.5,AUTO,300000.0
09:04:48,-0.06968696042895317,-0.007870801957324147,-0.09223923087120056,0.04237352963536978,-0.00301133724860847,-0.007883369456976652,-35.363261,149.165246,6140.5,-2.0,-27.5,-149.0,-1.0,3.0,-1003.0,42.5,-1.5,-7.5,AUTO,300000.0
09:04:49,-0.025566917494870722,-0.003943418720155023,-0.09637371636927128,0.06411234848201275,0.010644469759427011,-9.477647836320102e-05,-35.363261175,149.16524205000002,7292.75,-2.75,-56.75,-149.75,-6.5,11.0,-1002.25,64.25,11.0,-0.5,AUTO,109388.0
09:04:50,0.0559666994959116,0.01027496112510562,-0.09379309043288231,0.06164771318435669,0.004609635681845248,0.004204367636702955,-35.3632619,149.16523475000002,9249.5,-10.0,-27.5,-154.0,-3.5,9.0,-1002.5,62.0,4.5,3.5,AUTO,109388.0
09:04:52,-0.021404522471129894,-0.0026853649178519845,-0.10585834830999374,-0.000922593055292964,0.00858462043106556,-0.03546160086989403,-35.363262399999996,149.1652368,12342.0,7.5,9.5,-151.5,0.0,-3.0,-1002.0,-0.5,8.5,-35.5,AUTO,109388.0
09:04:53,-0.009282930419431068,0.0035031344086746685,-0.1316918060183525,0.022185903508216143,0.008562740287743509,-0.028317296411842108,-35.36326185,149.1652368,13513.5,5.75,-4.75,-152.75,-2.0,-0.25,-1000.5,22.5,8.5,-28.0,AUTO,283244.0
09:04:54,0.01059980085119605,0.00851439731195569,-0.1559738740324974,0.00536668102722615,-0.0008501883712597191,-0.009301021229475737,-35.3632614,149.16523565,15463.0,-1.0,-3.5,-153.0,-1.5,0.0,-999.5,5.5,0.0,-9.0,AUTO,283244.0
09:04:56,-0.0009420692222192883,0.0034845098853111267,-0.17992761731147766,-0.03598279133439064,-0.0011035136703867465,-0.017230401746928692,-35.3632616,149.16523575000002,18576.5,-4.0,5.5,-152.5,1.0,0.0,-997.5,-35.0,0.0,-17.0,AUTO,283244.0
09:04:57,-0.043402028270065784,0.025152855087071657,-0.12305111938621849,-0.022319232346490026,0.027927909322897904,0.21396331582218409,-35.363261925,149.165235275,19719.0,-12.25,-15.0,-144.5,0.0,2.25,-979.5,-21.25,28.5,213.5,AUTO,300000.0
09:04:58,0.05173216015100479,-0.040019964799284935,0.07091158255934715,0.04996138624846935,-0.025383572094142437,-0.04213484190404415,-35.363264400000006,149.16523135,21306.5,-19.0,-15.0,-98.0,1.5,6.5,-961.5,50.5,-24.0,-42.0,AUTO,300000.0
09:05:00,0.0008785165846347809,0.009108809987083077,0.04792441613972187,-0.028812331147491932,0.017200371716171503,0.0010606876894598827,-35.363262899999995,149.165236,22677.0,17.5,37.0,-42.5,0.0,-9.5,-977.5,-27.0,17.5,0.5,AUTO,300000.0
09:05:01,-0.01048126514069736,0.014166608918458223,0.045297459699213505,-0.012853261490818113,0.0019649069872684777,-0.0022982985829003155,-35.363261875,149.16523842499998,22919.75,10.25,24.25,-24.5,0.0,-6.0,-974.0,-11.5,2.5,-2.25,AUTO,241637.0
09:05:02,-0.03413299564272165,0.02726178988814354,0.04035423509776592,-0.07992306351661682,-0.003566260857041925,-0.0018608827085699886,-35.3632612,149.16523990000002,22963.5,-6.5,-6.0,19.5,-0.5,15.5,-981.5,-78.0,-2.5,-2.0,AUTO,241637.0
09:05:04,0.07111427932977676,0.05023957043886185,0.24477563053369522,-0.38437214493751526,0.0033951280638575554,0.7378762662410736,-35.3632666,149.16524105000002,22724.5,-64.0,47.0,3.0,20.0,-27.5,-1004.0,-383.5,4.5,737.0,AUTO,241637.0
09:05:05,0.07118164468556643,0.010840699039590618,0.8502142876386642,0.0752275325357914,0.017015787918353453,0.7646429240703583,-35.36327205,149.165246075,22678.75,-92.25,80.5,4.0,16.75,-20.75,-999.0,76.25,17.5,763.75,AUTO,221207.0
09:05:06,0.05807962268590927,-0.029212231747806072,1.7473669648170471,0.16172733902931213,0.08222541213035583,0.7059524357318878,-35.3632839,149.1652583,22572.5,-118.0,103.5,7.5,-11.0,-32.0,-999.0,162.5,83.0,705.5,AUTO,221207.0
09:05:08,0.01772778481245041,0.00947581883519888,2.5375643968582153,0.2068542093038559,-0.06712239794433117,-0.12025681510567665,-35.36330715,149.16528115,22357.5,-122.5,98.5,8.0,-34.5,2.0,-984.0,209.5,-66.5,-120.0,AUTO,221207.0
09:05:09,0.02459946321323514,-0.040475577814504504,2.515821397304535,0.1357581987977028,0.03974495781585574,-0.008004078059457242,-35.363316125000004,149.165290125,22269.75,-129.25,104.75,9.75,-35.75,-14.5,-997.25,137.25,40.25,-7.75,AUTO,78169.0
09:05:10,0.02974391169846058,-0.09663578867912292,2.514139175415039,-0.39683468639850616,0.08588912710547447,0.007251030066981912,-35.36333165,149.16530640000002,22115.5,-151.0,116.5,14.5,-45.5,-47.0,-1003.0,-395.5,86.5,6.5,AUTO,78169.0
09:05:12,0.041208311915397644,-0.051140451803803444,2.50757372379303,0.11223454773426056,0.2713637799024582,-0.022292261943221092,-35.3633605,149.16533525,21834.0,-187.0,133.0,13.0,-52.5,-37.5,-1014.5,113.0,271.5,-22.5,AUTO,78169.0
09:05:13,0.045269083231687546,0.010038424748927355,2.5055412650108337,0.2533647492527962,-0.10493041016161442,-0.001530617824755609,-35.363372275,149.165346675,21752.5,-159.75,110.75,10.0,-41.5,-16.25,-994.25,255.0,-103.5,-1.75,AUTO,263863.0
09:05:14,0.04165223054587841,-0.0015963846817612648,2.504116415977478,0.44755515456199646,0.27345018088817596,-0.012456089723855257,-35.36339175,149.16536474999998,21543.0,-184.0,132.5,11.0,-48.0,-19.5,-1022.5,448.5,274.0,-12.5,AUTO,263863.0
09:05:16,0.025847982615232468,0.04517126362770796,2.4987763166427612,-0.056142568588256836,0.21564599126577377,-0.01970655843615532,-35.363421849999995,149.16539255,21265.0,-162.0,123.0,7.0,-46.0,-16.0,-1024.5,-53.5,216.5,-20.5,AUTO,263863.0
09:05:17,0.024273585993796587,-0.045333076268434525,2.497932493686676,0.003643997013568878,-0.21203405410051346,0.01963694568257779,-35.363432200000005,149.1654019,21183.25,-138.25,107.5,13.75,-36.0,-28.5,-988.75,4.75,-210.0,19.0,AUTO,200.0
09:05:18,0.020753899589180946,0.04688480868935585,2.496158003807068,-0.451240211725235,0.04399922490119934,-0.01859525451436639,-35.363450900000004,149.16541934999998,21001.0,-150.5,129.5,7.0,-40.0,-44.0,-1007.5,-449.0,45.5,-19.0,AUTO,200.0
09:05:20,0.041342586278915405,0.04613915830850601,2.493072509765625,-0.3101092539727688,-0.09071024600416422,0.03380445018410683,-35.3634787,149.16544815,20736.5,-137.5,112.0,8.5,-37.5,-50.0,-995.0,-310.0,-89.0,33.0,AUTO,200.0
09:05:21,0.03479841910302639,-0.02976935461629182,2.4920653700828552,-0.06315681338310242,0.027054427191615105,-0.010570634854957461,-35.363487875,149.165457325,20640.5,-133.75,100.0,13.0,-36.0,-23.75,-999.75,-61.5,29.0,-10.75,AUTO,300000.0
09:05:22,0.03332905098795891,0.031095052137970924,2.490460991859436,0.6162720918655396,-0.051787033677101135,-0.002585390815511346,-35.3635018,149.16547070000001,20509.0,-94.0,64.0,9.0,-24.0,10.5,-998.5,617.5,-49.5,-3.0,AUTO,300000.0
09:05:24,-0.004407081403769553,0.04545303247869015,2.4883389472961426,-0.09254403412342072,-0.040003638714551926,-0.002761312876828015,-35.36351225,149.165479,20404.0,-7.0,0.0,1.0,-1.0,6.0,-1003.5,-90.0,-37.5,-2.5,AUTO,300000.0
09:05:25,-0.007811829185811803,0.018015428679063916,2.4884051084518433,-0.058802909683436155,-0.03188546886667609,-0.0003267158754169941,-35.363512650000004,149.16547885,20402.75,6.75,-4.5,0.0,0.75,-2.25,-1003.25,-57.25,-29.25,-0.25,AUTO,75913.0
09:05:26,-0.004564058850519359,-0.006619408261030912,2.487524628639221,-0.4311857372522354,-0.002312331460416317,-0.004693844239227474,-35.3635125,149.16547885,20410.5,3.5,4.0,-0.5,-1.0,-17.5,-994.0,-429.0,0.0,-4.0,AUTO,75913.0
09:05:28,0.00897129368968308,0.015047067310661077,2.484417676925659,0.048719748854637146,0.004025002010166645,0.002267975127324462,-35.36351345,149.16548045000002,20564.5,0.0,-1.5,-32.0,0.0,-7.5,-1047.5,49.5,5.5,1.5,RTL,75913.0
09:05:30,-0.008970494847744703,0.009670767933130264,2.4832942485809326,-0.010461589496117085,-0.002047520480118692,0.00023896899074316025,-35.36351395,149.1654798,22040.0,6.5,-2.0,-95.0,1.0,-0.5,-1005.5,-8.5,0.0,0.5,RTL,194192.0
09:05:36,-0.0019955081515945494,0.001752374751958996,2.4795584678649902,-0.5115291178226471,-0.0036709920968860388,0.0025219274684786797,-35.36351234999999,149.16547975,24469.5,-2.5,2.0,0.5,0.0,-16.0,-1019.0,-510.0,-1.0,2.0,RTL,194192.0
09:05:37,0.006550344871357083,0.0015328716835938394,2.4791404008865356,0.06753449514508247,-0.00021193877910263836,0.0007658446920686401,-35.363512275,149.1654799,24579.75,-3.25,0.5,-27.5,-0.25,4.25,-1038.75,69.0,2.0,0.75,RTL,48693.0
09:05:38,0.009566112887114286,0.00185495923506096,2.4782944917678833,0.0026907920837402344,0.00041670171776786447,0.00015270446601789445,-35.36351205,149.1654804,25197.5,-5.5,-1.5,-68.5,-1.0,3.0,-1016.0,4.0,2.5,0.5,RTL,48693.0
09:05:40,0.013118079863488674,0.004575046245008707,2.4781911373138428,0.46778346598148346,-0.002323457913007587,0.0011567554029170424,-35.363512,149.16548095000002,25917.5,-7.5,-7.0,3.0,0.0,33.0,-976.0,469.5,0.0,1.5,RTL,48693.0
09:05:41,0.006484669400379062,0.005100622307509184,2.4772791266441345,-0.23675303906202316,0.0014530120242852718,-0.000302943037240766,-35.3635121,149.1654809,25872.0,-7.0,-7.0,6.25,-0.25,-15.25,-996.25,-235.25,3.75,0.5,RTL,200.0
09:05:42,0.0012020698050037026,0.008018104592338204,2.4769195318222046,-0.22930308431386948,0.0018185644876211882,0.003254930255934596,-35.363512549999996,149.16548065,25871.0,-4.5,-6.0,-16.0,0.0,-19.5,-1038.0,-228.5,3.5,3.0,RTL,200.0
09:05:44,-0.004917317535728216,0.009359377902001143,2.476284623146057,-0.29694975912570953,0.0008959183469414711,0.001755648641847074,-35.3635132,149.16548015,26738.5,1.5,-2.5,-42.5,0.0,-11.5,-966.5,-294.5,2.5,2.0,RTL,200.0
09:05:45,7.141405149013735e-06,0.008011424797587097,2.4763351678848267,-0.004868797957897186,-0.002742985379882157,0.0009096143621718511,-35.3635133,149.165480075,26945.5,3.0,-1.5,-13.5,0.0,-2.5,-964.0,-3.5,-0.25,1.25,RTL,108472.0
09:05:46,0.003108474425971508,0.00655759428627789,2.4758881330490112,-0.12829835712909698,0.002692549373023212,-0.004681456252001226,-35.36351315,149.16548,26969.5,3.5,-1.0,4.5,-0.5,-11.5,-998.0,-128.0,4.5,-3.0,RTL,108472.0
09:05:48,0.011694050393998623,0.006760417949408293,2.474935531616211,0.16316881659440696,0.0018555560382083058,0.0017827714327722788,-35.3635128,149.1654806,27324.0,1.0,-4.0,-50.0,-0.5,4.5,-1027.5,164.5,3.5,2.0,RTL,108472.0
09:05:49,0.006564032577443868,0.007609774824231863,2.4749221801757812,-0.08483834564685822,0.0031985389068722725,0.002305430156411603,-35.3635128,149.1654807,27733.0,0.0,-5.75,-51.25,0.0,-4.5,-985.25,-83.5,5.0,2.75,RTL,275113.0
09:05:50,0.010371311567723751,0.007380651775747538,2.4751869440078735,0.19583654403686523,0.0013781995512545109,0.004069042392075062,-35.3635128,149.1654807,28160.5,0.0,-5.5,-9.0,-0.5,0.0,-975.0,196.5,3.5,4.5,RTL,275113.0
09:05:52,0.010028853313997388,0.005476766731590033,2.4745936393737793,-0.24319851398468018,-3.315717913210392e-05,-0.00044781927135773003,-35.36351234999999,149.1654811,28162.5,-1.5,-8.5,-11.0,-1.0,-1.5,-1036.5,-241.0,2.0,0.5,RTL,275113.0
09:05:53,0.01847597281448543,0.005959364818409085,2.474510908126831,0.09331012330949306,0.002947355213109404,0.0014443061663769186,-35.363512175000004,149.1654815,28363.5,-4.0,-11.25,-38.75,-0.5,3.0,-1037.5,95.25,5.0,2.25,RTL,300000.0
09:05:54,0.017706720158457756,0.008278938475996256,2.4735299348831177,0.17550792172551155,0.0061800554394721985,0.003262651851400733,-35.363512,149.1654819,29009.0,-7.5,-15.0,-52.5,0.5,10.5,-981.0,178.5,8.5,4.0,RTL,300000.0
09:05:56,0.0036858189268969,0.007042524637654424,2.4742050170898438,-0.17510388046503067,0.00016223930288106203,0.00045331293949857354,-35.3635121,149.16548154999998,29402.5,-7.0,-15.0,3.5,0.0,5.5,-991.5,-171.5,2.5,1.5,RTL,300000.0
09:05:57,0.0076947801280766726,0.007422631373628974,2.473803699016571,0.026424095034599304,0.0018896997789852321,0.0003446548216743395,-35.363512275,149.16548125,29383.25,-6.0,-12.75,-1.25,1.0,-4.25,-1015.25,29.0,4.0,1.0,RTL,222264.0
09:05:58,-0.0014668800868093967,0.008649084251374006,2.4736825227737427,-0.22452135384082794,0.0005821152590215206,-0.0004920692881569266,-35.363512650000004,149.16548065,29627.0,-2.5,-8.5,-42.5,0.5,-13.5,-1036.5,-222.0,3.0,0.5,RTL,222264.0
09:06:00,-0.007866382831707597,0.008206791244447231,2.47314190864563,-0.13281695544719696,-0.0018832315690815449,0.002058501326246187,-35.36351315,149.16547995000002,30599.5,1.0,-3.0,-22.0,0.5,7.0,-959.5,-129.5,1.0,3.0,RTL,222264.0
09:06:01,-0.002264715963974595,0.005651674116961658,2.4735694527626038,-0.12261351943016052,-0.004120972473174334,0.0016697303799446672,-35.363513225,149.1654798,30671.75,3.25,-0.75,-0.75,-0.75,-6.5,-980.75,-120.25,-1.0,2.5,RTL,215912.0
09:06:02,0.021807702258229256,0.0027057757833972573,2.4742069244384766,0.4444122985005379,0.006401367136277258,0.000542727648280561,-35.363512549999996,149.1654804,30643.5,1.5,-1.5,-2.0,-2.5,12.5,-1029.5,446.0,8.5,1.0,RTL,215912.0
09:06:04,0.022795758210122585,0.0064595951698720455,2.472806453704834,0.06925851106643677,0.0027321066008880734,0.001868750900030136,-35.3635117,149.165482,31333.5,-8.5,-13.5,-54.0,-0.5,-3.5,-992.5,72.0,5.0,2.5,RTL,215912.0
09:06:05,0.016277151415124536,0.00865481817163527,2.4728657603263855,-0.11666143033653498,0.003870713757351041,0.0017716973670758307,-35.3635117,149.16548215,31678.5,-10.0,-15.75,-32.75,0.0,-5.75,-958.25,-113.5,6.25,2.75,RTL,118983.0
09:06:06,0.015432195272296667,0.009199375752359629,2.4730998277664185,0.48566386103630066,0.0024071942316368222,0.002903242129832506,-35.3635122,149.1654815,31848.0,-8.5,-14.5,2.5,1.5,8.5,-984.0,488.0,5.0,3.5,RTL,118983.0
09:06:08,-0.018741381354629993,0.009392134379595518,2.4737966060638428,-0.15017111599445343,-0.0010979165090247989,0.0021241328213363886,-35.36351355,149.16547935,31967.0,3.0,-1.0,-32.5,1.5,-1.5,-1042.5,-146.0,1.0,3.5,RTL,118983.0
09:06:09,-0.012054976774379611,0.008004658971913159,2.473231017589569,0.10679881455143914,-0.00020710291573777795,0.00043530104449018836,-35.363513875,149.16547875,32314.25,7.5,3.75,-52.25,1.5,1.5,-1014.0,109.5,2.25,1.25,RTL,240956.0
09:06:10,-0.010232046246528625,0.007390502607449889,2.47347354888916,0.32401446998119354,0.0020625751931220293,0.002726023900322616,-35.3635142,149.1654782,32936.5,11.5,10.0,-29.5,0.0,11.0,-957.5,326.0,4.5,4.0,RTL,240956.0
09:06:12,-0.012281376868486404,0.004498281050473452,2.4731520414352417,-0.24774471297860146,0.0020545211154967546,0.0008076723897829652,-35.363513749999996,149.16547855,33031.5,10.5,10.5,2.5,-1.0,6.0,-1008.5,-244.0,5.0,1.5,RTL,240956.0
09:06:13,-0.002741823438555002,0.00511405779980123,2.473482310771942,-0.031186634674668312,0.002382917096838355,0.0017643526662141085,-35.363513575000006,149.16547885,33082.0,9.75,10.0,-16.5,-0.5,-4.75,-1032.0,-28.75,5.0,3.25,RTL,11879.0
09:06:14,-0.0005724240036215633,0.00517914560623467,2.472583532333374,-0.12499162927269936,0.0018421089043840766,0.0010693875374272466,-35.36351325,149.16547945000002,33566.5,6.5,6.0,-55.0,-0.5,-1.5,-1007.0,-122.0,4.5,2.0,RTL,11879.0
09:06:16,-0.0023581833811476827,0.005785154644399881,2.4726829528808594,0.1895323283970356,-0.0034593893215060234,0.0040059894672594965,-35.3635131,149.1654798,34270.5,3.0,1.0,0.0,0.0,25.5,-967.5,193.5,0.0,5.0,RTL,11879.0
09:06:17,0.0030852080089971423,0.005840957281179726,2.4728574752807617,-0.012269429862499237,0.0031072022393345833,0.00034424668410792947,-35.363513075,149.1654798,34251.75,3.0,1.0,3.25,-0.5,-5.5,-1003.0,-10.5,5.75,1.5,RTL,300000.0
09:06:18,0.00486208446091041,0.004209826700389385,2.4732120037078857,-0.020139411091804504,0.0006299309898167849,0.0012310234596952796,-35.3635129,149.16547995000002,34305.5,2.0,0.0,-23.0,0.0,-8.5,-1038.0,-18.0,3.0,2.5,RTL,300000.0
09:06:20,0.0020726112416014075,0.007763976464048028,2.472153902053833,-0.059234149754047394,0.0015282948734238744,0.002598305232822895,-35.3635127,149.1654804,35277.0,-0.5,-2.5,-46.5,0.0,0.0,-967.5,-56.5,4.0,4.0,RTL,300000.0
09:06:21,6.98916264809668e-05,0.007224250235594809,2.4725130796432495,-0.10729204304516315,-0.0014671081735286862,0.0021723347599618137,-35.363512799999995,149.1654803,35502.75,0.0,-2.5,-16.0,1.0,-9.0,-961.25,-105.25,1.0,3.25,RTL,300000.0
09:06:22,-0.0016142709646373987,0.005675514927133918,2.4726773500442505,-0.39057906344532967,-0.001263400074094534,0.0001378991873934865,-35.363513,149.1654799,35538.5,1.5,0.0,3.5,0.0,-30.0,-993.0,-388.5,1.5,2.0,RTL,300000.0
09:06:24,0.012502248398959637,0.004299162654206157,2.4729360342025757,0.24558062106370926,0.0021166816586628556,0.00036965671461075544,-35.363512650000004,149.1654803,35908.5,0.5,-1.0,-51.5,-1.0,13.0,-1028.5,247.5,5.0,1.5,RTL,300000.0
09:06:25,0.013924586353823543,0.0056084670359268785,2.4725773334503174,-0.01691303262487054,0.0028752145590260625,-0.00013089587446302176,-35.363512375,149.165480825,36337.25,-1.25,-4.25,-54.75,-1.0,-1.0,-988.25,-14.5,5.5,1.25,RTL,200.0
09:06:26,0.014740930870175362,0.007830225396901369,2.472443103790283,0.10448767244815826,0.0019390008528716862,0.0014275937573984265,-35.36351225,149.1654812,36826.0,-4.0,-8.0,-12.0,0.5,-10.5,-960.0,106.5,5.0,2.5,RTL,200.0
09:06:28,-0.006849572528153658,0.0071061961352825165,2.472833752632141,-0.4547411650419235,-0.0017070260364562273,0.002743359887972474,-35.3635128,149.16548035,36822.5,-1.0,-5.0,-3.5,1.5,-16.0,-1015.5,-451.0,1.5,4.0,RTL,200.0
09:06:29,-0.0066076019138563424,0.00862600957043469,2.4727519750595093,0.042410869151353836,0.0033537120325490832,0.0009471794473938644,-35.363513125,149.1654798,36972.25,0.75,-1.75,-31.25,1.25,-1.0,-1039.5,45.0,6.25,2.5,RTL,300000.0
09:06:30,-0.022225440479815006,0.009818988386541605,2.472214460372925,-0.09660197794437408,0.001054087420925498,0.003205777204129845,-35.363514,149.16547865,37570.5,7.0,4.5,-50.0,1.5,0.5,-987.5,-94.0,4.0,5.0,RTL,300000.0
09:06:32,-0.02567381039261818,0.00481957383453846,2.4732848405838013,-0.49930843710899353,-0.00636234343983233,-0.0013349633081816137,-35.3635146,149.1654774,37986.0,18.0,18.0,4.0,0.5,-23.0,-990.0,-496.5,-3.0,0.5,RTL,300000.0
09:06:33,-0.009874045092146844,0.0030549695948138833,2.4731120467185974,0.19497329741716385,-0.0007686311146244407,-0.0004570044984575361,-35.363514275,149.165477625,37961.5,17.75,19.0,1.25,-1.0,6.75,-1017.25,196.25,2.25,1.5,RTL,27957.0
09:06:34,0.003092269995249808,0.0026734950952231884,2.4732675552368164,0.010927394032478333,0.0007114004110917449,0.00042388669680804014,-35.36351355,149.1654786,38145.0,12.5,14.5,-36.5,-1.0,-3.5,-1035.5,12.5,4.0,2.0,RTL,27957.0
09:06:36,-0.0038160659751156345,0.006937503814697266,2.4733192920684814,-0.4499068409204483,-0.001180717023089528,0.00389379751868546,-35.3635132,149.1654796,39066.0,5.5,5.5,-21.0,0.0,-19.5,-951.0,-448.0,2.5,5.5,RTL,27957.0
09:06:37,0.004648683068808168,0.005664060823619366,2.4729230999946594,-0.019949503242969513,-0.0015231578727252781,0.0001346208737231791,-35.363513100000006,149.16547985,39140.25,4.5,2.75,-0.75,-0.75,-6.25,-978.75,-18.75,1.5,1.75,RTL,198981.0
09:06:38,0.016289341263473034,0.0036584058543667197,2.4729493856430054,0.18703632056713104,-0.0014312404091469944,0.00035383738577365875,-35.363512650000004,149.16548045000002,39112.5,1.5,-0.5,-0.5,-1.0,-0.5,-1017.0,188.0,1.5,1.5,RTL,198981.0
09:06:40,0.012695763260126114,0.0066282793413847685,2.4726587533950806,-0.004798784852027893,0.0007217294769361615,-0.000381705816835165,-35.3635122,149.1654812,39777.0,-4.0,-8.0,-55.5,0.0,-4.5,-996.5,-3.0,4.0,1.0,RTL,198981.0
09:06:41,0.009133927116636187,0.007394318701699376,2.472380518913269,-0.07647879887372255,0.0004813793348148465,0.0013405554927885532,-35.3635122,149.165481275,40142.25,-4.25,-9.0,-36.75,0.0,-5.25,-960.5,-74.75,3.5,2.75,RTL,112022.0
09:06:42,0.013897184748202562,0.006416546413674951,2.472328305244446,0.00020936131477355957,-0.0018666948890313506,-0.00034352776128798723,-35.3635123,149.16548104999998,40348.5,-4.0,-9.0,1.5,0.0,-17.5,-987.5,1.0,1.5,1.5,RTL,112022.0
09:06:44,0.006949872826226056,0.005150452954694629,2.4731639623641968,0.10947124660015106,-0.0012100308667868376,0.0018341741524636745,-35.3635122,149.165481,40436.0,-4.0,-8.0,-31.0,0.0,13.0,-1036.5,112.0,2.0,3.5,RTL,112022.0
09:06:45,0.011022628284990788,0.005434264778159559,2.472775399684906,0.04332857485860586,0.0021441803546622396,-2.379133366048336e-05,-35.3635122,149.165481,40772.0,-4.5,-8.5,-52.25,0.0,-1.5,-1020.0,45.0,5.0,1.75,RTL,200.0
09:06:46,0.010380503721535206,0.007785135181620717,2.472433567047119,0.22333071194589138,0.000550504308193922,0.00181097153108567,-35.3635124,149.1654808,41420.0,-4.5,-7.5,-35.5,1.0,1.5,-955.5,224.5,3.5,3.5,RTL,200.0
09:06:48,-0.0012545721838250756,0.005086477845907211,2.473089098930359,-0.336757181212306,-0.0004406123189255595,-0.0015259854262694716,-35.3635128,149.1654802,41558.0,0.0,-3.0,2.0,0.0,-0.5,-1001.0,-333.5,2.5,0.5,RTL,200.0
09:06:49,0.007366615638602525,0.005694582825526595,2.4729108810424805,0.015303466469049454,0.0005986080504953861,0.002057733596302569,-35.3635127,149.1654803,41604.25,0.0,-3.25,-16.0,-0.25,-0.5,-1038.0,17.0,4.0,3.75,RTL,230149.0
09:06:50,0.007358122384175658,0.005653247470036149,2.472482681274414,-0.17055022716522217,-0.0018018032424151897,0.001993926358409226,-35.3635126,149.16548065,42080.5,-0.5,-4.5,-56.5,0.0,-4.5,-1012.5,-168.0,2.0,3.5,RTL,230149.0
09:06:52,0.0013866950757801533,0.006203117314726114,2.4727648496627808,-0.6397382616996765,-0.0015905493637546897,-0.001167392241768539,-35.3635123,149.16548104999998,42870.5,-3.5,-8.0,-4.5,1.0,-22.5,-966.5,-637.0,2.0,1.0,RTL,230149.0
09:06:53,0.01022785238455981,0.006824914366006851,2.472644031047821,0.3933173641562462,1.4105986338108778e-05,0.0023596915416419506,-35.363512475,149.16548075,42865.25,-4.0,-8.25,3.75,0.0,13.0,-991.0,395.25,3.0,4.25,RTL,255843.0
09:06:54,0.0024636273155920208,0.006464438047260046,2.4732277393341064,0.12996822595596313,-0.003043675678782165,0.0008391843875870109,-35.363512650000004,149.1654805,42873.5,-1.0,-5.0,-15.0,0.0,14.5,-1036.0,133.5,0.5,2.5,RTL,255843.0
09:06:56,0.005905470694415271,0.007307480089366436,2.47273588180542,0.23109132517129183,0.0006321544060483575,0.0011666310019791126,-35.3635126,149.1654805,43734.0,-1.0,-5.0,-41.5,0.5,16.0,-975.0,235.0,4.0,3.0,RTL,255843.0
09:06:57,0.003352221567183733,0.00703775929287076,2.473052680492401,0.02224895474500954,0.0010428252862766385,0.0021233867737464607,-35.3635127,149.165480475,43940.5,0.0,-4.5,-13.0,0.0,2.25,-961.75,25.25,4.25,4.0,RTL,69426.0
09:06:58,-0.006822928320616484,0.007277342490851879,2.4724316596984863,-0.4393109083175659,0.002148881205357611,0.0014247720828279853,-35.363512850000006,149.16548004999999,43965.5,0.0,-2.0,5.0,1.5,-11.0,-1000.0,-436.0,5.0,3.5,RTL,69426.0
09:07:00,-0.016607513651251793,0.008061797823756933,2.473027467727661,0.02991654723882675,-0.002089014044031501,1.1265510693192482e-06,-35.3635142,149.16547815,44306.0,10.0,9.0,-47.5,1.0,-8.5,-1022.5,32.0,1.5,1.5,RTL,69426.0
09:07:01,-0.01746098860166967,0.006789832841604948,2.4727611541748047,-0.04304322227835655,-0.0009489536460023373,0.0008008038566913456,-35.3635143,149.16547792500003,44697.25,13.75,13.0,-47.0,-0.25,-1.75,-981.5,-40.75,2.5,2.75,RTL,251677.0
09:07:02,-0.00410838914103806,0.0038019882049411535,2.473024606704712,0.0008558034896850586,-0.0003512871917337179,-0.0004650788614526391,-35.363514,149.16547815,45077.5,15.0,14.5,-5.0,0.0,-12.5,-970.0,2.0,3.5,1.0,RTL,251677.0
09:07:04,0.0010657343082129955,0.004188720602542162,2.4729795455932617,0.04021763801574707,-0.0003837781259790063,0.001861833268776536,-35.363513049999995,149.1654795,45071.0,6.5,6.5,-10.5,-1.5,14.5,-1039.5,43.5,3.0,3.5,RTL,251677.0
09:07:05,0.0051114088273607194,0.005620825686492026,2.4728844165802,0.053424865705892444,0.003473670978564769,0.0003489545779302716,-35.363512925,149.16547985000003,45279.5,3.5,3.0,-39.0,-0.75,1.75,-1036.25,55.0,6.75,2.25,RTL,161251.0
09:07:06,0.0016248744213953614,0.007648030994459987,2.4727654457092285,0.20436866395175457,0.0012515172129496932,0.0011151705402880907,-35.3635129,149.1654801,45926.0,2.0,0.0,-49.0,0.0,11.5,-974.5,207.0,5.0,2.5,RTL,161251.0
09:07:08,-0.004552332917228341,0.005088649690151215,2.472609519958496,-0.29425349086523056,-0.00040347978938370943,0.00047484750393778086,-35.3635129,149.16548,46270.5,2.5,0.0,4.5,0.0,-0.5,-998.5,-291.0,3.0,2.5,RTL,161251.0
09:07:09,0.004254659230355173,0.004743495956063271,2.4729447960853577,0.04822557419538498,-0.0010724375024437904,0.00014518623356707394,-35.3635129,149.16548,46252.5,1.75,0.0,-0.5,0.0,-3.25,-1022.25,49.75,2.75,2.0,RTL,229627.0
09:07:10,0.004500505747273564,0.004593411926180124,2.473118305206299,-0.1989777535200119,-0.00160927081014961,0.0006914844270795584,-35.36351275,149.1654801,46498.0,1.0,0.0,-42.0,-0.5,-11.5,-1030.0,-197.5,1.5,2.5,RTL,229627.0
09:07:12,0.004792105872184038,0.006597545463591814,2.4731180667877197,-0.34687165543437004,-0.0011947638122364879,0.0025282184360548854,-35.3635125,149.1654807,47397.0,-1.5,-4.5,-15.0,0.0,-6.5,-951.5,-344.0,2.5,4.5,RTL,229627.0
09:07:13,0.008322815061546862,0.006973248207941651,2.4726369380950928,0.11412880569696426,-0.0012690458679571748,0.0019292525830678642,-35.363512525,149.16548065,47440.25,-2.0,-5.5,0.75,1.0,-0.25,-988.5,115.5,2.5,3.75,RTL,283759.0
09:07:14,0.006777738220989704,0.006790669867768884,2.472694516181946,0.4620835483074188,0.004994920222088695,0.0026824327651411295,-35.3635128,149.16548015,47415.5,-0.5,-3.0,-2.5,0.0,9.0,-1018.0,463.0,8.5,4.5,RTL,283759.0
09:07:16,0.0031118796905502677,0.005557419499382377,2.472497820854187,0.1496351696550846,0.0009051450761035085,0.0013593814801424742,-35.3635131,149.16547965,48143.0,3.0,1.0,-56.5,0.0,1.5,-993.5,151.5,5.0,3.5,RTL,283759.0
09:07:17,0.0026056685019284487,0.005320222582668066,2.4730812311172485,-0.11349749192595482,0.00031360296998173,-0.00017493142513558269,-35.363513,149.16547985,48508.25,3.0,0.5,-36.75,-0.25,-3.5,-962.5,-111.75,4.25,2.0,RTL,172251.0
09:07:18,0.013582169078290462,0.004931627307087183,2.472252130508423,0.6286860406398773,0.0007026756647974253,0.0022389140212908387,-35.3635127,149.1654802,48698.5,0.0,-2.0,2.0,0.5,24.5,-988.5,630.5,4.0,4.0,RTL,172251.0
09:07:20,0.006052409997209907,0.004719149321317673,2.4728281497955322,-0.2594683775678277,0.0019300145795568824,-7.18486262485385e-05,-35.3635123,149.1654807,48816.0,-2.5,-4.5,-33.0,-0.5,-6.5,-1035.0,-257.0,5.5,2.5,RTL,172251.0
09:07:21,0.0075187793700024486,0.005624040844850242,2.472752332687378,0.04058193229138851,0.00021735060727223754,0.00025710550835356116,-35.363512324999995,149.1654807,49170.0,-3.5,-5.5,-54.0,0.0,1.25,-1016.0,42.75,3.75,2.5,RTL,258912.0
09:07:22,0.009540147613734007,0.006590047152712941,2.472898244857788,0.3159221261739731,0.0002907312009483576,0.0019420237513259053,-35.3635124,149.1654807,49822.5,-3.5,-6.0,-34.0,0.0,15.0,-960.5,317.5,4.0,4.0,RTL,258912.0
09:07:24,0.0016941428475547582,0.006442280486226082,2.472640633583069,-0.5992568135261536,0.000695166876539588,0.001131033874116838,-35.3635123,149.16548095000002,49948.5,-4.5,-8.0,3.5,1.0,-19.0,-995.0,-596.5,4.5,3.0,RTL,258912.0
09:07:25,0.00404618342872709,0.007383419084362686,2.4727612733840942,0.11491113901138306,-0.00016460934421047568,0.001379268942400813,-35.36351255,149.1654806,49985.75,-3.75,-6.75,-16.0,0.75,0.0,-1035.5,117.25,3.75,3.5,RTL,200.0
09:07:26,-0.007108004530891776,0.007898824755102396,2.47262442111969,-0.23648745566606522,-0.0004459050251170993,-0.0002995760878548026,-35.3635131,149.16547985,50450.0,0.0,-2.5,-56.5,0.5,-15.0,-1010.0,-233.5,3.0,2.0,RTL,200.0
09:07:28,-0.007870903238654137,0.004434690810739994,2.472994804382324,-0.5455120205879211,-0.0017825819086283445,-9.806337766349316e-05,-35.3635131,149.1654796,51235.0,4.0,1.0,-5.0,-1.0,-12.0,-965.0,-542.0,2.0,2.0,RTL,200.0
09:07:29,0.0036150789237581193,0.005278292461298406,2.4726595282554626,0.23530258610844612,0.002462304662913084,7.822870975360274e-05,-35.3635131,149.165479575,51235.25,2.75,1.5,1.75,0.0,9.25,-994.75,237.25,6.0,2.0,RTL,200.0
09:07:30,-0.003955087391659617,0.006200636271387339,2.4729169607162476,-0.15086683630943298,0.00025713653303682804,0.002648010617122054,-35.36351325,149.16547945000002,51228.0,3.5,2.0,-7.5,0.0,-10.0,-1022.5,-149.0,4.0,5.0,RTL,200.0
09:07:32,0.004354250151664019,0.005615609930828214,2.4724632501602173,-0.030168108642101288,0.0026304135099053383,0.00035351666156202555,-35.36351315,149.1654797,51961.0,4.0,2.0,-55.5,-0.5,-7.5,-994.0,-29.0,6.5,2.5,RTL,200.0
09:07:33,0.004432402842212468,0.005687822122126818,2.473064959049225,-0.011023782193660736,-0.0018372244667261839,0.000879462284501642,-35.36351295,149.16547995,52433.0,2.75,0.25,-29.0,-0.75,-2.5,-957.5,-9.25,1.75,3.25,RTL,166554.0
09:07:34,0.0065398672595620155,0.00442318175919354,2.473231315612793,-0.09915699064731598,0.0002156194532290101,-0.0003371174680069089,-35.3635127,149.1654803,52554.0,1.0,-1.0,-0.5,0.0,-5.5,-987.5,-97.0,3.5,2.0,RTL,166554.0
09:07:36,0.0060717660817317665,0.00576205225661397,2.4728039503097534,0.21040824800729752,0.0008500104304403067,-0.0015517908614128828,-35.3635125,149.1654805,52667.5,-2.0,-5.0,-30.0,0.0,12.5,-1041.0,213.0,4.5,1.0,RTL,166554.0
09:07:37,0.008518941118381917,0.005548159941099584,2.4728757739067078,0.06657713279128075,0.00043169240234419703,-0.0004594316123984754,-35.363512475,149.16548065,53113.25,-1.25,-4.75,-55.25,-0.25,3.5,-1007.25,68.75,4.0,2.0,RTL,255088.0
09:07:38,0.01521898852661252,0.006171480985358357,2.4730546474456787,0.3444320261478424,0.0006751334294676781,0.0006682693492621183,-35.36351234999999,149.1654809,53603.5,-2.5,-6.5,-35.5,0.0,8.0,-966.5,345.5,4.0,3.0,RTL,255088.0
09:07:40,0.009834706754190847,0.005792104871943593,2.472775101661682,-0.02210080623626709,0.0005094436928629875,-0.00041349645471200347,-35.3635123,149.16548095000002,53781.0,-4.0,-8.5,1.5,0.0,-3.0,-1008.5,-19.5,4.5,2.0,RTL,255088.0
09:07:41,0.009526894777081907,0.006484352867119014,2.4731181859970093,0.11773661384359002,-5.5337208323180676e-05,0.0012675674515776336,-35.36351234999999,149.16548085,53864.0,-4.0,-8.5,-23.75,0.25,2.0,-1038.5,120.0,4.0,3.5,RTL,185935.0
09:07:42,0.000995841439362266,0.0062927622348070145,2.472876787185669,-0.19049767032265663,0.00014301342889666557,-0.00031373510137200356,-35.36351245,149.16548075,54283.5,-3.5,-7.0,-51.5,0.0,-2.5,-1012.0,-187.0,4.5,2.0,RTL,185935.0
09:07:44,0.0050444272346794605,0.006188568659126759,2.4729310274124146,-0.009757548570632935,-0.0001917644403874874,0.0008588517084717751,-35.3635125,149.1654806,55018.5,-1.5,-5.0,-6.0,0.0,-1.0,-982.5,-6.5,4.0,3.0,RTL,185935.0
09:07:45,0.00912523886654526,0.005524233332835138,2.4729803800582886,0.23157910257577896,0.0005684740608558059,0.0013793545658700168,-35.3635125,149.165480525,55017.0,-1.75,-5.0,3.5,0.25,6.5,-1005.0,233.75,4.5,4.0,RTL,84855.0
09:07:46,0.006676272372715175,0.004245178890414536,2.473214030265808,-0.18587690591812134,-0.00027473759837448597,0.0013994956389069557,-35.3635124,149.16548065,55062.0,-1.5,-5.5,-15.0,-2.0,-7.0,-1023.5,-183.0,3.5,4.0,RTL,84855.0
09:07:48,0.01469475170597434,0.0064086345955729485,2.4729124307632446,-0.3909558653831482,-0.0002931870985776186,-6.793602369725704e-05,-35.363511849999995,149.16548154999998,55891.5,-6.5,-10.5,-39.5,0.0,-21.0,-971.0,-388.0,4.0,2.0,RTL,84855.0
09:07:49,0.013892301358282566,0.007982769631780684,2.4728329181671143,0.23125015012919903,0.0008674993296153843,0.002583167573902756,-35.363511975,149.165481575,56153.5,-8.25,-13.25,-5.75,1.25,7.5,-970.5,234.5,4.75,5.0,RTL,300000.0
09:07:50,0.0043897590367123485,0.007623493671417236,2.472831130027771,0.024391531944274902,0.0025669464375823736,0.0005640691379085183,-35.3635123,149.165481,56151.5,-6.5,-11.0,4.0,1.0,-0.5,-1001.0,28.0,6.5,3.5,RTL,300000.0
09:07:52,-0.002102026977809146,0.006591900950297713,2.4729971885681152,0.3430730402469635,-0.004043228225782514,-0.0002169030485674739,-35.3635132,149.16547955,56486.0,1.5,-1.5,-45.5,1.0,12.5,-1026.5,346.0,0.5,2.0,RTL,300000.0
09:07:53,-0.005721209294279106,0.006553299026563764,2.4728740453720093,0.037286845967173576,0.000863726600073278,0.0005335712630767375,-35.363513425,149.16547915,57000.25,4.0,2.5,-47.25,0.25,-1.75,-976.25,40.25,5.0,3.25,RTL,200.0
09:07:54,-0.00033614528365433216,0.005650317296385765,2.4735628366470337,0.1309315264225006,-0.003257195232436061,0.0007785420166328549,-35.36351345,149.16547905,57305.5,6.0,5.0,-12.5,-0.5,3.0,-971.5,134.0,1.5,4.0,RTL,200.0
09:07:56,0.0023051347816362977,0.004625650122761726,2.4731662273406982,0.051372602581977844,0.0010910062119364738,0.0019241170957684517,-35.363513049999995,149.1654795,57350.0,4.0,3.5,-11.5,-0.5,4.5,-1027.5,54.5,5.0,5.0,RTL,200.0
09:07:57,0.005214653498114785,0.005757401813752949,2.473363220691681,0.0031159110367298126,0.0019179232185706496,-0.00014983018627390265,-35.363512925,149.16547995,57618.75,2.5,1.0,-45.0,-0.5,1.25,-1028.25,6.5,6.0,2.25,RTL,200.0
09:07:58,0.0018985110218636692,0.006540464237332344,2.4727838039398193,-0.0808328203856945,0.0008445556741207838,8.317013271152973e-05,-35.363512850000006,149.16548025,58143.0,0.5,-1.0,-50.0,0.0,7.5,-980.5,-76.5,5.0,3.0,RTL,200.0
09:08:00,0.009142696391791105,0.005511818919330835,2.4729628562927246,0.05607356131076813,0.0008988522458821535,-0.0005472605698741972,-35.3635126,149.1654806,58560.5,-0.5,-4.0,1.5,-0.5,2.5,-994.5,59.0,5.0,2.0,RTL,200.0
09:08:01,0.010440026526339352,0.0045529380440711975,2.4733142852783203,0.0602450966835022,-9.990599937736988e-05,0.0009520085877738893,-35.363512375,149.165480775,58553.25,-2.25,-5.5,-7.25,-0.5,7.25,-1030.25,64.0,4.25,3.5,RTL,179584.0
09:08:02,0.013352435547858477,0.005423553055152297,2.472918152809143,-0.015078723430633545,0.0020882049575448036,0.0017165272729471326,-35.3635122,149.16548104999998,58812.0,-3.5,-7.5,-41.0,-0.5,-8.5,-1024.5,-12.0,6.5,4.0,RTL,179584.0
09:08:04,0.014425266068428755,0.006261716363951564,2.4731109142303467,-0.1312814075499773,-0.0008100832346826792,0.0015298827784135938,-35.36351195,149.16548154999998,59688.5,-6.0,-11.0,-18.5,0.0,-9.5,-966.0,-127.0,3.5,4.0,RTL,179584.0
09:08:05,0.011746675241738558,0.006007675430737436,2.4727566838264465,0.04591262340545654,0.000722065451554954,0.0036894571385346353,-35.36351195,149.1654815,59760.25,-7.5,-12.75,2.25,0.25,3.25,-993.0,50.25,4.75,6.5,RTL,30239.0
09:08:06,0.010438002063892782,0.006061030551791191,2.4729050397872925,0.03274448215961456,0.005068744067102671,0.002058965852484107,-35.36351205,149.16548125,59749.0,-7.5,-12.0,-4.0,0.0,-2.5,-1020.0,36.5,9.0,4.5,RTL,30239.0
09:08:08,0.008368536364287138,0.007102262461557984,2.4727004766464233,0.34383104741573334,0.00012161652557551861,0.0009956458816304803,-35.363512549999996,149.1654806,60415.5,-3.0,-7.0,-49.0,0.0,10.0,-993.5,347.0,4.5,4.0,RTL,30239.0
09:08:09,0.003548209700966254,0.006929912720806897,2.473298728466034,-0.0009458009153604507,-0.002199557260610163,-0.0001995826605707407,-35.3635126,149.165480475,60814.75,-1.25,-5.25,-19.75,0.25,0.25,-963.5,3.25,2.25,2.5,RTL,200.0
09:08:10,0.005186302354559302,0.005612282548099756,2.472975254058838,0.016917292028665543,4.6365195885300636e-05,-0.0011717708548530936,-35.3635126,149.16548035,60886.5,-0.5,-4.0,2.0,0.0,0.0,-986.0,21.0,4.0,1.5,RTL,200.0
09:08:12,-0.006526154233142734,0.006652063224464655,2.472925305366516,-0.18359245313331485,0.0015068820212036371,0.0015815873630344868,-35.3635129,149.1654798,61045.5,0.5,-1.0,-33.0,0.0,0.0,-1037.5,-178.5,5.5,4.5,RTL,200.0
09:08:13,-0.007800579522154294,0.007699199253693223,2.4727611541748047,-0.06862195301800966,0.0008962954161688685,0.0010440844343975186,-35.36351325,149.16547945,61505.0,2.5,1.25,-50.25,0.0,-2.75,-996.25,-64.0,5.5,3.75,RTL,200.0
09:08:14,-0.011373266577720642,0.007271957350894809,2.473241686820984,-0.1769423708319664,-0.0018328956793993711,0.00029805349186062813,-35.3635135,149.16547915,61906.5,5.5,3.5,-22.5,0.0,-6.5,-958.0,-173.0,2.5,3.0,RTL,200.0
09:08:16,-0.0011601827573031187,0.005174711113795638,2.4729400873184204,0.06117802858352661,-0.0009130494436249137,0.0005869945744052529,-35.36351345,149.16547905,61993.0,7.0,6.5,-1.0,0.0,-1.0,-1018.0,64.5,3.5,3.0,RTL,200.0
09:08:17,-0.0005714815342798829,0.0056797132128849626,2.47360759973526,-0.01782155130058527,0.0030026129679754376,-0.001381022681016475,-35.363513375000004,149.16547925,62120.0,6.75,5.75,-29.75,-0.75,-3.0,-1039.25,-14.25,7.25,1.75,RTL,200.0
09:08:18,0.0030589611851610243,0.005887166829779744,2.472830891609192,0.3168516010046005,-8.902489207684994e-05,-0.0012031630612909794,-35.3635132,149.16547955,62578.0,5.5,3.5,-52.0,-0.5,12.0,-1007.5,320.5,4.5,1.5,RTL,200.0
09:08:20,0.004584472975693643,0.004893152508884668,2.4732335805892944,-0.054318249225616455,0.0003059213049709797,0.000996241346001625,-35.363512850000006,149.16548004999999,63207.0,2.0,0.0,-2.5,0.0,-3.0,-987.5,-50.5,5.0,4.0,RTL,200.0
09:08:21,0.006161034689284861,0.004593017511069775,2.472791612148285,0.12877409532666206,0.00037155509926378727,0.0019202879047952592,-35.3635127,149.1654802,63190.75,0.0,-1.25,1.0,-0.25,7.25,-1002.25,132.25,5.0,4.5,RTL,170845.0
09:08:22,0.006215713394340128,0.004880643682554364,2.4735147953033447,-0.16980336606502533,0.00017908494919538498,0.001258047646842897,-35.363512549999996,149.1654805,63304.5,-0.5,-3.5,-27.0,-1.0,-4.0,-1034.0,-165.5,4.5,4.0,RTL,170845.0
09:08:24,0.012100595980882645,0.007152876351028681,2.472898840904236,-0.3812970668077469,0.0005348233971744776,0.0013536056503653526,-35.36351205,149.1654815,64261.5,-5.0,-10.0,-41.5,-0.5,-19.0,-967.5,-377.0,5.5,4.5,RTL,170845.0
09:08:25,0.014319806476123631,0.008039250853471458,2.4728878140449524,0.14586294442415237,0.0009380232077091932,0.0008225226192735136,-35.363512075,149.1654816,64521.25,-6.75,-13.25,-7.0,0.75,4.0,-979.75,150.25,5.25,4.0,RTL,255292.0
09:08:26,0.0033725525718182325,0.007776007056236267,2.472861886024475,-0.03909403085708618,-0.002562855719588697,0.0012879450805485249,-35.3635124,149.16548105,64516.5,-5.0,-11.0,2.5,0.5,-3.0,-1001.5,-35.0,2.0,4.5,RTL,255292.0
09:08:28,0.011531143449246883,0.0058178959880024195,2.473023295402527,0.15154163539409637,0.0018266767729073763,0.0019143882673233747,-35.3635125,149.16548065,64919.5,-1.0,-6.0,-49.5,0.0,0.5,-1015.0,155.5,6.5,5.0,RTL,255292.0
09:08:29,0.009459744673222303,0.006286737858317792,2.4728389978408813,0.006508209859021008,0.0016470995033159852,0.0011617894633673131,-35.3635125,149.1654807,65452.25,-1.75,-6.5,-47.75,0.25,-3.0,-971.25,10.75,6.25,4.25,RTL,293000.0
09:08:30,0.006919604609720409,0.006811507744714618,2.4732969999313354,0.04439741373062134,-0.002987293293699622,0.0011918410891667008,-35.3635125,149.16548065,65747.5,-2.5,-6.5,-12.5,1.5,0.5,-975.0,49.0,1.5,4.0,RTL,293000.0
09:08:32,-0.002201815019361675,0.00607651611790061,2.47320818901062,0.046293869614601135,-0.0051554214442148805,-0.0009745574789121747,-35.363512850000006,149.16547995000002,65800.5,-0.5,-2.0,-13.5,0.0,7.5,-1036.5,51.0,-0.5,2.5,RTL,293000.0
09:08:33,-0.001742828986607492,0.0064036797266453505,2.4731855988502502,-0.0032477043569087982,0.001334221160504967,-0.0010141392122022808,-35.363513,149.165479675,66101.25,0.75,-0.25,-48.25,0.0,0.5,-1027.75,1.25,6.0,2.25,RTL,200580.0
09:08:34,-0.0001805929932743311,0.006022878224030137,2.472893714904785,0.33324606716632843,-0.0032216841354966164,-0.0001005060039460659,-35.3635131,149.16547955,66641.0,2.5,0.5,-50.0,0.0,19.0,-982.5,338.0,2.0,3.0,RTL,200580.0
09:08:36,0.004115838324651122,0.004227562807500362,2.472484588623047,-0.06756290793418884,0.00018654903396964073,0.0008537134854122996,-35.363512650000004,149.1654801,67056.5,0.5,-0.5,1.0,-0.5,0.5,-992.5,-63.0,4.5,4.0,RTL,200580.0
09:08:37,0.0002745549427345395,0.00571267306804657,2.4724395871162415,-0.004251331090927124,0.0021885170717723668,0.0013108496787026525,-35.363512625,149.165480175,67051.0,-1.0,-2.25,-8.25,0.0,5.0,-1025.0,0.75,6.75,4.5,RTL,300000.0
09:08:38,0.00403706677025184,0.005921392701566219,2.4729291200637817,0.02684936672449112,-0.0017080572433769703,0.0014144176384434104,-35.3635127,149.1654801,67314.5,0.0,-1.0,-43.5,0.5,-6.5,-1028.5,30.5,3.0,5.0,RTL,300000.0
09:08:40,0.004267742217052728,0.006064698565751314,2.4732037782669067,-0.23348946496844292,-0.0008141380967572331,0.001408929005265236,-35.3635127,149.16548025,68306.0,0.0,-1.5,-29.5,0.0,-14.5,-955.5,-229.0,4.0,5.0,RTL,300000.0
09:08:41,0.003622403950430453,0.005634656292386353,2.4731128811836243,-0.19317390397191048,0.001196361961774528,0.0021505114855244756,-35.3635127,149.1654803,68435.75,-0.5,-2.75,0.25,0.0,-3.5,-984.25,-188.25,5.75,5.25,RTL,148042.0
09:08:42,0.004012902732938528,0.005980662303045392,2.472890853881836,0.03346851468086243,-0.0004981346428394318,0.0005561787402257323,-35.3635127,149.1654803,68419.5,-0.5,-3.0,-3.0,0.0,-5.5,-1020.0,38.0,4.5,3.5,RTL,148042.0
09:08:44,0.0014072704943828285,0.005806459812447429,2.4726628065109253,0.09892381727695465,0.0009255413897335529,-0.00021145481150597334,-35.3635127,149.16548025,69051.5,0.0,-2.5,-56.5,0.0,11.0,-1007.0,104.5,5.5,3.0,RTL,148042.0
09:08:45,0.0031220477540045977,0.006161726312711835,2.4730312824249268,0.03185296058654785,-0.001283227524254471,0.0014189420035108924,-35.3635127,149.16548025,69576.0,0.0,-2.25,-37.75,0.0,4.0,-959.25,36.5,3.5,4.75,RTL,97807.0
09:08:46,-0.0007851701229810715,0.00466835149563849,2.4730119705200195,0.04033587872982025,-0.003408283111639321,-0.00023330748081207275,-35.3635127,149.16548,69768.0,0.0,-1.0,-4.0,0.5,6.5,-969.5,45.0,1.5,3.0,RTL,97807.0
09:08:48,-4.041660577058792e-05,0.005214303964748979,2.4730122089385986,-0.15399177372455597,-0.001826644642278552,-0.0007683080621063709,-35.36351275,149.16547985,69839.5,0.0,0.0,-22.5,0.0,-12.5,-1030.0,-150.0,3.0,2.5,RTL,97807.0
09:08:49,7.201972766779363e-05,0.005964691168628633,2.4731761813163757,0.02571109775453806,0.0006127272499725223,0.0003380360431037843,-35.3635129,149.1654798,70235.0,1.25,0.25,-55.0,0.0,-2.25,-1017.5,30.0,5.5,4.0,RTL,127358.0
09:08:50,0.004085612250491977,0.005032033426687121,2.4731903076171875,-0.14897545799613,-0.001419074134901166,0.0021678407210856676,-35.363512850000006,149.1654799,70781.0,2.0,0.0,-45.5,0.0,-13.0,-970.0,-145.0,3.5,5.5,RTL,127358.0
09:08:52,0.004339000966865569,0.004062775056809187,2.4728479385375977,-0.017421439290046692,0.0024979999288916588,0.00165416463278234,-35.3635126,149.1654801,71089.5,-1.0,-1.0,4.0,0.0,-2.5,-993.5,-13.0,7.0,5.0,RTL,127358.0
09:08:53,0.006491568916317192,0.00398357177618891,2.4736520051956177,0.022884786128997803,-0.0009612765279598534,0.000871555064804852,-35.363512525,149.165480175,71104.25,-1.25,-1.5,-12.5,-0.25,-4.25,-1034.25,27.0,3.75,4.25,RTL,181479.0
09:08:54,0.004605771275237203,0.003393442020751536,2.473237156867981,-0.15711189806461334,0.0007945138495415449,-0.0015263512032106519,-35.36351234999999,149.1654803,71424.0,-2.5,-2.5,-46.5,-0.5,2.0,-1020.0,-152.0,5.5,2.0,RTL,181479.0
09:08:56,0.007570132671389729,0.0052374491933733225,2.4732154607772827,-0.028547197580337524,0.0010598823428153992,0.0015118326991796494,-35.3635122,149.1654807,72285.5,-5.0,-5.5,-15.5,0.0,4.0,-981.0,-23.5,6.0,5.0,RTL,181479.0
09:08:57,0.007780237123370171,0.0051537740509957075,2.4729762077331543,0.2325320765376091,-0.0004624237772077322,0.0008468935266137123,-35.3635123,149.16548055,72331.0,-4.5,-5.25,2.5,0.0,3.25,-999.75,237.0,4.25,4.5,RTL,184790.0
09:08:58,0.002891064854338765,0.004800569266080856,2.4731545448303223,-0.10760602355003357,-0.0014911676989868283,0.0012997922021895647,-35.36351245,149.16548025,72339.5,-3.5,-3.5,-10.5,0.0,-5.0,-1029.5,-103.0,3.5,4.5,RTL,184790.0
09:09:00,0.0066192628582939506,0.005413759034126997,2.4729232788085938,0.08744467794895172,-0.0008807500125840306,0.0002214218256995082,-35.363512650000004,149.1654801,73132.5,0.0,-1.0,-52.5,0.5,-3.5,-985.0,91.5,4.0,4.0,RTL,184790.0
09:09:01,0.0010432174312882125,0.004910435527563095,2.4734198451042175,-0.004870034754276276,-0.0019247294985689223,0.0016092673176899552,-35.3635127,149.16547995000002,73546.75,0.0,-0.5,-21.25,0.0,-2.0,-957.75,0.0,2.75,5.25,RTL,200.0
09:09:02,0.0017105608712881804,0.003249297500588,2.473191976547241,0.05263352394104004,-0.002321274019777775,-0.0008178388234227896,-35.3635127,149.16547985,73617.5,0.0,0.0,2.0,0.0,3.0,-990.0,57.5,2.5,2.5,RTL,200.0
09:09:04,0.013886967208236456,0.002890189876779914,2.473322868347168,0.26977572590112686,0.000214702682569623,0.0004181861877441406,-35.3635122,149.16548045000002,73808.0,-3.5,-3.0,-38.0,0.0,13.5,-1038.0,274.5,5.0,4.0,RTL,200.0
09:09:05,0.0092332037165761,0.0043352305656298995,2.4730679392814636,-0.008632451295852661,0.0011144622694700956,-2.9556103982031345e-05,-35.363512025,149.165480775,74304.5,-6.25,-5.5,-55.25,0.25,-0.5,-996.25,-3.5,5.75,3.25,RTL,300000.0
09:09:06,0.009745239978656173,0.005013581598177552,2.4734212160110474,0.25405339151620865,-0.00168517604470253,0.002194008557125926,-35.363512150000005,149.16548075,74741.5,-6.5,-6.5,-26.5,0.5,14.5,-960.0,259.0,3.0,5.5,RTL,300000.0
09:09:08,0.010190278757363558,0.0027182690100744367,2.4733457565307617,0.008113190531730652,-0.0031027410877868533,0.0013225032016634941,-35.363512,149.16548085,74845.0,-6.0,-7.0,-1.0,-0.5,4.0,-1018.5,14.0,2.0,4.5,RTL,300000.0
09:09:09,0.016702260356396437,0.0024736166233196855,2.4735714197158813,-0.02192668616771698,-0.0007334352121688426,0.0003284633858129382,-35.363511625,149.165481375,74969.0,-9.0,-10.0,-30.25,-0.25,1.75,-1037.5,-16.0,4.0,3.75,RTL,161334.0
09:09:10,0.01284601166844368,0.003981871413998306,2.472836971282959,-0.2675369158387184,0.0018966691568493843,0.000195016385987401,-35.363511450000004,149.1654816,75432.0,-11.5,-13.0,-53.5,0.0,-7.0,-1005.0,-261.0,6.5,3.5,RTL,161334.0
09:09:12,0.0036377011565491557,0.0051822061650455,2.4732383489608765,0.08565526455640793,-0.002541429945267737,0.001577992457896471,-35.36351205,149.1654808,76100.5,-10.0,-10.5,-3.5,1.5,-0.5,-975.0,91.5,2.0,5.0,RTL,161334.0
09:09:13,-0.0017395331524312496,0.00410639657638967,2.473596930503845,-0.07376789674162865,-0.0015446162433363497,-0.00012975098798051476,-35.36351237499999,149.165480225,76086.25,-5.5,-5.5,1.5,0.0,3.5,-1014.75,-67.5,3.25,3.5,RTL,300000.0
09:09:14,0.010746715124696493,0.003447914612479508,2.4733831882476807,0.31811368465423584,0.0005800975486636162,-0.0007419933099299669,-35.36351234999999,149.1654802,76183.5,-3.5,-3.0,-25.0,0.0,10.5,-1043.5,323.5,5.5,3.0,RTL,300000.0
09:09:16,0.009969934355467558,0.004664564272388816,2.473090648651123,0.1598722841590643,0.0004815401043742895,0.0027371877804398537,-35.3635124,149.1654803,77113.5,-4.0,-3.0,-41.5,0.0,-2.5,-967.5,165.0,5.5,6.5,RTL,300000.0
09:09:17,0.0023280000023078173,0.004903807304799557,2.473455488681793,-0.05563171301037073,0.0008153662784025073,0.0009076406131498516,-35.36351245,149.165480175,77369.25,-3.25,-2.5,-6.0,0.5,-4.25,-970.75,-49.0,5.25,4.5,RTL,121016.0
09:09:18,-0.002926137298345566,0.005569871747866273,2.472765564918518,0.03707990050315857,-0.0012234546011313796,0.000504722585901618,-35.363512799999995,149.16547965,77363.5,-1.5,-0.5,2.0,1.0,-1.5,-1013.0,43.0,3.5,4.0,RTL,121016.0
09:09:20,-0.0070869672344997525,0.0034858197905123234,2.4737207889556885,-0.15915006399154663,-0.002638559672050178,0.0006377715617418289,-35.3635133,149.1654788,77784.0,4.5,7.5,-51.5,-0.5,-8.0,-1020.0,-152.5,1.5,4.5,RTL,121016.0
09:09:21,0.0002168276405427605,0.0018632374121807516,2.4733943939208984,-0.03212454169988632,-0.0013578293146565557,0.0005183740286156535,-35.36351305,149.16547905,78336.5,4.25,7.25,-50.25,-0.75,-2.0,-974.0,-26.25,3.25,4.0,RTL,121670.0
09:09:22,0.0056055072345770895,0.0015147409867495298,2.4732842445373535,0.08901675790548325,-0.0013171785976737738,0.00048110762145370245,-35.3635127,149.1654795,78654.5,1.0,4.5,-14.5,-1.0,7.0,-962.5,95.0,3.5,4.5,RTL,121670.0
09:09:24,0.01788376457989216,0.0016985038528218865,2.474252223968506,0.22011096589267254,-0.002682792372070253,-0.0021803637500852346,-35.363512,149.16548060000002,78706.5,-4.0,-2.0,-11.5,-1.5,8.0,-1030.0,225.5,2.0,1.5,RTL,121670.0
09:09:25,0.023477204144001007,0.002059336198726669,2.4737020134925842,0.09874827787280083,0.0016447582747787237,-0.001511945331003517,-35.363511474999996,149.16548152500002,78978.5,-9.0,-8.25,-46.75,-1.25,5.5,-1031.75,104.75,6.25,1.75,RTL,107778.0
09:09:26,0.023413604125380516,0.0043874181574210525,2.473145365715027,0.356800377368927,0.00267434143461287,-0.0003217575140297413,-35.36351125,149.16548195000001,79537.5,-13.0,-13.5,-55.5,0.0,13.0,-990.0,363.0,7.0,3.0,RTL,107778.0
09:09:28,0.005070516839623451,0.005640516523271799,2.473490357398987,-0.002323463559150696,-0.004656014032661915,-0.002003601170144975,-35.36351195,149.16548110000002,80070.5,-11.0,-12.0,1.0,2.0,0.0,-985.0,4.0,0.0,1.5,RTL,107778.0
09:09:29,-0.002328075119294226,0.004850196186453104,2.473525285720825,-0.03643135353922844,-0.001348075456917286,5.406158743426204e-05,-35.363512324999995,149.165480325,80045.75,-7.0,-7.0,-1.75,1.25,-7.75,-1017.0,-30.0,3.25,3.25,RTL,300000.0
09:09:30,-0.0009373155771754682,0.00423925113864243,2.473879337310791,-0.014352500438690186,-0.0016898857429623604,0.0011288884561508894,-35.363512549999996,149.1654799,80224.5,-3.0,-2.0,-34.5,0.0,5.5,-1036.0,-7.5,2.5,4.5,RTL,300000.0
09:09:32,-0.005820387857966125,0.005099317990243435,2.4737260341644287,0.24779459461569786,-0.0013366803759709,0.001379186287522316,-35.363513,149.16547915,81160.0,0.5,2.5,-30.5,1.0,15.5,-961.5,255.0,3.0,4.5,RTL,300000.0
09:09:33,-0.0071407825307687744,0.00388830661540851,2.473658859729767,-0.03549044579267502,-0.0038502716924995184,-0.0011253943084739149,-35.3635132,149.165478825,81314.0,3.0,6.5,-0.5,0.5,-4.25,-982.25,-29.0,1.0,2.25,RTL,300000.0
09:09:34,-0.00991222308948636,0.003483126754872501,2.473784923553467,0.03200066089630127,-0.0007252029608935118,0.0016651214100420475,-35.363513350000005,149.16547855,81294.0,4.5,8.5,0.5,0.5,1.0,-1007.5,38.5,3.5,5.0,RTL,300000.0
09:09:36,-0.007698266068473458,0.003851324552670121,2.4733372926712036,-0.2590419426560402,0.0004248521290719509,-0.00025305210147053003,-35.3635134,149.1654785,81824.0,6.5,11.0,-51.5,0.0,-16.0,-1006.5,-253.0,5.0,3.5,RTL,300000.0
09:09:37,-0.00839264050591737,0.004318480845540762,2.4736640453338623,-0.05683247745037079,-0.0003423652960918844,0.000583399785682559,-35.3635135,149.1654785,82319.5,6.75,11.0,-35.75,0.25,-4.25,-964.0,-50.75,4.25,4.0,RTL,200.0
09:09:38,-0.010000032605603337,0.003495515324175358,2.473765730857849,-0.2883792296051979,-0.004024364519864321,-0.0014789619017392397,-35.36351345,149.1654785,82501.0,7.0,11.5,-4.5,0.0,-14.0,-975.5,-282.5,0.5,1.5,RTL,200.0
09:09:40,-0.007161136018112302,0.00348165410105139,2.4737662076950073,-0.029117886908352375,0.00140692840795964,-0.00042376737110316753,-35.3635135,149.1654784,82565.5,7.0,12.0,-21.0,0.5,-5.0,-1037.5,-23.5,5.5,3.0,RTL,200.0
09:09:41,-0.009273811127059162,0.004107068758457899,2.4734158515930176,0.016101058572530746,9.799504186958075e-05,-0.0005675805732607841,-35.363513525,149.1654784,82945.5,7.75,12.5,-52.5,0.0,1.0,-1017.75,21.75,4.25,2.75,RTL,82694.0
09:09:42,-0.0039087634067982435,0.004654632415622473,2.4735236167907715,0.41223104298114777,6.095948629081249e-05,-0.0006364237051457167,-35.3635136,149.16547845000002,83464.5,8.0,12.5,-41.0,0.0,18.0,-974.5,417.0,4.5,2.5,RTL,82694.0
09:09:44,-0.0029588346369564533,0.0019028959795832634,2.4735485315322876,-0.09898456931114197,-0.0013502881629392505,-0.0011713453568518162,-35.3635132,149.16547885,83722.5,6.5,9.5,2.5,-0.5,-3.0,-1004.5,-94.0,3.0,2.5,RTL,82694.0
09:09:45,0.005199565086513758,0.0014108873438090086,2.4738924503326416,0.041743576526641846,0.0010273884981870651,0.000638278666883707,-35.363512775000004,149.16547945,83746.5,3.5,6.75,-15.25,-1.5,8.75,-1037.5,47.25,5.25,4.0,RTL,300000.0
09:09:46,0.008941988460719585,0.0022081188508309424,2.473716974258423,-0.21063828468322754,0.0017003079410642385,-0.0010046879760921001,-35.36351235,149.16548010000002,84091.5,0.0,2.0,-48.0,0.0,-10.0,-1022.0,-206.0,6.0,2.5,RTL,300000.0
09:09:48,2.738228067755699e-05,0.005204054061323404,2.4737637042999268,-0.06986211240291595,-0.0007284423336386681,5.570100620388985e-05,-35.3635125,149.16548010000002,84923.5,-3.0,-1.5,-12.5,0.5,-8.5,-957.5,-65.0,3.5,3.5,RTL,300000.0
09:09:49,-0.008083487104158849,0.004411802452523261,2.4738258123397827,-0.15459060855209827,-0.002782187075354159,-0.0001942404778674245,-35.363512775,149.16547965,84950.75,-0.75,0.25,2.5,0.5,-4.25,-1001.75,-148.5,2.0,3.25,RTL,200.0
09:09:50,-0.0006713680922985077,0.0039624974597245455,2.473441481590271,0.23724696040153503,-0.00046480540186166763,0.0016038453904911876,-35.3635129,149.16547945000002,84970.5,1.0,2.5,-12.0,-0.5,12.5,-1030.0,243.0,3.5,4.5,RTL,200.0
09:09:52,0.004081096965819597,0.0038992855697870255,2.473535418510437,0.35893455147743225,-0.0005479073151946068,0.0023962195264175534,-35.3635129,149.1654794,85786.0,1.0,3.0,-50.0,0.0,15.5,-981.5,364.0,3.5,6.0,RTL,200.0
09:09:53,-0.0013191851539886557,0.002919995109550655,2.4737857580184937,-0.15186719223856926,-0.0016058986075222492,0.0011488537420518696,-35.363512825,149.1654794,86161.5,0.75,3.75,-16.5,0.25,-7.25,-960.25,-146.75,2.5,4.5,RTL,73241.0
09:09:54,-0.0024033095687627792,0.002844852628186345,2.4733728170394897,0.02510911226272583,0.003145453054457903,-0.0005180754233151674,-35.3635128,149.16547935,86210.5,0.0,3.5,3.0,0.0,4.5,-982.0,30.5,7.5,3.0,RTL,73241.0
09:09:56,-0.010407529771327972,0.004490354564040899,2.4738430976867676,-0.34248268604278564,-0.0013183302944526076,-0.0005108449840918183,-35.363513,149.1654791,86435.5,2.0,6.0,-39.5,0.0,-10.0,-1028.5,-337.0,2.5,2.5,RTL,73241.0
09:09:57,-0.007070785155519843,0.004528528428636491,2.473599851131439,-0.08007382426876575,0.0003365438897162676,-0.0009745346615090966,-35.36351315,149.16547895000002,86932.0,3.5,7.5,-52.0,0.0,-2.5,-989.0,-75.0,4.5,2.25,RTL,185134.0
09:09:58,-0.007797642378136516,0.004026156384497881,2.473769783973694,-0.14486053586006165,-0.001822647056542337,-0.0021116697462275624,-35.3635132,149.16547895000002,87324.0,4.5,7.5,-21.5,0.0,3.0,-965.5,-139.5,2.5,1.0,RTL,185134.0
09:10:00,0.0008473503403365612,0.0019172746688127518,2.4736863374710083,-0.09482938051223755,-0.00020365184172987938,-0.0008744837250560522,-35.3635128,149.16547939999998,87397.0,1.5,4.5,-5.0,-0.5,-1.0,-1019.0,-90.0,4.0,2.5,RTL,185134.0
09:10:01,0.005536115088034421,0.0024258038902189583,2.4738107323646545,-0.024995223619043827,0.0008541735587641597,-0.0010489230044186115,-35.3635125,149.165479825,87585.75,-0.25,2.25,-37.5,-1.25,-0.5,-1036.75,-20.5,4.5,2.25,RTL,300000.0
09:10:02,0.007371681975200772,0.0036704184021800756,2.4733686447143555,-0.13382701948285103,0.003168483730405569,-0.0011315133888274431,-35.36351234999999,149.1654802,88080.5,-2.0,0.5,-52.0,0.0,-15.5,-990.5,-129.5,7.5,2.5,RTL,300000.0
09:10:04,-0.003388474346138537,0.005150264129042625,2.473475217819214,-0.019957929849624634,-0.0006422657752409577,-0.0001161996042355895,-35.363512650000004,149.16547989999998,88600.0,-1.5,0.0,0.5,1.5,-6.0,-992.0,-15.5,3.5,3.0,RTL,300000.0
09:10:05,-0.008822311763651669,0.005857795011252165,2.473580479621887,-0.10507427155971527,-0.0011598464916460216,0.0008150360081344843,-35.36351305,149.165479325,88584.25,0.75,3.0,-3.0,1.5,-11.25,-1022.75,-100.5,3.25,4.0,RTL,200.0
09:10:06,-0.008236210094764829,0.005850230809301138,2.474022150039673,0.23464030772447586,0.0008443833794444799,0.0007397830486297607,-35.36351345,149.16547875,88776.5,4.0,6.5,-35.0,1.5,6.5,-1035.5,239.0,5.0,4.0,RTL,200.0
09:10:08,-0.0077664051204919815,0.003857798292301595,2.4734604358673096,0.3740333616733551,-0.00037280796095728874,-0.0004002497298642993,-35.363513749999996,149.165478,89707.5,9.5,13.5,-28.0,0.0,17.0,-969.5,378.5,3.5,3.0,RTL,200.0
09:10:09,-0.002727519466134254,0.001568471227074042,2.4738813638687134,-0.0260084867477417,-0.0025444008060730994,0.001560223987326026,-35.36351355000001,149.165478225,89848.5,9.75,14.0,0.75,-1.25,-9.75,-988.25,-22.75,2.0,4.75,RTL,138069.0
09:10:10,0.0048414552584290504,0.0011042595142498612,2.4739465713500977,0.04917757213115692,0.00100585981272161,-0.003364062402397394,-35.363513,149.16547895,89828.0,6.5,11.5,0.0,-1.5,5.0,-1004.5,53.5,5.0,0.5,RTL,138069.0
09:10:12,0.003945800592191517,0.005096613662317395,2.473763942718506,0.15700761787593365,0.001676078187301755,-0.0011985511519014835,-35.3635127,149.16547975,90388.5,0.0,2.5,-53.5,0.0,1.5,-1014.0,161.0,5.5,2.0,RTL,138069.0
09:10:13,-0.006852057384094223,0.006330858333967626,2.4737343788146973,0.07311948202550411,0.0006711211171932518,0.0012191245332360268,-35.36351295,149.165479425,90901.25,0.25,3.25,-38.25,0.5,2.25,-963.5,77.0,4.75,4.5,RTL,147639.0
09:10:14,-0.009567700326442719,0.00566113437525928,2.473862409591675,0.2115087052807212,-1.9787810742855072e-05,-0.000883160624653101,-35.363513350000005,149.16547885,91102.5,4.0,6.0,-5.5,1.0,7.5,-971.0,214.5,4.0,2.0,RTL,147639.0
09:10:16,-0.013864639680832624,0.003561916179023683,2.474260091781616,-0.14421943947672844,0.0003265577834099531,0.00011385988909751177,-35.3635137,149.1654781,91162.0,8.5,13.0,-19.0,0.0,-2.5,-1035.0,-140.0,4.5,3.0,RTL,147639.0
09:10:17,-0.011285996995866299,0.0029485117993317544,2.4738557934761047,-0.09119284525513649,-0.0016501115169376135,-0.0024663181393407285,-35.36351365,149.165478125,91521.5,9.5,14.0,-50.25,-0.25,-3.25,-1018.0,-87.75,2.5,0.5,RTL,300000.0
09:10:18,-0.010164852254092693,0.002728179795667529,2.473599076271057,-0.2781621739268303,-0.0008635695558041334,-0.0002874481142498553,-35.3635134,149.1654785,92027.5,8.5,13.0,-39.5,-1.0,-1.5,-971.5,-274.0,3.5,2.5,RTL,300000.0
09:10:20,-0.0037560181226581335,0.0029502384131774306,2.4734103679656982,-0.014119833707809448,0.0032970618922263384,0.0012042077723890543,-35.363513,149.165479,92280.0,3.5,8.0,3.0,0.0,0.0,-1005.0,-11.0,7.0,4.5,RTL,300000.0
09:10:21,-0.007880508317612112,0.003833486931398511,2.4740742444992065,-0.05490899831056595,0.00037979951594024897,-0.001060959417372942,-35.3635131,149.165478825,92311.5,3.5,8.25,-15.25,0.0,-4.0,-1030.5,-51.75,4.25,1.75,RTL,300000.0
09:10:22,-0.0036647176602855325,0.003697610693052411,2.473930835723877,0.22330163791775703,-0.0008227615617215633,-0.0010753758251667023,-35.36351325,149.1654787,92658.0,4.5,9.5,-46.5,0.0,5.0,-1019.0,225.0,3.5,1.5,RTL,300000.0
09:10:24,-0.004235404805513099,0.001668260374572128,2.474085569381714,-0.15022871643304825,-0.002642336767166853,0.00030713644810020924,-35.363513049999995,149.16547889999998,93409.0,4.0,9.0,-9.0,-0.5,-1.5,-968.0,-147.5,1.5,3.0,RTL,300000.0
09:10:25,0.0026645222096703947,0.0008789160492597148,2.4741824865341187,-0.02422994002699852,-0.0012736666249111295,-0.0011305843363516033,-35.363512750000005,149.1654792,93421.25,2.75,7.75,3.25,-1.25,0.0,-1002.75,-21.75,2.5,2.0,RTL,200.0
09:10:26,0.006525516742840409,0.0024389830650761724,2.474165439605713,0.08280660957098007,0.0033717965707182884,-0.0003696266794577241,-35.3635125,149.1654798,93454.5,-0.5,4.0,-13.0,0.0,7.0,-1028.0,86.0,7.5,2.5,RTL,200.0
