time_stamp,MODE,lat,lon,relative_alt,roll,pitch,yaw,rollspeed,pitchspeed,yawspeed,xacc,yacc,zacc,xgyro,ygyro,zgyro,vx,vy,vz,RTL_ALT,LAND_SPEED
14:01:02.596,GUIDED,-35.3632621,149.1652374,62,0.0006949574453756213,0.001436846680007875,0.028162043541669846,0.00034140568459406495,0.00021593068959191442,0.0024267875123769045,0,1,-1000,0,0,0,0,1,-1,1500.0,50.0
14:01:02.799,GUIDED,-35.3632621,149.1652375,39,0.0007712751976214349,0.0015967172803357244,0.02729679085314274,0.0003399280831217766,0.00034401562879793346,0.0023138890974223614,0,1,-1000,0,0,0,-1,2,0,1500.0,50.0
14:01:03.002,GUIDED,-35.3632621,149.1652375,39,0.0007712751976214349,0.0015967172803357244,0.02729679085314274,0.0003399280831217766,0.00034401562879793346,0.0023138890974223614,0,1,-1000,0,0,0,-1,2,0,1500.0,50.0
14:01:03.203,GUIDED,-35.3632621,149.1652375,39,0.0007712751976214349,0.0015967172803357244,0.02729679085314274,0.0003399280831217766,0.00034401562879793346,0.0023138890974223614,0,1,-1000,0,0,0,-1,2,0,1500.0,50.0
14:01:03.406,GUIDED,-35.3632621,149.1652375,39,0.0007712751976214349,0.0015967172803357244,0.02729679085314274,0.0003399280831217766,0.00034401562879793346,0.0023138890974223614,0,1,-1000,0,0,0,-1,2,0,1500.0,50.0
14:01:03.608,GUIDED,-35.3632621,149.1652375,39,0.0007712751976214349,0.0015967172803357244,0.02729679085314274,0.0003399280831217766,0.00034401562879793346,0.0023138890974223614,0,1,-1000,0,0,0,-1,2,0,1500.0,50.0
14:01:03.811,GUIDED,-35.3632621,149.1652375,39,0.0007712751976214349,0.0015967172803357244,0.02729679085314274,0.0003399280831217766,0.00034401562879793346,0.0023138890974223614,0,1,-1000,0,0,0,-1,2,0,1500.0,50.0
14:01:04.012,GUIDED,-35.3632621,149.1652375,39,0.0007712751976214349,0.0015967172803357244,0.02729679085314274,0.0003399280831217766,0.00034401562879793346,0.0023138890974223614,0,1,-1000,0,0,0,-1,2,0,1500.0,50.0
14:01:04.215,GUIDED,-35.3632621,149.1652375,39,0.0007712751976214349,0.0015967172803357244,0.02729679085314274,0.0003399280831217766,0.00034401562879793346,0.0023138890974223614,0,1,-1000,0,0,0,-1,2,0,1500.0,50.0
14:01:04.417,GUIDED,-35.3632621,149.1652375,39,0.0007712751976214349,0.0015967172803357244,0.02729679085314274,0.0003399280831217766,0.00034401562879793346,0.0023138890974223614,0,1,-1000,0,0,0,-1,2,0,1500.0,50.0
14:01:04.620,GUIDED,-35.3632622,149.1652376,8,0.0001980199886020273,0.001430907053872943,0.025946829468011856,0.0002601489541120827,0.0003178614715579897,0.002217056229710579,0,1,-1000,0,0,0,-2,2,0,1500.0,50.0
14:01:04.822,GUIDED,-35.3632622,149.1652376,6,0.0002413141046417877,0.0013763237511739135,0.025783617049455643,0.00022960553178563714,0.00024313037283718586,0.0023021046072244644,0,1,-1000,0,0,0,-2,2,0,1500.0,50.0
14:01:05.023,GUIDED,-35.3632622,149.1652376,6,0.0002413141046417877,0.0013763237511739135,0.025783617049455643,0.00022960553178563714,0.00024313037283718586,0.0023021046072244644,0,1,-1000,0,0,0,-2,2,0,1500.0,50.0
14:01:05.225,GUIDED,-35.3632622,149.1652376,6,0.0002413141046417877,0.0013763237511739135,0.025783617049455643,0.00022960553178563714,0.00024313037283718586,0.0023021046072244644,0,1,-1000,0,0,0,-2,2,0,1500.0,50.0
14:01:05.431,GUIDED,-35.3632622,149.1652376,6,0.0002413141046417877,0.0013763237511739135,0.025783617049455643,0.00022960553178563714,0.00024313037283718586,0.0023021046072244644,0,1,-1000,0,0,0,-2,2,0,1500.0,50.0
14:01:05.633,GUIDED,-35.3632622,149.1652376,6,0.0002413141046417877,0.0013763237511739135,0.025783617049455643,0.00022960553178563714,0.00024313037283718586,0.0023021046072244644,0,1,-1000,0,0,0,-2,2,0,1500.0,50.0
14:01:05.836,GUIDED,-35.3632622,149.1652376,6,0.0002413141046417877,0.0013763237511739135,0.025783617049455643,0.00022960553178563714,0.00024313037283718586,0.0023021046072244644,0,1,-1000,0,0,0,-2,2,0,1500.0,50.0
14:01:06.039,GUIDED,-35.3632622,149.1652376,6,0.0002413141046417877,0.0013763237511739135,0.025783617049455643,0.00022960553178563714,0.00024313037283718586,0.0023021046072244644,0,1,-1000,0,0,0,-2,2,0,1500.0,50.0
14:01:06.242,GUIDED,-35.3632622,149.1652376,6,0.0002413141046417877,0.0013763237511739135,0.025783617049455643,0.00022960553178563714,0.00024313037283718586,0.0023021046072244644,0,1,-1000,0,0,0,-2,2,0,1500.0,50.0
14:01:06.446,GUIDED,-35.3632622,149.1652375,3,-2.1123327314853668e-05,0.0012755464995279908,0.025323105975985527,0.0002202854084316641,0.00023445810074917972,0.00211098394356668,0,1,-1000,0,0,0,-1,1,0,1500.0,50.0
14:01:06.648,GUIDED,-35.3632622,149.1652375,0,1.9462228010524996e-05,0.001432287972420454,0.024730639532208443,0.00030759532819502056,0.000259939901297912,0.0018981710309162736,0,1,-1000,0,0,0,0,0,1,1500.0,50.0
14:01:06.850,GUIDED,-35.3632622,149.1652375,0,6.211769505171105e-05,0.0015021737199276686,0.02458731271326542,0.000230528530664742,0.0002926969900727272,0.0020697726868093014,0,2,-1000,0,0,1,0,0,1,1500.0,50.0
14:01:07.055,GUIDED,-35.3632622,149.1652375,0,6.211769505171105e-05,0.0015021737199276686,0.02458731271326542,0.000230528530664742,0.0002926969900727272,0.0020697726868093014,0,2,-1000,0,0,1,0,0,1,1500.0,50.0
14:01:07.259,GUIDED,-35.3632622,149.1652375,0,6.211769505171105e-05,0.0015021737199276686,0.02458731271326542,0.000230528530664742,0.0002926969900727272,0.0020697726868093014,0,2,-1000,0,0,1,0,0,1,1500.0,50.0
14:01:07.460,GUIDED,-35.3632622,149.1652375,0,6.211769505171105e-05,0.0015021737199276686,0.02458731271326542,0.000230528530664742,0.0002926969900727272,0.0020697726868093014,0,2,-1000,0,0,1,0,0,1,1500.0,50.0
14:01:07.663,GUIDED,-35.3632622,149.1652375,0,6.211769505171105e-05,0.0015021737199276686,0.02458731271326542,0.000230528530664742,0.0002926969900727272,0.0020697726868093014,0,2,-1000,0,0,1,0,0,1,1500.0,50.0
14:01:07.866,GUIDED,-35.3632622,149.1652375,0,6.211769505171105e-05,0.0015021737199276686,0.02458731271326542,0.000230528530664742,0.0002926969900727272,0.0020697726868093014,0,2,-1000,0,0,1,0,0,1,1500.0,50.0
14:01:08.069,GUIDED,-35.3632622,149.1652375,0,6.211769505171105e-05,0.0015021737199276686,0.02458731271326542,0.000230528530664742,0.0002926969900727272,0.0020697726868093014,0,2,-1000,0,0,1,0,0,1,1500.0,50.0
14:01:08.271,GUIDED,-35.3632622,149.1652375,0,6.211769505171105e-05,0.0015021737199276686,0.02458731271326542,0.000230528530664742,0.0002926969900727272,0.0020697726868093014,0,2,-1000,0,0,1,0,0,1,1500.0,50.0
14:01:08.478,GUIDED,-35.3632622,149.1652375,0,0.00021819121320731938,0.0017050992464646697,0.024170024320483208,0.0003129130636807531,0.0002482333511579782,0.0019263987196609378,0,2,-1000,0,0,1,0,0,1,1500.0,50.0
14:01:08.682,GUIDED,-35.3632622,149.1652374,0,0.0017616752302274108,0.0011583154555410147,0.02362264320254326,0.01514445524662733,-0.00853740330785513,0.003478579455986619,0,0,-1104,15,-8,2,0,0,-5,1500.0,50.0
14:01:08.884,GUIDED,-35.3632622,149.1652374,60,0.004243829753249884,-0.00039288363768719137,0.02366054616868496,0.009069600142538548,0.0005683159688487649,0.0030343690887093544,0,0,-1140,9,0,1,0,0,-40,1500.0,50.0
14:01:09.086,GUIDED,-35.3632622,149.1652374,60,0.004243829753249884,-0.00039288363768719137,0.02366054616868496,0.009069600142538548,0.0005683159688487649,0.0030343690887093544,0,0,-1140,9,0,1,0,0,-40,1500.0,50.0
14:01:09.290,GUIDED,-35.3632622,149.1652374,60,0.004243829753249884,-0.00039288363768719137,0.02366054616868496,0.009069600142538548,0.0005683159688487649,0.0030343690887093544,0,0,-1140,9,0,1,0,0,-40,1500.0,50.0
14:01:09.494,GUIDED,-35.3632622,149.1652374,60,0.004243829753249884,-0.00039288363768719137,0.02366054616868496,0.009069600142538548,0.0005683159688487649,0.0030343690887093544,0,0,-1140,9,0,1,0,0,-40,1500.0,50.0
14:01:09.696,GUIDED,-35.3632622,149.1652374,60,0.004243829753249884,-0.00039288363768719137,0.02366054616868496,0.009069600142538548,0.0005683159688487649,0.0030343690887093544,0,0,-1140,9,0,1,0,0,-40,1500.0,50.0
14:01:09.900,GUIDED,-35.3632622,149.1652374,60,0.004243829753249884,-0.00039288363768719137,0.02366054616868496,0.009069600142538548,0.0005683159688487649,0.0030343690887093544,0,0,-1140,9,0,1,0,0,-40,1500.0,50.0
14:01:10.103,GUIDED,-35.3632622,149.1652374,60,0.004243829753249884,-0.00039288363768719137,0.02366054616868496,0.009069600142538548,0.0005683159688487649,0.0030343690887093544,0,0,-1140,9,0,1,0,0,-40,1500.0,50.0
14:01:10.308,GUIDED,-35.3632622,149.1652374,60,0.004243829753249884,-0.00039288363768719137,0.02366054616868496,0.009069600142538548,0.0005683159688487649,0.0030343690887093544,0,0,-1140,9,0,1,0,0,-40,1500.0,50.0
14:01:10.513,GUIDED,-35.363262,149.1652377,1783,0.03538971021771431,-0.0026772136334329844,0.023609451949596405,0.04485310986638069,-0.008104163222014904,0.00342321558855474,0,-1,-1007,45,-7,2,1,11,-146,1500.0,50.0
14:01:10.716,GUIDED,-35.3632619,149.1652381,2166,0.046259213238954544,-0.004910625051707029,0.023807387799024582,0.0422230027616024,-0.009678656235337257,0.0038159943651407957,0,-3,-1002,42,-9,2,3,20,-147,1500.0,50.0
14:01:10.918,GUIDED,-35.3632618,149.1652388,2551,0.05636006221175194,-0.0075978985987603664,0.023982398211956024,0.038819458335638046,-0.011497074738144875,0.003976328764110804,1,-5,-1000,39,-10,2,5,31,-147,1500.0,50.0
14:01:11.122,GUIDED,-35.3632618,149.1652388,2551,0.05636006221175194,-0.0075978985987603664,0.023982398211956024,0.038819458335638046,-0.011497074738144875,0.003976328764110804,1,-5,-1000,39,-10,2,5,31,-147,1500.0,50.0
14:01:11.326,GUIDED,-35.3632618,149.1652388,2551,0.05636006221175194,-0.0075978985987603664,0.023982398211956024,0.038819458335638046,-0.011497074738144875,0.003976328764110804,1,-5,-1000,39,-10,2,5,31,-147,1500.0,50.0
14:01:11.529,GUIDED,-35.3632618,149.1652388,2551,0.05636006221175194,-0.0075978985987603664,0.023982398211956024,0.038819458335638046,-0.011497074738144875,0.003976328764110804,1,-5,-1000,39,-10,2,5,31,-147,1500.0,50.0
14:01:11.733,GUIDED,-35.3632618,149.1652388,2551,0.05636006221175194,-0.0075978985987603664,0.023982398211956024,0.038819458335638046,-0.011497074738144875,0.003976328764110804,1,-5,-1000,39,-10,2,5,31,-147,1500.0,50.0
14:01:11.937,GUIDED,-35.3632618,149.1652388,2551,0.05636006221175194,-0.0075978985987603664,0.023982398211956024,0.038819458335638046,-0.011497074738144875,0.003976328764110804,1,-5,-1000,39,-10,2,5,31,-147,1500.0,50.0
14:01:12.140,GUIDED,-35.3632618,149.1652388,2551,0.05636006221175194,-0.0075978985987603664,0.023982398211956024,0.038819458335638046,-0.011497074738144875,0.003976328764110804,1,-5,-1000,39,-10,2,5,31,-147,1500.0,50.0
14:01:12.344,GUIDED,-35.3632618,149.1652388,2551,0.05636006221175194,-0.0075978985987603664,0.023982398211956024,0.038819458335638046,-0.011497074738144875,0.003976328764110804,1,-5,-1000,39,-10,2,5,31,-147,1500.0,50.0
14:01:12.547,GUIDED,-35.3632618,149.1652388,2551,0.05636006221175194,-0.0075978985987603664,0.023982398211956024,0.038819458335638046,-0.011497074738144875,0.003976328764110804,1,-5,-1000,39,-10,2,5,31,-147,1500.0,50.0
14:01:12.752,GUIDED,-35.3632611,149.1652425,3689,-0.003609985578805208,0.02337581291794777,-0.05113094300031662,-0.1583714634180069,0.007311092223972082,-0.07944633811712265,4,-11,-1005,-157,7,-80,6,54,-143,1500.0,50.0
14:01:12.955,GUIDED,-35.363261,149.1652463,5222,-0.06525929272174835,-0.0004873933212365955,-0.0868050754070282,-0.08031956106424332,-0.0641828253865242,0.020945683121681213,3,-2,-999,-79,-63,20,-5,8,-147,1500.0,50.0
14:01:13.159,GUIDED,-35.3632611,149.1652463,5606,-0.0750298947095871,-0.011164616793394089,-0.08373159915208817,0.009055114351212978,-0.014740504324436188,-0.0027072704397141933,0,0,-1005,9,-14,-3,-4,-10,-147,1500.0,50.0
14:01:13.362,GUIDED,-35.3632611,149.1652463,5606,-0.0750298947095871,-0.011164616793394089,-0.08373159915208817,0.009055114351212978,-0.014740504324436188,-0.0027072704397141933,0,0,-1005,9,-14,-3,-4,-10,-147,1500.0,50.0
14:01:13.564,GUIDED,-35.3632611,149.1652463,5606,-0.0750298947095871,-0.011164616793394089,-0.08373159915208817,0.009055114351212978,-0.014740504324436188,-0.0027072704397141933,0,0,-1005,9,-14,-3,-4,-10,-147,1500.0,50.0
14:01:13.769,GUIDED,-35.3632611,149.1652463,5606,-0.0750298947095871,-0.011164616793394089,-0.08373159915208817,0.009055114351212978,-0.014740504324436188,-0.0027072704397141933,0,0,-1005,9,-14,-3,-4,-10,-147,1500.0,50.0
14:01:13.971,GUIDED,-35.3632611,149.1652463,5606,-0.0750298947095871,-0.011164616793394089,-0.08373159915208817,0.009055114351212978,-0.014740504324436188,-0.0027072704397141933,0,0,-1005,9,-14,-3,-4,-10,-147,1500.0,50.0
14:01:14.175,GUIDED,-35.3632611,149.1652463,5606,-0.0750298947095871,-0.011164616793394089,-0.08373159915208817,0.009055114351212978,-0.014740504324436188,-0.0027072704397141933,0,0,-1005,9,-14,-3,-4,-10,-147,1500.0,50.0
14:01:14.377,GUIDED,-35.3632611,149.1652463,5606,-0.0750298947095871,-0.011164616793394089,-0.08373159915208817,0.009055114351212978,-0.014740504324436188,-0.0027072704397141933,0,0,-1005,9,-14,-3,-4,-10,-147,1500.0,50.0
14:01:14.580,GUIDED,-35.3632611,149.1652463,5606,-0.0750298947095871,-0.011164616793394089,-0.08373159915208817,0.009055114351212978,-0.014740504324436188,-0.0027072704397141933,0,0,-1005,9,-14,-3,-4,-10,-147,1500.0,50.0
14:01:14.782,GUIDED,-35.3632613,149.1652388,7920,0.010239669121801853,-0.0009683085372671485,-0.08622214198112488,0.0645693838596344,0.01498305331915617,0.004582469817250967,-7,11,-1003,65,14,2,0,-56,-150,1500.0,50.0
14:01:14.985,GUIDED,-35.3632614,149.165236,8703,0.04225730523467064,0.005659034010022879,-0.08407703787088394,0.06253807991743088,0.011006316170096397,0.005156957544386387,-6,10,-1003,62,11,4,-3,-39,-152,1500.0,50.0
14:01:15.187,GUIDED,-35.3632614,149.165236,8703,0.04225730523467064,0.005659034010022879,-0.08407703787088394,0.06253807991743088,0.011006316170096397,0.005156957544386387,-6,10,-1003,62,11,4,-3,-39,-152,1500.0,50.0
14:01:15.390,GUIDED,-35.3632614,149.165236,8703,0.04225730523467064,0.005659034010022879,-0.08407703787088394,0.06253807991743088,0.011006316170096397,0.005156957544386387,-6,10,-1003,62,11,4,-3,-39,-152,1500.0,50.0
14:01:15.591,GUIDED,-35.3632614,149.165236,8703,0.04225730523467064,0.005659034010022879,-0.08407703787088394,0.06253807991743088,0.011006316170096397,0.005156957544386387,-6,10,-1003,62,11,4,-3,-39,-152,1500.0,50.0
14:01:15.793,GUIDED,-35.3632614,149.165236,8703,0.04225730523467064,0.005659034010022879,-0.08407703787088394,0.06253807991743088,0.011006316170096397,0.005156957544386387,-6,10,-1003,62,11,4,-3,-39,-152,1500.0,50.0
14:01:15.997,GUIDED,-35.3632614,149.165236,8703,0.04225730523467064,0.005659034010022879,-0.08407703787088394,0.06253807991743088,0.011006316170096397,0.005156957544386387,-6,10,-1003,62,11,4,-3,-39,-152,1500.0,50.0
14:01:16.199,GUIDED,-35.3632614,149.165236,8703,0.04225730523467064,0.005659034010022879,-0.08407703787088394,0.06253807991743088,0.011006316170096397,0.005156957544386387,-6,10,-1003,62,11,4,-3,-39,-152,1500.0,50.0
14:01:16.401,GUIDED,-35.3632614,149.165236,8703,0.04225730523467064,0.005659034010022879,-0.08407703787088394,0.06253807991743088,0.011006316170096397,0.005156957544386387,-6,10,-1003,62,11,4,-3,-39,-152,1500.0,50.0
14:01:16.602,GUIDED,-35.3632614,149.165236,8703,0.04225730523467064,0.005659034010022879,-0.08407703787088394,0.06253807991743088,0.011006316170096397,0.005156957544386387,-6,10,-1003,62,11,4,-3,-39,-152,1500.0,50.0
14:01:16.804,GUIDED,-35.3632621,149.1652346,10494,0.023004531860351562,0.004792806226760149,-0.08543610572814941,-0.07178021222352982,-0.024532441049814224,0.007158905733376741,1,0,-995,-78,-23,5,-8,17,-148,1500.0,50.0
14:01:17.006,GUIDED,-35.3632625,149.1652362,12042,-0.011875771917402744,-0.005610984284430742,-0.09503886848688126,-0.0022582565434277058,-0.0012111819814890623,-0.01753748208284378,1,-2,-1002,-1,0,-18,-1,10,-150,1500.0,50.0
14:01:17.210,GUIDED,-35.3632625,149.1652362,12042,-0.011875771917402744,-0.005610984284430742,-0.09503886848688126,-0.0022582565434277058,-0.0012111819814890623,-0.01753748208284378,1,-2,-1002,-1,0,-18,-1,10,-150,1500.0,50.0
14:01:17.415,GUIDED,-35.3632625,149.1652362,12042,-0.011875771917402744,-0.005610984284430742,-0.09503886848688126,-0.0022582565434277058,-0.0012111819814890623,-0.01753748208284378,1,-2,-1002,-1,0,-18,-1,10,-150,1500.0,50.0
14:01:17.617,GUIDED,-35.3632625,149.1652362,12042,-0.011875771917402744,-0.005610984284430742,-0.09503886848688126,-0.0022582565434277058,-0.0012111819814890623,-0.01753748208284378,1,-2,-1002,-1,0,-18,-1,10,-150,1500.0,50.0
14:01:17.819,GUIDED,-35.3632625,149.1652362,12042,-0.011875771917402744,-0.005610984284430742,-0.09503886848688126,-0.0022582565434277058,-0.0012111819814890623,-0.01753748208284378,1,-2,-1002,-1,0,-18,-1,10,-150,1500.0,50.0
14:01:18.022,GUIDED,-35.3632625,149.1652362,12042,-0.011875771917402744,-0.005610984284430742,-0.09503886848688126,-0.0022582565434277058,-0.0012111819814890623,-0.01753748208284378,1,-2,-1002,-1,0,-18,-1,10,-150,1500.0,50.0
14:01:18.226,GUIDED,-35.3632625,149.1652362,12042,-0.011875771917402744,-0.005610984284430742,-0.09503886848688126,-0.0022582565434277058,-0.0012111819814890623,-0.01753748208284378,1,-2,-1002,-1,0,-18,-1,10,-150,1500.0,50.0
14:01:18.429,GUIDED,-35.3632625,149.1652362,12042,-0.011875771917402744,-0.005610984284430742,-0.09503886848688126,-0.0022582565434277058,-0.0012111819814890623,-0.01753748208284378,1,-2,-1002,-1,0,-18,-1,10,-150,1500.0,50.0
14:01:18.631,GUIDED,-35.3632625,149.1652362,12042,-0.011875771917402744,-0.005610984284430742,-0.09503886848688126,-0.0022582565434277058,-0.0012111819814890623,-0.01753748208284378,1,-2,-1002,-1,0,-18,-1,10,-150,1500.0,50.0
14:01:18.834,GUIDED,-35.3632624,149.1652364,13756,-0.0013498591724783182,-0.0013091049622744322,-0.12063205987215042,0.01218936312943697,0.006381374783813953,-0.02154967375099659,-1,0,-1000,15,6,-25,4,-4,-151,1500.0,50.0
14:01:19.038,GUIDED,-35.363262,149.1652359,14930,0.006666022818535566,0.00375237874686718,-0.1371515393257141,0.009211569093167782,0.006467281375080347,-0.01929895393550396,-2,0,-1000,9,6,-20,3,-4,-151,1500.0,50.0
14:01:19.241,GUIDED,-35.363262,149.1652359,14930,0.006666022818535566,0.00375237874686718,-0.1371515393257141,0.009211569093167782,0.006467281375080347,-0.01929895393550396,-2,0,-1000,9,6,-20,3,-4,-151,1500.0,50.0
14:01:19.443,GUIDED,-35.363262,149.1652359,14930,0.006666022818535566,0.00375237874686718,-0.1371515393257141,0.009211569093167782,0.006467281375080347,-0.01929895393550396,-2,0,-1000,9,6,-20,3,-4,-151,1500.0,50.0
14:01:19.646,GUIDED,-35.363262,149.1652359,14930,0.006666022818535566,0.00375237874686718,-0.1371515393257141,0.009211569093167782,0.006467281375080347,-0.01929895393550396,-2,0,-1000,9,6,-20,3,-4,-151,1500.0,50.0
14:01:19.850,GUIDED,-35.363262,149.1652359,14930,0.006666022818535566,0.00375237874686718,-0.1371515393257141,0.009211569093167782,0.006467281375080347,-0.01929895393550396,-2,0,-1000,9,6,-20,3,-4,-151,1500.0,50.0
14:01:20.053,GUIDED,-35.363262,149.1652359,14930,0.006666022818535566,0.00375237874686718,-0.1371515393257141,0.009211569093167782,0.006467281375080347,-0.01929895393550396,-2,0,-1000,9,6,-20,3,-4,-151,1500.0,50.0
14:01:20.257,GUIDED,-35.363262,149.1652359,14930,0.006666022818535566,0.00375237874686718,-0.1371515393257141,0.009211569093167782,0.006467281375080347,-0.01929895393550396,-2,0,-1000,9,6,-20,3,-4,-151,1500.0,50.0
14:01:20.463,GUIDED,-35.363262,149.1652359,14930,0.006666022818535566,0.00375237874686718,-0.1371515393257141,0.009211569093167782,0.006467281375080347,-0.01929895393550396,-2,0,-1000,9,6,-20,3,-4,-151,1500.0,50.0
14:01:20.667,GUIDED,-35.3632618,149.1652355,16102,0.009485892951488495,0.006686332169920206,-0.1504177302122116,0.00206941831856966,0.0020054231863468885,-0.016083162277936935,-2,0,-1000,9,6,-20,1,0,-152,1500.0,50.0
14:01:20.868,GUIDED,-35.3632616,149.1652355,18060,0.00682849483564496,0.005919449031352997,-0.16803911328315735,-0.0011965236626565456,-0.0020363824442029,-0.013869930058717728,0,0,-1000,0,-1,-14,-2,5,-152,1500.0,50.0
14:01:21.071,GUIDED,-35.3632616,149.1652355,18060,0.00682849483564496,0.005919449031352997,-0.16803911328315735,-0.0011965236626565456,-0.0020363824442029,-0.013869930058717728,0,0,-1000,0,-1,-14,-2,5,-152,1500.0,50.0
14:01:21.273,GUIDED,-35.3632616,149.1652355,18060,0.00682849483564496,0.005919449031352997,-0.16803911328315735,-0.0011965236626565456,-0.0020363824442029,-0.013869930058717728,0,0,-1000,0,-1,-14,-2,5,-152,1500.0,50.0
14:01:21.476,GUIDED,-35.3632616,149.1652355,18060,0.00682849483564496,0.005919449031352997,-0.16803911328315735,-0.0011965236626565456,-0.0020363824442029,-0.013869930058717728,0,0,-1000,0,-1,-14,-2,5,-152,1500.0,50.0
14:01:21.678,GUIDED,-35.3632616,149.1652355,18060,0.00682849483564496,0.005919449031352997,-0.16803911328315735,-0.0011965236626565456,-0.0020363824442029,-0.013869930058717728,0,0,-1000,0,-1,-14,-2,5,-152,1500.0,50.0
14:01:21.881,GUIDED,-35.3632616,149.1652355,18060,0.00682849483564496,0.005919449031352997,-0.16803911328315735,-0.0011965236626565456,-0.0020363824442029,-0.013869930058717728,0,0,-1000,0,-1,-14,-2,5,-152,1500.0,50.0
14:01:22.082,GUIDED,-35.3632616,149.1652355,18060,0.00682849483564496,0.005919449031352997,-0.16803911328315735,-0.0011965236626565456,-0.0020363824442029,-0.013869930058717728,0,0,-1000,0,-1,-14,-2,5,-152,1500.0,50.0
14:01:22.287,GUIDED,-35.3632616,149.1652355,18060,0.00682849483564496,0.005919449031352997,-0.16803911328315735,-0.0011965236626565456,-0.0020363824442029,-0.013869930058717728,0,0,-1000,0,-1,-14,-2,5,-152,1500.0,50.0
14:01:22.489,GUIDED,-35.3632616,149.1652359,19466,0.004403817933052778,0.00440194783732295,-0.181779146194458,-0.002011304721236229,0.00036333902971819043,-0.01866636797785759,0,0,-1000,-1,1,-19,-3,6,-152,1500.0,50.0
14:01:22.692,GUIDED,-35.3632617,149.1652362,20640,0.00269246194511652,0.003682699054479599,-0.19505612552165985,-0.002153529552742839,-0.0016793734394013882,-0.01544878352433443,0,0,-1000,-1,-1,-16,-3,5,-152,1500.0,50.0
14:01:22.893,GUIDED,-35.3632617,149.1652363,21031,0.00230507948435843,0.00344356382265687,-0.19976474344730377,-0.0012990764807909727,-0.0012065013870596886,-0.021682007238268852,0,0,-1000,-1,0,-22,-3,5,-152,1500.0,50.0
14:01:23.095,GUIDED,-35.3632617,149.1652363,21031,0.00230507948435843,0.00344356382265687,-0.19976474344730377,-0.0012990764807909727,-0.0012065013870596886,-0.021682007238268852,0,0,-1000,-1,0,-22,-3,5,-152,1500.0,50.0
14:01:23.298,GUIDED,-35.3632617,149.1652363,21031,0.00230507948435843,0.00344356382265687,-0.19976474344730377,-0.0012990764807909727,-0.0012065013870596886,-0.021682007238268852,0,0,-1000,-1,0,-22,-3,5,-152,1500.0,50.0
14:01:23.500,GUIDED,-35.3632617,149.1652363,21031,0.00230507948435843,0.00344356382265687,-0.19976474344730377,-0.0012990764807909727,-0.0012065013870596886,-0.021682007238268852,0,0,-1000,-1,0,-22,-3,5,-152,1500.0,50.0
14:01:23.701,GUIDED,-35.3632617,149.1652363,21031,0.00230507948435843,0.00344356382265687,-0.19976474344730377,-0.0012990764807909727,-0.0012065013870596886,-0.021682007238268852,0,0,-1000,-1,0,-22,-3,5,-152,1500.0,50.0
14:01:23.904,GUIDED,-35.3632617,149.1652363,21031,0.00230507948435843,0.00344356382265687,-0.19976474344730377,-0.0012990764807909727,-0.0012065013870596886,-0.021682007238268852,0,0,-1000,-1,0,-22,-3,5,-152,1500.0,50.0
14:01:24.106,GUIDED,-35.3632617,149.1652363,21031,0.00230507948435843,0.00344356382265687,-0.19976474344730377,-0.0012990764807909727,-0.0012065013870596886,-0.021682007238268852,0,0,-1000,-1,0,-22,-3,5,-152,1500.0,50.0
14:01:24.308,GUIDED,-35.3632617,149.1652363,21031,0.00230507948435843,0.00344356382265687,-0.19976474344730377,-0.0012990764807909727,-0.0012065013870596886,-0.021682007238268852,0,0,-1000,-1,0,-22,-3,5,-152,1500.0,50.0
14:01:24.513,GUIDED,-35.3632617,149.1652363,21031,0.00230507948435843,0.00344356382265687,-0.19976474344730377,-0.0012990764807909727,-0.0012065013870596886,-0.021682007238268852,0,0,-1000,-1,0,-22,-3,5,-152,1500.0,50.0
14:01:24.716,GUIDED,-35.3632618,149.1652366,23377,0.002680384088307619,0.003086353652179241,-0.22944341599941254,0.0031879558227956295,0.0001626458251848817,-0.01869608275592327,0,0,-1001,3,0,-19,-3,3,-153,1500.0,50.0
14:01:24.921,GUIDED,-35.3632618,149.1652367,24168,0.002636711113154888,0.0028227223083376884,-0.2391277253627777,0.0017581002321094275,-5.9035373851656914e-05,-0.02101532369852066,0,0,-1000,2,0,-21,-2,3,-153,1500.0,50.0
14:01:25.122,GUIDED,-35.3632618,149.1652367,24168,0.002636711113154888,0.0028227223083376884,-0.2391277253627777,0.0017581002321094275,-5.9035373851656914e-05,-0.02101532369852066,0,0,-1000,2,0,-21,-2,3,-153,1500.0,50.0
14:01:25.326,GUIDED,-35.3632618,149.1652367,24168,0.002636711113154888,0.0028227223083376884,-0.2391277253627777,0.0017581002321094275,-5.9035373851656914e-05,-0.02101532369852066,0,0,-1000,2,0,-21,-2,3,-153,1500.0,50.0
14:01:25.529,GUIDED,-35.3632618,149.1652367,24168,0.002636711113154888,0.0028227223083376884,-0.2391277253627777,0.0017581002321094275,-5.9035373851656914e-05,-0.02101532369852066,0,0,-1000,2,0,-21,-2,3,-153,1500.0,50.0
14:01:25.732,GUIDED,-35.3632618,149.1652367,24168,0.002636711113154888,0.0028227223083376884,-0.2391277253627777,0.0017581002321094275,-5.9035373851656914e-05,-0.02101532369852066,0,0,-1000,2,0,-21,-2,3,-153,1500.0,50.0
14:01:25.935,GUIDED,-35.3632618,149.1652367,24168,0.002636711113154888,0.0028227223083376884,-0.2391277253627777,0.0017581002321094275,-5.9035373851656914e-05,-0.02101532369852066,0,0,-1000,2,0,-21,-2,3,-153,1500.0,50.0
14:01:26.138,GUIDED,-35.3632618,149.1652367,24168,0.002636711113154888,0.0028227223083376884,-0.2391277253627777,0.0017581002321094275,-5.9035373851656914e-05,-0.02101532369852066,0,0,-1000,2,0,-21,-2,3,-153,1500.0,50.0
14:01:26.341,GUIDED,-35.3632618,149.1652367,24168,0.002636711113154888,0.0028227223083376884,-0.2391277253627777,0.0017581002321094275,-5.9035373851656914e-05,-0.02101532369852066,0,0,-1000,2,0,-21,-2,3,-153,1500.0,50.0
14:01:26.547,GUIDED,-35.3632619,149.1652367,25720,-0.007764272391796112,0.004433309193700552,-0.252989798784256,0.04096836969256401,0.005656964611262083,0.005212281830608845,0,0,-1003,41,6,4,-4,-2,-152,1500.0,50.0
14:01:26.751,GUIDED,-35.3632622,149.1652364,26893,0.012543253600597382,0.003315469715744257,-0.24038654565811157,0.00811530277132988,-0.003473043441772461,0.023852180689573288,0,1,-1000,8,-2,23,-5,0,-153,1500.0,50.0
14:01:26.952,GUIDED,-35.3632622,149.1652364,27283,0.013196740299463272,0.0023421046789735556,-0.23399865627288818,0.0008459779783152044,-0.0022239801473915577,0.026359200477600098,0,0,-999,1,-1,25,-4,3,-152,1500.0,50.0
14:01:27.155,GUIDED,-35.3632622,149.1652364,27283,0.013196740299463272,0.0023421046789735556,-0.23399865627288818,0.0008459779783152044,-0.0022239801473915577,0.026359200477600098,0,0,-999,1,-1,25,-4,3,-152,1500.0,50.0
14:01:27.357,GUIDED,-35.3632622,149.1652364,27283,0.013196740299463272,0.0023421046789735556,-0.23399865627288818,0.0008459779783152044,-0.0022239801473915577,0.026359200477600098,0,0,-999,1,-1,25,-4,3,-152,1500.0,50.0
14:01:27.559,GUIDED,-35.3632622,149.1652364,27283,0.013196740299463272,0.0023421046789735556,-0.23399865627288818,0.0008459779783152044,-0.0022239801473915577,0.026359200477600098,0,0,-999,1,-1,25,-4,3,-152,1500.0,50.0
14:01:27.761,GUIDED,-35.3632622,149.1652364,27283,0.013196740299463272,0.0023421046789735556,-0.23399865627288818,0.0008459779783152044,-0.0022239801473915577,0.026359200477600098,0,0,-999,1,-1,25,-4,3,-152,1500.0,50.0
14:01:27.963,GUIDED,-35.3632622,149.1652364,27283,0.013196740299463272,0.0023421046789735556,-0.23399865627288818,0.0008459779783152044,-0.0022239801473915577,0.026359200477600098,0,0,-999,1,-1,25,-4,3,-152,1500.0,50.0
14:01:28.164,GUIDED,-35.3632622,149.1652364,27283,0.013196740299463272,0.0023421046789735556,-0.23399865627288818,0.0008459779783152044,-0.0022239801473915577,0.026359200477600098,0,0,-999,1,-1,25,-4,3,-152,1500.0,50.0
14:01:28.366,GUIDED,-35.3632622,149.1652364,27283,0.013196740299463272,0.0023421046789735556,-0.23399865627288818,0.0008459779783152044,-0.0022239801473915577,0.026359200477600098,0,0,-999,1,-1,25,-4,3,-152,1500.0,50.0
14:01:28.569,GUIDED,-35.3632624,149.1652371,29238,0.0038982490077614784,0.0016032340936362743,-0.20539888739585876,-0.003948174882680178,0.0012573541607707739,0.021820100024342537,1,-1,-1001,-3,2,21,0,9,-152,1500.0,50.0
14:01:28.771,GUIDED,-35.3632624,149.1652375,30016,0.0008831695304252207,0.0018760213861241937,-0.19529318809509277,-0.006015468388795853,-0.0009760521352291107,0.020762696862220764,1,-1,-1001,-5,0,20,0,8,-152,1500.0,50.0
14:01:28.972,GUIDED,-35.3632624,149.1652377,30406,2.505119118723087e-05,0.0019679036922752857,-0.19049572944641113,0.0012248100247234106,0.0017798959743231535,0.01943768560886383,0,-1,-1001,2,2,18,0,7,-152,1500.0,50.0
14:01:29.173,GUIDED,-35.3632624,149.1652377,30406,2.505119118723087e-05,0.0019679036922752857,-0.19049572944641113,0.0012248100247234106,0.0017798959743231535,0.01943768560886383,0,-1,-1001,2,2,18,0,7,-152,1500.0,50.0
14:01:29.376,GUIDED,-35.3632624,149.1652377,30406,2.505119118723087e-05,0.0019679036922752857,-0.19049572944641113,0.0012248100247234106,0.0017798959743231535,0.01943768560886383,0,-1,-1001,2,2,18,0,7,-152,1500.0,50.0
14:01:29.578,GUIDED,-35.3632624,149.1652377,30406,2.505119118723087e-05,0.0019679036922752857,-0.19049572944641113,0.0012248100247234106,0.0017798959743231535,0.01943768560886383,0,-1,-1001,2,2,18,0,7,-152,1500.0,50.0
14:01:29.780,GUIDED,-35.3632624,149.1652377,30406,2.505119118723087e-05,0.0019679036922752857,-0.19049572944641113,0.0012248100247234106,0.0017798959743231535,0.01943768560886383,0,-1,-1001,2,2,18,0,7,-152,1500.0,50.0
14:01:29.984,GUIDED,-35.3632624,149.1652377,30406,2.505119118723087e-05,0.0019679036922752857,-0.19049572944641113,0.0012248100247234106,0.0017798959743231535,0.01943768560886383,0,-1,-1001,2,2,18,0,7,-152,1500.0,50.0
14:01:30.187,GUIDED,-35.3632624,149.1652377,30406,2.505119118723087e-05,0.0019679036922752857,-0.19049572944641113,0.0012248100247234106,0.0017798959743231535,0.01943768560886383,0,-1,-1001,2,2,18,0,7,-152,1500.0,50.0
14:01:30.390,GUIDED,-35.3632624,149.1652377,30406,2.505119118723087e-05,0.0019679036922752857,-0.19049572944641113,0.0012248100247234106,0.0017798959743231535,0.01943768560886383,0,-1,-1001,2,2,18,0,7,-152,1500.0,50.0
14:01:30.593,GUIDED,-35.3632623,149.1652381,32583,0.0001642131683183834,0.0010726464679464698,-0.1669592559337616,0.00219907914288342,5.2824674639850855e-05,0.018650734797120094,0,0,-1000,2,0,18,0,2,-152,1500.0,50.0
14:01:30.795,GUIDED,-35.3632623,149.165238,33364,0.001322818687185645,0.0010673603974282742,-0.1594410538673401,0.004189576022326946,0.0013519347412511706,0.014971586875617504,0,0,-1000,5,2,14,0,1,-153,1500.0,50.0
14:01:30.996,GUIDED,-35.3632623,149.165238,33364,0.001322818687185645,0.0010673603974282742,-0.1594410538673401,0.004189576022326946,0.0013519347412511706,0.014971586875617504,0,0,-1000,5,2,14,0,1,-153,1500.0,50.0
14:01:31.198,GUIDED,-35.3632623,149.165238,33364,0.001322818687185645,0.0010673603974282742,-0.1594410538673401,0.004189576022326946,0.0013519347412511706,0.014971586875617504,0,0,-1000,5,2,14,0,1,-153,1500.0,50.0
14:01:31.401,GUIDED,-35.3632623,149.165238,33364,0.001322818687185645,0.0010673603974282742,-0.1594410538673401,0.004189576022326946,0.0013519347412511706,0.014971586875617504,0,0,-1000,5,2,14,0,1,-153,1500.0,50.0
14:01:31.603,GUIDED,-35.3632623,149.165238,33364,0.001322818687185645,0.0010673603974282742,-0.1594410538673401,0.004189576022326946,0.0013519347412511706,0.014971586875617504,0,0,-1000,5,2,14,0,1,-153,1500.0,50.0
14:01:31.805,GUIDED,-35.3632623,149.165238,33364,0.001322818687185645,0.0010673603974282742,-0.1594410538673401,0.004189576022326946,0.0013519347412511706,0.014971586875617504,0,0,-1000,5,2,14,0,1,-153,1500.0,50.0
14:01:32.011,GUIDED,-35.3632623,149.165238,33364,0.001322818687185645,0.0010673603974282742,-0.1594410538673401,0.004189576022326946,0.0013519347412511706,0.014971586875617504,0,0,-1000,5,2,14,0,1,-153,1500.0,50.0
14:01:32.214,GUIDED,-35.3632623,149.165238,33364,0.001322818687185645,0.0010673603974282742,-0.1594410538673401,0.004189576022326946,0.0013519347412511706,0.014971586875617504,0,0,-1000,5,2,14,0,1,-153,1500.0,50.0
14:01:32.417,GUIDED,-35.3632623,149.165238,34533,0.0018851251807063818,0.001439109444618225,-0.1497337520122528,0.0028910101391375065,0.002308304188773036,0.01305404957383871,0,0,-1000,3,3,12,0,0,-152,1500.0,50.0
14:01:32.619,GUIDED,-35.3632622,149.1652379,36095,0.0018928340869024396,0.0009553026757203043,-0.13804957270622253,-0.0030320605728775263,4.11953660659492e-05,0.011578595265746117,0,0,-999,-2,0,11,0,0,-152,1500.0,50.0
14:01:32.821,GUIDED,-35.3632622,149.1652379,36485,0.0020401296205818653,0.0009561107726767659,-0.135292187333107,-0.000579255516640842,0.0005028039449825883,0.013309267349541187,0,0,-1000,0,1,13,0,0,-152,1500.0,50.0
14:01:33.023,GUIDED,-35.3632622,149.1652379,36485,0.0020401296205818653,0.0009561107726767659,-0.135292187333107,-0.000579255516640842,0.0005028039449825883,0.013309267349541187,0,0,-1000,0,1,13,0,0,-152,1500.0,50.0
14:01:33.226,GUIDED,-35.3632622,149.1652379,36485,0.0020401296205818653,0.0009561107726767659,-0.135292187333107,-0.000579255516640842,0.0005028039449825883,0.013309267349541187,0,0,-1000,0,1,13,0,0,-152,1500.0,50.0
14:01:33.428,GUIDED,-35.3632622,149.1652379,36485,0.0020401296205818653,0.0009561107726767659,-0.135292187333107,-0.000579255516640842,0.0005028039449825883,0.013309267349541187,0,0,-1000,0,1,13,0,0,-152,1500.0,50.0
14:01:33.630,GUIDED,-35.3632622,149.1652379,36485,0.0020401296205818653,0.0009561107726767659,-0.135292187333107,-0.000579255516640842,0.0005028039449825883,0.013309267349541187,0,0,-1000,0,1,13,0,0,-152,1500.0,50.0
14:01:33.833,GUIDED,-35.3632622,149.1652379,36485,0.0020401296205818653,0.0009561107726767659,-0.135292187333107,-0.000579255516640842,0.0005028039449825883,0.013309267349541187,0,0,-1000,0,1,13,0,0,-152,1500.0,50.0
14:01:34.036,GUIDED,-35.3632622,149.1652379,36485,0.0020401296205818653,0.0009561107726767659,-0.135292187333107,-0.000579255516640842,0.0005028039449825883,0.013309267349541187,0,0,-1000,0,1,13,0,0,-152,1500.0,50.0
14:01:34.241,GUIDED,-35.3632622,149.1652379,36485,0.0020401296205818653,0.0009561107726767659,-0.135292187333107,-0.000579255516640842,0.0005028039449825883,0.013309267349541187,0,0,-1000,0,1,13,0,0,-152,1500.0,50.0
14:01:34.444,GUIDED,-35.3632622,149.1652377,37650,0.002716170623898506,0.0012004220625385642,-0.127455472946167,0.00032524875132367015,0.0005793870659545064,0.011706545017659664,0,0,-1000,0,1,13,0,0,-153,1500.0,50.0
14:01:34.646,GUIDED,-35.3632621,149.1652376,39208,0.00297443731687963,0.0014312724815681577,-0.11873309314250946,0.0017985447775572538,0.0022137865889817476,0.009241755120456219,0,0,-1000,2,3,8,0,0,-152,1500.0,50.0
14:01:34.848,GUIDED,-35.3632621,149.1652375,39598,0.0028565358370542526,0.0015528904041275382,-0.11673792451620102,-0.0006635886966250837,-0.0002005521673709154,0.00937799084931612,0,0,-1000,0,0,9,0,0,-152,1500.0,50.0
14:01:35.049,GUIDED,-35.3632621,149.1652375,39598,0.0028565358370542526,0.0015528904041275382,-0.11673792451620102,-0.0006635886966250837,-0.0002005521673709154,0.00937799084931612,0,0,-1000,0,0,9,0,0,-152,1500.0,50.0
14:01:35.251,GUIDED,-35.3632621,149.1652375,39598,0.0028565358370542526,0.0015528904041275382,-0.11673792451620102,-0.0006635886966250837,-0.0002005521673709154,0.00937799084931612,0,0,-1000,0,0,9,0,0,-152,1500.0,50.0
14:01:35.454,GUIDED,-35.3632621,149.1652375,39598,0.0028565358370542526,0.0015528904041275382,-0.11673792451620102,-0.0006635886966250837,-0.0002005521673709154,0.00937799084931612,0,0,-1000,0,0,9,0,0,-152,1500.0,50.0
14:01:35.655,GUIDED,-35.3632621,149.1652375,39598,0.0028565358370542526,0.0015528904041275382,-0.11673792451620102,-0.0006635886966250837,-0.0002005521673709154,0.00937799084931612,0,0,-1000,0,0,9,0,0,-152,1500.0,50.0
14:01:35.858,GUIDED,-35.3632621,149.1652375,39598,0.0028565358370542526,0.0015528904041275382,-0.11673792451620102,-0.0006635886966250837,-0.0002005521673709154,0.00937799084931612,0,0,-1000,0,0,9,0,0,-152,1500.0,50.0
14:01:36.060,GUIDED,-35.3632621,149.1652375,39598,0.0028565358370542526,0.0015528904041275382,-0.11673792451620102,-0.0006635886966250837,-0.0002005521673709154,0.00937799084931612,0,0,-1000,0,0,9,0,0,-152,1500.0,50.0
14:01:36.262,GUIDED,-35.3632621,149.1652375,39598,0.0028565358370542526,0.0015528904041275382,-0.11673792451620102,-0.0006635886966250837,-0.0002005521673709154,0.00937799084931612,0,0,-1000,0,0,9,0,0,-152,1500.0,50.0
14:01:36.465,GUIDED,-35.3632621,149.1652375,41162,0.0027908282354474068,0.0014262674376368523,-0.10929587483406067,0.000829563126899302,0.000672818860039115,0.006611271761357784,0,0,-1000,1,1,6,0,0,-153,1500.0,50.0
14:01:36.667,GUIDED,-35.3632621,149.1652374,42339,0.002502680290490389,0.0016347633209079504,-0.10422933846712112,-0.00012741511454805732,0.00020333827706053853,0.00732826441526413,0,0,-1000,0,1,7,-1,1,-152,1500.0,50.0
14:01:36.869,GUIDED,-35.363262,149.1652374,42728,0.002347478410229087,0.0015694138128310442,-0.10278010368347168,0.0009097145521081984,-1.7760961782187223e-05,0.007949486374855042,0,0,-1000,2,0,7,-1,1,-152,1500.0,50.0
14:01:37.071,GUIDED,-35.363262,149.1652374,42728,0.002347478410229087,0.0015694138128310442,-0.10278010368347168,0.0009097145521081984,-1.7760961782187223e-05,0.007949486374855042,0,0,-1000,2,0,7,-1,1,-152,1500.0,50.0
14:01:37.273,GUIDED,-35.363262,149.1652374,42728,0.002347478410229087,0.0015694138128310442,-0.10278010368347168,0.0009097145521081984,-1.7760961782187223e-05,0.007949486374855042,0,0,-1000,2,0,7,-1,1,-152,1500.0,50.0
14:01:37.480,GUIDED,-35.363262,149.1652374,42728,0.002347478410229087,0.0015694138128310442,-0.10278010368347168,0.0009097145521081984,-1.7760961782187223e-05,0.007949486374855042,0,0,-1000,2,0,7,-1,1,-152,1500.0,50.0
14:01:37.685,GUIDED,-35.363262,149.1652374,42728,0.002347478410229087,0.0015694138128310442,-0.10278010368347168,0.0009097145521081984,-1.7760961782187223e-05,0.007949486374855042,0,0,-1000,2,0,7,-1,1,-152,1500.0,50.0
14:01:37.886,GUIDED,-35.363262,149.1652374,42728,0.002347478410229087,0.0015694138128310442,-0.10278010368347168,0.0009097145521081984,-1.7760961782187223e-05,0.007949486374855042,0,0,-1000,2,0,7,-1,1,-152,1500.0,50.0
14:01:38.088,GUIDED,-35.363262,149.1652374,42728,0.002347478410229087,0.0015694138128310442,-0.10278010368347168,0.0009097145521081984,-1.7760961782187223e-05,0.007949486374855042,0,0,-1000,2,0,7,-1,1,-152,1500.0,50.0
14:01:38.290,GUIDED,-35.363262,149.1652374,42728,0.002347478410229087,0.0015694138128310442,-0.10278010368347168,0.0009097145521081984,-1.7760961782187223e-05,0.007949486374855042,0,0,-1000,2,0,7,-1,1,-152,1500.0,50.0
14:01:38.492,GUIDED,-35.363262,149.1652374,43889,0.0026828893460333347,0.0011997913243249059,-0.09776592999696732,-0.0016376402927562594,0.00026807445101439953,0.006936982739716768,0,0,-999,0,1,6,-1,1,-152,1500.0,50.0
14:01:38.693,GUIDED,-35.363262,149.1652373,45447,0.0023745710495859385,0.0011879783123731613,-0.09199783205986023,0.0020448495633900166,0.0007314849062822759,0.005173368379473686,0,0,-1000,2,1,5,-1,1,-152,1500.0,50.0
14:01:38.894,GUIDED,-35.363262,149.1652373,45837,0.0022982745431363583,0.0009981950279325247,-0.09061091393232346,0.002104376908391714,0.00014754693256691098,0.008616187609732151,0,0,-1000,3,1,8,-1,1,-152,1500.0,50.0
14:01:39.097,GUIDED,-35.363262,149.1652373,45837,0.0022982745431363583,0.0009981950279325247,-0.09061091393232346,0.002104376908391714,0.00014754693256691098,0.008616187609732151,0,0,-1000,3,1,8,-1,1,-152,1500.0,50.0
14:01:39.300,GUIDED,-35.363262,149.1652373,45837,0.0022982745431363583,0.0009981950279325247,-0.09061091393232346,0.002104376908391714,0.00014754693256691098,0.008616187609732151,0,0,-1000,3,1,8,-1,1,-152,1500.0,50.0
14:01:39.503,GUIDED,-35.363262,149.1652373,45837,0.0022982745431363583,0.0009981950279325247,-0.09061091393232346,0.002104376908391714,0.00014754693256691098,0.008616187609732151,0,0,-1000,3,1,8,-1,1,-152,1500.0,50.0
14:01:39.709,GUIDED,-35.363262,149.1652373,45837,0.0022982745431363583,0.0009981950279325247,-0.09061091393232346,0.002104376908391714,0.00014754693256691098,0.008616187609732151,0,0,-1000,3,1,8,-1,1,-152,1500.0,50.0
14:01:39.911,GUIDED,-35.363262,149.1652373,45837,0.0022982745431363583,0.0009981950279325247,-0.09061091393232346,0.002104376908391714,0.00014754693256691098,0.008616187609732151,0,0,-1000,3,1,8,-1,1,-152,1500.0,50.0
14:01:40.114,GUIDED,-35.363262,149.1652373,45837,0.0022982745431363583,0.0009981950279325247,-0.09061091393232346,0.002104376908391714,0.00014754693256691098,0.008616187609732151,0,0,-1000,3,1,8,-1,1,-152,1500.0,50.0
14:01:40.316,GUIDED,-35.363262,149.1652373,45837,0.0022982745431363583,0.0009981950279325247,-0.09061091393232346,0.002104376908391714,0.00014754693256691098,0.008616187609732151,0,0,-1000,3,1,8,-1,1,-152,1500.0,50.0
14:01:40.519,GUIDED,-35.363262,149.1652373,45837,0.0022982745431363583,0.0009981950279325247,-0.09061091393232346,0.002104376908391714,0.00014754693256691098,0.008616187609732151,0,0,-1000,3,1,8,-1,1,-152,1500.0,50.0
14:01:40.721,GUIDED,-35.363262,149.1652373,48563,0.0023942815605551004,0.0011148604098707438,-0.08152753114700317,-0.00042903958819806576,0.0017105004517361522,0.007290056440979242,0,0,-999,0,2,7,-1,1,-152,1500.0,50.0
14:01:40.922,GUIDED,-35.363262,149.1652373,48954,0.002554030390456319,0.0010433164425194263,-0.08020197600126266,0.0007881696801632643,-0.0007902807556092739,0.005341231357306242,0,0,-1000,1,0,5,-1,1,-152,1500.0,50.0
14:01:41.123,GUIDED,-35.363262,149.1652373,48954,0.002554030390456319,0.0010433164425194263,-0.08020197600126266,0.0007881696801632643,-0.0007902807556092739,0.005341231357306242,0,0,-1000,1,0,5,-1,1,-152,1500.0,50.0
14:01:41.325,GUIDED,-35.363262,149.1652373,48954,0.002554030390456319,0.0010433164425194263,-0.08020197600126266,0.0007881696801632643,-0.0007902807556092739,0.005341231357306242,0,0,-1000,1,0,5,-1,1,-152,1500.0,50.0
14:01:41.528,GUIDED,-35.363262,149.1652373,48954,0.002554030390456319,0.0010433164425194263,-0.08020197600126266,0.0007881696801632643,-0.0007902807556092739,0.005341231357306242,0,0,-1000,1,0,5,-1,1,-152,1500.0,50.0
14:01:41.733,GUIDED,-35.363262,149.1652373,48954,0.002554030390456319,0.0010433164425194263,-0.08020197600126266,0.0007881696801632643,-0.0007902807556092739,0.005341231357306242,0,0,-1000,1,0,5,-1,1,-152,1500.0,50.0
14:01:41.937,GUIDED,-35.363262,149.1652373,48954,0.002554030390456319,0.0010433164425194263,-0.08020197600126266,0.0007881696801632643,-0.0007902807556092739,0.005341231357306242,0,0,-1000,1,0,5,-1,1,-152,1500.0,50.0
14:01:42.140,GUIDED,-35.363262,149.1652373,48954,0.002554030390456319,0.0010433164425194263,-0.08020197600126266,0.0007881696801632643,-0.0007902807556092739,0.005341231357306242,0,0,-1000,1,0,5,-1,1,-152,1500.0,50.0
14:01:42.343,GUIDED,-35.363262,149.1652373,48954,0.002554030390456319,0.0010433164425194263,-0.08020197600126266,0.0007881696801632643,-0.0007902807556092739,0.005341231357306242,0,0,-1000,1,0,5,-1,1,-152,1500.0,50.0
14:01:42.546,GUIDED,-35.363262,149.1652373,50122,0.0031067582312971354,0.0009227913687936962,-0.07652464509010315,-0.0008166678599081933,0.0009039309807121754,0.006633685901761055,0,0,-999,0,1,6,-1,1,-152,1500.0,50.0
14:01:42.747,GUIDED,-35.363262,149.1652372,51687,0.0026248039212077856,0.0010938141494989395,-0.07100889086723328,0.003340644994750619,0.0004661798011511564,0.006023446563631296,0,0,-1000,4,1,6,-1,1,-152,1500.0,50.0
14:01:42.950,LAND,-35.363262,149.1652372,52077,0.002444017678499222,0.0008149061468429863,-0.0700276792049408,-0.0005206491914577782,-0.00108926126267761,0.007135026156902313,0,0,-1000,0,0,7,-1,1,-152,1500.0,50.0
14:01:43.179,LAND,-35.363262,149.1652372,52077,0.002444017678499222,0.0008149061468429863,-0.0700276792049408,-0.0005206491914577782,-0.00108926126267761,0.007135026156902313,0,0,-1000,0,0,7,-1,1,-152,1500.0,80.0
14:01:43.381,LAND,-35.363262,149.1652372,52077,0.002444017678499222,0.0008149061468429863,-0.0700276792049408,-0.0005206491914577782,-0.00108926126267761,0.007135026156902313,0,0,-1000,0,0,7,-1,1,-152,1500.0,80.0
14:01:43.584,LAND,-35.363262,149.1652372,52077,0.002444017678499222,0.0008149061468429863,-0.0700276792049408,-0.0005206491914577782,-0.00108926126267761,0.007135026156902313,0,0,-1000,0,0,7,-1,1,-152,1500.0,80.0
14:01:43.791,LAND,-35.363262,149.1652372,52077,0.002444017678499222,0.0008149061468429863,-0.0700276792049408,-0.0005206491914577782,-0.00108926126267761,0.007135026156902313,0,0,-1000,0,0,7,-1,1,-152,1500.0,80.0
14:01:43.994,LAND,-35.363262,149.1652372,52077,0.002444017678499222,0.0008149061468429863,-0.0700276792049408,-0.0005206491914577782,-0.00108926126267761,0.007135026156902313,0,0,-1000,0,0,7,-1,1,-152,1500.0,80.0
14:01:44.197,LAND,-35.363262,149.1652372,52077,0.002444017678499222,0.0008149061468429863,-0.0700276792049408,-0.0005206491914577782,-0.00108926126267761,0.007135026156902313,0,0,-1000,0,0,7,-1,1,-152,1500.0,80.0
14:01:44.400,LAND,-35.363262,149.1652372,52077,0.002444017678499222,0.0008149061468429863,-0.0700276792049408,-0.0005206491914577782,-0.00108926126267761,0.007135026156902313,0,0,-1000,0,0,7,-1,1,-152,1500.0,80.0
14:01:44.603,LAND,-35.363262,149.1652372,52077,0.002444017678499222,0.0008149061468429863,-0.0700276792049408,-0.0005206491914577782,-0.00108926126267761,0.007135026156902313,0,0,-1000,0,0,7,-1,1,-152,1500.0,80.0
14:01:44.809,LAND,-35.363262,149.1652372,53636,0.0016752415103837848,0.0009676164481788874,-0.06604637950658798,-0.0031418842263519764,0.00022945157252252102,0.005157798994332552,0,0,-999,-2,0,5,-1,1,-152,1500.0,80.0
14:01:45.012,LAND,-35.363263,149.1652359,54963,-0.03967633098363876,0.024303168058395386,0.28837472200393677,0.11784517019987106,-0.2233525663614273,0.21991969645023346,3,10,-907,119,-222,220,-30,-36,-90,1500.0,80.0
14:01:45.215,LAND,-35.363263,149.1652359,54963,-0.03967633098363876,0.024303168058395386,0.28837472200393677,0.11784517019987106,-0.2233525663614273,0.21991969645023346,3,10,-907,119,-222,220,-30,-36,-90,1500.0,80.0
14:01:45.417,LAND,-35.363263,149.1652359,54963,-0.03967633098363876,0.024303168058395386,0.28837472200393677,0.11784517019987106,-0.2233525663614273,0.21991969645023346,3,10,-907,119,-222,220,-30,-36,-90,1500.0,80.0
14:01:45.619,LAND,-35.363263,149.1652359,54963,-0.03967633098363876,0.024303168058395386,0.28837472200393677,0.11784517019987106,-0.2233525663614273,0.21991969645023346,3,10,-907,119,-222,220,-30,-36,-90,1500.0,80.0
14:01:45.822,LAND,-35.363263,149.1652359,54963,-0.03967633098363876,0.024303168058395386,0.28837472200393677,0.11784517019987106,-0.2233525663614273,0.21991969645023346,3,10,-907,119,-222,220,-30,-36,-90,1500.0,80.0
14:01:46.024,LAND,-35.363263,149.1652359,54963,-0.03967633098363876,0.024303168058395386,0.28837472200393677,0.11784517019987106,-0.2233525663614273,0.21991969645023346,3,10,-907,119,-222,220,-30,-36,-90,1500.0,80.0
14:01:46.226,LAND,-35.363263,149.1652359,54963,-0.03967633098363876,0.024303168058395386,0.28837472200393677,0.11784517019987106,-0.2233525663614273,0.21991969645023346,3,10,-907,119,-222,220,-30,-36,-90,1500.0,80.0
14:01:46.429,LAND,-35.363263,149.1652359,54963,-0.03967633098363876,0.024303168058395386,0.28837472200393677,0.11784517019987106,-0.2233525663614273,0.21991969645023346,3,10,-907,119,-222,220,-30,-36,-90,1500.0,80.0
14:01:46.632,LAND,-35.3632645,149.165233,55426,0.02910107932984829,-0.0565725676715374,0.34417858719825745,0.17215615510940552,-0.019540011882781982,-0.0017237759893760085,1,14,-932,173,-18,-1,-11,-23,-30,1500.0,80.0
14:01:46.836,LAND,-35.3632637,149.1652333,55319,0.012880937196314335,-0.015291540883481503,0.30284109711647034,-0.7004738450050354,0.04558957740664482,-0.044081706553697586,-4,-5,-968,-695,46,-43,19,26,39,1500.0,140.0
14:01:47.038,LAND,-35.3632637,149.1652333,55319,0.012880937196314335,-0.015291540883481503,0.30284109711647034,-0.7004738450050354,0.04558957740664482,-0.044081706553697586,-4,-5,-968,-695,46,-43,19,26,39,1500.0,140.0
14:01:47.240,LAND,-35.3632637,149.1652333,55319,0.012880937196314335,-0.015291540883481503,0.30284109711647034,-0.7004738450050354,0.04558957740664482,-0.044081706553697586,-4,-5,-968,-695,46,-43,19,26,39,1500.0,140.0
14:01:47.441,LAND,-35.3632637,149.1652333,55319,0.012880937196314335,-0.015291540883481503,0.30284109711647034,-0.7004738450050354,0.04558957740664482,-0.044081706553697586,-4,-5,-968,-695,46,-43,19,26,39,1500.0,140.0
14:01:47.645,LAND,-35.3632637,149.1652333,55319,0.012880937196314335,-0.015291540883481503,0.30284109711647034,-0.7004738450050354,0.04558957740664482,-0.044081706553697586,-4,-5,-968,-695,46,-43,19,26,39,1500.0,140.0
14:01:47.848,LAND,-35.3632637,149.1652333,55319,0.012880937196314335,-0.015291540883481503,0.30284109711647034,-0.7004738450050354,0.04558957740664482,-0.044081706553697586,-4,-5,-968,-695,46,-43,19,26,39,1500.0,140.0
14:01:48.050,LAND,-35.3632637,149.1652333,55319,0.012880937196314335,-0.015291540883481503,0.30284109711647034,-0.7004738450050354,0.04558957740664482,-0.044081706553697586,-4,-5,-968,-695,46,-43,19,26,39,1500.0,140.0
14:01:48.253,LAND,-35.3632637,149.1652333,55319,0.012880937196314335,-0.015291540883481503,0.30284109711647034,-0.7004738450050354,0.04558957740664482,-0.044081706553697586,-4,-5,-968,-695,46,-43,19,26,39,1500.0,140.0
14:01:48.457,LAND,-35.3632637,149.1652333,55319,0.012880937196314335,-0.015291540883481503,0.30284109711647034,-0.7004738450050354,0.04558957740664482,-0.044081706553697586,-4,-5,-968,-695,46,-43,19,26,39,1500.0,140.0
14:01:48.659,LAND,-35.3632615,149.1652393,54007,-0.029769547283649445,0.018181225284934044,0.2448962926864624,-0.30246391892433167,0.0018388408934697509,-0.026660241186618805,3,29,-1061,-293,2,-26,9,17,115,1500.0,140.0
14:01:48.861,LAND,-35.3632614,149.1652401,53711,-0.05184343457221985,0.01660793460905552,0.23747216165065765,-1.042864203453064,-0.002070765243843198,-0.021093931049108505,1,-8,-977,-1035,-1,-20,7,11,118,1500.0,140.0
14:01:49.063,LAND,-35.3632614,149.1652401,53711,-0.05184343457221985,0.01660793460905552,0.23747216165065765,-1.042864203453064,-0.002070765243843198,-0.021093931049108505,1,-8,-977,-1035,-1,-20,7,11,118,1500.0,140.0
14:01:49.265,LAND,-35.3632614,149.1652401,53711,-0.05184343457221985,0.01660793460905552,0.23747216165065765,-1.042864203453064,-0.002070765243843198,-0.021093931049108505,1,-8,-977,-1035,-1,-20,7,11,118,1500.0,140.0
14:01:49.467,LAND,-35.3632614,149.1652401,53711,-0.05184343457221985,0.01660793460905552,0.23747216165065765,-1.042864203453064,-0.002070765243843198,-0.021093931049108505,1,-8,-977,-1035,-1,-20,7,11,118,1500.0,140.0
14:01:49.669,LAND,-35.3632614,149.1652401,53711,-0.05184343457221985,0.01660793460905552,0.23747216165065765,-1.042864203453064,-0.002070765243843198,-0.021093931049108505,1,-8,-977,-1035,-1,-20,7,11,118,1500.0,140.0
14:01:49.873,LAND,-35.3632614,149.1652401,53711,-0.05184343457221985,0.01660793460905552,0.23747216165065765,-1.042864203453064,-0.002070765243843198,-0.021093931049108505,1,-8,-977,-1035,-1,-20,7,11,118,1500.0,140.0
14:01:50.075,LAND,-35.3632614,149.1652401,53711,-0.05184343457221985,0.01660793460905552,0.23747216165065765,-1.042864203453064,-0.002070765243843198,-0.021093931049108505,1,-8,-977,-1035,-1,-20,7,11,118,1500.0,140.0
14:01:50.277,LAND,-35.3632614,149.1652401,53711,-0.05184343457221985,0.01660793460905552,0.23747216165065765,-1.042864203453064,-0.002070765243843198,-0.021093931049108505,1,-8,-977,-1035,-1,-20,7,11,118,1500.0,80.0
14:01:50.478,LAND,-35.3632616,149.165242,52778,-0.034292250871658325,0.007288866210728884,0.21069279313087463,-0.5582950711250305,-0.014029750600457191,-0.010408409871160984,3,-42,-1233,-562,-13,-9,3,-10,62,1500.0,80.0
14:01:50.682,LAND,-35.363262,149.1652428,52373,-0.05153306573629379,0.000228019300266169,0.19274871051311493,-0.7837144136428833,-0.006841632071882486,-0.00834137573838234,2,-5,-996,-780,-5,-7,4,-22,51,1500.0,80.0
14:01:50.884,LAND,-35.3632622,149.1652429,52238,-0.04809610918164253,-0.0015654407907277346,0.18773221969604492,-0.551559567451477,-0.006498918402940035,-0.01560913771390915,3,0,-1004,-546,-5,-15,5,-24,54,1500.0,80.0
14:01:51.086,LAND,-35.3632622,149.1652429,52238,-0.04809610918164253,-0.0015654407907277346,0.18773221969604492,-0.551559567451477,-0.006498918402940035,-0.01560913771390915,3,0,-1004,-546,-5,-15,5,-24,54,1500.0,80.0
14:01:51.292,LAND,-35.3632622,149.1652429,52238,-0.04809610918164253,-0.0015654407907277346,0.18773221969604492,-0.551559567451477,-0.006498918402940035,-0.01560913771390915,3,0,-1004,-546,-5,-15,5,-24,54,1500.0,80.0
14:01:51.494,LAND,-35.3632622,149.1652429,52238,-0.04809610918164253,-0.0015654407907277346,0.18773221969604492,-0.551559567451477,-0.006498918402940035,-0.01560913771390915,3,0,-1004,-546,-5,-15,5,-24,54,1500.0,80.0
14:01:51.696,LAND,-35.3632622,149.1652429,52238,-0.04809610918164253,-0.0015654407907277346,0.18773221969604492,-0.551559567451477,-0.006498918402940035,-0.01560913771390915,3,0,-1004,-546,-5,-15,5,-24,54,1500.0,80.0
14:01:51.898,LAND,-35.3632622,149.1652429,52238,-0.04809610918164253,-0.0015654407907277346,0.18773221969604492,-0.551559567451477,-0.006498918402940035,-0.01560913771390915,3,0,-1004,-546,-5,-15,5,-24,54,1500.0,80.0
14:01:52.101,LAND,-35.3632622,149.1652429,52238,-0.04809610918164253,-0.0015654407907277346,0.18773221969604492,-0.551559567451477,-0.006498918402940035,-0.01560913771390915,3,0,-1004,-546,-5,-15,5,-24,54,1500.0,80.0
14:01:52.303,LAND,-35.3632622,149.1652429,52238,-0.04809610918164253,-0.0015654407907277346,0.18773221969604492,-0.551559567451477,-0.006498918402940035,-0.01560913771390915,3,0,-1004,-546,-5,-15,5,-24,54,1500.0,80.0
14:01:52.506,LAND,-35.363263,149.165243,51516,-0.022591056302189827,-0.0049566118977963924,0.16849248111248016,0.8291431665420532,-0.000695845577865839,-0.009449969977140427,1,62,-979,997,3,-12,10,-34,59,1500.0,80.0
14:01:52.708,LAND,-35.363263,149.1652426,51217,-0.013307739049196243,-0.006109816022217274,0.15985792875289917,1.1897869110107422,-0.0051272595301270485,-0.012016345746815205,-4,62,-1012,1192,-4,-11,11,-37,60,1500.0,160.0
14:01:52.910,LAND,-35.3632631,149.1652423,51067,-0.006037781480699778,-0.007163741160184145,0.1560097336769104,1.0879104137420654,0.0025794366374611855,-0.0042718336917459965,-1,54,-978,1088,3,-3,11,-37,61,1500.0,160.0
14:01:53.111,LAND,-35.3632631,149.1652423,51067,-0.006037781480699778,-0.007163741160184145,0.1560097336769104,1.0879104137420654,0.0025794366374611855,-0.0042718336917459965,-1,54,-978,1088,3,-3,11,-37,61,1500.0,160.0
14:01:53.320,LAND,-35.3632631,149.1652423,51067,-0.006037781480699778,-0.007163741160184145,0.1560097336769104,1.0879104137420654,0.0025794366374611855,-0.0042718336917459965,-1,54,-978,1088,3,-3,11,-37,61,1500.0,160.0
14:01:53.521,LAND,-35.3632631,149.1652423,51067,-0.006037781480699778,-0.007163741160184145,0.1560097336769104,1.0879104137420654,0.0025794366374611855,-0.0042718336917459965,-1,54,-978,1088,3,-3,11,-37,61,1500.0,160.0
14:01:53.724,LAND,-35.3632631,149.1652423,51067,-0.006037781480699778,-0.007163741160184145,0.1560097336769104,1.0879104137420654,0.0025794366374611855,-0.0042718336917459965,-1,54,-978,1088,3,-3,11,-37,61,1500.0,160.0
14:01:53.926,LAND,-35.3632631,149.1652423,51067,-0.006037781480699778,-0.007163741160184145,0.1560097336769104,1.0879104137420654,0.0025794366374611855,-0.0042718336917459965,-1,54,-978,1088,3,-3,11,-37,61,1500.0,160.0
14:01:54.130,LAND,-35.3632631,149.1652423,51067,-0.006037781480699778,-0.007163741160184145,0.1560097336769104,1.0879104137420654,0.0025794366374611855,-0.0042718336917459965,-1,54,-978,1088,3,-3,11,-37,61,1500.0,160.0
14:01:54.334,LAND,-35.3632631,149.1652423,51067,-0.006037781480699778,-0.007163741160184145,0.1560097336769104,1.0879104137420654,0.0025794366374611855,-0.0042718336917459965,-1,54,-978,1088,3,-3,11,-37,61,1500.0,160.0
14:01:54.535,LAND,-35.3632631,149.1652411,50271,-0.01077469065785408,-0.007580945733934641,0.14634250104427338,0.3108813166618347,0.003179600229486823,-0.02311594784259796,-4,71,-1026,318,3,-22,11,-32,125,1500.0,160.0
14:01:54.738,LAND,-35.3632629,149.1652397,49084,-0.019110770896077156,-0.00551336957141757,0.1349334418773651,-0.5433940291404724,0.008304036222398281,-0.020800434052944183,-4,17,-1033,-537,9,-20,10,-23,105,1500.0,160.0
14:01:54.939,LAND,-35.3632628,149.1652393,48809,-0.01981055550277233,-0.005738607607781887,0.13152188062667847,-0.8461311459541321,0.0006948677473701537,0.0010991909075528383,-2,9,-974,-840,1,1,9,-21,110,1500.0,160.0
14:01:55.141,LAND,-35.3632628,149.1652393,48809,-0.01981055550277233,-0.005738607607781887,0.13152188062667847,-0.8461311459541321,0.0006948677473701537,0.0010991909075528383,-2,9,-974,-840,1,1,9,-21,110,1500.0,160.0
14:01:55.345,LAND,-35.3632628,149.1652393,48809,-0.01981055550277233,-0.005738607607781887,0.13152188062667847,-0.8461311459541321,0.0006948677473701537,0.0010991909075528383,-2,9,-974,-840,1,1,9,-21,110,1500.0,160.0
14:01:55.547,LAND,-35.3632628,149.1652393,48809,-0.01981055550277233,-0.005738607607781887,0.13152188062667847,-0.8461311459541321,0.0006948677473701537,0.0010991909075528383,-2,9,-974,-840,1,1,9,-21,110,1500.0,160.0
14:01:55.749,LAND,-35.3632628,149.1652393,48809,-0.01981055550277233,-0.005738607607781887,0.13152188062667847,-0.8461311459541321,0.0006948677473701537,0.0010991909075528383,-2,9,-974,-840,1,1,9,-21,110,1500.0,160.0
14:01:55.951,LAND,-35.3632628,149.1652393,48809,-0.01981055550277233,-0.005738607607781887,0.13152188062667847,-0.8461311459541321,0.0006948677473701537,0.0010991909075528383,-2,9,-974,-840,1,1,9,-21,110,1500.0,160.0
14:01:56.155,LAND,-35.3632628,149.1652393,48809,-0.01981055550277233,-0.005738607607781887,0.13152188062667847,-0.8461311459541321,0.0006948677473701537,0.0010991909075528383,-2,9,-974,-840,1,1,9,-21,110,1500.0,160.0
14:01:56.358,LAND,-35.3632628,149.1652393,48809,-0.01981055550277233,-0.005738607607781887,0.13152188062667847,-0.8461311459541321,0.0006948677473701537,0.0010991909075528383,-2,9,-974,-840,1,1,9,-21,110,1500.0,160.0
14:01:56.561,LAND,-35.3632628,149.1652393,48809,-0.01981055550277233,-0.005738607607781887,0.13152188062667847,-0.8461311459541321,0.0006948677473701537,0.0010991909075528383,-2,9,-974,-840,1,1,9,-21,110,1500.0,160.0
14:01:56.763,LAND,-35.3632624,149.1652373,46994,-0.005546750966459513,-0.002725350670516491,0.11455585807561874,-1.3667207956314087,-0.0024662024807184935,-0.007499546743929386,-3,-46,-985,-1367,-1,-7,5,-5,88,1500.0,140.0
14:01:56.964,LAND,-35.3632624,149.1652371,46769,-0.007887361571192741,-0.00243897782638669,0.11316895484924316,-1.287877082824707,-0.0008031423203647137,-0.004790095612406731,-1,-49,-1010,-1287,0,-4,5,-3,88,1500.0,140.0
14:01:57.166,LAND,-35.3632624,149.1652371,46769,-0.007887361571192741,-0.00243897782638669,0.11316895484924316,-1.287877082824707,-0.0008031423203647137,-0.004790095612406731,-1,-49,-1010,-1287,0,-4,5,-3,88,1500.0,140.0
14:01:57.367,LAND,-35.3632624,149.1652371,46769,-0.007887361571192741,-0.00243897782638669,0.11316895484924316,-1.287877082824707,-0.0008031423203647137,-0.004790095612406731,-1,-49,-1010,-1287,0,-4,5,-3,88,1500.0,140.0
14:01:57.571,LAND,-35.3632624,149.1652371,46769,-0.007887361571192741,-0.00243897782638669,0.11316895484924316,-1.287877082824707,-0.0008031423203647137,-0.004790095612406731,-1,-49,-1010,-1287,0,-4,5,-3,88,1500.0,140.0
14:01:57.774,LAND,-35.3632624,149.1652371,46769,-0.007887361571192741,-0.00243897782638669,0.11316895484924316,-1.287877082824707,-0.0008031423203647137,-0.004790095612406731,-1,-49,-1010,-1287,0,-4,5,-3,88,1500.0,140.0
14:01:57.975,LAND,-35.3632624,149.1652371,46769,-0.007887361571192741,-0.00243897782638669,0.11316895484924316,-1.287877082824707,-0.0008031423203647137,-0.004790095612406731,-1,-49,-1010,-1287,0,-4,5,-3,88,1500.0,140.0
14:01:58.179,LAND,-35.3632624,149.1652371,46769,-0.007887361571192741,-0.00243897782638669,0.11316895484924316,-1.287877082824707,-0.0008031423203647137,-0.004790095612406731,-1,-49,-1010,-1287,0,-4,5,-3,88,1500.0,140.0
