time_stamp,RTL_ALT,MODE,roll,pitch,yaw,rollspeed,pitchspeed,yawspeed,lat,lon,relative_alt,vx,vy,vz,xacc,yacc,zacc,xgyro,ygyro,zgyro
02:25:24,1500.0,STABILIZE,-0.001492438605055213,0.0009758686646819115,0.024546606466174126,0.00016347644850611687,0.00024582253536209464,0.0017220729496330023,-35.3632622,149.1652375,0.0,-1.0,0.0,0.0,0.0,1.0,-1000.0,0.0,0.0,0.0
02:25:30,291509.0,AUTO,-0.0013434463180601597,0.0010098754428327084,0.02332091269393762,0.0002310163302657505,0.00024489561716715497,0.0015356220537796617,-35.3632622,149.1652375,4.666666666666667,-1.0,1.0,0.0,0.0,1.3333333333333333,-1000.0,0.0,1.0,0.3333333333333333
02:25:32,291509.0,AUTO,-0.0010349789711957176,0.0013037570752203465,0.022939535478750866,0.00020341912750154734,0.0003124905439714591,0.0014829564606770873,-35.3632621,149.1652375,11.0,0.0,0.0,-0.3333333333333333,0.0,1.3333333333333333,-1000.0,0.3333333333333333,0.3333333333333333,0.6666666666666666
02:25:33,265033.0,AUTO,-0.0007598095883925756,0.0016636357177048922,0.02267222044368585,0.00031765781265373033,0.00027639465406537056,0.0014414519149189193,-35.3632621,149.16523746666667,15.0,0.0,0.0,-1.0,0.0,1.6666666666666667,-1000.0,0.0,0.3333333333333333,1.0
02:25:34,265033.0,AUTO,0.002367779651346306,0.00019913701301751038,0.02252930278579394,0.003710097575094551,-0.0013902694336138666,0.001492741013256212,-35.3632621,149.1652375,131.66666666666666,0.0,0.3333333333333333,-49.333333333333336,0.0,0.0,-1140.0,3.6666666666666665,-1.0,0.6666666666666666
02:25:36,171963.0,AUTO,0.054374935726324715,-0.006243961863219738,0.001872571340451638,0.00491872305671374,0.01691481874634822,-0.02632198149027924,-35.36326176666667,149.1652392,2700.0,6.0,35.0,-149.33333333333334,0.3333333333333333,-6.0,-996.6666666666666,5.666666666666667,17.666666666666668,-27.0
02:25:38,171963.0,AUTO,-0.06105459233125051,0.0013530918513424695,-0.09462631493806839,0.05487902338306109,-0.00121967486726741,-0.015288503530124823,-35.363261,149.165244,5749.666666666667,-5.0,-36.666666666666664,-150.0,-2.6666666666666665,5.666666666666667,-1000.6666666666666,55.0,-0.3333333333333333,-15.0
02:25:39,67125.0,AUTO,0.025845432964464028,0.009756166798373064,-0.10188741733630498,0.06761719783147176,0.0059694338124245405,0.0025411984339977303,-35.3632624,149.16523606666667,7841.333333333333,-17.333333333333332,-47.666666666666664,-153.0,-3.6666666666666665,12.333333333333334,-1003.3333333333334,67.66666666666667,6.0,1.6666666666666667
02:25:40,67125.0,AUTO,0.05840150391062101,-0.005524198679874341,-0.08438411603371303,0.005327623958388965,-0.06090944431101283,0.06358410480121772,-35.36326373333333,149.16523343333333,9019.333333333334,-18.333333333333332,-8.0,-153.0,1.0,5.666666666666667,-998.3333333333334,6.333333333333333,-59.666666666666664,62.666666666666664
02:25:42,32322.0,AUTO,-0.01833342822889487,0.01111286940673987,-0.10923711955547333,0.013175234023947269,0.028922296439607937,-0.06362104788422585,-35.3632617,149.16523543333335,11944.666666666666,25.333333333333332,0.0,-152.66666666666666,-5.0,-4.0,-1003.0,13.333333333333334,29.333333333333332,-63.666666666666664
02:25:44,32322.0,AUTO,0.012402152021725973,0.011799193608264128,-0.15292584896087646,-0.006875978161891301,-0.012603187002241611,5.202018655836582e-05,-35.3632605,149.16523433333336,15226.0,-10.666666666666666,5.0,-153.0,1.3333333333333333,0.6666666666666666,-999.0,-5.666666666666667,-11.333333333333334,-0.3333333333333333
02:25:45,107408.0,AUTO,0.0007604688871651888,0.00032455886927588534,-0.1625247746706009,-0.005951346131041646,-0.004390910888711612,-0.016882424242794514,-35.363261566666665,149.16523529999998,17163.0,-9.0,9.666666666666666,-153.0,2.3333333333333335,0.0,-1000.3333333333334,-5.0,-3.0,-17.0
02:25:46,107408.0,AUTO,-0.0012054480612277985,-0.0011236113496124744,-0.17840978503227234,0.0010718946966032188,0.0008520444971509278,-0.024256059279044468,-35.3632619,149.16523586666668,18331.666666666668,-5.0,6.333333333333333,-153.0,1.3333333333333333,0.0,-1000.3333333333334,1.6666666666666667,1.0,-24.333333333333332
02:25:48,27397.0,AUTO,0.0036090207286179066,0.0028783540862301984,-0.22871462007363638,-0.00043529939527312916,0.0018569127617714305,-0.02213822367290656,-35.3632621,149.16523623333333,21458.333333333332,-0.3333333333333333,2.6666666666666665,-153.0,0.0,0.0,-999.3333333333334,0.6666666666666666,2.3333333333333335,-22.0
02:25:50,27397.0,AUTO,0.0016447398035476606,0.0032193961863716445,-0.2691924174626668,0.00030968452726180357,0.0006344661233015358,-0.020046658193071682,-35.3632621,149.1652366666667,24564.333333333332,-1.0,3.0,-153.0,0.0,0.0,-1000.0,0.6666666666666666,1.3333333333333333,-20.0
02:25:51,195457.0,AUTO,0.0037445060443133116,0.004948992437372605,-0.2523648142814636,0.020455306706329186,-0.006541774142533541,0.03308541079362234,-35.3632622,149.1652367,26504.0,-5.0,0.3333333333333333,-153.0,0.0,0.0,-1001.0,20.666666666666668,-5.0,32.333333333333336
02:25:52,195457.0,AUTO,0.00847265108798941,0.001605700779085358,-0.23000119626522064,-0.0021832946804352105,-0.0015877705300226808,0.025700960929195087,-35.36326236666667,149.16523673333333,27669.0,-3.6666666666666665,4.666666666666667,-153.0,0.0,0.0,-999.6666666666666,-1.0,-0.3333333333333333,25.333333333333332
02:25:54,255128.0,AUTO,-0.0009442340233363211,0.001558384858071804,-0.18929973244667053,-5.267698240155975e-05,0.0002834649834161003,0.017843618988990784,-35.3632624,149.1652378,30778.666666666668,0.0,5.0,-153.0,0.0,0.0,-1000.3333333333334,1.0,1.0,17.333333333333332
02:25:56,255128.0,AUTO,0.0009322946619552871,0.0011718102420369785,-0.15926233430703482,0.0013587523717433214,0.0011502136864388983,0.01351023061821858,-35.3632623,149.165238,33883.333333333336,0.0,0.0,-153.0,0.0,0.0,-1000.0,2.0,1.6666666666666667,13.0
02:25:57,92566.0,AUTO,0.0011430101391548912,0.0012123378304143746,-0.14422051111857095,0.0014304914123689134,9.117168762410681e-05,0.012119499035179615,-35.3632622,149.16523786666667,35823.666666666664,0.0,0.0,-153.0,0.0,0.0,-999.6666666666666,2.0,0.6666666666666666,11.666666666666666
02:25:58,92566.0,AUTO,0.0018174162444969018,0.0012992564976836245,-0.1365772783756256,0.0020241986494511366,0.0004988966587310036,0.010967341562112173,-35.3632622,149.16523773333336,36988.333333333336,0.0,0.0,-153.0,0.0,0.0,-1000.0,3.0,1.0,10.333333333333334
02:26:00,160689.0,AUTO,0.0018263246553639572,0.0017600076971575618,-0.11957321067651112,-0.001015960976170997,-0.0002006198240754505,0.007314914682259162,-35.3632621,149.1652375,40096.333333333336,-0.6666666666666666,0.3333333333333333,-153.0,0.0,0.0,-1000.0,0.3333333333333333,0.3333333333333333,7.0
02:26:02,160689.0,AUTO,-0.016672463854774833,0.020926313009113073,-0.06075857083002726,-0.09583312218698363,0.0905265969534715,0.26390179557104904,-35.363262,149.16523736666667,43186.666666666664,-4.0,-1.3333333333333333,-146.33333333333334,0.0,-0.3333333333333333,-973.6666666666666,-94.33333333333333,91.33333333333333,263.3333333333333
02:26:03,55594.0,AUTO,0.007591869371632735,-0.03830922146638235,0.27533602714538574,0.07430756150279194,-0.08585764778157075,0.03413226238141457,-35.36326413333334,149.16523406666667,44554.0,-23.0,-32.0,-54.666666666666664,2.3333333333333335,7.666666666666667,-909.6666666666666,75.0,-84.33333333333333,34.0
02:26:04,55594.0,AUTO,0.03778668741385142,-0.04619821781913439,0.26393891374270123,-0.15596248457829157,0.031410922606786094,-0.03317074726025263,-35.36326473333333,149.1652326,44817.666666666664,4.333333333333333,-0.6666666666666666,-21.333333333333332,-1.3333333333333333,-9.333333333333334,-983.3333333333334,-155.33333333333334,32.0,-32.333333333333336
02:26:06,154270.0,AUTO,-0.017594111772874992,0.0264229957635204,0.20141332348187765,0.4313676754633586,-0.04345661525925001,-0.01717742656668027,-35.36326183333333,149.16523716666666,45057.666666666664,7.0,17.0,3.0,1.3333333333333333,11.333333333333334,-995.3333333333334,431.6666666666667,-42.333333333333336,-16.666666666666668
02:26:08,154270.0,AUTO,-0.03501201172669729,-0.07571491226553917,-0.08081308255592982,-0.2883406827847163,-0.025198874684671562,-0.7125878036022186,-35.363257833333336,149.1652338,45037.333333333336,61.666666666666664,-55.333333333333336,-6.0,-19.0,-16.0,-1003.0,-288.0,-23.666666666666668,-712.0
02:26:09,186762.0,AUTO,0.009890123891333738,-0.1342131346464157,-0.551976760228475,-0.17641723155975342,-0.04366436724861463,0.0659562200307846,-35.36324726666667,149.1652227,45095.0,139.33333333333334,-114.33333333333333,-8.0,-37.666666666666664,-26.666666666666668,-1007.6666666666666,-175.66666666666666,-42.0,66.0
02:26:10,186762.0,AUTO,0.01679343854387601,-0.16665412982304892,-0.5242396593093872,-0.005958735942840576,-0.02862177959953745,0.013585846871137619,-35.363236199999996,149.16521136666665,45150.333333333336,201.33333333333334,-159.66666666666666,-8.666666666666666,-53.0,-27.0,-1007.0,-5.0,-27.0,13.666666666666666
02:26:12,124516.0,AUTO,0.04066536948084831,-0.20542102555433908,-0.5497637589772543,0.007439409693082173,-0.023732416176547606,0.004309389158152044,-35.363186199999994,149.16516233333334,45408.666666666664,369.3333333333333,-282.0,-16.0,-93.33333333333333,-51.333333333333336,-1004.6666666666666,8.0,-22.333333333333332,5.0
02:26:14,124516.0,AUTO,0.05596528699000677,-0.1752979209025701,-0.5642607013384501,-0.006691890613486369,0.03626465673247973,-0.0012124485801905394,-35.3631074,149.16508713333332,45880.666666666664,499.3333333333333,-377.3333333333333,-28.666666666666668,-133.0,-59.0,-997.3333333333334,-5.666666666666667,36.666666666666664,-0.6666666666666666
02:26:15,197439.0,AUTO,0.06814248114824295,-0.15004376073678335,-0.5718074043591818,0.009650880315651497,0.020388902941097815,-0.011135800431172052,-35.36304943333334,149.16503196666665,46248.0,531.0,-402.0,-30.666666666666668,-142.33333333333334,-55.666666666666664,-996.3333333333334,11.0,20.666666666666668,-9.666666666666666
02:26:16,197439.0,AUTO,0.07138209541638692,-0.13210819164911905,-0.5754798452059428,0.003893244235465924,0.01393813081085682,-0.00840960668089489,-35.36301326666666,149.1649977,46492.666666666664,534.0,-403.6666666666667,-31.0,-133.0,-63.666666666666664,-978.3333333333334,5.0,15.0,-7.333333333333333
02:26:18,17618.0,AUTO,0.07009332130352657,-0.12154113252957661,-0.5877579847971598,0.01744481362402439,0.056950016568104424,-0.011603240855038166,-35.36291673333333,149.1649068,47028.666666666664,537.0,-410.3333333333333,-27.0,-140.33333333333334,-70.0,-1000.3333333333334,18.0,57.666666666666664,-11.0
02:26:20,17618.0,AUTO,0.07483964910109837,-0.018560378191371758,-0.5948446989059448,0.02376696467399597,0.04954733575383822,-0.017442228893438976,-35.36282583333334,149.1648210666667,47607.666666666664,446.3333333333333,-344.3333333333333,-19.333333333333332,-116.33333333333333,-59.666666666666664,-987.0,25.666666666666668,50.0,-16.666666666666668
02:26:21,4156.0,AUTO,0.05979409068822861,0.03964645850161711,-0.5976885954538981,-0.19695191582043967,0.02670006810997923,-0.014055677379171053,-35.362780799999996,149.1647788,47828.0,341.6666666666667,-262.0,-13.666666666666666,-88.0,-53.666666666666664,-1004.6666666666666,-195.0,27.333333333333332,-13.0
02:26:22,4156.0,AUTO,0.061417938520510994,0.046429455280303955,-0.6006963650385538,-0.04939087231953939,0.002802878268994391,0.010565360697607199,-35.362760099999996,149.16475920000002,47931.666666666664,270.3333333333333,-206.0,-10.333333333333334,-69.33333333333333,-56.666666666666664,-995.0,-48.333333333333336,3.6666666666666665,11.333333333333334
02:26:24,87486.0,AUTO,0.029269483561317127,0.07239595055580139,-0.6065288782119751,-0.2789647380510966,-0.028693373315036297,-0.009740824655940136,-35.36272733333333,149.16472743333333,48131.0,106.33333333333333,-67.66666666666667,-4.333333333333333,-24.0,-18.333333333333332,-995.0,-277.0,-27.0,-9.0
02:26:26,87486.0,AUTO,0.010306427100052437,0.027145681902766228,-0.6152801513671875,0.13384243845939636,-0.023879697546362877,-0.002219177627315124,-35.362719366666674,149.1647203,48184.666666666664,15.0,1.0,-0.6666666666666666,-0.6666666666666666,-5.666666666666667,-1001.3333333333334,135.0,-22.333333333333332,-1.0
02:26:27,260328.0,AUTO,0.0012327226189275582,-0.005321496961793552,-0.6193010409673055,-0.017340256522099178,-0.015138454114397367,-0.001804229027281205,-35.3627195,149.16472066666668,48189.0,1.6666666666666667,3.6666666666666665,0.0,1.0,-7.666666666666667,-996.3333333333334,-16.0,-14.0,-1.0
02:26:28,260328.0,RTL,0.0034350336839755378,-0.0028291753648469844,-0.6213029821713766,0.30440061787764233,0.0008075103008498749,-0.0013135840417817235,-35.36271966666667,149.1647209333333,48185.666666666664,3.3333333333333335,0.0,-0.6666666666666666,0.6666666666666666,16.0,-1010.0,306.3333333333333,1.3333333333333333,-0.3333333333333333
02:26:30,20384.0,RTL,-0.0034725882772666714,0.001180920012605687,-0.6254741350809733,-0.07037333647410075,-0.0007045259699225426,-0.004180638973290722,-35.36271956666666,149.1647214666667,48656.0,2.6666666666666665,-2.3333333333333335,-59.666666666666664,0.0,-1.6666666666666667,-1035.3333333333333,-68.66666666666667,0.3333333333333333,-3.0
02:26:32,20384.0,RTL,0.0006347140103268126,0.0014137236090997856,-0.6311986645062765,0.022851784403125446,0.00039850113292535144,-0.0023785213318963847,-35.3627193,149.16472176666664,50622.0,0.0,-5.666666666666667,-134.66666666666666,-0.3333333333333333,0.6666666666666666,-1035.0,24.0,0.6666666666666666,-1.6666666666666667
02:26:33,149128.0,RTL,0.04562352349360784,-0.001265757717192173,-0.6337880889574686,0.03198169947912296,0.0026707779616117477,-0.008143520836407939,-35.36271876666667,149.16472186666667,52489.333333333336,14.0,11.333333333333334,-150.0,0.0,-2.3333333333333335,-999.6666666666666,33.0,4.0,-7.666666666666667
02:26:34,149128.0,RTL,0.029661443821775418,0.013835567360123,-0.659865121046702,-0.09263247189422448,0.015499959389368692,-0.04822782427072525,-35.36271706666667,149.16472366666667,53636.666666666664,30.333333333333332,32.666666666666664,-147.66666666666666,2.6666666666666665,-9.0,-996.3333333333334,-90.33333333333333,16.0,-47.0
02:26:36,239385.0,RTL,-0.03322608148058256,0.007618623164792855,-0.7153197725613912,0.06099532047907511,0.008469776871303717,-0.006937234507252772,-35.36271623333334,149.16472396666666,56704.0,-36.666666666666664,-36.0,-150.33333333333334,-5.666666666666667,8.666666666666666,-1001.0,62.333333333333336,9.0,-5.666666666666667
02:26:38,239385.0,RTL,0.009853752640386423,-0.0048004760562131805,-0.6699831287066141,-0.011304552822063366,0.012020866697033247,0.0053831715874063475,-35.36272246666667,149.16471666666666,59810.666666666664,-22.333333333333332,-20.0,-151.0,-3.3333333333333335,6.333333333333333,-999.3333333333334,-9.0,12.666666666666666,5.666666666666667
02:26:39,92981.0,RTL,0.046709162493546806,0.009154423760871092,-0.6228175560633341,0.05851641048987707,-0.004029060015454888,0.04600991681218147,-35.3627239,149.1647141,61742.666666666664,-7.333333333333333,0.0,-150.66666666666666,-1.3333333333333333,2.0,-1006.6666666666666,59.666666666666664,-2.6666666666666665,46.0
02:26:40,92981.0,RTL,0.08036337047815323,0.0018983191500107448,-0.602150042851766,0.027686996579480667,-0.004632536321878433,0.011477271715799967,-35.3627234,149.1647149,62909.0,18.333333333333332,34.333333333333336,-151.0,2.0,-5.666666666666667,-997.0,29.0,-3.3333333333333335,12.0
02:26:42,2095.0,RTL,-0.08532242104411125,0.007096581626683474,-0.6953169703483582,-0.10312342643737793,0.0029885643161833286,-0.0648935151596864,-35.362714833333335,149.164726,65962.33333333333,28.666666666666668,28.0,-152.33333333333334,5.0,-11.333333333333334,-1007.0,-101.0,4.0,-63.333333333333336
02:26:44,2095.0,RTL,-0.019525491011639435,0.027500081807374954,-0.7569199005762736,0.12145201116800308,0.013825248926877975,-0.01207625741759936,-35.36272123333333,149.16471703333332,69014.66666666667,-91.33333333333333,-69.0,-149.0,-11.666666666666666,21.666666666666668,-1004.6666666666666,123.0,15.0,-10.666666666666666
02:26:45,232221.0,RTL,0.17249858379364014,-0.0016731714131310582,-0.849444846312205,0.06711007903019588,-0.02577472912768523,-0.05809404576818148,-35.36272913333333,149.1647128,70953.0,-13.333333333333334,30.666666666666668,-153.0,2.6666666666666665,7.0,-1003.3333333333334,68.66666666666667,-24.0,-56.666666666666664
02:26:46,232221.0,RTL,0.18934397399425507,-0.033421745213369526,-0.8718494176864624,-0.06749812917162974,-0.11748982096711795,0.0689236077790459,-35.3627263,149.16471779999998,72064.33333333333,97.66666666666667,97.33333333333333,-133.33333333333334,18.0,-20.0,-980.0,-65.66666666666667,-115.66666666666667,70.0
02:26:48,46395.0,RTL,-0.010367458531012138,-0.12205016613006592,-0.6978838443756104,-0.04952119290828705,0.08993934094905853,0.027076492706934612,-35.362685866666666,149.16472530000001,74578.0,302.6666666666667,-71.0,-120.33333333333333,-37.0,-58.666666666666664,-1013.6666666666666,-47.0,90.66666666666667,28.0
02:26:50,46395.0,RTL,-0.09201762080192566,0.14924589296181998,-0.7099224130312601,0.025129617502291996,0.1409557710091273,-0.0116386649509271,-35.3626435,149.16469163333332,77517.66666666667,82.66666666666667,-176.66666666666666,-168.0,-49.666666666666664,-9.666666666666666,-1027.0,26.333333333333332,142.33333333333334,-9.666666666666666
02:26:51,251118.0,RTL,-0.010590333491563797,0.24791744848092398,-0.7331292827924093,0.10767952104409535,-2.973588804403941e-05,-0.009550204500555992,-35.362648766666666,149.16467566666668,79499.0,-171.33333333333334,-29.666666666666668,-133.33333333333334,-2.3333333333333335,33.333333333333336,-987.0,109.0,1.6666666666666667,-7.666666666666667
02:26:52,251118.0,RTL,0.07474233210086823,0.2069036861260732,-0.7347831924756368,0.08111844134206574,-0.1271235595146815,0.04676670270661513,-35.362663166666664,149.16467916666667,80424.0,-247.0,114.66666666666667,-109.66666666666667,34.333333333333336,45.333333333333336,-998.6666666666666,82.66666666666667,-125.33333333333333,47.666666666666664
02:26:54,20347.0,RTL,-0.024299435162295897,-0.13211706777413687,-0.6188300251960754,-0.18004812796910605,-0.016096426639705896,-0.145144854982694,-35.362693400000005,149.16471953333334,83286.0,-29.666666666666668,137.0,-164.66666666666666,37.666666666666664,-5.0,-1000.0,-177.33333333333334,-14.0,-143.0
02:26:56,20347.0,RTL,-0.10801817228396733,0.1597361962000529,-0.9940090576807658,0.16513202091058096,0.09029000873366992,0.08732092380523682,-35.3627071,149.1647142,86007.33333333333,-232.33333333333334,-75.66666666666667,-113.0,-19.0,51.666666666666664,-1025.0,166.33333333333334,91.33333333333333,88.0
02:26:57,146230.0,RTL,0.09558585410316785,0.15044131378332773,-0.9146070082982382,0.1550210416316986,-0.08536816388368607,0.056570183485746384,-35.36273933333334,149.1647166333333,87475.66666666667,-298.6666666666667,132.0,-120.66666666666667,34.666666666666664,68.66666666666667,-1031.0,156.33333333333334,-83.33333333333333,57.666666666666664
02:26:58,146230.0,RTL,0.18545933067798615,0.04270337428897619,-0.8810112078984579,0.061175357550382614,-0.17926134169101715,0.07476978252331416,-35.362756966666666,149.16473266666665,88440.33333333333,-204.33333333333334,255.66666666666666,-131.0,58.0,39.0,-1034.6666666666667,62.333333333333336,-177.33333333333334,75.66666666666667
02:27:00,255159.0,RTL,-0.10198540613055229,-0.19463664293289185,-1.0419619878133137,-0.27424447735150653,-0.1215095470348994,-0.05122262674073378,-35.362759399999995,149.1647883,91384.0,111.0,118.33333333333333,-161.0,38.666666666666664,-26.333333333333332,-1039.0,-271.6666666666667,-119.66666666666667,-49.0
02:27:02,255159.0,RTL,-0.1183348794778188,0.023562633742888767,-0.8706326285998026,0.09316018968820572,0.16673280795415243,0.1525492991010348,-35.362756,149.1647535666667,93800.66666666667,-101.0,-326.3333333333333,-107.0,-75.33333333333333,29.0,-1063.0,94.66666666666667,167.66666666666666,154.0
02:27:03,49203.0,RTL,0.043106460478156805,0.1919698417186737,-0.7745108604431152,0.14926542341709137,0.0878370814025402,0.04808878774444262,-35.362777066666666,149.16471620000002,95463.33333333333,-251.33333333333334,-166.0,-146.0,-31.666666666666668,69.66666666666667,-1034.6666666666667,151.0,89.0,49.333333333333336
02:27:04,49203.0,RTL,0.1646608461936315,0.21021577219168344,-0.737691064675649,0.14705217878023782,-0.03600190424670776,0.044003017246723175,-35.3627959,149.1647098,96555.0,-283.6666666666667,31.0,-135.0,15.0,64.33333333333333,-1011.6666666666666,149.0,-34.666666666666664,45.333333333333336
02:27:06,111042.0,RTL,0.1909955491622289,-0.1395294318596522,-0.7219608227411906,-0.13346689442793527,-0.09996253997087479,-0.11490421493848164,-35.362824333333336,149.16476563333336,98873.66666666667,72.66666666666667,368.0,-111.33333333333333,78.66666666666667,-35.666666666666664,-1035.0,-130.66666666666666,-98.0,-112.66666666666667
02:27:08,111042.0,RTL,-0.16469555596510568,-0.23592103521029154,-1.0218514998753865,-0.17032173772652945,-0.014366194140166044,-0.0548373186805596,-35.36278183333334,149.16481126666665,101535.0,283.6666666666667,-53.0,-141.0,-4.333333333333333,-70.0,-1022.6666666666666,-167.33333333333334,-12.333333333333334,-52.666666666666664
02:27:09,157420.0,RTL,-0.21308788160483041,-0.0789905406224231,-1.0106131831804912,0.09179756479958694,0.2693997124830882,0.1316682050625483,-35.36275963333333,149.1647791,102936.33333333333,89.33333333333333,-375.0,-88.0,-89.33333333333333,-23.666666666666668,-1041.6666666666667,93.66666666666667,270.3333333333333,133.0
02:27:10,157420.0,RTL,-0.15463454524676004,0.11973172798752785,-0.9707648356755575,0.10720457384983699,0.2519363562266032,0.10592784732580185,-35.3627593,149.16474670000002,103724.66666666667,-82.0,-383.6666666666667,-120.66666666666667,-88.33333333333333,16.666666666666668,-1074.3333333333333,109.0,252.66666666666666,107.0
02:27:12,53514.0,RTL,0.19808408121267954,0.26632846891880035,-0.9199241797129313,0.1327872077624003,-0.10514869044224422,0.0415647259602944,-35.36280583333333,149.16471373333334,106348.0,-316.6666666666667,171.66666666666666,-101.0,37.333333333333336,71.0,-1009.3333333333334,134.66666666666666,-103.0,43.0
02:27:14,53514.0,RTL,0.0988435335457325,-0.2613148093223572,-0.806956152121226,-0.2811760405699412,-0.04298208405574163,-0.11176903421680133,-35.3628239,149.16478106666668,108775.33333333333,192.0,262.6666666666667,-126.66666666666667,52.333333333333336,-50.0,-1030.0,-278.3333333333333,-41.0,-109.33333333333333
02:27:15,266077.0,RTL,-0.20114272832870483,-0.29399996995925903,-0.9542432427406311,-0.12853074818849564,0.049065062776207924,-0.05937901387612025,-35.36279376666667,149.16479273333334,110348.33333333333,290.6666666666667,-130.33333333333334,-108.0,-22.0,-73.33333333333333,-1016.6666666666666,-125.33333333333333,50.333333333333336,-57.0
02:27:16,266077.0,RTL,-0.1566325972477595,-0.10806196803847949,-0.9111664692560831,0.09641578545173009,0.3090071926514308,0.16844139993190765,-35.36277703333334,149.16477236666665,111064.66666666667,206.33333333333334,-332.6666666666667,-88.33333333333333,-89.0,-33.0,-1062.3333333333333,98.66666666666667,310.0,170.0
02:27:18,40842.0,RTL,0.06764961592853069,0.28354007999102276,-0.8214831550916036,0.27120086550712585,0.01736045815050602,-0.05314733336369196,-35.3627777,149.16470360000002,113849.66666666667,-206.66666666666666,-132.33333333333334,-149.66666666666666,-31.666666666666668,57.0,-1028.6666666666667,273.3333333333333,18.333333333333332,-50.666666666666664
02:27:20,40842.0,RTL,0.21260148783524832,-0.23783216873804727,-0.7989959319432577,-0.11667358006040256,-0.15408674627542496,0.1089622291425864,-35.362803500000005,149.16473843333333,116207.0,112.66666666666667,298.0,-113.33333333333333,62.0,-31.0,-1056.0,-113.33333333333333,-152.0,110.66666666666667
02:27:21,84938.0,RTL,0.003623600428303083,-0.24309082329273224,-0.9265743891398112,-0.22459792594114938,0.009455639868974686,-0.1563147852818171,-35.362772899999996,149.16476583333335,117518.33333333333,388.3333333333333,65.66666666666667,-99.0,1.6666666666666667,-97.66666666666667,-1044.0,-221.0,11.0,-153.66666666666666
02:27:22,84938.0,RTL,-0.1112499013543129,-0.22610951463381448,-1.0123503009478252,-0.12625643610954285,0.06636775409181912,-0.06036166846752167,-35.36274636666666,149.16476273333333,118307.66666666667,388.6666666666667,-142.66666666666666,-104.33333333333333,-27.333333333333332,-89.33333333333333,-1034.6666666666667,-123.0,67.66666666666667,-57.666666666666664
02:27:24,244754.0,RTL,-0.0997060810526212,0.2626057416200638,-1.0235595901807149,0.22472260147333145,0.25813477238019306,0.17381099859873453,-35.36270966666667,149.16470243333333,121101.0,-48.333333333333336,-227.33333333333334,-168.66666666666666,-56.0,0.0,-1039.0,227.33333333333334,259.3333333333333,175.0
02:27:26,244754.0,RTL,0.12657719726363817,-0.22203562160332999,-0.8840764363606771,-0.3718164066473643,-0.08385975038011868,0.06648312757412593,-35.36272496666667,149.16471556666667,123716.33333333333,103.33333333333333,194.0,-123.66666666666667,46.666666666666664,-26.0,-1060.3333333333333,-368.3333333333333,-82.0,68.33333333333333
02:27:27,45214.0,RTL,-0.23897327979405722,-0.07388197692732017,-1.2947253386179607,0.046610300739606224,0.21315163870652518,-0.16411208485563597,-35.362710066666665,149.16472480000002,125471.66666666667,54.666666666666664,-64.66666666666667,-147.0,-3.3333333333333335,-19.666666666666668,-1024.3333333333333,49.666666666666664,214.33333333333334,-161.66666666666666
02:27:28,45214.0,RTL,-0.10297625636061032,0.06521101171771686,-1.286183476448059,0.1684673527876536,0.1576286107301712,0.1434504563609759,-35.36271126666667,149.1647177,126556.66666666667,-78.0,-88.0,-140.0,-25.333333333333332,7.666666666666667,-1016.3333333333334,170.66666666666666,158.66666666666666,144.66666666666666
02:27:30,45568.0,RTL,0.19165844221909842,-0.019373020778099697,-1.3744598627090454,0.027642871563633282,-0.14623202631870905,-0.05255351091424624,-35.36272976666667,149.1647223,129517.33333333333,1.6666666666666667,106.66666666666667,-148.33333333333334,19.333333333333332,14.333333333333334,-1014.0,31.0,-144.33333333333334,-50.333333333333336
02:27:32,45568.0,RTL,-0.049850381910800934,-0.08514872193336487,-1.4083339373270671,-0.07057156041264534,0.09131199618180592,-0.13144557178020477,-35.362707066666665,149.16472116666668,132298.66666666666,147.33333333333334,-138.66666666666666,-139.0,-13.0,-45.333333333333336,-1024.3333333333333,-67.33333333333333,92.33333333333333,-129.0
02:27:33,240078.0,RTL,-0.06666951129833858,0.007445344856629769,-1.5001583496729534,0.04336615186184645,0.1212625801563263,0.0013324655592441559,-35.3626973,149.16469706666666,134165.66666666666,22.666666666666668,-178.66666666666666,-151.33333333333334,-34.0,-28.666666666666668,-1011.0,46.333333333333336,122.33333333333333,3.3333333333333335
02:27:34,240078.0,RTL,0.05221564664194981,0.14768813302119574,-1.4023719628651936,0.19942429661750793,0.23690515756607056,0.25012072424093884,-35.36269743333333,149.16468423333336,135347.0,-15.0,-104.33333333333333,-157.66666666666666,-33.666666666666664,-8.0,-1023.0,202.33333333333334,238.0,252.0
02:27:36,125859.0,RTL,-0.10989110171794891,0.09675617888569832,-1.1095176935195923,0.06193858478218317,-0.22804102301597595,0.2224381466706594,-35.362704433333334,149.1647127,137738.33333333334,-137.66666666666666,292.0,-107.33333333333333,69.33333333333333,28.0,-1066.3333333333333,64.33333333333333,-226.0,224.0
02:27:38,125859.0,RTL,-0.07533044492204984,-0.11923962086439133,-1.068470557530721,-0.12473801399270694,-0.06305109647413094,-0.10114629194140434,-35.362727400000004,149.1647608333333,140808.33333333334,-84.33333333333333,97.33333333333333,-162.66666666666666,24.333333333333332,19.666666666666668,-994.3333333333334,-121.0,-61.0,-98.33333333333333
02:27:39,73097.0,RTL,-0.16205602387587228,-0.16944338381290436,-1.0779098669687908,0.1435974712173144,0.10621723222235839,0.045965362495432295,-35.3627397,149.164758,142621.66666666666,-137.66666666666666,-149.66666666666666,-116.0,-30.0,29.0,-987.3333333333334,146.33333333333334,107.33333333333333,47.666666666666664
02:27:40,73097.0,RTL,-0.04940991507222255,-0.05282284536709388,-1.0028708974520366,0.1587197333574295,0.15617003043492636,0.15017261107762656,-35.36275043333333,149.16474159999999,143500.66666666666,-162.66666666666666,-223.33333333333334,-122.0,-50.333333333333336,38.666666666666664,-1041.0,161.66666666666666,157.0,152.0
02:27:42,48189.0,RTL,0.44027475516001385,-0.12148320116102695,-0.9503085414568583,-0.2544252077738444,-0.45625318586826324,0.061107516288757324,-35.362769899999996,149.16472086666667,146413.33333333334,103.66666666666667,135.0,-92.33333333333333,20.666666666666668,-15.0,-966.0,-250.66666666666666,-454.0,63.666666666666664
02:27:44,48189.0,RTL,-0.04779809465010961,-0.15178678929805756,-1.2548624277114868,-0.1331651583313942,0.08258072488630812,-0.12043918172518413,-35.36271416666667,149.16472409999997,148214.33333333334,344.3333333333333,-162.0,-119.66666666666667,-13.666666666666666,-92.66666666666667,-1035.6666666666667,-129.33333333333334,84.0,-117.66666666666667
02:27:45,81187.0,RTL,-0.1489566614230474,-0.026226326823234558,-1.3721201022466023,-0.03521623578853905,0.1471511796116829,-0.026503072896351416,-35.3626853,149.16469073333334,149938.0,139.33333333333334,-292.0,-149.0,-50.0,-58.666666666666664,-1035.6666666666667,-32.0,148.66666666666666,-24.0
02:27:46,81187.0,RTL,-0.0657602275411288,0.14540412525335947,-1.3339732487996419,0.2937205781539281,0.30681900183359784,0.16050987193981806,-35.3626807,149.1646675,151129.0,-3.3333333333333335,-241.33333333333334,-160.66666666666666,-61.666666666666664,-22.0,-1041.0,296.6666666666667,308.0,162.33333333333334
02:27:48,34096.0,RTL,-0.15038598577181497,0.1374713939925035,-1.0920776923497517,-0.014801246424516043,-0.5032735764980316,0.3099965850512187,-35.36268703333334,149.16468669999998,153257.66666666666,-127.33333333333333,354.6666666666667,-69.0,80.66666666666667,35.666666666666664,-1125.6666666666667,-11.666666666666666,-501.0,312.0
02:27:50,34096.0,RTL,-0.14279085770249367,-0.26038163403669995,-0.993672768274943,0.21379725635051727,-0.3109066883722941,-0.25533586740493774,-35.36271706666667,149.1647381,156156.33333333334,-171.33333333333334,20.666666666666668,-151.66666666666666,20.666666666666668,41.666666666666664,-1030.0,216.66666666666666,-308.6666666666667,-252.33333333333334
02:27:51,113353.0,RTL,0.17768420775731406,-0.10977308995400865,-0.8846109708150228,0.21313039710124335,0.49263301491737366,0.33283597727616626,-35.362727400000004,149.16472056666666,157871.0,28.333333333333332,-202.66666666666666,-127.0,-56.666666666666664,10.0,-1057.6666666666667,216.33333333333334,494.0,335.0
02:27:52,113353.0,RTL,0.19268479943275452,0.1908617690205574,-0.864264170328776,-0.05327272911866506,0.15171782672405243,-0.4062793304522832,-35.362723233333334,149.16470876666665,158932.0,85.66666666666667,-51.0,-143.0,-24.0,-15.0,-1030.6666666666667,-49.666666666666664,153.66666666666666,-403.3333333333333
02:27:54,231450.0,RTL,-0.06853523602088292,-0.024890489255388577,-1.0403789679209392,0.034437558924158417,-0.01982748508453369,0.007073387348403533,-35.36271453333333,149.16472223333335,161650.0,-1.6666666666666667,47.333333333333336,-135.66666666666666,12.333333333333334,-0.6666666666666666,-1021.3333333333334,37.0,-17.666666666666668,9.0
02:27:56,231450.0,RTL,0.014033695993324121,0.001989980461075902,-1.05794358253479,0.024099452421069145,0.05355912446975708,-0.04401321584979693,-35.3627169,149.16472203333333,164672.33333333334,-8.0,-24.666666666666668,-152.33333333333334,-6.333333333333333,1.3333333333333333,-1001.6666666666666,27.0,55.0,-41.0
02:27:57,126060.0,RTL,0.009201791137456894,0.031109211966395378,-1.107540766398112,-0.09413723554462194,-0.03500395501032472,0.011539366406699022,-35.362717366666665,149.1647206,166616.66666666666,-1.0,15.666666666666666,-150.33333333333334,2.0,-0.6666666666666666,-993.3333333333334,-90.33333333333333,-32.666666666666664,14.333333333333334
02:27:58,126060.0,RTL,-0.03918540726105372,0.013310288234303394,-1.0470961332321167,0.021871238326032955,-0.026946399904166658,0.11585650344689687,-35.362717866666664,149.16472166666665,167755.33333333334,-21.0,14.666666666666666,-147.66666666666666,2.6666666666666665,3.0,-999.6666666666666,25.333333333333332,-25.0,118.0
02:28:00,127434.0,RTL,0.01648085005581379,-0.006598961151515444,-1.0077659289042156,-0.009479766401151815,0.01748922901848952,0.0035143434846152863,-35.36272086666667,149.1647215,170787.33333333334,0.0,-3.0,-150.33333333333334,-1.6666666666666667,0.0,-999.0,-5.333333333333333,19.0,6.0
02:28:02,127434.0,RTL,7.844416783579315e-05,0.011696920109291872,-1.0020297765731812,-0.003884323717405399,0.000547401801062127,0.002386416851853331,-35.3627192,149.1647202,173824.66666666666,3.3333333333333335,3.0,-150.33333333333334,0.0,-2.0,-1002.0,-0.6666666666666666,2.6666666666666665,4.666666666666667
02:28:03,271628.0,RTL,-0.0016436382041623194,0.008921493776142597,-0.9989237785339355,0.001051839751501878,-0.002798240864649415,0.003457870722437898,-35.36271863333334,149.1647201,175750.33333333334,-2.0,5.0,-150.66666666666666,0.0,-0.3333333333333333,-999.3333333333334,3.6666666666666665,-0.6666666666666666,5.333333333333333
02:28:04,271628.0,RTL,-0.000728368351701647,0.0072381348970035715,-0.9972585837046305,0.00045780278742313385,0.0012180045402298372,0.0012646632579465706,-35.362718566666665,149.1647202,176905.33333333334,-4.333333333333333,5.333333333333333,-149.66666666666666,0.0,0.0,-999.0,3.0,3.0,3.3333333333333335
02:28:06,272775.0,RTL,0.0005633349161750326,0.00447799963876605,-0.9934103488922119,0.0025543822751690945,9.789985294143359e-05,0.0021028980457534394,-35.36271866666667,149.16472046666667,179940.66666666666,-5.0,4.666666666666667,-148.66666666666666,0.0,0.0,-999.6666666666666,5.333333333333333,2.0,4.333333333333333
02:28:08,272775.0,RTL,0.000992308099133273,0.004588330319772164,-0.9899347821871439,0.0007500021408001581,0.0002446570433676243,0.0018448448584725459,-35.3627189,149.1647206,182968.0,-4.0,3.0,-148.0,0.0,0.0,-999.3333333333334,3.3333333333333335,2.0,4.0
02:28:09,299717.0,RTL,0.0015267610627536972,0.003884872809673349,-0.9878784616788229,0.00047786572637657326,0.0007076124117399255,0.002374836321299275,-35.362719,149.1647206,184850.33333333334,-3.0,3.0,-148.0,0.0,0.0,-1001.6666666666666,3.3333333333333335,2.6666666666666665,4.666666666666667
02:28:10,299717.0,RTL,0.0018524105350176494,0.0040844944305717945,-0.9869846304257711,-0.00018554017879068851,0.0007055594275395075,0.0023964460318287215,-35.36271906666666,149.1647206,185986.66666666666,-2.6666666666666665,3.0,-149.0,0.0,0.0,-999.6666666666666,2.3333333333333335,2.6666666666666665,4.666666666666667
02:28:12,3726.0,RTL,0.0016177469321216147,0.004292555929472049,-0.984555204709371,0.005223657431391378,0.0007091432344168425,-0.0005016508124147853,-35.3627191,149.16472066666665,189014.66666666666,-2.0,3.0,-148.33333333333334,0.0,0.0,-1004.3333333333334,8.0,2.6666666666666665,1.6666666666666667
02:28:14,3726.0,RTL,0.026609128341078758,0.01251838713263472,-1.0115512609481812,-0.1286668280760447,0.04281857858101527,-0.07734818756580353,-35.36271623333334,149.16472213333336,192096.66666666666,44.0,22.333333333333332,-149.33333333333334,2.6666666666666665,-10.666666666666666,-994.6666666666666,-125.0,45.333333333333336,-74.0
02:28:15,67711.0,RTL,-0.08219522734483083,0.0031972500340392194,-1.0706371068954468,-0.011740635770062605,-0.006502969112868111,-0.022758339221278828,-35.36271356666667,149.16472376666667,194008.33333333334,-18.666666666666668,-5.0,-151.0,0.0,1.3333333333333333,-999.6666666666666,-9.0,-3.6666666666666665,-19.333333333333332
02:28:16,67711.0,RTL,-0.07427925243973732,0.002632798238967856,-1.0812452634175618,0.0592417245109876,0.009033039289837083,-0.007132404328634341,-35.3627163,149.16472223333332,195151.66666666666,-68.33333333333333,-29.333333333333332,-148.0,-7.333333333333333,12.666666666666666,-1001.6666666666666,62.0,11.333333333333334,-4.0
02:28:18,147089.0,RTL,0.12680194775263467,-0.045606888830661774,-1.0903222560882568,0.020520639916261036,-0.09315800666809082,0.08924218515555064,-35.3627292,149.16471793333332,198226.0,-6.0,15.666666666666666,-151.0,1.6666666666666667,6.0,-1003.0,24.0,-89.66666666666667,91.66666666666667
02:28:20,147089.0,RTL,-0.08255015437801679,0.03278347166875998,-1.2459930976231892,-0.07864046228739123,0.038082050159573555,-0.1106778693695863,-35.36271536666667,149.16471903333334,201218.33333333334,65.33333333333333,-0.6666666666666666,-153.0,5.0,-17.666666666666668,-1013.6666666666666,-74.66666666666667,40.333333333333336,-107.0
02:28:21,247708.0,RTL,-0.053284606585899986,0.04919410993655523,-1.228209137916565,0.041711955020825066,-0.025742574594914913,0.07155168801546097,-35.36271456666667,149.1647194,203157.66666666666,-47.666666666666664,17.0,-150.0,1.0,8.0,-999.3333333333334,44.333333333333336,-22.333333333333332,74.0
02:28:22,247708.0,RTL,-0.021989235033591587,0.017125018251438934,-1.16974937915802,0.03539250728984674,-0.06009454155961672,0.08488520483175914,-35.3627186,149.1647214333333,204302.66666666666,-71.66666666666667,31.0,-150.0,4.666666666666667,15.666666666666666,-1002.6666666666666,38.0,-56.666666666666664,87.33333333333333
02:28:24,279442.0,RTL,0.06322901820143063,-0.06506734527647495,-0.9877844254175822,-0.054642569894591965,0.11166759580373764,-0.030764691531658173,-35.362723566666666,149.16472356666665,207388.33333333334,57.0,-24.0,-146.66666666666666,-6.333333333333333,-9.666666666666666,-996.6666666666666,-51.333333333333336,114.33333333333333,-27.666666666666668
02:28:26,279442.0,RTL,-0.06873980537056923,0.051062836001316704,-1.1573962370554607,-0.028468555460373562,-0.034565272430578865,-0.023127271328121424,-35.36271206666667,149.16471953333334,210443.0,16.666666666666668,7.0,-153.0,0.6666666666666666,-7.0,-1004.3333333333334,-25.0,-31.0,-19.666666666666668
02:28:27,60883.0,RTL,-0.02419069968163967,0.020665792437891167,-1.1539941628774006,0.039241541642695665,-0.03655086054156224,0.028706207949047286,-35.36271476666667,149.16472066666668,212390.66666666666,-54.0,15.666666666666666,-151.0,1.3333333333333333,11.0,-999.6666666666666,42.0,-33.0,31.0
02:28:28,60883.0,RTL,-0.0034137481513122716,-0.021291334182024002,-1.1097073554992676,0.0404807198792696,-0.048912172516187034,0.06577200690905254,-35.36271856666667,149.16472183333335,213551.33333333334,-54.0,11.666666666666666,-152.0,1.3333333333333333,12.666666666666666,-1004.0,43.0,-45.333333333333336,68.0
02:28:30,298455.0,RTL,0.014543036930263042,0.0017795066038767497,-1.108615557352702,-0.0215756855905056,0.0286948358019193,-0.05068607007463773,-35.362722,149.1647202,216674.0,12.0,-11.666666666666666,-152.0,-3.3333333333333335,-2.3333333333333335,-1000.3333333333334,-18.0,31.0,-47.0
02:28:32,298455.0,RTL,0.0017472749241278507,0.014432821267594894,-0.9647794961929321,0.005354650008181731,-0.029463791598876316,0.10834200431903203,-35.362721799999996,149.16471933333332,219747.33333333334,-12.333333333333334,14.666666666666666,-151.33333333333334,2.0,2.0,-1001.6666666666666,8.0,-26.0,110.66666666666667
02:28:33,70672.0,RTL,0.007939137673626343,-0.011814652321239313,-0.8648190100987753,0.007234672239671151,-0.007628017337992787,0.0591941699385643,-35.36272283333333,149.16472096666666,221681.0,-2.0,10.666666666666666,-152.0,2.0,0.3333333333333333,-999.6666666666666,10.0,-4.0,61.666666666666664
02:28:34,70672.0,RTL,0.014686059517165026,-0.016224597270290058,-0.8467978636423746,0.008457522140815854,0.003375468465189139,-0.00646869745105505,-35.3627227,149.16472136666664,222841.33333333334,10.0,4.0,-151.0,0.0,-1.0,-998.3333333333334,11.0,6.333333333333333,-3.3333333333333335
02:28:36,93930.0,RTL,-0.013620699755847454,0.061755966395139694,-0.8666222095489502,-0.016656492215891678,0.04102494070927302,-0.003718954355766376,-35.36272016666666,149.16472206666666,225910.66666666666,-6.0,20.0,-149.33333333333334,2.0,-1.0,-997.0,-13.0,43.666666666666664,-0.3333333333333333
02:28:38,93930.0,RTL,-0.04717248926560084,0.12458629409472148,-0.880297839641571,-0.019516552177568276,0.037712376564741135,-0.005494219716638327,-35.36273143333333,149.16473466666665,228429.66666666666,-130.0,105.33333333333333,-82.33333333333333,26.666666666666668,23.333333333333332,-956.6666666666666,-15.666666666666666,40.666666666666664,-2.0
02:28:39,166570.0,RTL,-0.07422374188899994,0.16089526812235513,-0.8898670673370361,-0.023145827775200207,0.0037314046639949083,-0.0051903581867615385,-35.36275146666667,149.16475423333335,229148.66666666666,-233.33333333333334,182.66666666666666,-34.333333333333336,46.666666666666664,47.333333333333336,-979.3333333333334,-19.333333333333332,6.333333333333333,-1.6666666666666667
02:28:40,166570.0,RTL,-0.0867787351210912,0.16573046644528708,-0.8939330577850342,-0.002215205691754818,0.018848256828884285,-0.00389475142583251,-35.36276926666667,149.1647713,229352.33333333334,-295.0,230.33333333333334,-18.0,56.333333333333336,64.0,-975.6666666666666,1.0,21.666666666666668,-0.6666666666666666
02:28:42,167574.0,RTL,-0.10981475065151851,0.17067929605642954,-0.9027965466181437,0.001858456681172053,-0.03391996150215467,-0.007887345738708973,-35.3628371,149.16483566666668,229392.0,-455.0,351.6666666666667,-3.3333333333333335,87.33333333333333,88.66666666666667,-1000.0,5.333333333333333,-30.0,-4.0
02:28:44,167574.0,RTL,-0.11193218578894933,0.12911209960778555,-0.9058404763539633,-0.0020701816926399865,-0.01041068850706021,-0.0033443983799467483,-35.36292673333333,149.1649203,229431.33333333334,-530.0,409.0,-2.3333333333333335,111.66666666666667,117.33333333333333,-998.6666666666666,1.0,-7.333333333333333,0.0
02:28:45,264273.0,RTL,-0.10026921331882477,0.10441746935248375,-0.9077650010585785,0.014105379115790129,0.01133750844746828,0.0016451304545626044,-35.362985550000005,149.16497529999998,229448.5,-536.0,414.0,-1.5,106.5,116.5,-987.0,17.5,15.0,4.5
02:28:46,264273.0,RTL,-0.10667738690972328,0.1206444539129734,-0.9130527228116989,-0.0037622330710291862,0.01284415926784277,-0.0028241513355169445,-35.3630217,149.165009075,229437.0,-535.5,417.25,1.5,104.75,109.0,-984.25,0.0,16.25,0.25
02:28:48,198221.0,RTL,-0.09213809420665105,0.04197443711260954,-0.9139062166213989,-0.014955812444289526,-0.05671975016593933,-0.01495901751331985,-35.36311883333334,149.16510106666667,229484.33333333334,-506.0,397.3333333333333,-8.333333333333334,104.33333333333333,105.0,-984.3333333333334,-11.333333333333334,-52.666666666666664,-11.666666666666666
02:28:50,198221.0,RTL,-0.04339798974494139,-0.04545899604757627,-0.9156123797098795,0.3903425484895706,-0.03950309194624424,0.01975846632073323,-35.36319893333333,149.16517626666666,229434.66666666666,-360.6666666666667,280.0,-0.6666666666666666,70.0,108.0,-1003.6666666666666,394.0,-35.333333333333336,22.666666666666668
02:28:51,114186.0,RTL,-0.027080627158284187,-0.0627075545489788,-0.9196596145629883,-0.3884204030036926,-0.008334630401805043,-0.0016300942127903302,-35.363233466666664,149.1652079,229424.66666666666,-240.33333333333334,188.66666666666666,1.3333333333333333,44.666666666666664,54.333333333333336,-1007.6666666666666,-383.6666666666667,-4.666666666666667,2.0
02:28:53,114186.0,RTL,0.031213803216814995,-0.06814884394407272,-0.9242648184299469,0.6258666813373566,0.03091938327997923,0.0012368308380246162,-35.36326305,149.1652337,229426.0,-65.5,64.0,1.5,16.0,42.0,-995.0,629.0,33.5,5.0
02:28:54,42244.0,RTL,0.0217400377150625,-0.0495435381308198,-0.9250432401895523,-0.11151624098420143,0.020033917855471373,-0.0013600107049569488,-35.36326685,149.165237125,229426.75,-22.0,35.75,0.25,8.0,4.5,-1003.5,-107.5,23.0,2.25
02:28:55,42244.0,RTL,0.008975828532129526,-0.020242118276655674,-0.9267922341823578,-0.5600756406784058,0.02602631039917469,-0.006805147510021925,-35.36326835,149.16523934999998,229429.5,17.0,6.5,0.0,1.0,-28.5,-996.5,-555.5,28.5,-3.0
02:28:56,42244.0,RTL,0.01050373597536236,-0.000255163642577827,-0.9276159405708313,0.19559330167248845,0.020961506641469896,0.000528551172465086,-35.363267825,149.16523955000002,229429.5,20.0,2.0,0.5,1.0,4.25,-993.25,199.75,23.75,3.5
02:28:57,22194.0,RTL,0.009682792704552412,-0.007988220546394587,-0.929815798997879,0.5410356819629669,-0.005949462880380452,-0.0031115399906411767,-35.3632668,149.16523995,229430.0,15.5,1.0,0.0,1.0,28.0,-992.5,545.0,-2.5,0.5
02:28:59,22194.0,RTL,-0.003034836146980524,-0.0029739781748503447,-0.9333175122737885,-0.5188577324151993,0.007410264806821942,-0.003961995709687471,-35.363264799999996,149.16523975,229431.0,13.5,-9.0,-0.5,-1.0,-26.0,-1005.5,-514.0,10.0,0.0
02:29:00,260491.0,RTL,0.002960309269838035,-0.0012201865174574777,-0.9343463778495789,0.2151094637811184,0.001848686602897942,-0.0005580082652159035,-35.363264099999995,149.16523945,229430.75,11.25,-9.0,0.25,-0.75,5.75,-1005.0,219.0,4.5,2.75
02:29:01,260491.0,RTL,0.011465858202427626,-0.0008512483618687838,-0.9355914890766144,0.5706910490989685,0.000722177792340517,0.0005279035540297627,-35.3632635,149.16523875000001,229430.5,7.0,-7.0,0.0,-1.0,24.0,-999.5,575.0,3.0,3.5
02:29:02,260491.0,RTL,-0.004109566987608559,0.0005358112684916705,-0.9363335222005844,-0.6783073209226131,0.0010898798936977983,-0.0022393828839994967,-35.36326325,149.16523845,229321.0,5.75,-6.0,33.0,0.25,-30.75,-939.0,-673.5,3.5,1.0
02:29:03,24238.0,RTL,-0.021711993031203747,0.0021958937868475914,-0.9373243451118469,0.011147767305374146,0.004750718944706023,0.007003494072705507,-35.363262500000005,149.1652384,228441.5,5.0,-3.5,106.5,0.5,43.5,-929.0,18.0,7.0,10.5
02:29:05,24238.0,RTL,-0.020270566921681166,-0.00020975257939426228,-0.9389897584915161,0.23809358291327953,0.0006878312560729682,0.007050210144370794,-35.363261449999996,149.165239,226509.5,-6.5,-10.5,101.5,1.5,47.0,-986.0,243.5,3.0,10.0
02:29:06,12966.0,RTL,-0.016702451510354877,0.0013261346030049026,-0.9397896826267242,1.0165607556700706,0.005132038029842079,0.0034577097394503653,-35.363260875,149.16523945,225752.5,-7.5,-11.75,100.5,3.0,65.5,-998.25,1021.5,7.5,6.75
02:29:07,12966.0,RTL,-0.039963096380233765,0.0016811696696095169,-0.9417030215263367,0.7274904251098633,-0.003168769064359367,0.012038238812237978,-35.36325945,149.1652406,224334.0,-20.0,-19.5,112.0,0.5,74.0,-998.0,732.5,-0.5,15.0
02:29:09,63890.5,RTL,-0.011414291802793741,-0.004830430261790752,-0.9427362084388733,1.1678197979927063,-0.0006942515028640628,0.0003784355940297246,-35.3632597,149.16524055000002,222260.5,-29.0,-25.5,101.0,-2.5,81.5,-985.5,1172.0,2.0,3.5
02:29:11,114815.0,RTL,0.015408195089548826,-0.0013488417607732117,-0.9429523646831512,0.37795647233724594,0.004094567382708192,-0.0068877756129950285,-35.36326135,149.16523884999998,220380.5,-14.5,-16.0,102.5,-1.0,-16.0,-999.5,378.0,6.5,-3.5
02:29:12,136159.0,RTL,0.0015156610243138857,-0.0011264766508247703,-0.9445606917142868,-0.5252318605780602,0.0015465915785171092,-0.007720995461568236,-35.363261474999995,149.1652386,219614.25,-11.0,-12.5,100.25,-1.0,-54.0,-979.75,-524.5,3.75,-4.25
02:29:13,136159.0,RTL,0.019968549720942974,-0.002519235829822719,-0.9453161656856537,0.12569591403007507,-0.004790319944731891,-0.004667093162424862,-35.363262,149.16523805,218182.0,-7.5,-8.5,115.0,-0.5,-37.0,-999.5,125.5,-2.0,-1.0
02:29:15,84632.5,RTL,0.023635273799300194,0.00026253561372868717,-0.9460059106349945,0.0949874110519886,-0.0012246103142388165,-0.005541639286093414,-35.3632629,149.1652372,216070.0,2.5,-0.5,101.5,0.5,-34.5,-978.5,95.5,1.0,-2.0
02:29:17,33106.0,RTL,-0.0032093797635752708,0.0002287297393195331,-0.9468496143817902,-1.341489315032959,9.737233631312847e-05,-0.002824009512551129,-35.3632632,149.1652367,214244.0,7.0,3.0,101.0,0.0,-51.5,-1041.0,-1338.0,2.5,0.5
02:29:18,195755.0,RTL,-0.011396352900192142,0.0015488994831684977,-0.9471342861652374,-1.3497899174690247,0.0008039689855650067,-0.0019495949381962419,-35.363263075,149.1652368,213475.5,8.25,3.75,99.0,0.25,-52.0,-999.5,-1346.5,2.75,1.5
02:29:19,195755.0,RTL,-0.010491136461496353,0.0009775068319868296,-0.9478701949119568,-0.9004319906234741,0.007259768899530172,0.0003819558769464493,-35.36326285,149.16523695,212178.5,6.5,3.0,102.5,0.5,-9.0,-1018.5,-896.0,9.0,4.0
02:29:21,177541.5,RTL,-0.016208410263061523,0.002996402094140649,-0.9484162032604218,0.9099883139133453,0.003069130005314946,0.014853429514914751,-35.3632613,149.1652383,210134.5,-2.5,-2.5,96.0,0.0,58.5,-1022.0,914.0,5.0,17.5
02:29:23,159328.0,RTL,0.005405342148151249,-0.0014512970810756087,-0.9482259452342987,1.3555177450180054,-0.0020348631078377366,-0.002467402257025242,-35.363261249999994,149.16523865,208135.0,-9.0,-7.0,98.5,0.0,73.5,-1008.5,1358.0,0.5,1.5
02:29:24,107166.0,RTL,0.005377719586249441,-0.001238478667801246,-0.9493187516927719,1.3149953782558441,0.0001574385678395629,0.002813632308971137,-35.363261375,149.16523855,207358.75,-8.25,-7.25,96.75,-0.5,70.75,-1013.75,1318.0,2.5,6.25
02:29:25,107166.0,RTL,0.01746060373261571,0.0010275415115756914,-0.9495246708393097,1.2052879333496094,0.005826860782690346,0.005351344123482704,-35.3632615,149.1652383,206087.0,-7.5,-7.5,100.0,-2.0,35.0,-1072.5,1207.0,7.5,8.5
02:29:27,71197.0,RTL,0.004526438773609698,0.0038449130952358246,-0.9493862092494965,0.09678176045417786,0.0026284182677045465,-0.0006505276542156935,-35.3632612,149.1652382,204040.0,-9.5,-6.5,99.0,0.0,-35.5,-998.5,96.5,4.5,3.0
02:29:29,35228.0,RTL,0.009600399062037468,0.0028800974832847714,-0.9499440491199493,0.7017246186733246,-0.0017626293702051044,0.0009093722328543663,-35.3632609,149.1652384,201847.0,-12.0,-7.0,100.5,0.0,-11.5,-982.0,701.0,1.0,4.5
02:29:30,159931.0,RTL,0.005452413111925125,0.0012483066821005195,-0.9506234228610992,0.32823536545038223,-0.0031361841247417033,-0.002698331547435373,-35.363260925,149.1652384,201079.75,-13.25,-7.0,97.0,0.0,-19.25,-992.5,327.25,-0.25,0.75
02:29:31,159931.0,RTL,-0.007180734071880579,0.0004801317991223186,-0.9504326581954956,-0.928905576467514,-0.00020442658569663763,-0.0013195322826504707,-35.3632612,149.1652384,199952.0,-12.0,-8.0,85.5,0.0,-72.0,-949.5,-928.5,2.0,2.0
02:29:33,151114.5,RTL,-0.020068956539034843,-0.00022718221862305654,-0.950881153345108,-1.4965165853500366,-0.00469787756446749,0.003105222014710307,-35.3632614,149.1652383,197930.5,-9.0,-7.0,102.0,0.5,-59.0,-986.5,-1495.0,-2.0,6.5
02:29:35,142298.0,RTL,-0.013426005374640226,-0.0007106306438799948,-0.9512884616851807,-0.3468884006142616,0.0007330749067477882,0.00032555568031966686,-35.36326185,149.1652381,195883.5,-5.0,-5.5,101.0,-1.5,21.5,-982.0,-343.5,3.0,4.0
02:29:36,221722.0,RTL,0.002277208724990487,1.1372707831469597e-05,-0.9511148184537888,0.7352786734700203,0.0015721589443273842,0.00455803272780031,-35.36326199999999,149.1652379,195118.5,-2.5,-3.5,99.5,-1.5,65.0,-995.5,737.5,3.5,8.0
02:29:37,221722.0,RTL,0.011428917059674859,-0.0007056755421217531,-0.9506895244121552,1.1473962664604187,-0.001455745194107294,0.0049615869065746665,-35.36326245,149.16523745,193760.5,0.0,0.0,107.5,-1.0,84.0,-975.0,1149.5,1.0,8.5
02:29:39,175909.5,RTL,0.009151022735750303,-0.00020354891694296384,-0.9514746367931366,0.8021401986479759,0.002412972506135702,0.0033607606310397387,-35.3632633,149.1652367,191706.5,9.0,5.0,103.0,-1.0,63.5,-1032.0,804.5,4.0,6.5
02:29:41,130097.0,RTL,0.01914653182029724,0.0003916585701517761,-0.9520193934440613,1.343269944190979,-0.0038857832551002502,-5.586561746895313e-05,-35.3632634,149.1652365,189717.0,12.0,8.0,99.5,0.0,67.0,-1030.0,1345.5,-1.5,4.0
02:29:42,198542.0,RTL,0.02932696882635355,2.3290939225262264e-05,-0.9514844715595245,1.454606980085373,-0.00017427030252292752,0.005779842904303223,-35.363263625,149.16523635,188947.75,11.75,7.5,101.0,-0.5,71.0,-1012.25,1456.5,2.0,9.25
02:29:43,198542.0,RTL,0.022568844258785248,0.002490069717168808,-0.9516041874885559,1.3571040034294128,0.002337511396035552,0.0023556656669825315,-35.3632635,149.16523635,187678.5,15.5,9.5,99.5,1.5,54.5,-1026.5,1358.5,4.5,5.5
02:29:45,187676.5,RTL,0.007050176616758108,0.001717909937724471,-0.9507067799568176,0.12705596536397934,-0.0027422793209552765,-0.007076236070133746,-35.363262250000005,149.16523755,185643.5,4.0,2.0,102.0,0.0,-31.5,-982.5,126.5,-0.5,-3.5
02:29:47,176811.0,RTL,0.017737661488354206,-0.0033429948380216956,-0.9521502554416656,-0.07601762237027287,-0.0077015485148876905,-0.010871089063584805,-35.363262250000005,149.16523795,183381.5,-2.0,-3.0,104.5,-1.0,-44.5,-956.5,-75.5,-4.5,-6.0
02:29:48,91970.0,RTL,0.01621355628594756,-0.003037559217773378,-0.9520704597234726,-0.5671704113483429,0.00010097611811943352,-0.0026870823348872364,-35.3632627,149.1652376,182604.25,0.5,-1.75,102.25,-1.25,-57.5,-987.75,-567.0,2.0,1.25
02:29:49,91970.0,RTL,-0.008073759730905294,0.0005029241438023746,-0.9517847895622253,-1.158457338809967,-0.00044296932173892856,0.0008916456717997789,-35.36326305,149.1652372,181500.0,6.5,0.5,76.5,0.0,-39.0,-981.0,-1156.0,1.5,4.5
02:29:51,57682.0,RTL,-0.020461076870560646,0.0017493320046924055,-0.9504378139972687,-0.6929188072681427,-0.00021912844385951757,-0.008304617134854198,-35.3632622,149.16523765,179520.5,3.0,0.0,99.5,0.0,4.0,-996.0,-689.0,2.0,-4.5
02:29:53,23394.0,RTL,0.009014935232698917,-0.0013737938133999705,-0.9522335827350616,0.5963491797447205,0.003771984367631376,0.004610314266756177,-35.3632625,149.1652376,177448.5,1.5,-0.5,99.5,0.0,62.5,-988.5,599.5,5.5,8.5
02:29:54,171642.0,RTL,0.0035956580977654085,0.0012848003098042682,-0.9516002833843231,0.8583509624004364,0.0045295931049622595,0.005692586826626211,-35.3632624,149.16523765000002,176681.25,4.0,0.0,98.25,0.0,64.0,-1009.75,861.5,6.5,9.25
02:29:55,171642.0,RTL,-0.011131568346172571,0.0020591560169123113,-0.9513238370418549,0.6411264538764954,-0.004900804487988353,0.005149814300239086,-35.36326175,149.165238,175302.5,0.5,-0.5,109.0,-0.5,66.5,-1050.0,644.5,-2.0,9.0
02:29:57,149490.0,RTL,0.02830616757273674,-0.0035386529052630067,-0.9521507918834686,1.3200305700302124,0.0014070783508941531,0.0011033497285097837,-35.36326295,149.1652372,173197.5,2.0,0.5,98.5,-3.0,71.5,-1047.5,1323.0,3.5,4.5
02:29:59,127338.0,RTL,0.037130191922187805,0.00034503129791119136,-0.9521867334842682,0.2923349514603615,0.001908611913677305,0.0003373038489371538,-35.3632642,149.1652359,171326.5,16.5,9.5,101.0,-0.5,-29.0,-963.0,292.0,3.5,4.0
02:30:00,164157.0,RTL,0.022329528583213687,0.00151452211139258,-0.951287567615509,-0.5673842057585716,0.0029944824636913836,-0.004656655830331147,-35.363264175000005,149.16523585,170559.75,17.75,10.75,97.75,0.75,-58.0,-993.75,-565.75,5.0,-0.75
02:30:01,164157.0,RTL,0.0055642405059188604,0.001772201736457646,-0.9522800445556641,-1.3811265230178833,-0.0015211327117867768,-0.004773335997015238,-35.363263950000004,149.1652359,169294.5,17.5,11.5,96.0,0.0,-73.5,-997.5,-1378.5,0.5,-0.5
02:30:03,98728.5,RTL,1.7692451365292072e-05,0.0008942653657868505,-0.9524928629398346,-1.172969102859497,-0.0011618578573688865,-0.0043767004972323775,-35.363263950000004,149.165236,167248.0,17.0,12.0,98.5,0.0,-23.5,-1029.0,-1168.5,1.0,0.0
02:30:05,33300.0,RTL,0.0036906067398376763,0.0002962883736472577,-0.9523930251598358,-0.34520208090543747,0.0013440742623060942,0.0008449791930615902,-35.363263950000004,149.165236,165146.0,18.0,12.5,97.0,-0.5,24.5,-974.0,-339.0,3.0,5.0
02:30:06,165152.0,RTL,0.01752295158803463,-0.001251131878234446,-0.9524414390325546,0.40960655827075243,-0.0010329072829335928,0.0015203432412818074,-35.36326425,149.1652359,164381.0,20.0,13.75,98.5,-0.75,59.5,-983.75,415.0,1.0,5.25
02:30:07,165152.0,RTL,0.04000965878367424,-0.00282999686896801,-0.9513922333717346,1.235525906085968,-0.0013072569854557514,0.0032284515909850597,-35.363264900000004,149.16523545,163198.5,24.5,16.0,86.5,0.0,71.0,-995.0,1240.5,0.5,7.0
02:30:09,108791.0,RTL,0.05804971233010292,-0.0011139241396449506,-0.951558381319046,1.3605464100837708,-0.004743365803733468,-0.0038290144875645638,-35.3632658,149.1652347,161183.5,35.0,21.5,98.0,0.0,43.5,-1033.0,1365.0,-2.0,0.0
02:30:11,52430.0,RTL,0.0509715024381876,0.0011114070657640696,-0.9517638981342316,1.1539062559604645,0.0004768830258399248,0.0011239680461585522,-35.36326575,149.1652346,159133.0,38.0,24.0,99.5,1.0,36.5,-969.5,1158.5,2.0,4.5
02:30:12,245651.0,RTL,0.04727747477591038,0.0025119177589658648,-0.9515024274587631,0.5101912468671799,0.0016041186754591763,-0.0030737423221580684,-35.363265525,149.16523469999998,158361.25,36.5,22.75,101.0,1.75,-20.75,-989.5,514.5,3.25,1.0
02:30:13,245651.0,RTL,0.02055427059531212,0.004901777487248182,-0.9523987174034119,-0.04739687591791153,-0.0012269909493625164,-0.01306379958987236,-35.363264400000006,149.16523555,157112.5,30.0,19.0,94.5,3.0,-43.0,-990.5,-42.0,1.0,-8.5
02:30:15,233004.0,RTL,-0.008656531106680632,0.006088086869567633,-0.9517121911048889,-0.05283625051379204,-0.000926331733353436,0.001059443922713399,-35.363261449999996,149.16523805,155079.0,4.5,2.5,102.0,4.0,-51.0,-972.0,-48.5,1.5,4.5
02:30:17,220357.0,RTL,-0.03297221567481756,0.0025855903513729572,-0.9521444141864777,-1.0300932824611664,0.0003443527966737747,-0.004104146151803434,-35.3632596,149.16523990000002,153041.0,-19.0,-14.0,99.0,2.5,-76.5,-977.0,-1025.0,2.5,0.0
02:30:18,123625.0,RTL,-0.053492953069508076,0.0024044575984589756,-0.951785996556282,-1.4354878962039948,-0.0030032325303182006,-0.002229036355856806,-35.363259049999996,149.16524047500002,152281.5,-25.0,-18.5,99.75,1.75,-58.25,-995.25,-1429.75,-0.75,1.75
02:30:19,123625.0,RTL,-0.05046343803405762,7.062632357701659e-05,-0.9521987736225128,-1.2420302629470825,-0.00428523775190115,0.008439735975116491,-35.3632586,149.165241,150980.5,-34.5,-25.5,101.5,1.0,-33.0,-967.5,-1235.5,-1.5,12.0
02:30:21,105476.0,RTL,-0.032941367477178574,-0.0017066645086742938,-0.9526147246360779,0.5208006203174591,0.0021307130809873343,0.003500493592582643,-35.36325875,149.16524084999998,148934.0,-36.5,-27.0,101.0,-2.5,60.0,-1021.0,527.0,3.5,7.0
02:30:23,87327.0,RTL,-0.005762021173723042,-0.003357033827342093,-0.9520026445388794,0.43080398440361023,0.0002980909775942564,0.0012904107570648193,-35.363260600000004,149.16523915,146740.0,-24.0,-18.0,99.5,-5.0,61.0,-986.0,436.0,2.0,5.0
02:30:24,95076.0,RTL,0.00915887948940508,-0.004473523120395839,-0.951486349105835,0.5809560120105743,0.00017517543165013194,-0.003926002071239054,-35.3632617,149.1652382,145968.25,-15.0,-11.5,99.5,-5.25,67.75,-982.25,586.5,2.25,0.0
02:30:25,95076.0,RTL,0.047903697937726974,-0.0040120764169842005,-0.9515054225921631,1.263864517211914,0.0001337482826784253,0.0003475727280601859,-35.36326355,149.16523665,144811.0,1.5,-1.0,84.0,-2.0,33.5,-974.5,1267.0,2.0,4.0
02:30:27,98791.5,RTL,0.01990491710603237,0.0014414092293009162,-0.9516178369522095,-0.2625844106078148,0.0008884166600182652,-0.005314557114616036,-35.363263849999996,149.16523615,142817.0,15.5,8.0,101.5,1.0,-54.5,-967.5,-259.5,3.0,-1.0
02:30:29,102507.0,RTL,0.0019401981844566762,0.0009563602216076106,-0.9520948827266693,-1.2290904521942139,0.003496201417874545,-0.006016785628162324,-35.3632633,149.16523665,140806.0,10.0,5.0,101.5,0.5,-77.5,-980.0,-1225.5,4.5,-2.0
02:30:30,125675.0,RTL,-0.012557267837109976,0.0022872186673339456,-0.9511167854070663,-1.3573179841041565,-0.0021228885743767023,-0.0007374371052719653,-35.363262899999995,149.165236975,140043.5,9.5,4.25,100.5,1.75,-67.0,-1012.5,-1353.0,-0.25,3.0
02:30:31,125675.0,RTL,-0.03313346114009619,0.0040730268228799105,-0.9507551789283752,-1.4382098317146301,0.005679748486727476,-0.008380021201446652,-35.36326175,149.165238,138735.5,2.5,0.0,101.5,1.5,-62.0,-1023.0,-1433.5,7.0,-4.5
02:30:33,177191.0,RTL,-0.04314427450299263,0.0009599050390534103,-0.9517055451869965,-1.004701018333435,-0.004446381120942533,0.0016745981993153691,-35.3632601,149.1652396,136692.0,-16.5,-12.5,99.0,0.5,-17.0,-1001.5,-999.0,-3.0,5.0
02:30:35,228707.0,RTL,-0.04474247619509697,0.0002087669345200993,-0.9507532119750977,-0.9962086081504822,-0.0077673017513006926,0.008372113923542202,-35.36325945,149.1652403,134518.5,-25.0,-20.0,102.5,3.5,-8.0,-999.0,-991.0,-5.5,11.5
02:30:36,81552.0,RTL,-0.043745177797973156,-0.0006217393529368564,-0.9517785012722015,-0.37284471094608307,-0.0018007050384767354,0.001213489507790655,-35.363259325,149.1652404,133753.25,-27.25,-21.5,101.5,-1.0,23.0,-986.5,-367.0,-0.25,5.0
