time_stamp,MODE,lat,lon,relative_alt,roll,pitch,yaw,rollspeed,pitchspeed,yawspeed,xacc,yacc,zacc,xgyro,ygyro,zgyro,vx,vy,vz,RTL_ALT
06:08:33.654,STABILIZE,-35.3632621,149.1652374,0,2.8003467377857305e-05,0.0014321833150461316,0.027178144082427025,0.0002270684635732323,0.0002740867785178125,0.0023452690802514553,0,1,-1000,0,0,0,0,0,2,105475.0
06:08:33.857,STABILIZE,-35.3632621,149.1652374,0,2.8003467377857305e-05,0.0014321833150461316,0.027178144082427025,0.0002270684635732323,0.0002740867785178125,0.0023452690802514553,0,1,-1000,0,0,0,0,0,2,105475.0
06:08:34.057,STABILIZE,-35.3632621,149.1652374,0,2.8003467377857305e-05,0.0014321833150461316,0.027178144082427025,0.0002270684635732323,0.0002740867785178125,0.0023452690802514553,0,1,-1000,0,0,0,0,0,2,105475.0
06:08:34.258,STABILIZE,-35.3632621,149.1652374,0,0.00034639364457689226,0.0015667182160541415,0.026156175881624222,0.018003074452280998,0.00030587098444812,0.002253415761515498,0,1,-1000,0,0,0,-1,2,3,105475.0
06:08:34.460,STABILIZE,-35.3632621,149.1652374,0,0.00028958189068362117,0.001532056019641459,0.025987187400460243,0.00034684501588344574,0.00030388979939743876,0.0022225319407880306,0,1,-1000,0,0,0,-1,2,3,105475.0
06:08:34.661,STABILIZE,-35.3632621,149.1652375,0,0.00018114088743459433,0.0014777134638279676,0.025839703157544136,0.00012067801435478032,0.00022113433806225657,0.002252147300168872,0,1,-1000,0,0,0,-2,2,2,105475.0
06:08:34.862,STABILIZE,-35.3632621,149.1652375,0,0.00018114088743459433,0.0014777134638279676,0.025839703157544136,0.00012067801435478032,0.00022113433806225657,0.002252147300168872,0,1,-1000,0,0,0,-2,2,2,105475.0
06:08:35.063,STABILIZE,-35.3632622,149.1652375,0,0.00018114088743459433,0.0014777134638279676,0.025839703157544136,0.00012067801435478032,0.00022113433806225657,0.002252147300168872,0,1,-1000,0,0,1,-2,2,2,105475.0
06:08:35.265,STABILIZE,-35.3632622,149.1652375,0,0.00018114088743459433,0.0014777134638279676,0.025839703157544136,0.00012067801435478032,0.00022113433806225657,0.002252147300168872,0,1,-1000,0,0,1,-2,2,2,105475.0
06:08:35.466,STABILIZE,-35.3632622,149.1652375,0,0.00018114088743459433,0.0014777134638279676,0.025839703157544136,0.00012067801435478032,0.00022113433806225657,0.002252147300168872,0,1,-1000,0,0,1,-2,2,2,105475.0
06:08:35.667,STABILIZE,-35.3632622,149.1652375,0,0.00018114088743459433,0.0014777134638279676,0.025839703157544136,0.00012067801435478032,0.00022113433806225657,0.002252147300168872,0,1,-1000,0,0,1,-2,2,2,105475.0
06:08:35.868,STABILIZE,-35.3632622,149.1652375,0,0.00018114088743459433,0.0014777134638279676,0.025839703157544136,0.00012067801435478032,0.00022113433806225657,0.002252147300168872,0,1,-1000,0,0,1,-2,2,2,105475.0
06:08:36.070,STABILIZE,-35.3632622,149.1652375,0,0.00018114088743459433,0.0014777134638279676,0.025839703157544136,0.00012067801435478032,0.00022113433806225657,0.002252147300168872,0,1,-1000,0,0,1,-2,2,2,105475.0
06:08:36.271,STABILIZE,-35.3632622,149.1652375,0,-0.0004649101756513119,0.0011978077236562967,0.025041809305548668,0.0002001039101742208,0.0003455334226600826,0.0020075361244380474,0,1,-1000,0,0,0,-1,1,1,105475.0
06:08:36.472,STABILIZE,-35.3632622,149.1652375,0,-0.0005600435542874038,0.0011497829109430313,0.02494412288069725,0.00015438836999237537,0.0002861816028598696,0.0020835064351558685,0,1,-1000,0,0,0,-1,1,1,105475.0
06:08:36.674,STABILIZE,-35.3632622,149.1652375,0,-0.0005600435542874038,0.0011497829109430313,0.02494412288069725,0.00015438836999237537,0.0002861816028598696,0.0020835064351558685,0,1,-1000,0,0,0,-1,1,1,105475.0
06:08:36.875,STABILIZE,-35.3632622,149.1652375,0,-0.0005600435542874038,0.0011497829109430313,0.02494412288069725,0.00015438836999237537,0.0002861816028598696,0.0020835064351558685,0,1,-1000,0,0,0,-1,1,1,105475.0
06:08:37.076,STABILIZE,-35.3632622,149.1652375,0,-0.0005600435542874038,0.0011497829109430313,0.02494412288069725,0.00015438836999237537,0.0002861816028598696,0.0020835064351558685,0,1,-1000,0,1,1,-1,1,1,105475.0
06:08:37.277,STABILIZE,-35.3632622,149.1652375,0,-0.0007760251173749566,0.0010519310599192977,0.02462434582412243,9.803049033507705e-05,0.0001539111544843763,0.0020431855227798223,0,2,-1000,0,0,1,-1,1,1,105475.0
06:08:37.479,STABILIZE,-35.3632622,149.1652375,0,-0.0007760251173749566,0.0010519310599192977,0.02462434582412243,9.803049033507705e-05,0.0001539111544843763,0.0020431855227798223,0,1,-1000,0,0,0,-1,1,1,105475.0
06:08:37.681,STABILIZE,-35.3632622,149.1652375,0,-0.0007760251173749566,0.0010519310599192977,0.02462434582412243,9.803049033507705e-05,0.0001539111544843763,0.0020431855227798223,0,1,-1000,0,0,0,-1,1,1,105475.0
06:08:37.882,STABILIZE,-35.3632622,149.1652375,0,-0.0007760251173749566,0.0010519310599192977,0.02462434582412243,9.803049033507705e-05,0.0001539111544843763,0.0020431855227798223,0,1,-1000,0,0,0,-1,1,1,105475.0
06:08:38.084,STABILIZE,-35.3632622,149.1652375,0,-0.0007760251173749566,0.0010519310599192977,0.02462434582412243,9.803049033507705e-05,0.0001539111544843763,0.0020431855227798223,0,1,-1000,0,0,0,-1,1,1,105475.0
06:08:38.285,STABILIZE,-35.3632621,149.1652375,0,-0.000840295571833849,0.000960404344368726,0.02432001195847988,0.0001648168545216322,0.00015564871137030423,0.0018257832853123546,0,1,-1000,0,0,0,-1,0,-1,105475.0
06:08:38.486,STABILIZE,-35.3632621,149.1652375,0,-0.000840295571833849,0.000960404344368726,0.02432001195847988,0.0001648168545216322,0.00015564871137030423,0.0018257832853123546,0,1,-1000,1,0,0,-1,0,-1,105475.0
06:08:38.688,STABILIZE,-35.3632621,149.1652375,0,-0.0007538018398918211,0.0009438756387680769,0.024151884019374847,0.00026035786140710115,0.0003031837986782193,0.0018913336098194122,0,1,-1000,1,0,0,-1,0,-1,105475.0
06:08:38.890,STABILIZE,-35.3632621,149.1652375,0,-0.0007538018398918211,0.0009438756387680769,0.024151884019374847,0.00026035786140710115,0.0003031837986782193,0.0018913336098194122,0,1,-1000,0,0,0,-1,0,-1,105475.0
06:08:39.092,STABILIZE,-35.3632621,149.1652375,0,-0.0007538018398918211,0.0009438756387680769,0.024151884019374847,0.00026035786140710115,0.0003031837986782193,0.0018913336098194122,0,1,-1000,0,0,0,-1,0,-1,105475.0
06:08:39.293,STABILIZE,-35.3632621,149.1652375,0,-0.0006811048951931298,0.0009409443591721356,0.02400713972747326,0.00016548496205359697,0.00013362907338887453,0.0018491355003789067,0,1,-1000,0,0,0,-1,0,-1,105475.0
06:08:39.495,STABILIZE,-35.3632621,149.1652375,0,-0.0006811048951931298,0.0009409443591721356,0.02400713972747326,0.00016548496205359697,0.00013362907338887453,0.0018491355003789067,0,1,-1000,0,0,0,-1,0,-1,105475.0
06:08:39.696,STABILIZE,-35.3632621,149.1652375,0,-0.0006811048951931298,0.0009409443591721356,0.02400713972747326,0.00016548496205359697,0.00013362907338887453,0.0018491355003789067,0,1,-1000,0,0,0,-1,0,-1,105475.0
06:08:39.898,STABILIZE,-35.3632621,149.1652375,0,-0.0006811048951931298,0.0009409443591721356,0.02400713972747326,0.00016548496205359697,0.00013362907338887453,0.0018491355003789067,0,1,-1000,0,0,0,-1,0,-1,105475.0
06:08:40.099,STABILIZE,-35.3632621,149.1652375,0,-0.0006811048951931298,0.0009409443591721356,0.02400713972747326,0.00016548496205359697,0.00013362907338887453,0.0018491355003789067,0,1,-1000,0,0,0,-1,0,-1,105475.0
06:08:40.301,STABILIZE,-35.3632621,149.1652375,0,-0.0006811048951931298,0.0009409443591721356,0.02400713972747326,0.00016548496205359697,0.00013362907338887453,0.0018491355003789067,0,1,-1000,0,0,0,-1,0,-1,105475.0
06:08:40.503,STABILIZE,-35.3632621,149.1652375,0,-0.0006270896992646158,0.0009185979142785072,0.023551132529973984,0.0003017713315784931,0.00022511521819978952,0.0017894967459142208,0,1,-1000,0,0,0,-1,1,-1,105475.0
06:08:40.704,STABILIZE,-35.3632621,149.1652375,0,-0.0006279536173678935,0.0009230305440723896,0.023482685908675194,0.0002339218044653535,0.00022717838874086738,0.0018163934582844377,0,1,-1000,0,1,0,-1,1,0,105475.0
06:08:40.905,STABILIZE,-35.3632621,149.1652375,0,-0.0006279536173678935,0.0009230305440723896,0.023482685908675194,0.0002339218044653535,0.00022717838874086738,0.0018163934582844377,0,1,-1000,0,1,0,-1,1,0,105475.0
06:08:41.107,STABILIZE,-35.3632621,149.1652375,0,-0.0006279536173678935,0.0009230305440723896,0.023482685908675194,0.0002339218044653535,0.00022717838874086738,0.0018163934582844377,0,1,-1000,0,1,0,-1,1,0,105475.0
06:08:41.308,STABILIZE,-35.3632621,149.1652375,0,-0.0004627840535249561,0.0009360607946291566,0.023287681862711906,0.00012209831038489938,0.0003110762336291373,0.0018902489682659507,0,2,-998,0,0,1,-1,2,0,105475.0
06:08:41.510,STABILIZE,-35.3632621,149.1652375,0,-0.0004627840535249561,0.0009360607946291566,0.023287681862711906,0.00012209831038489938,0.0003110762336291373,0.0018902489682659507,0,1,-1000,1,0,0,-1,2,0,105475.0
06:08:41.711,STABILIZE,-35.3632621,149.1652375,0,-0.0004627840535249561,0.0009360607946291566,0.023287681862711906,0.00012209831038489938,0.0003110762336291373,0.0018902489682659507,0,1,-1000,1,0,0,-1,2,0,105475.0
06:08:41.912,STABILIZE,-35.3632621,149.1652375,0,-0.0004627840535249561,0.0009360607946291566,0.023287681862711906,0.00012209831038489938,0.0003110762336291373,0.0018902489682659507,0,1,-1000,1,0,0,-1,2,0,105475.0
06:08:42.114,STABILIZE,-35.3632621,149.1652375,0,-0.0004627840535249561,0.0009360607946291566,0.023287681862711906,0.00012209831038489938,0.0003110762336291373,0.0018902489682659507,0,1,-1000,1,0,0,-1,2,0,105475.0
06:08:42.315,STABILIZE,-35.3632621,149.1652375,0,-0.000609569891821593,0.0009593371069058776,0.022911958396434784,0.00021380011457949877,0.00023294094717130065,0.0015966864302754402,0,1,-1000,0,0,0,-1,2,0,105475.0
06:08:42.516,STABILIZE,-35.3632621,149.1652375,0,-0.000609569891821593,0.0009593371069058776,0.022911958396434784,0.00021380011457949877,0.00023294094717130065,0.0015966864302754402,0,1,-1000,0,1,0,-1,2,0,105475.0
06:08:42.718,STABILIZE,-35.3632621,149.1652375,0,-0.0007003140053711832,0.0009677861235104501,0.022752022370696068,0.0003110353136435151,0.00037145905662328005,0.0017440831288695335,0,1,-1000,0,0,0,-1,2,0,105475.0
06:08:42.919,STABILIZE,-35.3632621,149.1652375,0,-0.0007003140053711832,0.0009677861235104501,0.022752022370696068,0.0003110353136435151,0.00037145905662328005,0.0017440831288695335,0,1,-1000,1,0,0,-1,2,0,105475.0
06:08:43.120,STABILIZE,-35.3632621,149.1652375,0,-0.0007003140053711832,0.0009677861235104501,0.022752022370696068,0.0003110353136435151,0.00037145905662328005,0.0017440831288695335,0,1,-1000,1,0,0,-1,2,0,105475.0
06:08:43.322,STABILIZE,-35.3632621,149.1652375,0,-0.0007864910876378417,0.0009734440827742219,0.02261260524392128,0.00023043859982863069,0.0003784186556003988,0.001648679724894464,0,1,-1000,1,0,0,-1,2,0,105475.0
06:08:43.523,STABILIZE,-35.3632622,149.1652375,0,-0.000832186546176672,0.000968922337051481,0.02251962386071682,0.00022229214664548635,0.0001691688667051494,0.0016604894772171974,0,1,-1000,0,0,0,-1,1,0,105475.0
06:08:43.724,STABILIZE,-35.3632622,149.1652375,0,-0.000832186546176672,0.000968922337051481,0.02251962386071682,0.00022229214664548635,0.0001691688667051494,0.0016604894772171974,0,1,-1000,0,0,0,-1,1,0,105475.0
06:08:43.926,STABILIZE,-35.3632622,149.1652375,0,-0.000832186546176672,0.000968922337051481,0.02251962386071682,0.00022229214664548635,0.0001691688667051494,0.0016604894772171974,0,1,-1000,0,0,0,-1,1,0,105475.0
06:08:44.127,STABILIZE,-35.3632622,149.1652375,0,-0.000832186546176672,0.000968922337051481,0.02251962386071682,0.00022229214664548635,0.0001691688667051494,0.0016604894772171974,0,1,-1000,0,0,0,-1,1,0,105475.0
06:08:44.328,STABILIZE,-35.3632622,149.1652375,0,-0.000832186546176672,0.000968922337051481,0.02251962386071682,0.00022229214664548635,0.0001691688667051494,0.0016604894772171974,0,1,-1000,0,0,0,-1,1,0,105475.0
06:08:44.529,STABILIZE,-35.3632622,149.1652375,0,-0.0009710012818686664,0.0009717393550090492,0.02225302904844284,0.00023197970585897565,0.0003276015631854534,0.0017008095746859908,0,1,-1000,0,0,0,-1,1,0,105475.0
06:08:44.731,STABILIZE,-35.3632622,149.1652375,0,-0.0009710012818686664,0.0009717393550090492,0.02225302904844284,0.00023197970585897565,0.0003276015631854534,0.0017008095746859908,0,1,-1000,0,0,0,-1,0,-2,105475.0
06:08:44.932,STABILIZE,-35.3632622,149.1652375,0,-0.0009933727560564876,0.0009765472495928407,0.02213488519191742,0.00022797007113695145,0.00031158560886979103,0.0016168300062417984,0,1,-1000,0,0,0,-1,0,-2,105475.0
06:08:45.133,STABILIZE,-35.3632622,149.1652375,0,-0.0009933727560564876,0.0009765472495928407,0.02213488519191742,0.00022797007113695145,0.00031158560886979103,0.0016168300062417984,0,1,-1000,0,0,0,-1,0,-2,105475.0
06:08:45.334,STABILIZE,-35.3632622,149.1652375,0,-0.0009933727560564876,0.0009765472495928407,0.02213488519191742,0.00022797007113695145,0.00031158560886979103,0.0016168300062417984,0,1,-1000,0,0,0,-1,0,-2,105475.0
06:08:45.536,STABILIZE,-35.3632622,149.1652375,0,-0.0008894411730580032,0.0009722528047859669,0.022010378539562225,0.00028404471231624484,0.00028807943454012275,0.0015742444666102529,0,1,-1000,1,0,1,-1,0,-2,105475.0
06:08:45.737,STABILIZE,-35.3632622,149.1652375,0,-0.0008894411730580032,0.0009722528047859669,0.022010378539562225,0.00028404471231624484,0.00028807943454012275,0.0015742444666102529,0,1,-1000,1,0,1,-1,0,-2,105475.0
06:08:45.939,STABILIZE,-35.3632622,149.1652375,0,-0.0008894411730580032,0.0009722528047859669,0.022010378539562225,0.00028404471231624484,0.00028807943454012275,0.0015742444666102529,0,1,-1000,1,0,1,-1,0,-2,105475.0
06:08:46.145,STABILIZE,-35.3632622,149.1652375,0,-0.0008894411730580032,0.0009722528047859669,0.022010378539562225,0.00028404471231624484,0.00028807943454012275,0.0015742444666102529,0,1,-1000,1,0,1,-1,0,-2,105475.0
06:08:46.346,STABILIZE,-35.3632622,149.1652375,0,-0.0007647558231838048,0.0009710027952678502,0.021830743178725243,0.0002792542800307274,0.0003112041740678251,0.001631163526326418,0,1,-1000,0,0,1,-1,0,-1,105475.0
06:08:46.547,STABILIZE,-35.3632622,149.1652375,1,-0.0007305145845748484,0.0009669032879173756,0.021780094131827354,0.00020865711849182844,0.0002505321172066033,0.0015978477895259857,0,1,-1000,0,0,1,-1,0,-1,105475.0
06:08:46.749,STABILIZE,-35.3632622,149.1652375,1,-0.0007305145845748484,0.0009669032879173756,0.021780094131827354,0.00020865711849182844,0.0002505321172066033,0.0015978477895259857,0,1,-1000,0,0,1,-1,0,-1,105475.0
06:08:46.950,STABILIZE,-35.3632622,149.1652375,1,-0.0007305145845748484,0.0009669032879173756,0.021780094131827354,0.00020865711849182844,0.0002505321172066033,0.0015978477895259857,0,2,-1000,0,1,1,-1,0,-1,105475.0
06:08:47.152,STABILIZE,-35.3632622,149.1652375,2,-0.0006731220637448132,0.0009696988854557276,0.02157556265592575,0.00024478998966515064,0.00021813216153532267,0.0015567673835903406,0,2,-1000,0,1,1,-1,1,-1,105475.0
06:08:47.355,STABILIZE,-35.3632622,149.1652375,2,-0.0006731220637448132,0.0009696988854557276,0.02157556265592575,0.00024478998966515064,0.00021813216153532267,0.0015567673835903406,0,2,-1000,0,1,1,-1,1,-1,105475.0
06:08:47.557,STABILIZE,-35.3632622,149.1652375,2,-0.0006666515837423503,0.000968892709352076,0.02152653969824314,0.0003066384815610945,0.00024179427418857813,0.001552799716591835,0,2,-1000,0,1,0,-1,1,-1,105475.0
06:08:47.758,STABILIZE,-35.3632622,149.1652375,2,-0.0006666515837423503,0.000968892709352076,0.02152653969824314,0.0003066384815610945,0.00024179427418857813,0.001552799716591835,0,2,-1000,0,1,0,-1,1,-1,105475.0
06:08:47.960,STABILIZE,-35.3632622,149.1652375,2,-0.0006666515837423503,0.000968892709352076,0.02152653969824314,0.0003066384815610945,0.00024179427418857813,0.001552799716591835,0,2,-1000,0,1,0,-1,1,-1,105475.0
06:08:48.161,STABILIZE,-35.3632622,149.1652375,2,-0.0006666515837423503,0.000968892709352076,0.02152653969824314,0.0003066384815610945,0.00024179427418857813,0.001552799716591835,0,2,-1000,0,1,0,-1,1,-1,105475.0
06:08:48.363,STABILIZE,-35.3632622,149.1652375,2,-0.0006666515837423503,0.000968892709352076,0.02152653969824314,0.0003066384815610945,0.00024179427418857813,0.001552799716591835,0,2,-1000,0,1,0,-1,1,-1,105475.0
06:08:48.564,STABILIZE,-35.3632622,149.1652375,10,-0.0006384670850820839,0.0009725813870318234,0.021282095462083817,0.0001630097976885736,0.0001619746326468885,0.0016068670665845275,0,1,-1000,0,1,0,-1,0,-3,105475.0
06:08:48.766,AUTO,-35.3632622,149.1652375,13,-0.0005840996163897216,0.0009735854109749198,0.021213484928011894,0.00024418660905212164,0.0003026901977136731,0.0015753810293972492,0,2,-1000,1,0,1,-1,0,-3,105475.0
06:08:48.968,AUTO,-35.3632622,149.1652375,5,-0.0005308716208674014,0.0009798762621358037,0.021183347329497337,0.00039491499774158,0.00024072552332654595,0.0015160487964749336,0,1,-1000,0,1,0,-1,0,-2,105475.0
06:08:49.170,AUTO,-35.3632622,149.1652375,6,-0.00047985484707169235,0.000980094657279551,0.0211108960211277,0.0002805281546898186,0.0002911789924837649,0.0015141326002776623,0,1,-1000,0,0,1,-1,0,-2,105475.0
06:08:49.372,AUTO,-35.3632622,149.1652375,6,-0.00047985484707169235,0.000980094657279551,0.0211108960211277,0.0002805281546898186,0.0002911789924837649,0.0015141326002776623,0,1,-1000,0,0,1,-1,0,-2,105475.0
06:08:49.573,AUTO,-35.3632622,149.1652375,8,-0.0004424598882906139,0.0009898742428049445,0.021042922511696815,0.0002712372224777937,0.0002654974814504385,0.0015599920880049467,0,1,-1000,1,0,0,-1,0,-2,105475.0
06:08:49.775,AUTO,-35.3632622,149.1652375,8,-0.0004424598882906139,0.0009898742428049445,0.021042922511696815,0.0002712372224777937,0.0002654974814504385,0.0015599920880049467,0,1,-1000,1,0,0,-1,0,-2,105475.0
06:08:49.977,AUTO,-35.3632622,149.1652375,8,-0.0004424598882906139,0.0009898742428049445,0.021042922511696815,0.0002712372224777937,0.0002654974814504385,0.0015599920880049467,0,1,-1000,1,0,0,-1,0,-2,105475.0
06:08:50.179,AUTO,-35.3632621,149.1652375,10,-0.00030701779178343713,0.0010975166223943233,0.0208416860550642,0.0002299009938724339,0.00037649611476808786,0.0015606784727424383,0,2,-1000,0,1,0,0,0,-1,105475.0
06:08:50.380,AUTO,-35.3632621,149.1652375,10,-0.00030701779178343713,0.0010975166223943233,0.0208416860550642,0.0002299009938724339,0.00037649611476808786,0.0015606784727424383,0,2,-1000,0,1,0,0,0,-1,200.0
06:08:50.582,AUTO,-35.3632621,149.1652375,10,-0.00025830796221271157,0.0011470491299405694,0.02078881673514843,0.0002078815596178174,0.000144527992233634,0.0015704885590821505,0,1,-1000,0,0,1,0,0,-1,200.0
06:08:50.783,AUTO,-35.3632621,149.1652375,10,-0.00019981285731773823,0.0012138464953750372,0.020715901628136635,0.00017268367810174823,0.00029789155814796686,0.0013790794182568789,0,1,-1000,0,0,1,0,0,-1,200.0
06:08:50.985,AUTO,-35.3632621,149.1652375,9,-0.00013936984760221094,0.0012796091614291072,0.020630069077014923,0.0002642124309204519,0.0002129643107764423,0.0015324325067922473,0,1,-1000,0,0,1,0,0,-1,200.0
06:08:51.186,AUTO,-35.3632621,149.1652375,9,-7.222579006338492e-05,0.001344584859907627,0.020550832152366638,0.0003852637019008398,0.00025031750556081533,0.0013014312135055661,0,1,-1000,1,1,1,0,0,0,200.0
06:08:51.388,AUTO,-35.3632621,149.1652375,9,-7.222579006338492e-05,0.001344584859907627,0.020550832152366638,0.0003852637019008398,0.00025031750556081533,0.0013014312135055661,0,1,-1000,1,1,1,0,0,0,200.0
06:08:51.590,AUTO,-35.3632621,149.1652375,8,-2.92462095785595e-06,0.0014109837356954813,0.020472509786486626,0.0002497766981832683,0.0003085324424318969,0.0013173266779631376,0,2,-1000,0,0,1,0,0,0,200.0
06:08:51.792,AUTO,-35.3632621,149.1652375,8,-2.92462095785595e-06,0.0014109837356954813,0.020472509786486626,0.0002497766981832683,0.0003085324424318969,0.0013173266779631376,0,2,-1000,0,0,1,0,0,0,200.0
06:08:51.994,AUTO,-35.3632621,149.1652375,8,-2.92462095785595e-06,0.0014109837356954813,0.020472509786486626,0.0002497766981832683,0.0003085324424318969,0.0013173266779631376,0,2,-1000,0,0,1,0,0,0,200.0
06:08:52.196,AUTO,-35.3632621,149.1652375,6,0.00037292472552508116,0.0016199226956814528,0.020202169194817543,0.00037176423938944936,0.0003252355381846428,0.0013111919397488236,0,1,-1000,1,0,1,0,0,0,200.0
06:08:52.398,AUTO,-35.3632621,149.1652375,5,0.00045332047739066184,0.001696949708275497,0.02011077292263508,0.00040334335062652826,0.00030536967096850276,0.0013401485048234463,0,2,-1000,1,0,1,0,0,0,200.0
06:08:52.599,AUTO,-35.3632621,149.1652375,5,0.00045332047739066184,0.001696949708275497,0.02011077292263508,0.00040334335062652826,0.00030536967096850276,0.0013401485048234463,0,2,-1000,1,0,1,0,0,0,200.0
06:08:52.801,AUTO,-35.3632621,149.1652375,7,0.0011370196007192135,0.0009324434795416892,0.019900601357221603,0.007759072817862034,-0.007450819946825504,-0.00031094998121261597,0,0,-1099,8,-6,0,0,0,-6,200.0
06:08:53.002,AUTO,-35.3632621,149.1652375,65,0.003031663130968809,-0.0005149421049281955,0.019815193489193916,0.007572179660201073,-1.2921111192554235e-05,0.0028533097356557846,0,0,-1142,8,0,2,0,0,-40,200.0
06:08:53.204,AUTO,-35.3632621,149.1652375,206,0.002708766143769026,0.00028028522501699626,0.019861944019794464,-0.0035429149866104126,0.0043612876906991005,0.0014250383246690035,0,0,-1130,-3,4,0,0,0,-73,200.0
06:08:53.406,AUTO,-35.3632621,149.1652375,426,0.0022297364193946123,0.0011283841449767351,0.019854949787259102,-0.003088430967181921,0.002982992446050048,0.0019902512431144714,0,0,-1108,-2,3,1,0,0,-102,200.0
06:08:53.608,AUTO,-35.3632621,149.1652375,426,0.0022297364193946123,0.0011283841449767351,0.019854949787259102,-0.003088430967181921,0.002982992446050048,0.0019902512431144714,0,0,-1108,-2,3,1,0,0,-102,200.0
06:08:53.810,AUTO,-35.3632621,149.1652375,426,0.0022297364193946123,0.0011283841449767351,0.019854949787259102,-0.003088430967181921,0.002982992446050048,0.0019902512431144714,0,0,-1108,-2,3,1,0,0,-102,200.0
06:08:54.012,AUTO,-35.3632621,149.1652375,426,0.0022297364193946123,0.0011283841449767351,0.019854949787259102,-0.003088430967181921,0.002982992446050048,0.0019902512431144714,0,0,-1108,-2,3,1,0,0,-102,200.0
06:08:54.214,AUTO,-35.3632621,149.1652375,1412,0.024836990982294083,-0.0013564799446612597,0.01963939145207405,0.047304995357990265,-0.007053025998175144,0.0023804970551282167,0,0,-1016,47,-6,2,1,6,-144,200.0
06:08:54.415,AUTO,-35.363262,149.1652377,1788,0.03622985631227493,-0.0032706158235669136,0.01980167254805565,0.04486478865146637,-0.007944186218082905,0.002860352862626314,0,-1,-1006,45,-7,2,2,12,-147,24674.0
06:08:54.617,AUTO,-35.363262,149.1652377,1788,0.03622985631227493,-0.0032706158235669136,0.01980167254805565,0.04486478865146637,-0.007944186218082905,0.002860352862626314,0,-1,-1006,45,-7,2,2,12,-147,24674.0
06:08:54.819,AUTO,-35.3632619,149.1652381,2169,0.04704976826906204,-0.005456131417304277,0.020037006586790085,0.04302898421883583,-0.009660118259489536,0.0036332712043076754,0,-2,-1002,43,-8,3,3,21,-147,24674.0
06:08:55.021,AUTO,-35.3632618,149.1652388,2552,0.05705064535140991,-0.00810994952917099,0.02029668726027012,0.03789575770497322,-0.010903745889663696,0.0037170201539993286,1,-6,-1000,38,-10,3,5,32,-147,24674.0
06:08:55.222,AUTO,-35.3632616,149.1652398,2935,0.06268755346536636,-0.008276153355836868,-0.009327426552772522,-0.02421247959136963,0.03227357938885689,-0.06326833367347717,1,-7,-991,-23,33,-63,8,45,-146,24674.0
06:08:55.424,AUTO,-35.3632613,149.1652411,3312,0.03864200413227081,0.015292846597731113,-0.03317120298743248,-0.1523571014404297,0.09014849364757538,-0.10124361515045166,4,-11,-991,-151,90,-101,9,54,-144,24674.0
06:08:55.626,AUTO,-35.3632613,149.1652411,3312,0.03864200413227081,0.015292846597731113,-0.03317120298743248,-0.1523571014404297,0.09014849364757538,-0.10124361515045166,4,-11,-991,-151,90,-101,9,54,-144,24674.0
06:08:55.829,AUTO,-35.3632613,149.1652411,3312,0.03864200413227081,0.015292846597731113,-0.03317120298743248,-0.1523571014404297,0.09014849364757538,-0.10124361515045166,4,-11,-991,-151,90,-101,9,54,-144,24674.0
06:08:56.031,AUTO,-35.3632613,149.1652411,3312,0.03864200413227081,0.015292846597731113,-0.03317120298743248,-0.1523571014404297,0.09014849364757538,-0.10124361515045166,4,-11,-991,-151,90,-101,9,54,-144,24674.0
06:08:56.233,AUTO,-35.3632609,149.1652451,4445,-0.031798284500837326,0.006409224588423967,-0.06657540053129196,-0.04716530442237854,-0.018046678975224495,-0.034230105578899384,4,-11,-1003,-46,-17,-34,2,37,-148,24674.0
06:08:56.435,AUTO,-35.3632608,149.1652459,4828,-0.048808179795742035,0.003964597824960947,-0.07475625723600388,-0.08301038295030594,-0.0023502560798078775,-0.03776226192712784,2,-5,-1000,-82,-1,-38,2,25,-147,24674.0
06:08:56.639,AUTO,-35.3632608,149.1652459,4828,-0.048808179795742035,0.003964597824960947,-0.07475625723600388,-0.08301038295030594,-0.0023502560798078775,-0.03776226192712784,2,-5,-1000,-82,-1,-38,2,25,-147,24674.0
06:08:56.841,AUTO,-35.3632607,149.1652464,5217,-0.07393138110637665,0.0034710674080997705,-0.08454365283250809,-0.10681813210248947,0.0023988489992916584,-0.03997088596224785,2,-4,-999,-106,3,-40,1,7,-147,24674.0
06:08:57.043,AUTO,-35.3632607,149.1652463,5600,-0.07991281896829605,0.0025552413426339626,-0.09307331591844559,0.02770324796438217,-0.003767402609810233,-0.028396284207701683,0,0,-1006,28,-3,-28,0,-12,-147,24674.0
06:08:57.245,AUTO,-35.3632608,149.1652458,5983,-0.06845924258232117,0.0011350515997037292,-0.09930331259965897,0.05217079818248749,-0.002920362167060375,-0.01922507770359516,-1,3,-1002,52,-2,-19,-2,-30,-148,24674.0
06:08:57.448,AUTO,-35.3632608,149.1652448,6365,-0.054556190967559814,0.0009946203790605068,-0.1037706807255745,0.05773742496967316,0.002789297141134739,-0.013054115697741508,-5,8,-1000,58,3,-12,-5,-44,-147,24674.0
06:08:57.658,AUTO,-35.3632608,149.1652448,6365,-0.054556190967559814,0.0009946203790605068,-0.1037706807255745,0.05773742496967316,0.002789297141134739,-0.013054115697741508,-5,8,-1000,58,3,-12,-5,-44,-147,24674.0
06:08:57.859,AUTO,-35.3632608,149.1652448,6365,-0.054556190967559814,0.0009946203790605068,-0.1037706807255745,0.05773742496967316,0.002789297141134739,-0.013054115697741508,-5,8,-1000,58,3,-12,-5,-44,-147,24674.0
06:08:58.061,AUTO,-35.3632608,149.1652448,6365,-0.054556190967559814,0.0009946203790605068,-0.1037706807255745,0.05773742496967316,0.002789297141134739,-0.013054115697741508,-5,8,-1000,58,3,-12,-5,-44,-147,24674.0
06:08:58.263,AUTO,-35.3632613,149.1652402,7505,-0.007205063011497259,0.006851534359157085,-0.10897047072649002,0.06844915449619293,0.010742665268480778,-0.0014627950731664896,-4,12,-1003,69,11,-1,-12,-61,-149,24674.0
06:08:58.465,AUTO,-35.3632617,149.1652385,7892,0.009745026007294655,0.009531605057418346,-0.10896369814872742,0.06797953695058823,0.010123754851520061,-0.0005907496670261025,-6,13,-1004,68,10,0,-15,-57,-150,94209.0
06:08:58.667,AUTO,-35.363262,149.1652369,8281,0.026734350249171257,0.01172010786831379,-0.10829824954271317,0.06796108186244965,0.007585316896438599,0.0018065599724650383,-4,14,-1004,68,8,1,-17,-50,-151,94209.0
06:08:58.868,AUTO,-35.363262,149.1652369,8281,0.026734350249171257,0.01172010786831379,-0.10829824954271317,0.06796108186244965,0.007585316896438599,0.0018065599724650383,-4,14,-1004,68,8,1,-17,-50,-151,94209.0
06:08:59.070,AUTO,-35.3632624,149.1652356,8672,0.043385084718465805,0.012995979748666286,-0.10730475932359695,0.0665392279624939,0.0028208461590111256,0.0034899418242275715,-2,11,-1003,66,3,3,-20,-39,-151,94209.0
06:08:59.272,AUTO,-35.3632629,149.1652346,9064,0.0594215951859951,0.013013777323067188,-0.10600749403238297,0.06289557367563248,-0.002374655334278941,0.0032258855644613504,-1,9,-1002,63,-1,2,-21,-25,-152,94209.0
06:08:59.475,AUTO,-35.3632634,149.1652341,9465,0.07263276726007462,0.009822485968470573,-0.1023317351937294,0.020254606381058693,-0.03643391281366348,0.04004497081041336,1,6,-997,20,-35,39,-22,-7,-151,94209.0
06:08:59.678,AUTO,-35.3632634,149.1652341,9465,0.07263276726007462,0.009822485968470573,-0.1023317351937294,0.020254606381058693,-0.03643391281366348,0.04004497081041336,1,6,-997,20,-35,39,-22,-7,-151,94209.0
06:08:59.880,AUTO,-35.3632634,149.1652341,9465,0.07263276726007462,0.009822485968470573,-0.1023317351937294,0.020254606381058693,-0.03643391281366348,0.04004497081041336,1,6,-997,20,-35,39,-22,-7,-151,94209.0
06:09:00.082,AUTO,-35.3632634,149.1652341,9465,0.07263276726007462,0.009822485968470573,-0.1023317351937294,0.020254606381058693,-0.03643391281366348,0.04004497081041336,1,6,-997,20,-35,39,-22,-7,-151,94209.0
06:09:00.284,AUTO,-35.3632643,149.165235,10620,0.02802978828549385,-0.06341898441314697,-0.03763686865568161,-0.12175995856523514,0.007089149206876755,0.02848515659570694,2,-5,-996,-121,7,28,6,30,-146,94209.0
06:09:00.485,AUTO,-35.3632641,149.1652358,10999,-0.0008027790463529527,-0.04767186567187309,-0.0430697463452816,-0.10416217893362045,0.09102524071931839,-0.0528063103556633,0,-7,-1001,-103,91,-53,21,30,-146,94209.0
06:09:00.687,AUTO,-35.3632635,149.1652365,11378,-0.019434509798884392,-0.025417553260922432,-0.061424508690834045,-0.05387263372540474,0.08425726741552353,-0.0854196846485138,0,-8,-1006,-53,85,-85,29,24,-147,94209.0
06:09:00.889,AUTO,-35.3632635,149.1652365,11378,-0.019434509798884392,-0.025417553260922432,-0.061424508690834045,-0.05387263372540474,0.08425726741552353,-0.0854196846485138,0,-8,-1006,-53,85,-85,29,24,-147,94209.0
06:09:01.090,AUTO,-35.3632628,149.165237,11760,-0.028503239154815674,-0.008098382502794266,-0.0844380334019661,-0.022168075665831566,0.05779191851615906,-0.08795520663261414,-5,-8,-1006,-21,58,-87,32,15,-148,94209.0
06:09:01.293,AUTO,-35.3632621,149.1652373,12146,-0.030712412670254707,0.0035279570147395134,-0.10709325969219208,0.0017143315635621548,0.04520450532436371,-0.08458695560693741,-5,-6,-1005,2,45,-84,31,5,-150,94209.0
06:09:01.495,AUTO,-35.3632614,149.1652373,12534,-0.027468670159578323,0.011942957527935505,-0.12698772549629211,0.020827867090702057,0.02930303104221821,-0.0689573585987091,-5,-4,-1003,21,30,-69,27,-3,-150,94209.0
06:09:01.698,AUTO,-35.3632614,149.1652373,12534,-0.027468670159578323,0.011942957527935505,-0.12698772549629211,0.020827867090702057,0.02930303104221821,-0.0689573585987091,-5,-4,-1003,21,30,-69,27,-3,-150,94209.0
06:09:01.899,AUTO,-35.3632614,149.1652373,12534,-0.027468670159578323,0.011942957527935505,-0.12698772549629211,0.020827867090702057,0.02930303104221821,-0.0689573585987091,-5,-4,-1003,21,30,-69,27,-3,-150,94209.0
06:09:02.101,AUTO,-35.3632614,149.1652373,12534,-0.027468670159578323,0.011942957527935505,-0.12698772549629211,0.020827867090702057,0.02930303104221821,-0.0689573585987091,-5,-4,-1003,21,30,-69,27,-3,-150,94209.0
06:09:02.303,AUTO,-35.36326,149.1652364,13706,-0.0016951346769928932,0.025068562477827072,-0.1653076857328415,0.03944969177246094,0.008991250768303871,-0.029518386349081993,-5,0,-1001,40,9,-29,8,-15,-151,94209.0
06:09:02.505,AUTO,-35.3632599,149.1652359,14101,0.007055163383483887,0.025759756565093994,-0.1706235259771347,0.030332883819937706,-0.002972003538161516,-0.011842538602650166,-4,1,-999,31,-2,-12,2,-14,-151,169229.0
06:09:02.707,AUTO,-35.3632598,149.1652355,14491,0.013012903742492199,0.024232178926467896,-0.17254015803337097,0.02025577425956726,-0.0094896350055933,-0.0035194249358028173,-3,1,-999,21,-8,-3,-3,-11,-151,169229.0
06:09:02.909,AUTO,-35.3632599,149.1652352,14882,0.016732312738895416,0.021228700876235962,-0.17201709747314453,0.00808657892048359,-0.011992402374744415,0.0031118581537157297,-1,2,-998,8,-11,2,-7,-6,-151,169229.0
06:09:03.111,AUTO,-35.3632599,149.1652352,14882,0.016732312738895416,0.021228700876235962,-0.17201709747314453,0.00808657892048359,-0.011992402374744415,0.0031118581537157297,-1,2,-998,8,-11,2,-7,-6,-151,169229.0
06:09:03.313,AUTO,-35.36326,149.1652351,15272,0.018004262819886208,0.01765085570514202,-0.17028813064098358,0.002104125451296568,-0.01433474849909544,0.008358330465853214,0,2,-999,2,-13,8,-11,-2,-151,169229.0
06:09:03.516,AUTO,-35.3632602,149.165235,15661,0.016643881797790527,0.013747396878898144,-0.16825984418392181,-0.009259052574634552,-0.01481585018336773,0.007542196195572615,1,1,-998,-8,-14,7,-13,2,-150,169229.0
06:09:03.718,AUTO,-35.3632602,149.165235,15661,0.016643881797790527,0.013747396878898144,-0.16825984418392181,-0.009259052574634552,-0.01481585018336773,0.007542196195572615,1,1,-998,-8,-14,7,-13,2,-150,169229.0
06:09:03.920,AUTO,-35.3632602,149.165235,15661,0.016643881797790527,0.013747396878898144,-0.16825984418392181,-0.009259052574634552,-0.01481585018336773,0.007542196195572615,1,1,-998,-8,-14,7,-13,2,-150,169229.0
06:09:04.122,AUTO,-35.3632602,149.165235,15661,0.016643881797790527,0.013747396878898144,-0.16825984418392181,-0.009259052574634552,-0.01481585018336773,0.007542196195572615,1,1,-998,-8,-14,7,-13,2,-150,169229.0
06:09:04.325,AUTO,-35.363261,149.1652352,16822,0.00853774230927229,0.004005660768598318,-0.16640187799930573,-0.01005779393017292,-0.008774150162935257,-0.005635849200189114,3,0,-1000,-9,-8,-5,-14,9,-150,169229.0
06:09:04.526,AUTO,-35.3632613,149.1652354,17211,0.00586230494081974,0.0014142761938273907,-0.16770972311496735,-0.010169757530093193,-0.009188266471028328,-0.0069389063864946365,3,0,-1000,-9,-8,-7,-13,10,-151,169229.0
06:09:04.728,AUTO,-35.3632615,149.1652356,17599,0.0035338469315320253,-0.0009103205520659685,-0.16998469829559326,-0.00999495293945074,-0.008630667813122272,-0.01254924014210701,2,0,-1000,-9,-7,-12,-11,10,-151,169229.0
06:09:04.929,AUTO,-35.3632617,149.1652358,17988,0.0015952741960063577,-0.002196567365899682,-0.17371496558189392,-0.005372372455894947,-0.0023422078229486942,-0.01919141411781311,2,0,-1001,-4,-1,-19,-9,9,-151,169229.0
06:09:05.131,AUTO,-35.3632617,149.1652358,17988,0.0015952741960063577,-0.002196567365899682,-0.17371496558189392,-0.005372372455894947,-0.0023422078229486942,-0.01919141411781311,2,0,-1001,-4,-1,-19,-9,9,-151,169229.0
06:09:05.333,AUTO,-35.3632619,149.165236,18376,0.0003681238740682602,-0.002759481780230999,-0.17846234142780304,-0.0021875514648854733,-0.00030798674561083317,-0.019312644377350807,2,0,-1001,-1,0,-19,-8,8,-151,169229.0
06:09:05.536,AUTO,-35.363262,149.1652362,18769,-0.00047030209680087864,-0.0028642548713833094,-0.1842104196548462,-0.0021977070719003677,0.001432438613846898,-0.025363739579916,1,0,-1000,-1,2,-25,-6,7,-151,169229.0
06:09:05.739,AUTO,-35.363262,149.1652362,18769,-0.00047030209680087864,-0.0028642548713833094,-0.1842104196548462,-0.0021977070719003677,0.001432438613846898,-0.025363739579916,1,0,-1000,-1,2,-25,-6,7,-151,169229.0
06:09:05.940,AUTO,-35.363262,149.1652362,18769,-0.00047030209680087864,-0.0028642548713833094,-0.1842104196548462,-0.0021977070719003677,0.001432438613846898,-0.025363739579916,1,0,-1000,-1,2,-25,-6,7,-151,169229.0
06:09:06.142,AUTO,-35.363262,149.1652362,18769,-0.00047030209680087864,-0.0028642548713833094,-0.1842104196548462,-0.0021977070719003677,0.001432438613846898,-0.025363739579916,1,0,-1000,-1,2,-25,-6,7,-151,169229.0
06:09:06.344,AUTO,-35.3632622,149.1652364,19935,0.0009684262331575155,-0.0008365345420315862,-0.20421527326107025,0.004417529329657555,0.004117289092391729,-0.025998743250966072,0,0,-1000,5,4,-25,-2,3,-152,169229.0
06:09:06.546,AUTO,-35.3632622,149.1652364,20325,0.0016461624763906002,-0.00012587604578584433,-0.21099898219108582,0.0019186199642717838,0.0041908519342541695,-0.025891050696372986,0,0,-1000,2,4,-26,-1,3,-152,300000.0
06:09:06.747,AUTO,-35.3632622,149.1652364,20714,0.0022684282157570124,0.0006101832259446383,-0.21758566796779633,0.0028868888039141893,0.0029358509927988052,-0.024930614978075027,0,0,-1000,3,3,-25,-1,2,-152,300000.0
06:09:06.949,AUTO,-35.3632621,149.1652364,21104,0.0031194884795695543,0.0016514597227796912,-0.2243100106716156,0.004288659896701574,0.0043454417027533054,-0.024903997778892517,0,0,-1000,4,4,-25,0,2,-152,300000.0
06:09:07.152,AUTO,-35.3632621,149.1652364,21494,0.0037268218584358692,0.0022838162258267403,-0.2305019646883011,0.0031586054246872663,0.0032869342248886824,-0.02382110245525837,0,0,-1000,4,4,-23,0,2,-152,300000.0
06:09:07.353,AUTO,-35.3632621,149.1652364,21494,0.0037268218584358692,0.0022838162258267403,-0.2305019646883011,0.0031586054246872663,0.0032869342248886824,-0.02382110245525837,0,0,-1000,4,4,-23,0,2,-152,300000.0
06:09:07.555,AUTO,-35.3632621,149.1652364,21884,0.004183088429272175,0.002761355135589838,-0.2363196462392807,0.0022939385380595922,0.002068127505481243,-0.022544026374816895,0,0,-1000,3,2,-22,0,2,-152,300000.0
06:09:07.767,AUTO,-35.3632621,149.1652364,21884,0.004183088429272175,0.002761355135589838,-0.2363196462392807,0.0022939385380595922,0.002068127505481243,-0.022544026374816895,0,0,-1000,3,2,-22,0,2,-152,300000.0
06:09:07.969,AUTO,-35.3632621,149.1652364,21884,0.004183088429272175,0.002761355135589838,-0.2363196462392807,0.0022939385380595922,0.002068127505481243,-0.022544026374816895,0,0,-1000,3,2,-22,0,2,-152,300000.0
06:09:08.171,AUTO,-35.3632621,149.1652365,23052,0.005074008833616972,0.004082433879375458,-0.25284865498542786,0.0010230311891064048,0.0007743730093352497,-0.017771031707525253,0,0,-1000,1,1,-17,-1,3,-152,300000.0
06:09:08.372,AUTO,-35.3632621,149.1652365,23052,0.005074008833616972,0.004082433879375458,-0.25284865498542786,0.0010230311891064048,0.0007743730093352497,-0.017771031707525253,0,0,-1000,1,1,-17,-1,3,-152,300000.0
06:09:08.574,AUTO,-35.3632621,149.1652365,23445,0.00479449238628149,0.0036867849994450808,-0.25742724537849426,-0.0024610396940261126,-0.00261220196262002,-0.015415937639772892,0,0,-1000,-1,-1,-15,-1,3,-152,300000.0
06:09:08.777,AUTO,-35.3632621,149.1652365,23836,0.004195463843643665,0.0032629144843667746,-0.2618214190006256,-0.0031255874782800674,-0.0018889562925323844,-0.01680542342364788,0,0,-1000,-2,-1,-17,-1,4,-152,300000.0
06:09:08.979,AUTO,-35.3632621,149.1652366,24225,0.003670694073662162,0.0032514501363039017,-0.266448050737381,0.0006437029805965722,-0.00045227905502542853,-0.018209164962172508,0,0,-1000,1,0,-18,-1,4,-152,300000.0
06:09:09.180,AUTO,-35.3632621,149.1652366,24615,0.00348891643807292,0.003510799491778016,-0.27133768796920776,0.0013063221704214811,0.0017860825173556805,-0.01905607059597969,0,0,-1000,2,2,-19,-1,4,-152,300000.0
06:09:09.382,AUTO,-35.3632621,149.1652366,24615,0.00348891643807292,0.003510799491778016,-0.27133768796920776,0.0013063221704214811,0.0017860825173556805,-0.01905607059597969,0,0,-1000,2,2,-19,-1,4,-152,300000.0
06:09:09.584,AUTO,-35.3632621,149.1652367,25004,0.0030605981592088938,0.003281436627730727,-0.2758047580718994,-0.00035754829877987504,-0.0003095329739153385,-0.016606414690613747,0,0,-1000,0,0,-16,-1,4,-152,300000.0
06:09:09.785,AUTO,-35.3632621,149.1652367,25004,0.0030605981592088938,0.003281436627730727,-0.2758047580718994,-0.00035754829877987504,-0.0003095329739153385,-0.016606414690613747,0,0,-1000,0,0,-16,-1,4,-152,300000.0
06:09:09.987,AUTO,-35.3632621,149.1652367,25004,0.0030605981592088938,0.003281436627730727,-0.2758047580718994,-0.00035754829877987504,-0.0003095329739153385,-0.016606414690613747,0,0,-1000,0,0,-16,-1,4,-152,300000.0
06:09:10.189,AUTO,-35.3632621,149.1652366,26163,0.0026473011821508408,0.005828269757330418,-0.2632169723510742,0.03147071227431297,-0.003405621973797679,0.027574634179472923,0,1,-1001,32,-2,27,-5,0,-152,300000.0
06:09:10.392,AUTO,-35.3632621,149.1652366,26163,0.0026473011821508408,0.005828269757330418,-0.2632169723510742,0.03147071227431297,-0.003405621973797679,0.027574634179472923,0,1,-1001,32,-2,27,-5,0,-152,300000.0
06:09:10.593,AUTO,-35.3632622,149.1652366,26553,0.00839050393551588,0.004615359008312225,-0.2559475600719452,0.012461905367672443,-0.006290103308856487,0.026053598150610924,0,0,-1000,13,-5,26,-5,0,-152,197481.0
06:09:10.794,AUTO,-35.3632623,149.1652366,26942,0.010720742866396904,0.003231673501431942,-0.24872879683971405,0.006408268120139837,-0.005867126397788525,0.02778671495616436,0,0,-1000,7,-4,27,-5,2,-152,197481.0
06:09:10.996,AUTO,-35.3632623,149.1652366,27331,0.010907242074608803,0.0023921418469399214,-0.2418367862701416,-0.0004000086337327957,-0.0011502420529723167,0.025957463309168816,0,0,-999,0,0,25,-4,4,-152,197481.0
06:09:11.198,AUTO,-35.3632624,149.1652367,27721,0.009922872297465801,0.0019587643910199404,-0.23549656569957733,-0.005671774968504906,9.874464012682438e-06,0.024466240778565407,0,0,-999,-4,0,24,-3,6,-152,197481.0
06:09:11.400,AUTO,-35.3632624,149.1652367,27721,0.009922872297465801,0.0019587643910199404,-0.23549656569957733,-0.005671774968504906,9.874464012682438e-06,0.024466240778565407,0,0,-999,-4,0,24,-3,6,-152,197481.0
06:09:11.602,AUTO,-35.3632624,149.1652368,28112,0.008568854071199894,0.0016007476951926947,-0.22959263622760773,-0.0038753689732402563,-0.0009531945688650012,0.023851007223129272,1,0,-1000,-2,0,23,-2,7,-151,197481.0
06:09:11.804,AUTO,-35.3632624,149.1652368,28112,0.008568854071199894,0.0016007476951926947,-0.22959263622760773,-0.0038753689732402563,-0.0009531945688650012,0.023851007223129272,1,0,-1000,-2,0,23,-2,7,-151,197481.0
06:09:12.006,AUTO,-35.3632624,149.1652368,28112,0.008568854071199894,0.0016007476951926947,-0.22959263622760773,-0.0038753689732402563,-0.0009531945688650012,0.023851007223129272,1,0,-1000,-2,0,23,-2,7,-151,197481.0
06:09:12.208,AUTO,-35.3632624,149.1652373,29272,0.0029239733703434467,0.0016354431863874197,-0.2139616757631302,-0.003278092248365283,9.241700172424316e-05,0.021808316931128502,1,-1,-1000,-2,1,21,-1,8,-151,197481.0
06:09:12.409,AUTO,-35.3632624,149.1652375,29659,0.001677652937360108,0.0016298325499519706,-0.20912279188632965,-0.007755500264465809,-0.0015513901598751545,0.017856061458587646,0,-1,-1000,-6,0,17,0,8,-152,197481.0
06:09:12.611,AUTO,-35.3632624,149.1652375,29659,0.001677652937360108,0.0016298325499519706,-0.20912279188632965,-0.007755500264465809,-0.0015513901598751545,0.017856061458587646,0,-1,-1000,-6,0,17,0,8,-152,197481.0
06:09:12.813,AUTO,-35.3632624,149.1652377,30042,-0.011155516840517521,0.012515036389231682,-0.18043255805969238,-0.09685003012418747,0.09145790338516235,0.22525203227996826,0,-1,-971,-95,92,225,-1,6,-147,197481.0
06:09:13.015,AUTO,-35.3632624,149.1652377,30408,-0.03957602381706238,0.04428192600607872,-0.08765876293182373,-0.14254465699195862,0.12603361904621124,0.5057474970817566,0,0,-973,-141,127,505,-8,0,-139,197481.0
06:09:13.217,AUTO,-35.3632627,149.1652375,30756,-0.06410076469182968,0.07139255106449127,0.054624952375888824,-0.04706105217337608,-0.029926935210824013,0.49782872200012207,3,3,-946,-46,-28,497,-22,-12,-130,197481.0
06:09:13.419,AUTO,-35.3632633,149.165237,31070,-0.04831215739250183,0.03707485273480415,0.13889208436012268,0.09381919354200363,-0.20906299352645874,0.20273616909980774,4,7,-942,94,-208,202,-32,-26,-115,197481.0
06:09:13.622,AUTO,-35.3632633,149.165237,31070,-0.04831215739250183,0.03707485273480415,0.13889208436012268,0.09381919354200363,-0.20906299352645874,0.20273616909980774,4,7,-942,94,-208,202,-32,-26,-115,197481.0
06:09:13.824,AUTO,-35.3632633,149.165237,31070,-0.04831215739250183,0.03707485273480415,0.13889208436012268,0.09381919354200363,-0.20906299352645874,0.20273616909980774,4,7,-942,94,-208,202,-32,-26,-115,197481.0
06:09:14.026,AUTO,-35.3632633,149.165237,31070,-0.04831215739250183,0.03707485273480415,0.13889208436012268,0.09381919354200363,-0.20906299352645874,0.20273616909980774,4,7,-942,94,-208,202,-32,-26,-115,197481.0
06:09:14.228,AUTO,-35.3632652,149.1652345,31817,0.026477456092834473,-0.05093131214380264,0.16059859097003937,0.04035504162311554,-0.023674027994275093,-0.036926671862602234,1,7,-962,41,-22,-36,-15,-23,-80,197481.0
06:09:14.430,AUTO,-35.3632655,149.1652339,32013,0.037689369171857834,-0.05150727182626724,0.15026399493217468,0.03750569745898247,0.011434623971581459,-0.038266606628894806,0,5,-968,38,12,-38,-4,-12,-71,200.0
06:09:14.631,AUTO,-35.3632655,149.1652339,32013,0.037689369171857834,-0.05150727182626724,0.15026399493217468,0.03750569745898247,0.011434623971581459,-0.038266606628894806,0,5,-968,38,12,-38,-4,-12,-71,200.0
06:09:14.833,AUTO,-35.3632655,149.1652337,32185,0.042389482259750366,-0.04545391723513603,0.14144515991210938,0.04016856476664543,0.03173506259918213,-0.030457578599452972,-1,0,-972,40,32,-30,5,-1,-63,200.0
06:09:15.035,AUTO,-35.3632652,149.1652337,32339,0.03793950751423836,-0.03619205206632614,0.13467499613761902,-0.1348780244588852,0.03834778442978859,-0.021844498813152313,-1,-7,-975,-133,39,-21,13,8,-56,200.0
06:09:15.237,AUTO,-35.363265,149.165234,32476,0.03545939922332764,-0.026109952479600906,0.12996263802051544,0.14329083263874054,0.03980986773967743,-0.014214363880455494,-3,6,-979,144,40,-14,19,16,-50,200.0
06:09:15.439,AUTO,-35.3632645,149.1652343,32599,0.032095767557621,-0.016507498919963837,0.1260504573583603,-0.00793857965618372,0.036667726933956146,-0.012040948495268822,-3,-17,-974,-7,37,-12,23,21,-45,200.0
06:09:15.641,AUTO,-35.3632645,149.1652343,32599,0.032095767557621,-0.016507498919963837,0.1260504573583603,-0.00793857965618372,0.036667726933956146,-0.012040948495268822,-3,-17,-974,-7,37,-12,23,21,-45,200.0
06:09:15.844,AUTO,-35.3632645,149.1652343,32599,0.032095767557621,-0.016507498919963837,0.1260504573583603,-0.00793857965618372,0.036667726933956146,-0.012040948495268822,-3,-17,-974,-7,37,-12,23,21,-45,200.0
06:09:16.046,AUTO,-35.3632645,149.1652343,32599,0.032095767557621,-0.016507498919963837,0.1260504573583603,-0.00793857965618372,0.036667726933956146,-0.012040948495268822,-3,-17,-974,-7,37,-12,23,21,-45,200.0
06:09:16.248,AUTO,-35.3632628,149.1652363,32873,0.017009839415550232,0.007880917750298977,0.1171003133058548,0.5106183290481567,0.02232472039759159,-0.008129443041980267,-2,9,-987,511,23,-7,23,27,-29,200.0
06:09:16.450,AUTO,-35.3632623,149.1652369,32939,0.006608873605728149,0.011795887723565102,0.11455192416906357,-0.16595157980918884,0.016008861362934113,-0.008458553813397884,-2,-28,-970,-166,17,-8,20,24,-23,200.0
06:09:16.652,AUTO,-35.3632623,149.1652369,32939,0.006608873605728149,0.011795887723565102,0.11455192416906357,-0.16595157980918884,0.016008861362934113,-0.008458553813397884,-2,-28,-970,-166,17,-8,20,24,-23,200.0
06:09:16.853,AUTO,-35.3632619,149.1652376,32990,-0.00923292338848114,0.014563524164259434,0.11231335252523422,-0.6379827857017517,0.006000171415507793,-0.006063004489988089,-1,-31,-975,-637,7,-5,17,22,-18,200.0
06:09:17.055,AUTO,-35.3632615,149.1652381,33026,-0.009583935141563416,0.016158640384674072,0.10992331057786942,-0.09046914428472519,0.005752584431320429,-0.00766948563978076,0,-3,-976,-88,6,-7,14,19,-11,200.0
06:09:17.256,AUTO,-35.3632612,149.1652387,33044,-0.0001089405341190286,0.01657932437956333,0.10752276331186295,0.6318265795707703,-0.0027342517860233784,-0.008595732040703297,0,32,-971,633,-1,-8,10,16,-3,200.0
06:09:17.459,AUTO,-35.363261,149.1652391,33035,-0.023274390026926994,0.03950785845518112,0.09935073554515839,0.7771762609481812,0.10829655826091766,0.04101685807108879,1,29,-933,778,109,41,5,10,11,200.0
06:09:17.660,AUTO,-35.363261,149.1652391,33035,-0.023274390026926994,0.03950785845518112,0.09935073554515839,0.7771762609481812,0.10829655826091766,0.04101685807108879,1,29,-933,778,109,41,5,10,11,200.0
06:09:17.862,AUTO,-35.363261,149.1652391,33035,-0.023274390026926994,0.03950785845518112,0.09935073554515839,0.7771762609481812,0.10829655826091766,0.04101685807108879,1,29,-933,778,109,41,5,10,11,200.0
06:09:18.065,AUTO,-35.363261,149.1652391,33035,-0.023274390026926994,0.03950785845518112,0.09935073554515839,0.7771762609481812,0.10829655826091766,0.04101685807108879,1,29,-933,778,109,41,5,10,11,200.0
06:09:18.267,AUTO,-35.3632612,149.1652396,32914,0.006997314281761646,-0.002860006410628557,0.096806600689888,-0.5486342310905457,-0.04427522420883179,-0.005148494150489569,2,-37,-1033,-548,-43,-5,-7,-1,10,200.0
06:09:18.468,AUTO,-35.3632613,149.1652399,32890,0.009820089675486088,-0.011183767579495907,0.0939566120505333,-0.501965343952179,-0.028294943273067474,-0.0011707112425938249,2,-8,-1007,-500,-27,0,-5,3,7,200.0
06:09:18.670,AUTO,-35.3632614,149.1652402,32872,0.0246682558208704,-0.018202027305960655,0.0915435180068016,0.30054256319999695,-0.027538176625967026,0.0015063980827108026,3,24,-1018,302,-26,1,-1,11,4,200.0
06:09:18.872,AUTO,-35.3632614,149.1652402,32872,0.0246682558208704,-0.018202027305960655,0.0915435180068016,0.30054256319999695,-0.027538176625967026,0.0015063980827108026,3,24,-1018,302,-26,1,-1,11,4,200.0
06:09:19.074,AUTO,-35.3632615,149.1652409,32861,0.04682599753141403,-0.023486025631427765,0.08985064923763275,0.6590930819511414,-0.01886904053390026,-0.0011620199074968696,4,15,-1010,659,-17,0,3,18,1,200.0
06:09:19.277,AUTO,-35.3632614,149.1652418,32856,0.05440529063344002,-0.028201520442962646,0.0877896323800087,-0.055642157793045044,-0.025307785719633102,-0.0026613371446728706,2,-30,-1007,-56,-24,-2,9,28,0,200.0
06:09:19.479,AUTO,-35.3632612,149.1652429,32857,0.05852467939257622,-0.03496887534856796,0.10461433976888657,-0.5634151101112366,-0.046187955886125565,0.23749980330467224,2,-40,-1008,-562,-45,237,17,42,-1,200.0
06:09:19.681,AUTO,-35.3632612,149.1652429,32857,0.05852467939257622,-0.03496887534856796,0.10461433976888657,-0.5634151101112366,-0.046187955886125565,0.23749980330467224,2,-40,-1008,-562,-45,237,17,42,-1,200.0
06:09:19.883,AUTO,-35.3632612,149.1652429,32857,0.05852467939257622,-0.03496887534856796,0.10461433976888657,-0.5634151101112366,-0.046187955886125565,0.23749980330467224,2,-40,-1008,-562,-45,237,17,42,-1,200.0
06:09:20.085,AUTO,-35.3632612,149.1652429,32857,0.05852467939257622,-0.03496887534856796,0.10461433976888657,-0.5634151101112366,-0.046187955886125565,0.23749980330467224,2,-40,-1008,-562,-45,237,17,42,-1,200.0
06:09:20.287,AUTO,-35.3632595,149.1652492,32870,0.0806768611073494,-0.09849365055561066,0.656392514705658,0.5204169750213623,-0.01536034606397152,0.8306025266647339,-10,-11,-1003,520,-14,830,43,102,-4,200.0
06:09:20.490,AUTO,-35.3632585,149.1652523,32881,0.06187540292739868,-0.12142255902290344,0.8534206748008728,-0.3261563181877136,-0.048839718103408813,0.7697404623031616,-17,-53,-992,-326,-47,769,53,126,-4,200.0
06:09:20.692,AUTO,-35.3632573,149.1652562,32892,0.03800752013921738,-0.14189738035202026,1.0378369092941284,-0.40963447093963623,-0.05489448830485344,0.7199847102165222,-26,-40,-1008,-408,-53,720,62,152,-5,200.0
06:09:20.894,AUTO,-35.3632573,149.1652562,32892,0.03800752013921738,-0.14189738035202026,1.0378369092941284,-0.40963447093963623,-0.05489448830485344,0.7199847102165222,-26,-40,-1008,-408,-53,720,62,152,-5,200.0
06:09:21.096,AUTO,-35.3632559,149.1652607,32905,0.025537647306919098,-0.1611100137233734,1.216168999671936,0.2884022295475006,-0.04021691530942917,0.6847009062767029,-38,-4,-1010,290,-39,684,72,180,-6,200.0
06:09:21.298,AUTO,-35.3632542,149.165266,32920,0.014195051975548267,-0.17563802003860474,1.3600828647613525,0.39604732394218445,-0.05106101557612419,0.38876330852508545,-46,-16,-1012,396,-50,388,83,209,-6,200.0
06:09:21.501,AUTO,-35.3632523,149.1652721,32936,0.0020845443941652775,-0.1864347755908966,1.408462643623352,-0.21128439903259277,-0.0363939069211483,0.07300319522619247,-55,-45,-1011,-210,-35,73,93,240,-7,200.0
06:09:21.703,AUTO,-35.3632523,149.1652721,32936,0.0020845443941652775,-0.1864347755908966,1.408462643623352,-0.21128439903259277,-0.0363939069211483,0.07300319522619247,-55,-45,-1011,-210,-35,73,93,240,-7,200.0
06:09:21.905,AUTO,-35.3632523,149.1652721,32936,0.0020845443941652775,-0.1864347755908966,1.408462643623352,-0.21128439903259277,-0.0363939069211483,0.07300319522619247,-55,-45,-1011,-210,-35,73,93,240,-7,200.0
06:09:22.107,AUTO,-35.3632523,149.1652721,32936,0.0020845443941652775,-0.1864347755908966,1.408462643623352,-0.21128439903259277,-0.0363939069211483,0.07300319522619247,-55,-45,-1011,-210,-35,73,93,240,-7,200.0
06:09:22.309,AUTO,-35.3632453,149.1652956,33004,0.02124733477830887,-0.19312213361263275,1.3439403772354126,0.032176751643419266,0.01835286058485508,-0.07833893597126007,-71,-40,-1013,32,19,-78,123,331,-11,200.0
06:09:22.511,AUTO,-35.3632424,149.1653051,33036,0.025639457628130913,-0.19331654906272888,1.326728105545044,-0.18298038840293884,-0.018491137772798538,-0.0503983311355114,-81,-46,-1010,-182,-17,-50,132,358,-13,130948.0
06:09:22.714,AUTO,-35.3632394,149.1653152,33072,0.0339311808347702,-0.20033398270606995,1.3193389177322388,0.1383202075958252,-0.03580072894692421,-0.026476116850972176,-90,-27,-1006,139,-34,-26,140,384,-14,130948.0
06:09:22.918,AUTO,-35.3632361,149.165326,33109,0.0414404459297657,-0.20806168019771576,1.3170783519744873,0.00913914293050766,-0.016127588227391243,0.0077886744402348995,-88,-45,-1004,9,-15,7,149,411,-14,130948.0
06:09:23.120,AUTO,-35.3632361,149.165326,33109,0.0414404459297657,-0.20806168019771576,1.3170783519744873,0.00913914293050766,-0.016127588227391243,0.0077886744402348995,-88,-45,-1004,9,-15,7,149,411,-14,130948.0
06:09:23.322,AUTO,-35.3632326,149.1653377,33148,0.04438911750912666,-0.21015161275863647,1.316380262374878,-0.05022788420319557,-0.0062888432294130325,0.0007961025694385171,-86,-59,-1003,-49,-5,1,158,439,-15,130948.0
06:09:23.525,AUTO,-35.3632289,149.1653501,33190,0.05244918167591095,-0.21049121022224426,1.3157298564910889,0.09139400720596313,-0.008926421403884888,-0.0017301131738349795,-106,-40,-1007,92,-7,-1,165,466,-17,130948.0
06:09:23.727,AUTO,-35.3632289,149.1653501,33190,0.05244918167591095,-0.21049121022224426,1.3157298564910889,0.09139400720596313,-0.008926421403884888,-0.0017301131738349795,-106,-40,-1007,92,-7,-1,165,466,-17,130948.0
06:09:23.929,AUTO,-35.3632289,149.1653501,33190,0.05244918167591095,-0.21049121022224426,1.3157298564910889,0.09139400720596313,-0.008926421403884888,-0.0017301131738349795,-106,-40,-1007,92,-7,-1,165,466,-17,130948.0
06:09:24.131,AUTO,-35.3632289,149.1653501,33190,0.05244918167591095,-0.21049121022224426,1.3157298564910889,0.09139400720596313,-0.008926421403884888,-0.0017301131738349795,-106,-40,-1007,92,-7,-1,165,466,-17,130948.0
06:09:24.333,AUTO,-35.3632169,149.1653918,33336,0.0557723343372345,-0.2009982466697693,1.313103199005127,0.022086676210165024,0.07243065536022186,-0.012226683087646961,-121,-63,-1017,22,73,-12,186,541,-23,130948.0
06:09:24.535,AUTO,-35.3632126,149.1654071,33402,0.06132420152425766,-0.19141176342964172,1.3116531372070312,0.01931210793554783,-0.006327916868031025,-0.0010876755695790052,-116,-54,-993,19,-5,0,191,559,-27,130948.0
06:09:24.737,AUTO,-35.3632081,149.1654227,33475,0.06392823904752731,-0.18883630633354187,1.3101378679275513,0.008428161032497883,0.0013531115837395191,-0.004920319654047489,-139,-64,-1000,9,2,-4,196,574,-29,130948.0
06:09:24.940,AUTO,-35.3632036,149.1654388,33551,0.06385048478841782,-0.1904202401638031,1.3092315196990967,-0.013645191676914692,-0.019061794504523277,-0.007106370758265257,-134,-72,-995,-12,-18,-6,199,588,-29,130948.0
06:09:25.143,AUTO,-35.3632036,149.1654388,33551,0.06385048478841782,-0.1904202401638031,1.3092315196990967,-0.013645191676914692,-0.019061794504523277,-0.007106370758265257,-134,-72,-995,-12,-18,-6,199,588,-29,130948.0
06:09:25.346,AUTO,-35.363199,149.1654553,33623,0.06649146229028702,-0.186397984623909,1.3081130981445312,0.0121825085952878,0.03884737938642502,-0.010155955329537392,-143,-51,-997,12,39,-9,204,603,-29,130948.0
06:09:25.548,AUTO,-35.3631943,149.1654721,33697,0.07006467133760452,-0.17486466467380524,1.306569218635559,0.04193195328116417,0.05539880692958832,-0.014825992286205292,-134,-62,-1001,42,56,-14,208,616,-31,130948.0
06:09:25.750,AUTO,-35.3631943,149.1654721,33697,0.07006467133760452,-0.17486466467380524,1.306569218635559,0.04193195328116417,0.05539880692958832,-0.014825992286205292,-134,-62,-1001,42,56,-14,208,616,-31,130948.0
06:09:25.953,AUTO,-35.3631943,149.1654721,33697,0.07006467133760452,-0.17486466467380524,1.306569218635559,0.04193195328116417,0.05539880692958832,-0.014825992286205292,-134,-62,-1001,42,56,-14,208,616,-31,130948.0
06:09:26.167,AUTO,-35.3631943,149.1654721,33697,0.07006467133760452,-0.17486466467380524,1.306569218635559,0.04193195328116417,0.05539880692958832,-0.014825992286205292,-134,-62,-1001,42,56,-14,208,616,-31,130948.0
06:09:26.373,AUTO,-35.3631801,149.1655233,34013,0.08398991823196411,0.02241116762161255,1.308512806892395,0.029533177614212036,0.3690427541732788,-0.023157745599746704,-145,-75,-1045,30,370,-22,199,593,-61,130948.0
06:09:26.575,AUTO,-35.3631757,149.1655394,34167,0.09103790670633316,0.08284265547990799,1.3100876808166504,0.07912376523017883,0.07033850997686386,-0.005988356191664934,-119,-61,-978,80,71,-5,185,552,-61,300000.0
06:09:26.777,AUTO,-35.3631716,149.1655542,34298,0.08818677812814713,0.07244102656841278,1.309314250946045,-0.3091036379337311,-0.07231631875038147,0.021039137616753578,-111,-76,-930,-308,-71,21,170,510,-44,300000.0
06:09:26.979,AUTO,-35.3631679,149.1655679,34382,0.07238567620515823,0.058151599019765854,1.3084344863891602,-0.4613061547279358,-0.04197675362229347,-0.03162786737084389,-99,-65,-899,-459,-40,-31,156,474,-21,300000.0
06:09:27.181,AUTO,-35.3631644,149.1655807,34414,0.07663112133741379,0.04855722561478615,1.3065346479415894,0.30794864892959595,-0.03731350600719452,-0.06091389060020447,-102,-17,-975,310,-36,-60,142,441,-7,300000.0
06:09:27.383,AUTO,-35.3631644,149.1655807,34414,0.07663112133741379,0.04855722561478615,1.3065346479415894,0.30794864892959595,-0.03731350600719452,-0.06091389060020447,-102,-17,-975,310,-36,-60,142,441,-7,300000.0
06:09:27.586,AUTO,-35.3631613,149.1655927,34422,0.07736590504646301,0.04048718139529228,1.3047925233840942,0.8099526762962341,-0.010328996926546097,-0.04770238697528839,-86,-23,-1002,811,-9,-47,131,412,0,300000.0
06:09:27.788,AUTO,-35.3631613,149.1655927,34422,0.07736590504646301,0.04048718139529228,1.3047925233840942,0.8099526762962341,-0.010328996926546097,-0.04770238697528839,-86,-23,-1002,811,-9,-47,131,412,0,300000.0
06:09:27.990,AUTO,-35.3631613,149.1655927,34422,0.07736590504646301,0.04048718139529228,1.3047925233840942,0.8099526762962341,-0.010328996926546097,-0.04770238697528839,-86,-23,-1002,811,-9,-47,131,412,0,300000.0
06:09:28.192,AUTO,-35.3631534,149.1656238,34418,0.04187764972448349,0.028358623385429382,1.3011538982391357,-0.7328720688819885,2.5919522158801556e-05,0.02511931024491787,-76,-83,-1011,-732,1,25,105,336,0,300000.0
06:09:28.394,AUTO,-35.3631534,149.1656238,34418,0.04187764972448349,0.028358623385429382,1.3011538982391357,-0.7328720688819885,2.5919522158801556e-05,0.02511931024491787,-76,-83,-1011,-732,1,25,105,336,0,300000.0
06:09:28.597,AUTO,-35.3631511,149.1656329,34421,0.03736943006515503,0.03246670216321945,1.3001679182052612,-0.22622649371623993,0.01862252876162529,-0.025552457198500633,-67,-37,-1003,-224,19,-25,98,313,-3,300000.0
06:09:28.798,AUTO,-35.363149,149.1656413,34429,0.04346700385212898,0.04076146334409714,1.298215389251709,0.48838746547698975,0.02889082580804825,-0.030523691326379776,-62,-3,-1014,490,30,-30,90,290,-4,300000.0
06:09:29.000,AUTO,-35.3631471,149.1656491,34440,0.04592422768473625,0.04800192266702652,1.2963522672653198,0.6003461480140686,0.0318470373749733,-0.008288165554404259,-60,-18,-1012,600,32,-7,84,265,-6,300000.0
06:09:29.202,AUTO,-35.3631453,149.1656561,34456,0.04100850969552994,0.05051257088780403,1.2960549592971802,-0.1602724939584732,-0.07867542654275894,0.06078393757343292,-49,-60,-992,-160,-77,61,78,241,-7,300000.0
06:09:29.404,AUTO,-35.3631453,149.1656561,34456,0.04100850969552994,0.05051257088780403,1.2960549592971802,-0.1602724939584732,-0.07867542654275894,0.06078393757343292,-49,-60,-992,-160,-77,61,78,241,-7,300000.0
06:09:29.608,AUTO,-35.3631436,149.1656626,34467,0.02198503352701664,-0.004766568075865507,1.2949200868606567,-0.6843539476394653,-0.29507166147232056,0.03600510582327843,-48,-62,-993,-683,-294,36,73,224,-4,300000.0
06:09:29.810,AUTO,-35.3631436,149.1656626,34467,0.02198503352701664,-0.004766568075865507,1.2949200868606567,-0.6843539476394653,-0.29507166147232056,0.03600510582327843,-48,-62,-993,-683,-294,36,73,224,-4,300000.0
06:09:30.012,AUTO,-35.3631436,149.1656626,34467,0.02198503352701664,-0.004766568075865507,1.2949200868606567,-0.6843539476394653,-0.29507166147232056,0.03600510582327843,-48,-62,-993,-683,-294,36,73,224,-4,300000.0
06:09:30.214,AUTO,-35.3631384,149.1656823,34472,0.02072734199464321,-0.1990608125925064,1.290916085243225,0.22259967029094696,-0.21842758357524872,0.023904461413621902,-54,-35,-1003,223,-217,24,92,265,0,200.0
