time_stamp,roll,pitch,yaw,rollspeed,pitchspeed,yawspeed,lat,lon,relative_alt,vx,vy,vz,xacc,yacc,zacc,xgyro,ygyro,zgyro,MODE,RTL_ALT
20:31:01,0.0004224959120620042,0.0015148938400670886,0.026369839906692505,0.0001613037020433694,0.00032035078038461506,0.0022922870703041553,-35.3632621,149.1652374,0.0,-1.0,1.0,2.0,0.0,1.0,-1000.0,0.0,0.3333333333333333,0.0,STABILIZE,185206.0
20:31:03,0.0003063733602175489,0.0014068461023271084,0.02489765640348196,0.00029073144833091646,0.0002804255345836282,0.00212811678647995,-35.3632622,149.16523745,0.0,-2.0,1.0,0.0,0.0,1.0,-1000.0,0.0,0.0,0.0,STABILIZE,185206.0
20:31:05,-0.0002580449169424052,0.001033156916188697,0.023875278731187183,0.00026495830388739705,0.0002475693860712151,0.0020401255072404942,-35.3632622,149.1652375,0.0,-1.0,1.0,0.0,0.0,1.0,-1000.0,0.5,0.5,0.0,STABILIZE,185206.0
20:31:17,-0.0008937057961399356,0.0010809015948325396,0.020479750509063404,0.0002224200094739596,0.000327680977837493,0.0014650021912530065,-35.3632621,149.1652375,0.0,0.0,0.0,1.0,0.0,1.6666666666666667,-1000.0,0.6666666666666666,0.0,1.0,AUTO,185206.0
20:31:19,-0.00046791900725414354,0.0016224820089216034,0.02007729560136795,0.0003115988802164793,0.00025588097438837093,0.0014052639404932659,-35.3632621,149.1652374,0.0,0.0,0.0,0.0,0.0,1.3333333333333333,-1000.0,0.6666666666666666,0.3333333333333333,0.3333333333333333,AUTO,185206.0
20:31:20,0.002181387312399844,0.0009829496799890574,0.019862199823061626,-0.0005954132260133823,0.003018612915184349,0.0015578118230526645,-35.3632621,149.1652375,421.6666666666667,0.0,0.0,-97.0,0.0,0.0,-1109.0,0.0,3.0,0.6666666666666666,AUTO,20770.0
20:31:21,0.021365678558746975,-0.0009058971966927251,0.019873205572366714,0.046135631700356804,-0.007086535915732384,0.0023144971346482635,-35.363262033333335,149.16523756666666,1387.3333333333333,0.3333333333333333,5.666666666666667,-143.0,0.0,-0.3333333333333333,-1022.3333333333334,46.333333333333336,-6.0,1.6666666666666667,AUTO,20770.0
20:31:23,-0.03308866235117117,0.017628461743394535,-0.07500012715657552,-0.0387605894356966,-0.014973166398704052,-0.0492822223653396,-35.36326093333333,149.16524483333333,4434.0,-0.3333333333333333,37.0,-148.33333333333334,4.666666666666667,-8.666666666666666,-1006.3333333333334,-37.333333333333336,-13.666666666666666,-49.333333333333336,AUTO,20770.0
20:31:25,-0.013656553579494357,-0.005573562113568187,-0.08767552425463994,0.06523087372382481,0.013202938251197338,0.0028034731900940337,-35.3632613,149.16524106666668,7507.666666666667,-0.3333333333333333,-57.666666666666664,-150.0,-7.0,12.0,-1003.0,65.33333333333333,13.0,2.3333333333333335,AUTO,20770.0
20:31:26,0.06020116185148557,0.009363469978173574,-0.08454835663239162,0.020105481147766113,0.004900500023116668,-0.00015596672892570496,-35.363261666666666,149.1652347,9462.0,-6.0,-16.0,-152.33333333333334,-3.0,5.333333333333333,-998.3333333333334,21.0,5.0,-0.3333333333333333,AUTO,15650.0
20:31:27,0.025197408627718687,0.002992719334239761,-0.08403188983599345,-0.0749523068467776,-0.016933674924075603,0.001300837689389785,-35.363262133333336,149.1652346666667,10624.666666666666,-6.333333333333333,17.333333333333332,-149.0,2.3333333333333335,-1.3333333333333333,-998.6666666666666,-73.66666666666667,-15.666666666666666,1.3333333333333333,AUTO,15650.0
20:31:29,-0.00421329922392033,-0.000714848885157456,-0.12351534763971965,0.016903818274537723,0.007484499520311753,-0.02332133986055851,-35.3632622,149.16523643333332,13724.666666666666,3.0,-3.6666666666666665,-152.0,-1.3333333333333333,0.0,-1000.3333333333334,17.333333333333332,7.666666666666667,-23.0,AUTO,15650.0
20:31:31,0.008519413881003857,0.006160002357016007,-0.160121222337087,-0.0024094133793065944,-0.00023259807494468987,-0.013417931273579597,-35.36326163333333,149.1652355,16840.333333333332,-0.6666666666666666,1.6666666666666667,-152.0,0.0,0.0,-1000.0,-1.3333333333333333,0.0,-13.333333333333334,AUTO,15650.0
20:31:32,0.0042354432710756855,0.004584611393511295,-0.1784763882557551,-0.0010997165033283334,-0.00042380215988184017,-0.016048696512977283,-35.3632616,149.16523576666668,18787.666666666668,-2.6666666666666665,5.0,-152.66666666666666,0.0,0.0,-1000.0,-0.6666666666666666,0.3333333333333333,-16.0,AUTO,45546.0
20:31:33,0.0026940842314312854,0.003831999065975348,-0.19162160654862723,-0.0005465802581359943,0.000112163038769116,-0.019766246899962425,-35.36326163333334,149.16523600000002,19956.666666666668,-3.0,5.0,-153.0,0.0,0.0,-1000.0,0.0,1.0,-19.666666666666668,AUTO,45546.0
20:31:35,0.0019175204215571284,0.0028347690434505544,-0.2304979662100474,0.0007424572249874473,0.0004413957552363475,-0.02084357353548209,-35.3632618,149.16523656666664,23075.666666666668,-2.3333333333333335,3.0,-153.0,0.0,0.0,-1000.0,1.0,0.6666666666666666,-20.666666666666668,AUTO,45546.0
20:31:37,0.001040325267240405,0.004368572495877743,-0.2495169391234716,0.03089774896701177,-0.0017807258797499041,0.019957604818046093,-35.363262,149.1652366666667,26196.333333333332,-4.666666666666667,-1.3333333333333333,-153.0,0.0,0.6666666666666666,-1001.3333333333334,31.666666666666668,-0.6666666666666666,19.333333333333332,AUTO,45546.0
20:31:38,0.009167889909197887,0.0010691079078242183,-0.21917311350504556,-0.006907741849621137,0.0003777441452257335,0.024263375749190647,-35.36326236666667,149.16523666666666,28131.666666666668,-2.0,6.666666666666667,-152.0,0.3333333333333333,0.0,-999.3333333333334,-5.333333333333333,0.6666666666666666,23.666666666666668,AUTO,62880.0
20:31:39,0.0034423464288314185,0.0014573585940524936,-0.20293547213077545,-0.007095719687640667,0.0011961539858020842,0.02176909086604913,-35.3632624,149.16523716666669,29296.666666666668,-0.3333333333333333,8.0,-152.0,0.3333333333333333,-1.0,-999.6666666666666,-5.666666666666667,1.6666666666666667,21.333333333333332,AUTO,62880.0
20:31:41,-0.0001953637838596478,0.0012153364174688857,-0.1672404408454895,0.001182485177802543,4.019871509323517e-05,0.016160851034025352,-35.3632623,149.165238,32397.333333333332,0.0,2.0,-153.0,0.0,0.0,-1000.0,1.6666666666666667,0.6666666666666666,15.666666666666666,AUTO,62880.0
20:31:43,0.0016481553514798482,0.001094972404340903,-0.14084098239739737,0.000531201910537978,0.00045450842784096796,0.013080592267215252,-35.3632622,149.1652379,35511.666666666664,0.0,0.0,-153.0,0.0,0.0,-999.3333333333334,1.3333333333333333,0.6666666666666666,12.333333333333334,AUTO,62880.0
20:31:44,-0.047261837869882584,0.05132802824179331,0.07988771547873814,-0.04491365452607473,-0.01938701421022415,0.3966637502113978,-35.3632625,149.16523719999998,37384.333333333336,-18.333333333333332,-17.666666666666668,-131.66666666666666,1.6666666666666667,3.3333333333333335,-957.0,-43.333333333333336,-18.666666666666668,396.0,AUTO,37186.0
20:31:45,0.004773557807008426,-0.03020250362654527,0.2338257978359858,0.09399455040693283,-0.0999962588151296,0.03239091361562411,-35.363264166666674,149.1652346333333,38249.0,-24.666666666666668,-33.0,-94.33333333333333,2.6666666666666665,9.666666666666666,-954.0,94.33333333333333,-98.33333333333333,32.333333333333336,AUTO,37186.0
20:31:47,0.015095936328483125,0.00021806361231332025,0.18509677549203238,-0.19993225733439127,0.03040166199207306,-0.019841936727364857,-35.36326313333333,149.16523473333334,39482.333333333336,21.0,29.0,-34.666666666666664,-2.6666666666666665,-17.666666666666668,-977.0,-199.0,30.666666666666668,-19.0,AUTO,37186.0
20:31:49,-0.04118705168366432,0.024752565349141758,0.15293812255064645,-0.2687774896621704,-0.04376966071625551,-0.02034532775481542,-35.36326106666667,149.16523846666666,39658.666666666664,-8.0,-6.333333333333333,12.0,0.0,7.333333333333333,-998.3333333333334,-266.6666666666667,-42.0,-19.333333333333332,AUTO,37186.0
20:31:50,-0.030165639395515125,-0.002800962965314587,0.13566317657629648,-0.3196232219537099,-0.000598762339601914,-0.014665426375965277,-35.3632625,149.16523463333337,39518.0,-12.333333333333334,-36.666666666666664,4.666666666666667,-1.6666666666666667,-12.666666666666666,-998.3333333333334,-319.0,0.3333333333333333,-14.0,AUTO,224.0
20:31:51,-0.06386491407950719,-0.007997458218596876,-0.014840450758735338,0.12241969505945842,-0.011954419625302156,-0.554197629292806,-35.3632634,149.16522996666666,39450.0,-12.333333333333334,-64.33333333333333,7.333333333333333,-6.333333333333333,33.0,-990.6666666666666,124.33333333333333,-11.0,-553.6666666666666,AUTO,224.0
20:31:53,0.029076135406891506,-0.032489159454902015,-1.5105085770289104,0.771414577960968,0.012598725055189183,-0.5603619714577993,-35.36326693333333,149.1652047,39113.0,-14.333333333333334,-131.33333333333334,17.666666666666668,-29.666666666666668,24.333333333333332,-1004.0,773.0,13.666666666666666,-559.3333333333334,AUTO,224.0
20:31:55,0.04373928035298983,0.027805592243870098,-1.6180818875630696,-0.17284289002418518,0.019874486451347668,-0.0034239358889559903,-35.36327096666667,149.16517656666664,38708.333333333336,2.0,-87.66666666666667,9.333333333333334,-19.0,-34.333333333333336,-994.6666666666666,-172.33333333333334,20.333333333333332,-2.6666666666666665,AUTO,107225.0
20:31:57,0.00691821853009363,-0.06128073359529177,-1.630999008814494,-0.5309276878833771,-0.1379063626130422,-0.014985627417142192,-35.363271833333336,149.16516616666667,38580.666666666664,15.333333333333334,-35.333333333333336,2.6666666666666665,-5.0,-22.666666666666668,-995.3333333333334,-528.6666666666666,-136.66666666666666,-14.666666666666666,AUTO,107225.0
20:31:59,0.05262895425160726,0.03974579911058148,-1.644670009613037,0.5870881080627441,0.17145215968290964,-0.00381722596163551,-35.363274966666665,149.16514093333333,38305.333333333336,-6.333333333333333,-154.0,14.333333333333334,-30.666666666666668,3.0,-1012.6666666666666,588.3333333333334,171.66666666666666,-3.3333333333333335,AUTO,107225.0
20:32:00,0.008626024704426527,0.028772991771499317,-1.64755380153656,-0.35106024146080017,-0.27394304672876996,-0.02085179010949408,-35.36327536666667,149.1651284666667,38143.333333333336,13.333333333333334,-33.666666666666664,8.333333333333334,-3.3333333333333335,-10.0,-1006.0,-348.3333333333333,-273.0,-20.0,AUTO,29402.0
20:32:01,0.004253488887722294,-0.1099382812778155,-1.6515992085138957,0.38793129473924637,-0.006110437214374542,-0.03145081177353859,-35.36327483333333,149.16512476666665,38061.0,-0.3333333333333333,-74.33333333333333,11.333333333333334,-14.333333333333334,-7.666666666666667,-1008.3333333333334,389.0,-5.333333333333333,-30.666666666666668,AUTO,29402.0
20:32:03,0.018466890479127567,0.016997670754790306,-1.6588238875071208,-0.5034507215023041,0.19469494139775634,-0.02454449546833833,-35.3632772,149.16510213333333,37787.333333333336,-22.0,-124.0,13.333333333333334,-25.333333333333332,-35.0,-1001.6666666666666,-501.3333333333333,195.0,-23.666666666666668,AUTO,29402.0
20:32:05,0.018344591992596786,0.03454014534751574,-1.6662605206171672,0.4227628633379936,-0.2252279290308555,-0.028672975720837712,-35.36327956666667,149.16507933333335,37490.666666666664,-12.333333333333334,-72.0,9.333333333333334,-13.666666666666666,16.0,-1002.6666666666666,425.3333333333333,-224.33333333333334,-28.0,AUTO,11435.0
20:32:07,0.026890878255168598,-0.09804555649558704,-1.6719735066095989,0.41366953154404956,0.10364110271135966,-0.024956136321028072,-35.363282133333335,149.1650589,37211.333333333336,-23.333333333333332,-131.33333333333334,16.333333333333332,-28.333333333333332,-4.333333333333333,-1011.3333333333334,415.0,104.0,-24.0,AUTO,11435.0
20:32:09,0.02605830691754818,-0.13647204637527466,-1.6754667361577351,-0.256216694911321,-0.22443804144859314,0.027785114633540314,-35.36328593333334,149.16503863333332,36946.333333333336,-0.6666666666666666,-80.66666666666667,13.666666666666666,-16.333333333333332,-34.333333333333336,-983.6666666666666,-254.66666666666666,-223.66666666666666,27.666666666666668,AUTO,11435.0
20:32:10,0.05451869343717893,0.06822240212932229,-1.6793338457743328,0.05103293061256409,0.22569833199183145,0.004396697506308556,-35.363288866666664,149.1650189,36712.0,-10.333333333333334,-160.66666666666666,14.666666666666666,-33.0,-32.333333333333336,-1011.3333333333334,52.0,225.33333333333334,5.0,AUTO,44229.0
20:32:11,0.03080092929303646,-0.019192064180970192,-1.6805609862009685,-0.5529066845774651,-0.35405107339223224,-0.006979208439588547,-35.36329013333333,149.16500866666664,36594.333333333336,4.666666666666667,-102.33333333333333,17.0,-19.0,-21.666666666666668,-981.3333333333334,-549.6666666666666,-353.0,-6.0,AUTO,44229.0
20:32:13,0.02108184186120828,-0.08909493312239647,-1.6840037107467651,0.006546797851721446,-0.286214143037796,-0.03209405951201916,-35.36329196666666,149.164987,36284.333333333336,8.0,-73.66666666666667,13.0,-14.333333333333334,5.333333333333333,-996.6666666666666,10.333333333333334,-285.6666666666667,-31.0,AUTO,44229.0
20:32:15,0.060577755173047386,0.02519881601134936,-1.6883312861124675,0.5812139709790548,-0.31607319911321,-0.01709188272555669,-35.3632966,149.164957,35930.0,5.666666666666667,-104.0,15.0,-22.0,17.333333333333332,-1012.6666666666666,584.3333333333334,-315.3333333333333,-16.0,AUTO,44229.0
20:32:16,0.049814456452926,0.019049689173698425,-1.6890585819880168,0.2786896030108134,0.32663343846797943,-0.0014248444543530543,-35.3632989,149.16493846666665,35663.333333333336,3.3333333333333335,-164.33333333333334,18.666666666666668,-35.0,-7.666666666666667,-1022.0,282.6666666666667,326.6666666666667,-0.3333333333333333,AUTO,135729.0
20:32:17,0.050091820458571114,0.07149296098699172,-1.6898227135340373,-0.22297747929890951,-0.23519683380921683,0.05455659578243891,-35.36330013333333,149.164928,35548.0,17.0,-87.66666666666667,13.333333333333334,-16.666666666666668,-35.666666666666664,-997.3333333333334,-220.33333333333334,-234.66666666666666,54.666666666666664,AUTO,135729.0
20:32:19,0.052029721438884735,0.10258602350950241,-1.6944332122802734,-0.7101420561472574,-0.05427370360121131,-0.007512596746285756,-35.36330373333333,149.16490166666668,35193.333333333336,15.0,-112.33333333333333,11.333333333333334,-21.333333333333332,-49.0,-1015.6666666666666,-706.0,-54.0,-6.666666666666667,AUTO,135729.0
20:32:21,0.04261563469966253,0.06901248916983604,-1.6981045405069988,0.13147266705830893,0.03772065043449402,-0.024057196142772835,-35.363305966666665,149.1648755,34857.0,11.333333333333334,-136.66666666666666,14.666666666666666,-26.333333333333332,-5.0,-1008.6666666666666,137.0,38.0,-23.333333333333332,AUTO,135729.0
20:32:22,0.032907569160064064,-0.091518333957841,-1.6965734163920085,-0.4336222509543101,0.24420947674661875,-0.00858021154999733,-35.36330736666667,149.16485796666666,34612.0,1.6666666666666667,-168.0,24.0,-33.666666666666664,-46.333333333333336,-1008.6666666666666,-428.3333333333333,244.66666666666666,-7.666666666666667,AUTO,20373.0
20:32:23,0.04541202262043953,0.11817113806804021,-1.6973628997802734,0.7296667496363322,0.15387821244075894,0.0060983633156865835,-35.36330856666667,149.1648448,34459.333333333336,4.0,-132.33333333333334,14.333333333333334,-21.333333333333332,15.0,-1026.0,735.0,154.0,6.333333333333333,AUTO,20373.0
20:32:25,0.013590149270991484,0.013381830727060636,-1.6981032292048137,0.11405822137991588,0.30314382910728455,0.0018765716037402551,-35.36330833333333,149.16482403333333,34161.333333333336,-17.0,-131.66666666666666,13.0,-23.0,-30.0,-1013.6666666666666,118.66666666666667,303.3333333333333,3.0,AUTO,20373.0
20:32:27,0.005917764268815517,0.06224244460463524,-1.6993655761082966,-0.5122036933898926,0.14422265936930975,-0.023244832642376423,-35.36331043333333,149.16479679999998,33835.666666666664,-34.666666666666664,-130.33333333333334,13.666666666666666,-26.0,-41.0,-1014.0,-506.6666666666667,144.33333333333334,-22.333333333333332,AUTO,20373.0
20:32:28,0.005849188659340143,-0.07516965456306934,-1.701336105664571,0.010760525862375895,0.12439071635405223,-0.024660847149789333,-35.363311833333334,149.16478166666664,33631.666666666664,-36.666666666666664,-121.33333333333333,18.333333333333332,-25.666666666666668,-31.0,-1007.0,14.666666666666666,125.0,-23.0,AUTO,41361.0
20:32:29,0.015829477459192276,0.020398691296577454,-1.7016544342041016,0.13859628637631735,-0.111264834801356,-0.019680786412209272,-35.36331333333333,149.1647714,33507.333333333336,-35.666666666666664,-108.33333333333333,14.0,-23.333333333333332,4.333333333333333,-998.3333333333334,143.66666666666666,-110.66666666666667,-18.333333333333332,AUTO,41361.0
20:32:31,0.024457976842919987,0.005593938209737341,-1.7028461694717407,0.5419090141852697,-0.2416150619586309,0.0013191145068655412,-35.36331716666667,149.16474453333333,33162.333333333336,-23.666666666666668,-90.33333333333333,14.666666666666666,-19.666666666666668,6.333333333333333,-991.0,545.6666666666666,-240.66666666666666,2.3333333333333335,AUTO,41361.0
20:32:33,0.017221977934241295,0.03153490896026293,-1.7024890979131062,-0.28968993822733563,-0.1836110626657804,0.03645783352355162,-35.3633201,149.16471946666667,32829.666666666664,-22.0,-77.0,11.0,-16.666666666666668,-35.333333333333336,-1003.0,-286.3333333333333,-182.66666666666666,37.333333333333336,AUTO,41361.0
20:32:34,0.022097344199816387,-0.029421882703900337,-1.7039130926132202,0.29260750611623126,0.1602724033097426,0.008581985719501972,-35.3633218,149.16470636666668,32644.333333333332,-26.0,-119.33333333333333,14.666666666666666,-24.666666666666668,-8.0,-997.6666666666666,296.3333333333333,160.0,9.666666666666666,AUTO,120176.0
20:32:35,0.017444757744669914,-0.025100365940791864,-1.703900416692098,-0.4685707228879134,-0.042916124065717064,0.016189281828701496,-35.3633233,149.16469673333333,32531.0,-23.666666666666668,-112.66666666666667,15.0,-24.333333333333332,-30.666666666666668,-1005.6666666666666,-464.0,-42.333333333333336,16.666666666666668,AUTO,120176.0
20:32:37,0.017789946248133976,0.013535082107409835,-1.7043149868647258,0.32802075644334155,-0.05638375195364157,-0.009459698766780397,-35.36332603333334,149.16467423333333,32236.0,-11.0,-75.66666666666667,11.0,-15.333333333333334,10.666666666666666,-1006.3333333333334,332.3333333333333,-55.666666666666664,-8.0,AUTO,120176.0
20:32:39,0.00605201276872928,0.019464634358882904,-1.703816533088684,0.06295349200566609,0.00890508604546388,0.0015706795578201611,-35.36332673333334,149.16466093333332,32051.0,-10.333333333333334,-37.666666666666664,4.333333333333333,-6.666666666666667,-17.0,-1004.3333333333334,65.66666666666667,9.333333333333334,2.3333333333333335,AUTO,120176.0
20:32:40,0.0052971757637957735,0.030436684067050617,-1.7048070430755615,0.13239041964213052,-0.014052354575445255,0.003402992927779754,-35.3633269,149.16465786666666,32018.666666666668,-8.333333333333334,-3.3333333333333335,0.0,0.0,-4.0,-1001.0,135.66666666666666,-13.333333333333334,4.666666666666667,AUTO,84100.0
20:32:41,-0.004058499539193387,0.005699327991654475,-1.705296794573466,0.010816704481840134,-0.04237264394760132,0.0012949279431874554,-35.36332686666666,149.16465789999998,32021.0,-7.0,6.0,-1.0,2.0,13.333333333333334,-996.6666666666666,15.333333333333334,-41.666666666666664,2.3333333333333335,AUTO,84100.0
20:32:43,0.0037285586974273124,0.005629705575605233,-1.7050366004308064,-0.04187775651613871,-0.0006085431280856332,-0.0008796018858750662,-35.36332693333333,149.164658,32163.666666666668,-9.666666666666666,0.0,-28.666666666666668,0.0,-8.0,-1045.6666666666667,-38.666666666666664,0.0,0.6666666666666666,RTL,84100.0
20:32:45,-0.004302731715142727,0.007107145929088195,-1.7063952684402466,-0.02405390391747157,0.0006865466906068226,-7.705402094870806e-05,-35.363326666666666,149.16465786666666,33601.333333333336,-9.666666666666666,2.0,-94.0,0.0,-2.6666666666666665,-1005.6666666666666,-21.0,1.0,1.0,RTL,84100.0
20:32:46,-0.00655586381132404,0.007859818326930204,-1.7066022157669067,0.0036951048920551934,0.0016548681499746938,-0.001271077198907733,-35.36332626666667,149.1646577333333,34803.0,-13.666666666666666,3.3333333333333335,-85.66666666666667,0.0,-0.3333333333333333,-980.6666666666666,6.333333333333333,2.0,0.3333333333333333,RTL,36927.0
20:32:47,-0.004333850151548783,0.008462817408144474,-1.7067094643910725,-0.009188322039941946,0.0015564251613492768,-0.0002861986480032404,-35.363326166666674,149.1646576,35410.666666666664,-15.0,4.333333333333333,-66.66666666666667,0.0,-1.0,-968.6666666666666,-6.333333333333333,1.6666666666666667,0.6666666666666666,RTL,36927.0
20:32:49,-0.0036978767408678928,0.009116093007226786,-1.7064961989720662,-0.4585586835940679,0.002775497424105803,-0.0026508542941883206,-35.36332646666667,149.1646575,36147.666666666664,-14.0,6.0,-1.3333333333333333,-0.6666666666666666,-21.333333333333332,-973.3333333333334,-455.3333333333333,3.3333333333333335,-0.6666666666666666,RTL,36927.0
20:32:52,0.003136190469376743,0.00737984967418015,-1.7082321047782898,0.21511806920170784,-0.000770461861975491,0.0009732053731568158,-35.3633269,149.1646576,36466.5,-7.5,6.0,-49.5,0.5,4.5,-1023.5,216.5,0.5,2.0,RTL,120113.0
20:32:53,-0.00361648402758874,0.007431079400703311,-1.708020806312561,-0.038970393827185035,0.0006004107417538762,0.0010394455748610198,-35.36332675,149.164657675,36860.0,-8.75,5.25,-47.5,0.75,-3.5,-979.0,-36.5,1.0,2.25,RTL,120113.0
20:32:56,0.0001779145241016522,0.0031370179494842887,-1.707560956478119,-0.3667873814702034,0.0036986967897973955,0.0027623316855169833,-35.363327049999995,149.1646583,37236.0,-8.0,1.5,-12.0,-0.5,-9.0,-1039.0,-364.5,4.5,4.0,RTL,120113.0
20:32:58,0.005192038137465715,0.004812820348888636,-1.7085353136062622,-0.1254468522965908,0.0013398348237387836,0.0019917339086532593,-35.3633275,149.1646584,38096.5,-3.0,0.0,-48.0,0.0,0.0,-975.5,-123.0,2.0,3.5,RTL,81335.5
20:33:00,0.0035437644692137837,0.004513165447860956,-1.7080008387565613,-0.5746632516384125,-0.003076115855947137,-0.001911634812131524,-35.3633279,149.1646584,38418.5,0.5,0.0,3.5,0.0,-25.5,-991.5,-572.5,-1.5,0.0,RTL,42558.0
20:33:02,0.01140919141471386,0.005679127760231495,-1.7091360688209534,0.12988148629665375,0.0009965710924006999,-0.00012483034515753388,-35.3633278,149.1646584,38668.5,0.5,0.0,-43.0,0.5,-1.0,-1033.5,131.5,2.0,1.0,RTL,42558.0
20:33:03,0.004264797062205616,0.006621603621169925,-1.7090483903884888,-0.06808217987418175,0.0003842223377432674,0.0012990060495212674,-35.3633277,149.1646583,39060.75,0.5,0.0,-51.5,0.0,-3.25,-995.25,-66.25,1.25,2.75,RTL,7296.0
20:33:04,0.005577094998443499,0.006483389995992184,-1.7088738679885864,-0.15521974116563797,-0.0010176175273954868,0.00023700512247160077,-35.3633274,149.16465825,39560.0,-1.5,0.5,-13.0,0.5,-23.0,-958.0,-154.5,0.0,2.0,RTL,7296.0
20:33:06,-0.0012627828400582075,0.0042589770164340734,-1.7085677981376648,-0.0003731250762939453,-0.0015510633820667863,0.0005564730381593108,-35.3633272,149.1646582,39570.0,-4.0,1.0,-2.0,-1.0,14.5,-1023.0,2.0,-0.5,2.0,RTL,7296.0
20:33:08,0.013038553996011615,0.0036440558033064008,-1.7093795537948608,0.029751688241958618,0.0031932087149471045,-0.00042903528083115816,-35.363328100000004,149.1646584,40284.5,1.5,0.0,-53.0,-0.5,9.5,-993.5,32.0,4.0,1.0,RTL,7296.0
20:33:09,0.01780047407373786,0.0041184480069205165,-1.7091495990753174,0.08463963400572538,0.0018040575669147074,0.0016837593575473875,-35.363328475,149.1646585,40622.75,4.75,0.0,-31.0,-0.25,4.5,-961.5,86.5,2.75,3.25,RTL,70512.0
20:33:10,0.005619528936222196,0.00589387072250247,-1.708824098110199,-0.46374422311782837,0.0013963147648610175,-3.057578578591347e-05,-35.36332865,149.1646585,40775.0,9.5,-1.0,2.5,0.0,-10.0,-994.0,-460.5,2.0,2.0,RTL,70512.0
20:33:12,0.01697938470169902,0.005005730781704187,-1.7090879678726196,0.16536164283752441,0.0010254090302623808,-0.0003196640172973275,-35.3633285,149.1646585,40896.0,8.5,0.0,-32.5,0.0,1.5,-1040.5,167.0,2.0,1.5,RTL,70512.0
20:33:14,0.010055252816528082,0.005707625299692154,-1.709429919719696,-0.33247971534729004,-0.002640410966705531,0.0019199660746380687,-35.3633285,149.1646585,41845.0,8.0,0.0,-25.5,1.0,-20.5,-955.5,-330.0,-1.0,3.5,RTL,70512.0
20:33:15,0.014891339815221727,0.006566090974956751,-1.7089961469173431,0.23754451144486666,0.0018255359027534723,0.000954306626226753,-35.3633284,149.1646584,41943.25,7.75,0.0,-2.5,0.25,5.0,-970.25,239.75,2.75,2.5,RTL,413.0
20:33:16,0.012506137834861875,0.005130231147632003,-1.7092249393463135,0.3128941636532545,0.004764515324495733,0.0018809869652613997,-35.36332845,149.1646584,41914.5,8.0,0.0,1.0,-1.0,26.0,-1027.5,316.5,5.5,3.5,RTL,413.0
20:33:18,0.01576191745698452,0.005727651994675398,-1.709870159626007,0.007969453930854797,0.002682568854652345,0.0014657150022685528,-35.363328949999996,149.1646584,42501.5,12.0,0.0,-55.0,-0.5,6.0,-1005.5,11.0,3.5,3.0,RTL,413.0
20:33:20,0.00703947595320642,0.007841376587748528,-1.7091265320777893,-0.4752313047647476,-0.0008956328965723515,0.004176944028586149,-35.3633288,149.1646583,43143.5,12.0,0.0,1.0,0.0,-7.0,-973.5,-471.0,0.5,6.0,RTL,413.0
20:33:21,0.016377235064283013,0.0071087266551330686,-1.708945095539093,0.2214561067521572,-0.0011034559865947813,0.0010325356852263212,-35.363328725,149.1646583,43124.25,12.0,0.0,3.0,0.5,11.0,-1000.25,224.25,0.25,2.5,RTL,2069.0
20:33:22,0.012591422535479069,0.006998599274083972,-1.7091628909111023,0.360012024641037,0.0018143889028578997,0.0019313993398100138,-35.36332835,149.1646583,43202.5,9.5,0.0,-25.5,0.5,13.0,-1043.5,363.0,2.5,3.5,RTL,2069.0
20:33:24,0.0038213150401134044,0.006626360816881061,-1.7096682786941528,-0.1073358878493309,-0.0018961472087539732,-4.603085108101368e-05,-35.36332745,149.1646582,44174.0,0.5,1.0,-39.5,0.0,-8.5,-959.0,-104.5,-0.5,1.5,RTL,2069.0
20:33:26,0.002709762309677899,0.004025349277071655,-1.7092317342758179,-0.3934306800365448,-0.0016981110675260425,-0.00027980515733361244,-35.36332765,149.16465825,44363.5,-1.5,1.5,2.5,0.0,-10.5,-1009.0,-389.0,0.0,1.5,RTL,2069.0
20:33:27,0.015441943425685167,0.004975218209438026,-1.7093819975852966,0.09656200371682644,0.0034466428915038705,0.00012297119246795774,-35.363327875,149.1646583,44383.25,1.25,0.25,-11.0,-0.25,3.0,-1028.75,99.5,4.25,1.75,RTL,126693.0
20:33:28,0.00499543291516602,0.006489774212241173,-1.7100179195404053,-0.16386066377162933,-0.0011142982402816415,-0.000943284947425127,-35.3633278,149.1646583,44795.0,2.0,0.0,-53.0,0.5,-9.5,-1020.0,-160.5,0.5,0.5,RTL,126693.0
20:33:30,-0.001659962406847626,0.005941924173384905,-1.7092958092689514,-0.5367707908153534,-0.0013333127135410905,0.001012414286378771,-35.3633275,149.1646583,45614.5,-1.0,0.5,-5.5,0.0,-23.5,-958.0,-533.0,0.0,3.0,RTL,126693.0
20:33:32,-0.004483951139263809,0.004491160856559873,-1.7092155814170837,-0.1411486640572548,-0.0029154126532375813,-0.0011262997286394238,-35.363327049999995,149.1646582,45617.5,-5.0,1.0,-12.5,-0.5,9.0,-1043.5,-137.5,-1.5,1.0,RTL,126693.0
20:33:33,0.006819567468483001,0.004705759114585817,-1.7098758518695831,0.020744328387081623,0.0020124864822719246,0.00028470190591178834,-35.3633272,149.1646582,45838.5,-4.25,0.75,-39.5,-0.25,0.75,-1031.0,24.0,3.25,2.0,RTL,181198.0
20:33:34,-0.0007386782672256231,0.006160913268104196,-1.7100207805633545,0.025995895266532898,5.127768963575363e-05,9.236345067620277e-05,-35.3633271,149.1646582,46461.0,-4.0,1.0,-43.5,1.0,3.0,-970.5,29.5,2.0,2.0,RTL,181198.0
20:33:36,-0.004796513880137354,0.005784827284514904,-1.7090079188346863,-0.7057375013828278,-0.0027676805038936436,-0.0011230462696403265,-35.3633269,149.1646582,46726.5,-6.5,1.0,5.0,1.0,-28.0,-994.0,-702.5,-1.5,1.5,RTL,181198.0
20:33:38,0.0031452152179554105,0.006187817547470331,-1.7099874019622803,-0.07305954396724701,-0.0013668605824932456,0.0021210889099165797,-35.3633269,149.1646581,47092.0,-8.0,2.0,-50.0,0.0,-5.0,-1023.0,-71.0,0.0,4.0,RTL,181198.0
20:33:39,0.0016220344550674781,0.006623663590289652,-1.7099762558937073,-0.02323254942893982,0.00044288046774454415,0.001589846215210855,-35.36332695,149.1646581,47495.25,-7.25,2.0,-49.0,0.0,-1.0,-980.5,-20.25,1.75,3.5,RTL,130170.0
20:33:40,-0.0040753347566351295,0.0071948193944990635,-1.709423303604126,-0.35609190817922354,-0.000599557301029563,0.0016306822653859854,-35.3633268,149.164658,47888.5,-7.5,2.0,-6.0,0.0,-27.0,-965.5,-353.5,0.5,3.5,RTL,130170.0
20:33:42,0.0031493818387389183,0.005121925147250295,-1.7094074487686157,0.37405215948820114,0.0018827085150405765,0.001084662857465446,-35.3633266,149.164658,47892.5,-10.0,3.0,-13.0,0.0,24.0,-1041.5,376.5,3.0,3.0,RTL,130170.0
20:33:44,0.014206979423761368,0.0038395096780732274,-1.710075557231903,0.21736633032560349,0.0009505092166364193,-1.955009065568447e-05,-35.3633275,149.1646583,48763.5,-5.5,1.0,-50.5,-0.5,12.0,-977.5,219.0,2.5,2.0,RTL,130170.0
20:33:45,0.01494958414696157,0.003260185127146542,-1.7096908688545227,0.006849370896816254,-0.000444073710241355,0.002052490890491754,-35.363327999999996,149.164658425,49039.5,-1.25,0.25,-22.25,-1.25,4.75,-962.75,9.5,0.75,4.0,RTL,165487.0
20:33:46,0.0076814694330096245,0.004738969961181283,-1.7093969583511353,-0.3411190137267113,-0.0011277180747129023,0.004020969616249204,-35.3633285,149.1646585,49116.0,5.5,-0.5,3.0,-0.5,-3.5,-1000.0,-338.0,0.5,6.0,RTL,165487.0
20:33:48,0.011804814450442791,0.006932628341019154,-1.7099367380142212,-0.041057102382183075,-0.001402391935698688,-0.00012593157589435577,-35.3633284,149.1646583,49360.5,6.5,0.0,-44.5,0.0,-12.0,-1031.0,-39.0,0.5,2.0,RTL,165487.0
20:33:50,0.0020731835393235087,0.007112957537174225,-1.7098305821418762,-0.44676296412944794,-0.000348489498719573,0.0005273408023640513,-35.36332795,149.1646582,50341.0,3.0,1.0,-21.0,0.0,-16.5,-957.0,-444.0,0.5,2.5,RTL,55052.0
20:33:52,0.010912597645074129,0.005791442934423685,-1.7092748284339905,0.5131760984659195,0.0024747609277255833,0.0015860168496146798,-35.363327350000006,149.1646581,50374.5,-0.5,2.0,1.0,0.0,12.0,-1012.0,515.0,3.5,4.0,RTL,55052.0
20:33:54,0.015371536370366812,0.005348113132640719,-1.7100363969802856,0.2732801288366318,0.001770489732734859,0.0015569064998999238,-35.363327749999996,149.1646582,51010.0,0.0,1.0,-54.0,0.0,12.5,-998.5,275.0,2.5,3.5,RTL,54564.0
20:33:56,0.004391369526274502,0.006358926184475422,-1.70960134267807,-0.1534825637936592,-0.0011910329922102392,0.0011253053089603782,-35.3633283,149.1646582,51593.0,5.5,0.0,1.5,0.0,15.0,-974.5,-150.0,0.5,3.5,RTL,54076.0
20:33:58,0.016263162717223167,0.005582792451605201,-1.7092902064323425,0.20647988095879555,-0.0034857139689847827,-0.001221938873641193,-35.3633283,149.1646583,51674.5,6.0,0.0,-29.5,0.0,2.0,-1044.0,209.0,-2.0,1.0,RTL,54076.0
20:33:59,0.013034251984208822,0.005038624396547675,-1.7100499868392944,-0.06811495311558247,0.0011194233957212418,0.0004547109710983932,-35.363328425,149.1646583,52002.75,6.75,0.0,-50.75,-0.25,-1.5,-1018.5,-65.0,2.5,2.75,RTL,93532.0
20:34:00,0.01218460313975811,0.005370204336941242,-1.7097915410995483,-0.46390512585639954,0.0016942961374297738,-0.00020223786123096943,-35.3633287,149.1646584,52630.0,9.0,0.0,-35.0,0.0,-23.0,-956.0,-461.0,3.0,2.0,RTL,93532.0
20:34:02,0.013579049846157432,0.006102054379880428,-1.7094792127609253,0.0029485225677490234,0.003198548569343984,0.0011980501003563404,-35.36332865,149.1646584,52785.0,10.0,0.0,2.5,0.0,-8.0,-992.0,6.0,5.0,3.5,RTL,93532.0
20:34:04,0.011948463506996632,0.005378686124458909,-1.7093574404716492,0.13137317448854446,-0.0010047799441963434,-8.702522609382868e-05,-35.3633284,149.1646584,53067.5,8.5,0.0,-43.5,0.0,11.5,-1032.5,135.0,0.5,2.5,RTL,93532.0
20:34:05,0.014005702454596758,0.0055573106510564685,-1.7100841403007507,0.018335402943193913,0.0005914978100918233,0.0009376060916110873,-35.363328550000006,149.1646584,53594.25,7.75,0.0,-53.25,-0.25,3.5,-985.0,21.5,2.25,3.0,RTL,92727.0
20:34:06,0.015025238273665309,0.006325908238068223,-1.7096391916275024,0.09948369860649109,-0.0007931338623166084,0.0029063840629532933,-35.3633286,149.1646584,53979.5,9.0,0.0,-20.0,0.0,6.0,-966.5,103.0,0.5,5.5,RTL,92727.0
20:34:08,0.0065162136452272534,0.005856437375769019,-1.7092892527580261,-0.24683059006929398,-0.0013989643193781376,-0.0005753962905146182,-35.36332815,149.16465835000002,54048.5,6.5,0.0,-5.0,0.0,-10.5,-1026.0,-244.0,0.5,1.5,RTL,92727.0
20:34:10,0.005950681632384658,0.0059083213564008474,-1.7100499868392944,-0.3515581041574478,0.001860580057837069,-0.0007843655184842646,-35.3633281,149.1646583,54739.5,4.5,0.0,-51.0,-0.5,-16.5,-991.0,-347.5,3.0,1.5,RTL,92727.0
20:34:11,0.009994787513278425,0.006505666300654411,-1.7098205983638763,-0.013000347651541233,0.0007539226789958775,0.0016941342037171125,-35.363328025,149.1646583,55161.75,3.75,0.0,-22.75,0.0,-6.25,-958.0,-9.0,2.25,4.25,RTL,143010.0
20:34:12,0.008313683880260214,0.006156055955216289,-1.7095859050750732,0.07433725893497467,0.0036471864441409707,0.0039051565108820796,-35.363328,149.1646583,55247.5,3.5,0.5,1.5,-0.5,7.5,-980.5,78.0,5.0,6.5,RTL,143010.0
20:34:14,0.015436087734997272,0.005207746988162398,-1.709516704082489,0.2270950898528099,0.003707159892655909,0.0007059485651552677,-35.363328249999995,149.1646583,55414.0,5.5,0.5,-35.0,-1.5,13.5,-1043.0,231.0,5.5,3.0,RTL,143010.0
20:34:16,0.028060097247362137,0.004828633973374963,-1.7096564769744873,0.4001711457967758,0.0016743046580813825,0.0029957001097500324,-35.363329300000004,149.16465845,56374.5,13.5,0.0,-31.5,0.0,21.5,-961.5,404.5,3.0,5.5,RTL,143010.0
20:34:17,0.020755769917741418,0.005995721556246281,-1.7092674672603607,-0.15755432657897472,0.0016216776275541633,0.0008974569500423968,-35.363329424999996,149.1646585,56539.25,17.0,-0.75,-1.0,-0.5,-11.0,-987.0,-153.5,3.25,3.25,RTL,243919.0
20:34:18,0.019628421403467655,0.005630329018458724,-1.7094618678092957,0.05910409986972809,8.332333527505398e-05,0.0025752282235771418,-35.3633294,149.1646585,56516.5,18.0,-0.5,-0.5,0.0,2.5,-1009.0,63.5,2.0,5.0,RTL,243919.0
20:34:20,0.013524565380066633,0.008003653259947896,-1.710197627544403,0.08311257511377335,0.0025228940648958087,0.0004972564638592303,-35.363328800000005,149.16465835000002,57058.0,15.0,-0.5,-54.5,0.5,-5.5,-1010.5,87.5,4.0,3.0,RTL,243919.0
20:34:22,0.0005527380853891373,0.007624150952324271,-1.7096027135849,0.0374680757522583,-0.0008851392194628716,0.0014688576338812709,-35.363327600000005,149.16465814999998,57816.5,4.0,0.5,-7.5,1.5,-1.0,-983.0,42.0,1.5,4.0,RTL,243919.0
20:34:23,-0.0015146138612180948,0.006827555596828461,-1.7091017663478851,-0.073701286688447,0.0005394548061303794,0.0016122095403261483,-35.363327025000004,149.1646581,57812.25,-1.25,1.75,2.5,0.5,-8.0,-1002.5,-69.5,2.25,4.25,RTL,52334.0
20:34:24,-0.00419194158166647,0.0062319315038621426,-1.7092495560646057,-0.03626815974712372,-0.002294883946888149,-2.663419581949711e-05,-35.3633267,149.1646581,57878.5,-6.0,2.0,-20.0,0.0,3.5,-1034.5,-31.5,0.0,2.0,RTL,52334.0
20:34:26,0.004662764258682728,0.003678950946778059,-1.709936797618866,0.031271036714315414,0.001176538469735533,0.001741865766234696,-35.3633271,149.16465825,58779.5,-6.5,1.5,-45.5,0.0,12.5,-971.5,36.5,3.0,4.0,RTL,52334.0
20:34:28,0.005122464615851641,0.005254141986370087,-1.7091973423957825,-0.26149243861436844,0.0014523023273795843,-0.0005635475972667336,-35.363327850000005,149.1646583,59096.5,0.5,0.0,2.0,0.0,1.5,-1002.0,-256.0,3.0,2.0,RTL,52334.0
20:34:29,0.00610006257193163,0.006437189527787268,-1.7093842327594757,0.10638274438679218,0.00378930481383577,0.0010157154174521565,-35.36332775,149.164658275,59122.25,1.25,0.0,-15.5,0.25,2.5,-1035.25,110.75,5.75,3.75,RTL,272486.0
20:34:30,-0.006496818270534277,0.007624628487974405,-1.7097683548927307,-0.2698943391442299,0.0009068817598745227,-7.825478678569198e-05,-35.36332715,149.16465814999998,59468.5,-2.0,0.5,-48.0,0.5,-9.5,-1022.0,-265.0,2.5,2.5,RTL,272486.0
20:34:32,-0.007726111798547208,0.006691004149615765,-1.7093327045440674,-0.06329646706581116,-0.0020325389923527837,0.001372991711832583,-35.36332615,149.1646579,60311.5,-12.0,3.0,-13.0,0.5,-0.5,-976.5,-59.0,0.5,4.0,RTL,272486.0
20:34:34,0.0005007668223697692,0.005100430455058813,-1.7091704607009888,0.008612394332885742,0.0011137186083942652,0.0006198909832164645,-35.36332625,149.164658,60356.0,-14.5,3.0,-10.0,1.0,-6.5,-1026.0,12.0,3.0,3.5,RTL,272486.0
20:34:35,-0.0030222038039937615,0.005445186281576753,-1.7096416652202606,0.007942574098706245,-0.00035223187296651304,-0.000526223360793665,-35.3633263,149.164658,60615.75,-13.25,2.5,-44.0,-0.25,-0.75,-1028.5,11.75,1.5,2.25,RTL,92937.0
20:34:36,0.0037408352945931256,0.004208437050692737,-1.7101154327392578,0.08713934570550919,-0.002875222824513912,0.0010460074990987778,-35.36332645,149.16465805,61129.0,-13.5,2.5,-48.5,-0.5,-4.5,-983.5,90.5,-0.5,4.0,RTL,92937.0
20:34:38,0.013440846232697368,0.003312594722956419,-1.7094019651412964,0.16497723758220673,-0.0017429402796551585,0.0023182551376521587,-35.36332755,149.16465835000002,61537.0,-5.0,0.5,1.5,-1.0,9.0,-996.5,168.5,0.5,5.5,RTL,92937.0
20:34:40,0.016542678233236074,0.004434004658833146,-1.7096487283706665,-0.12703562527894974,0.0027735531330108643,0.00044795754365622997,-35.36332885,149.1646585,61770.0,7.5,-0.5,-40.5,-1.5,2.5,-1031.0,-123.0,4.5,3.0,RTL,92937.0
20:34:41,0.01920249778777361,0.005925722303800285,-1.7101304531097412,-0.013554595410823822,0.0009405178716406226,0.00019445782527327538,-35.363329225,149.1646585,62272.5,12.25,-0.5,-52.0,-0.5,1.5,-988.0,-9.5,2.75,2.75,RTL,8763.0
20:34:42,0.01636455859988928,0.007382191251963377,-1.7096582651138306,-0.09390710294246674,0.0013525048270821571,0.0020461309468373656,-35.3633293,149.1646584,62666.0,14.5,-0.5,-21.0,-0.5,-0.5,-967.0,-89.5,3.5,4.5,RTL,8763.0
20:34:44,0.015834169229492545,0.006111760390922427,-1.7094467282295227,-0.04454222321510315,-0.0020619399147108197,0.001017506467178464,-35.3633292,149.1646583,62740.5,16.0,0.0,-4.0,0.0,5.0,-1028.0,-40.0,0.0,4.0,RTL,8763.0
20:34:46,0.010309245670214295,0.006078788544982672,-1.7098252773284912,0.2605588063597679,0.002710723434574902,0.0005468694726005197,-35.363328499999994,149.1646584,63403.5,13.0,0.0,-53.5,0.5,11.5,-998.0,265.0,4.5,3.5,RTL,8763.0
20:34:47,0.006479230767581612,0.006297973566688597,-1.7094174325466156,-0.0119800865650177,0.0026392328436486423,0.0012909866636618972,-35.363328124999995,149.1646584,63871.0,7.25,0.0,-29.25,0.25,1.25,-961.0,-7.25,4.75,4.25,RTL,20476.0
20:34:48,0.007078325259499252,0.006364775123074651,-1.709160327911377,0.10122726857662201,-0.0010985698318108916,0.002349138609133661,-35.3633279,149.16465835000002,63999.0,4.5,0.0,-0.5,0.5,6.0,-979.0,106.0,1.5,5.5,RTL,20476.0
20:34:50,0.0026415641186758876,0.005868114763870835,-1.7093288898468018,-0.2225133404135704,0.00024998048320412636,0.0019912830321118236,-35.3633275,149.1646583,64097.0,0.5,0.0,-27.5,0.0,-10.5,-1041.0,-217.5,2.0,5.0,RTL,20476.0
20:34:52,0.0029006971744820476,0.005668327445164323,-1.7097681760787964,-0.24591831862926483,0.00022039399482309818,-0.00022763718152418733,-35.3633274,149.1646583,65009.0,-1.5,1.0,-34.0,0.0,-11.0,-968.5,-241.0,2.0,2.5,RTL,20476.0
20:34:53,0.009457263513468206,0.005132796475663781,-1.7090061604976654,0.1262714056065306,-0.0030134470434859395,-0.00042306119576096535,-35.36332765,149.1646583,65199.75,-0.25,1.0,-1.75,-1.25,12.0,-977.25,130.75,-0.5,2.75,RTL,37444.0
20:34:54,0.02019909769296646,0.0038605183362960815,-1.7090622782707214,0.10372760519385338,-0.0021500206785276532,0.0009913597023114562,-35.36332835,149.16465835000002,65183.0,3.5,1.0,2.5,-1.5,7.5,-1010.0,108.0,0.5,4.0,RTL,37444.0
20:34:56,0.02878345362842083,0.003336698981001973,-1.7100414633750916,0.04194140434265137,0.0029484728584066033,0.0017542906571179628,-35.363330149999996,149.16465875,65641.5,21.5,-2.5,-49.5,-0.5,11.5,-1013.0,47.5,5.0,4.5,RTL,37444.0
20:34:58,0.019619766157120466,0.007443607784807682,-1.7091217637062073,-0.05709874629974365,0.009203492663800716,0.001003775279968977,-35.3633301,149.16465864999998,66375.5,26.0,-3.5,-7.0,0.5,0.5,-976.0,-51.5,11.5,4.0,RTL,37444.0
20:34:59,0.018682394409552217,0.008068391936831176,-1.7089121043682098,0.24175696820020676,-0.0013339617871679366,-0.0003080072347074747,-35.363329675,149.164658475,66378.25,24.5,-1.75,3.25,1.25,15.75,-1008.25,247.5,0.75,2.5,RTL,86187.0
20:35:00,0.017440184019505978,0.0068991282023489475,-1.7091110348701477,0.049434661865234375,0.00032177125103771687,-8.606829214841127e-05,-35.36332935,149.1646584,66424.5,20.5,0.0,-15.0,0.0,-1.5,-1024.5,55.0,2.5,3.0,RTL,86187.0
20:35:02,0.020382392220199108,0.006700173951685429,-1.7097440361976624,0.10484977811574936,0.0012941492022946477,0.001745323184877634,-35.36332915,149.1646584,67246.0,17.0,-0.5,-39.0,1.5,-4.5,-965.0,110.5,3.0,5.0,RTL,86187.0
20:35:04,-0.00044033490121364594,0.008292603306472301,-1.7090257406234741,-0.05331346392631531,-0.006183338351547718,2.6814406737685204e-05,-35.3633275,149.16465825,67504.5,5.5,0.0,3.0,3.0,-14.0,-1007.5,-47.5,-3.5,3.5,RTL,86187.0
20:35:05,-0.0073024273733608425,0.006578102591447532,-1.7090075612068176,0.03521087020635605,-0.00015412434004247189,-9.391165804117918e-05,-35.36332675,149.16465814999998,67532.25,-2.25,1.0,-14.75,1.0,2.25,-1034.75,41.5,2.25,3.5,RTL,138290.0
20:35:06,-0.011973140761256218,0.006620383355766535,-1.7097395062446594,-0.32858212292194366,-0.0024458402767777443,0.002043195883743465,-35.363326099999995,149.16465805,67873.0,-9.5,2.0,-46.0,1.0,-13.5,-1020.0,-322.0,0.0,5.0,RTL,138290.0
20:35:08,-0.007686424010898918,0.005353334592655301,-1.7091673016548157,-0.0542389452457428,-0.0007379575399681926,0.0008744436781853437,-35.36332565,149.164658,68640.0,-19.0,3.0,-9.5,-0.5,-6.0,-973.5,-49.0,1.5,4.0,RTL,138290.0
20:35:10,0.011415896937251091,0.001722331391647458,-1.709206223487854,0.104506716132164,0.0018067534547299147,-0.0007387708174064755,-35.363326900000004,149.16465829999999,68684.0,-13.0,2.0,-13.0,-2.0,5.0,-1027.5,110.0,4.0,2.5,RTL,138290.0
20:35:11,0.020389097277075052,0.0023499757808167487,-1.7095100283622742,0.023961007595062256,0.001734624500386417,0.0006664558895863593,-35.36332805,149.16465849999997,68981.5,-3.5,0.25,-46.0,-1.5,5.25,-1026.0,29.75,4.0,3.75,RTL,189165.0
20:35:12,0.02071335632354021,0.004281689296476543,-1.7097278833389282,0.08780008554458618,0.0034986567916348577,0.002512226696126163,-35.363328800000005,149.1646586,69496.5,5.5,-0.5,-45.0,-1.0,6.0,-977.0,94.0,5.5,6.0,RTL,189165.0
20:35:14,0.011741435388103127,0.007866021012887359,-1.7092733979225159,0.008883729577064514,0.00046232319436967373,0.002735828864388168,-35.36332885,149.16465835000002,69839.5,12.5,-0.5,4.0,0.0,-3.5,-992.5,14.5,3.5,6.0,RTL,189165.0
20:35:16,0.01742378994822502,0.004763000179082155,-1.7092123627662659,0.23921242728829384,0.0033004344440996647,0.00028121122159063816,-35.3633288,149.16465835000002,70123.0,11.0,0.0,-43.0,-0.5,13.5,-1027.5,245.0,5.5,3.5,RTL,160138.0
20:35:18,0.022004900500178337,0.004928764188662171,-1.7094265818595886,0.23104453179985285,0.0017080376856029034,0.002915583550930023,-35.363329300000004,149.1646586,70984.0,15.5,-1.0,-16.5,-1.0,12.0,-967.5,238.0,4.0,6.5,RTL,131111.0
20:35:20,0.011482907459139824,0.006534724961966276,-1.7094403505325317,-0.6766757369041443,0.003932901658117771,0.00039070285856723785,-35.3633294,149.1646586,71016.0,18.0,-2.0,3.0,1.0,-22.0,-1007.0,-669.0,6.0,4.0,RTL,131111.0
20:35:21,0.013893829192966223,0.00526965013705194,-1.7091435194015503,-0.08323227055370808,-0.0005732275894843042,-0.0011072041525039822,-35.363329125,149.16465855,71212.25,16.75,-1.0,-36.25,-0.25,-4.75,-1031.75,-75.75,2.0,2.25,RTL,49849.0
20:35:22,0.021296142600476742,0.0047212098725140095,-1.7095656991004944,-0.10782242566347122,-0.0008264888310804963,-0.00010762887541204691,-35.363329300000004,149.1646586,71566.5,15.5,-1.0,-56.0,-0.5,-7.0,-1009.5,-101.0,1.5,3.0,RTL,49849.0
20:35:24,0.02620275318622589,0.006687089102342725,-1.708867609500885,-0.1332165002822876,0.00027126073837280273,0.0029311712132766843,-35.3633297,149.1646586,72280.0,21.0,-1.5,-2.0,0.0,-22.0,-976.0,-126.5,2.5,6.5,RTL,49849.0
20:35:26,0.016913584899157286,0.0057619912549853325,-1.7091545462608337,0.04899495840072632,0.006063127890229225,-0.002082529943436384,-35.3633293,149.1646586,72314.0,19.0,-1.0,-22.0,0.0,10.0,-1040.5,57.5,9.0,1.5,RTL,49849.0
20:35:27,0.009479006053879857,0.006120114238001406,-1.7097874581813812,-0.06152848154306412,-0.0010358664439991117,0.002013040299061686,-35.363328824999996,149.16465854999998,72862.75,16.0,-1.25,-56.0,1.75,-4.25,-1003.5,-54.0,1.75,5.5,RTL,22832.0
20:35:28,0.006254549021832645,0.006075575947761536,-1.7096391916275024,0.284419983625412,0.002161107026040554,0.0015952144749462605,-35.3633283,149.1646585,73276.0,12.0,-1.0,-45.5,0.5,10.5,-968.0,292.0,4.5,4.5,RTL,22832.0
20:35:30,-0.01586823957040906,0.006895983591675758,-1.7090262174606323,-0.6141064167022705,-0.0020428471034392715,-0.0001929140416905284,-35.3633266,149.1646582,73544.5,-3.5,0.0,3.5,1.5,-23.0,-999.5,-606.0,0.5,3.5,RTL,22832.0
20:35:32,-0.008864396717399359,0.005507700378075242,-1.7095646262168884,0.16492240503430367,0.0006485914345830679,-0.0015437975525856018,-35.3633254,149.164658,73888.5,-18.0,2.0,-49.0,0.5,1.5,-1027.5,172.5,3.0,2.0,RTL,22832.0
20:35:33,-0.017959672259166837,0.005340235307812691,-1.7091785967350006,-0.037699390202760696,-0.0017267292132601142,0.000591423362493515,-35.363324950000006,149.164658,74537.25,-24.0,2.75,-38.25,0.25,0.25,-963.0,-30.5,1.25,4.0,RTL,26011.0
20:35:34,-0.012700372841209173,0.005216612946242094,-1.7092667818069458,0.16230354458093643,0.0026792866410687566,-6.9122761487960815e-06,-35.3633247,149.1646579,74748.0,-27.0,3.0,-9.5,0.0,-3.0,-963.5,168.5,5.0,3.5,RTL,26011.0
20:35:36,-0.022365359589457512,0.004416440846398473,-1.708921194076538,-0.48371274769306183,-0.00149145582690835,0.0008716509910300374,-35.3633245,149.1646579,74743.0,-32.5,4.0,-5.5,0.0,-16.0,-1034.5,-477.0,1.5,4.5,RTL,26011.0
20:35:38,-0.022356930188834667,0.004082143306732178,-1.7094253897666931,-0.3349166214466095,-0.0017692765104584396,0.0014623564202338457,-35.3633244,149.1646579,75509.0,-33.0,4.0,-46.5,0.0,-16.0,-976.5,-329.0,1.0,5.0,RTL,26011.0
20:35:39,-0.015368389198556542,0.003755328885745257,-1.7088465094566345,-0.22518497705459595,-0.001219474448589608,2.385611878708005e-05,-35.363324649999996,149.16465795000002,75833.5,-33.0,3.5,-4.25,0.0,-9.75,-971.75,-219.75,1.25,3.5,RTL,63483.0
20:35:40,-0.012803531717509031,0.0038154235808178782,-1.7085093259811401,0.5048769861459732,-0.002304401423316449,0.0005602882010862231,-35.3633248,149.164658,75834.0,-31.0,3.0,4.0,-0.5,34.0,-998.5,510.5,0.5,4.0,RTL,63483.0
20:35:42,-0.0065044446382671595,0.0017864517285488546,-1.7095449566841125,-0.19589296961203218,-0.0007466382812708616,-0.000440027448348701,-35.363325599999996,149.1646582,76130.0,-26.0,2.0,-47.0,-2.0,-3.5,-1030.0,-191.0,2.0,3.5,RTL,63483.0
20:35:44,0.0012191888235975057,0.002047188871074468,-1.708691656589508,-0.4539279043674469,-0.0020404247334226966,0.0029712823452427983,-35.363327,149.1646585,77047.0,-13.0,0.0,-16.0,-0.5,-9.0,-961.0,-448.5,1.0,7.0,RTL,63483.0
20:35:45,0.007945938443299383,0.003135751816444099,-1.708706110715866,-0.05980469286441803,0.00028184696566313505,-0.0014690555981360376,-35.3633274,149.1646585,77075.75,-6.5,-0.5,2.25,-0.5,-13.25,-1006.25,-56.0,3.0,2.25,RTL,36755.0
20:35:46,0.0016263960860669613,0.004152384353801608,-1.7083251476287842,0.08275969326496124,0.002590670483186841,0.003855941817164421,-35.36332745,149.1646585,77071.0,-3.5,-1.0,-6.0,0.5,16.5,-1028.0,88.0,5.0,7.5,RTL,36755.0
20:35:48,-0.0016391622775699943,0.003927047015167773,-1.7095949053764343,-0.06460607796907425,0.0003725204733200371,0.0012085812631994486,-35.3633272,149.1646585,77869.5,-5.0,0.0,-55.0,-0.5,5.0,-985.5,-60.5,3.0,5.0,RTL,36755.0
20:35:50,-0.0009693665197119117,0.005052073858678341,-1.7085562348365784,-0.5917559862136841,-0.0010484288213774562,-0.002505180542357266,-35.3633272,149.1646584,78351.0,-6.5,0.0,3.0,-0.5,-31.5,-989.5,-588.0,1.0,1.0,RTL,36755.0
20:35:51,0.005610875756246969,0.0040525178774259984,-1.7088011503219604,-0.03154325298964977,-0.002162222081096843,-0.0002883427659980953,-35.3633272,149.1646584,78343.25,-5.5,0.0,-10.25,-0.25,-5.25,-1030.5,-27.5,0.25,3.25,RTL,105934.0
20:35:52,0.00482706434559077,0.004188162507489324,-1.7091020941734314,0.2570992037653923,0.0013131170999258757,-0.0003420503344386816,-35.3633272,149.1646584,78512.5,-4.0,0.0,-38.5,0.5,10.0,-1039.5,260.5,3.5,3.5,RTL,105934.0
20:35:54,0.0063550363993272185,0.003957132692448795,-1.7089154124259949,0.04734349250793457,-0.0023143055732361972,0.0008854388725012541,-35.363327,149.1646584,79473.0,-7.0,0.0,-24.5,-0.5,-11.0,-950.5,50.5,0.5,4.5,RTL,105934.0
20:35:56,0.0016659044194966555,0.0029357513412833214,-1.7093814611434937,-0.03459823131561279,-0.0027254533488303423,-0.000363703235052526,-35.363327350000006,149.1646585,79533.0,-3.5,0.0,0.0,0.0,9.0,-1021.0,-30.5,0.0,3.5,RTL,105934.0
20:35:57,0.007591639703605324,0.0034434872213751078,-1.709278553724289,-0.08583826199173927,0.0006233158055692911,-0.000329728820361197,-35.363327575,149.164658575,79789.75,-1.25,-1.5,-42.25,0.5,-6.0,-1033.0,-81.75,3.0,3.0,RTL,81005.0
20:35:58,-0.0014652489917352796,0.004604535177350044,-1.709452748298645,-0.1941467672586441,-0.00025476841256022453,-4.779582377523184e-05,-35.363327350000006,149.1646586,80174.5,-1.5,-2.0,-56.5,0.0,-12.0,-995.5,-190.0,2.0,3.5,RTL,81005.0
20:36:00,0.007160332752391696,0.0038920000661164522,-1.7085543870925903,0.15634006261825562,0.00024112139362841845,-0.0018852062057703733,-35.3633269,149.1646585,80808.0,-7.5,0.0,0.5,-1.0,-8.0,-974.0,159.0,2.5,2.0,RTL,81005.0
20:36:02,0.011249728966504335,0.0014497502706944942,-1.708396077156067,-0.4308745414018631,-0.0008611363591626287,-0.002180997049435973,-35.3633278,149.1646586,80880.0,-3.0,-0.5,-27.5,-1.5,-15.5,-1038.5,-426.5,1.5,1.5,RTL,81005.0
20:36:03,0.020123714115470648,0.0031858099973760545,-1.709528774023056,0.05068819411098957,-0.0004607078735716641,-0.0007671713246963918,-35.363328700000004,149.164658675,81473.75,5.75,-1.75,-55.75,-0.25,3.0,-997.25,54.25,1.75,2.75,RTL,196873.0
20:36:04,0.01482001319527626,0.0035936960484832525,-1.7092148661613464,-0.3240414634346962,0.0009213454322889447,0.0008953195065259933,-35.36332885,149.1646587,81868.0,9.5,-2.5,-39.5,0.0,-12.5,-959.5,-320.0,3.0,4.5,RTL,196873.0
20:36:06,0.013531090691685677,0.004621572094038129,-1.7087064385414124,0.641798198223114,6.422342266887426e-06,-0.0002849983284249902,-35.36332835,149.1646586,82055.0,9.0,-2.0,4.0,0.0,29.0,-1005.0,646.0,2.0,3.5,RTL,196873.0
20:36:08,0.014654521364718676,0.003761000814847648,-1.7093564867973328,-0.02804599702358246,0.003521790844388306,0.0001305753830820322,-35.36332845,149.1646586,82442.5,7.0,-1.0,-52.0,-0.5,1.5,-1026.5,-24.0,6.0,3.5,RTL,196873.0
20:36:09,0.010662930435501039,0.0050413517747074366,-1.7091495096683502,-0.0170741006731987,0.0010554435721132904,0.0005971516948193312,-35.363328325,149.1646586,83083.25,7.25,-2.0,-36.0,0.75,-2.75,-963.0,-13.0,3.5,4.0,RTL,266055.0
20:36:10,-0.002313104923814535,0.005555027863010764,-1.7086790800094604,-0.49770425260066986,-0.0001392329577356577,-0.0006449834909290075,-35.363327999999996,149.16465855,83266.5,6.0,-2.0,-7.0,2.0,-14.5,-966.5,-492.5,2.0,3.0,RTL,266055.0
20:36:12,0.009283134713768959,0.0033435890218243003,-1.7086106538772583,0.3702964708209038,-0.0004930468276143074,-0.0020644182804971933,-35.3633271,149.1646585,83266.5,-3.5,0.0,-9.0,0.0,8.0,-1033.0,373.5,1.5,1.5,RTL,266055.0
20:36:14,0.011724266223609447,0.0036313680466264486,-1.7090614438056946,0.2049788013100624,-0.00018583156634122133,-3.745546564459801e-05,-35.363327549999994,149.1646585,84104.5,-2.0,-0.5,-51.5,0.0,8.0,-981.0,208.5,1.5,3.5,RTL,148588.5
20:36:16,-0.005389487603679299,0.004991723923012614,-1.7081298828125,-0.08922025561332703,-0.00016900734044611454,0.0036466994788497686,-35.36332725,149.1646585,84489.0,0.0,-1.0,4.0,1.5,12.5,-990.0,-84.0,1.5,7.0,RTL,31122.0
20:36:18,-0.005373558262363076,0.004321659682318568,-1.7090266346931458,-0.2684025354683399,-0.002095977251883596,-0.0004707225598394871,-35.36332645,149.1646583,84700.0,-9.5,0.0,-40.5,0.0,-16.5,-1035.5,-264.5,0.5,3.0,RTL,31122.0
20:36:19,-0.0034384140744805336,0.003920811112038791,-1.7091699540615082,-0.03418981283903122,-3.411015495657921e-05,0.0007166831637732685,-35.3633263,149.1646583,85374.0,-12.0,0.0,-40.5,-0.25,-0.25,-964.0,-30.5,2.0,4.25,RTL,118671.0
20:36:20,-0.007664651144295931,0.004185353172942996,-1.7087510228157043,-0.08815434575080872,0.002737108152359724,0.0021944205509498715,-35.363326349999994,149.1646583,85605.5,-12.0,0.0,-12.0,-0.5,9.5,-961.0,-84.0,4.5,5.5,RTL,118671.0
20:36:22,0.010411669500172138,0.0023628288181498647,-1.7086350321769714,0.25979333743453026,-0.0008241957984864712,0.0003364069852977991,-35.36332695,149.1646584,85612.0,-9.0,0.0,-4.5,-1.0,3.0,-1029.5,263.0,1.0,4.0,RTL,118671.0
20:36:24,0.011895776726305485,0.0034169479040428996,-1.709231197834015,0.18081622337922454,0.0014133785152807832,0.00042576761916279793,-35.363327549999994,149.1646585,86370.5,-2.0,-1.0,-52.0,-0.5,6.0,-987.0,184.0,3.0,4.0,RTL,118671.0
20:36:25,0.012711849820334464,0.003917872440069914,-1.7089076042175293,-0.04681563377380371,0.000942736049182713,-0.0012235703761689365,-35.363327875,149.1646585,86776.75,0.25,-1.0,-9.25,-0.75,-7.75,-974.5,-43.75,2.75,2.0,RTL,262027.0
20:36:26,0.009050760418176651,0.004388890461996198,-1.7088902592658997,0.4108271822333336,0.004124132799915969,0.0010103890672326088,-35.36332795,149.1646585,86800.0,1.5,-1.0,2.5,0.0,27.0,-1003.5,414.5,6.0,4.0,RTL,262027.0
20:36:28,-0.0008742829340917524,0.005715296370908618,-1.7092635035514832,-0.22884330712258816,-0.0004016017774119973,0.0017942336853593588,-35.363327549999994,149.1646584,86970.0,0.0,0.0,-38.5,0.0,-6.0,-1039.5,-224.5,1.5,5.0,RTL,262027.0
20:36:30,-0.0043106816010549664,0.005030726315453649,-1.709015130996704,-0.11412697285413742,0.0006827224278822541,0.0017296026926487684,-35.363327049999995,149.1646583,87933.0,-4.0,0.0,-25.5,0.0,7.0,-953.5,-110.5,2.5,5.5,RTL,262027.0
20:36:31,-0.003469080984359607,0.00421100587118417,-1.7082780301570892,-0.1583760492503643,-0.0023159169359132648,-0.000821069348603487,-35.363326825,149.1646583,88018.75,-6.75,0.0,2.5,0.5,-1.75,-990.25,-154.5,-0.25,2.5,RTL,101975.0
20:36:32,0.005185545422136784,0.003505468601360917,-1.7082529067993164,0.25917115435004234,-0.0024841076228767633,0.001131753553636372,-35.363326650000005,149.1646583,87994.5,-8.5,0.0,1.0,0.0,-2.5,-1015.0,261.5,0.0,4.5,RTL,101975.0
20:36:34,0.010105082765221596,0.002389407134614885,-1.709394931793213,0.1128760389983654,-0.0012499643489718437,-0.0008997601689770818,-35.36332715,149.16465855,88628.5,-7.5,0.0,-56.0,-0.5,2.5,-998.5,115.5,1.0,2.5,RTL,101975.0
20:36:36,0.010033384431153536,0.0032373847207054496,-1.708352506160736,0.5124882757663727,0.000538817432243377,0.00037429144140332937,-35.363327749999996,149.1646586,89244.5,0.0,-1.0,0.5,-1.5,36.5,-982.0,515.5,2.0,3.5,RTL,101975.0
20:36:37,0.012222283170558512,0.004151168104726821,-1.7085011899471283,-0.0619811937212944,0.0004634062061086297,-0.0010873920400626957,-35.363328175,149.1646586,89217.25,2.75,-1.5,-1.75,0.5,2.5,-1020.25,-58.5,2.0,2.5,RTL,48195.0
20:36:38,0.010017287218943238,0.004316893173381686,-1.7087305784225464,-0.2835811860859394,-0.0023353357100859284,-0.003862948506139219,-35.36332815,149.1646586,89307.5,4.5,-2.0,-26.0,0.0,-19.0,-1034.5,-281.0,0.0,0.0,RTL,48195.0
20:36:40,0.0016427377122454345,0.004012419143691659,-1.7091795802116394,-0.3927379697561264,-0.0010347261559218168,4.0546292439103127e-05,-35.3633276,149.1646585,90216.0,0.0,0.0,-30.0,0.0,-21.0,-949.0,-389.5,1.0,3.0,RTL,48195.0
20:36:42,0.0173978079110384,0.0038404742954298854,-1.7082962393760681,0.4268423467874527,-0.0021643948857672513,-0.0019314679084345698,-35.3633277,149.1646585,90325.5,0.0,-1.0,3.5,0.0,3.5,-1006.5,429.0,0.0,1.0,RTL,48195.0
20:36:43,0.004265994601155398,0.004309432290028781,-1.70884370803833,0.05435595288872719,-0.000506924872752279,-0.0011506121372804046,-35.3633276,149.1646585,90491.0,0.5,-1.0,-33.25,1.0,2.75,-1037.5,57.25,1.5,2.5,RTL,81704.0
20:36:44,0.0035077156862826087,0.0044746920466423035,-1.7093077301979065,0.19914415571838617,0.0018899313872680068,0.0007622776320204139,-35.363327350000006,149.1646585,90829.0,-0.5,-0.5,-53.0,0.0,11.0,-1011.5,202.0,4.0,3.5,RTL,81704.0
20:36:46,0.0010723008308559656,0.0046715515200048685,-1.7088460326194763,0.19973386079072952,0.0009326011640951037,0.0006036651320755482,-35.3633272,149.1646585,91509.0,-3.5,0.0,-1.0,0.0,21.0,-990.5,204.0,2.5,4.0,RTL,81704.0
20:36:48,-9.886652696877718e-05,0.004172436892986298,-1.7085251808166504,0.009907841682434082,-0.003671703510917723,-0.0024065375328063965,-35.363326650000005,149.1646584,91533.5,-8.5,0.0,-18.5,0.5,-9.5,-1043.0,12.5,-1.0,0.5,RTL,81704.0
20:36:49,-0.0030368327134056017,0.0038340139435604215,-1.70919668674469,0.06008878909051418,-0.0003229342109989375,-0.001222713675815612,-35.363326349999994,149.1646584,92053.0,-10.5,0.0,-51.25,0.0,4.25,-1001.5,62.5,1.0,1.75,RTL,81324.0
20:36:50,-0.0061851199716329575,0.0036646855296567082,-1.709239423274994,-0.2679219879209995,-0.0007257943507283926,-0.00046740996185690165,-35.3633263,149.1646584,92430.0,-12.0,0.0,-39.0,0.0,-13.0,-958.5,-264.5,0.5,2.5,RTL,81324.0
20:36:52,0.00910375639796257,0.0017403337405994534,-1.708275854587555,0.3821609131991863,0.0001338286092504859,0.0006588953547179699,-35.363326650000005,149.16465845,92620.0,-11.5,0.0,4.0,-1.0,6.0,-1003.5,383.5,2.0,3.5,RTL,81324.0
20:36:54,0.0035924321855418384,0.0035933523904532194,-1.7090938091278076,0.20443961024284363,0.0008945770096033812,-0.0009711546590551734,-35.3633269,149.1646585,93018.0,-8.0,-0.5,-50.5,-0.5,10.5,-1019.5,207.0,2.5,2.0,RTL,81324.0
20:36:55,0.0047047801708686166,0.003344771743286401,-1.7088445127010345,-0.10924375616014004,0.0008959615952335298,8.334044832736254e-05,-35.363327175,149.1646585,93622.75,-6.0,-0.5,-31.75,-0.5,-0.25,-959.75,-107.25,2.25,3.0,RTL,36956.0
20:36:56,0.015604116022586823,0.003046126337721944,-1.7085676789283752,0.4833209663629532,-0.0010509492130950093,-0.0013100894284434617,-35.36332745,149.1646585,93776.0,-4.0,-0.5,-4.0,-0.5,17.0,-982.0,485.0,1.0,1.5,RTL,36956.0
20:36:58,0.008840595604851842,0.00252400164026767,-1.7084652185440063,-0.38003599643707275,-0.0012131611001677811,-0.0027051116339862347,-35.36332795,149.16465855,93784.5,0.5,-1.0,-15.0,-1.0,-18.0,-1041.5,-377.5,0.5,0.5,RTL,36956.0
20:37:00,0.015320233535021544,0.0031846828060224652,-1.7092626690864563,0.020649194717407227,-0.000868585892021656,0.0011524880537763238,-35.3633286,149.1646587,94669.0,7.5,-2.0,-45.0,0.0,9.0,-970.0,24.0,0.5,4.0,RTL,36956.0
20:37:01,0.017877482576295733,0.003914867993444204,-1.708424836397171,0.2110510692000389,-0.0002719336480367929,0.0016221576370298862,-35.3633289,149.1646587,94950.75,10.75,-3.0,-2.5,0.25,12.5,-982.25,213.75,1.25,4.25,RTL,26665.0
20:37:02,0.010683034779503942,0.004533794708549976,-1.7085028290748596,-0.6150007098913193,-0.0030630355468019843,-0.0013874577125534415,-35.3633288,149.1646587,94940.5,11.0,-3.0,3.5,0.5,-33.5,-996.5,-612.0,-0.5,1.5,RTL,26665.0
20:37:04,0.011264241766184568,0.005233915755525231,-1.708893895149231,0.2670872285962105,-0.0017527955351397395,-0.0012269546277821064,-35.36332815,149.1646586,95282.0,7.5,-2.0,-49.0,0.5,5.5,-1026.5,269.5,0.0,1.5,RTL,26665.0
20:37:06,0.012208492960780859,0.004874905804172158,-1.7083973288536072,0.6096018552780151,0.001468768052291125,0.0006316349608823657,-35.3633277,149.1646585,96138.5,1.5,-1.0,-10.0,0.0,28.0,-967.5,612.0,2.5,3.5,RTL,26665.0
20:37:07,-0.004042662607389502,0.005509761045686901,-1.708396077156067,0.0012033358216285706,-2.9392133001238108e-05,0.002502115850802511,-35.3633272,149.16465845,96140.5,-1.0,-0.75,3.5,1.5,6.5,-999.5,4.5,1.5,5.75,RTL,119797.0
20:37:08,-0.0038417743053287268,0.00635705329477787,-1.7087699174880981,0.03331170976161957,-0.00174796546343714,-0.0025934192817658186,-35.3633266,149.1646583,96139.5,-5.0,0.0,-8.5,2.0,-13.5,-1039.5,35.5,0.0,0.0,RTL,119797.0
20:37:10,-0.014219559729099274,0.005214756354689598,-1.708812415599823,-0.10677073150873184,-0.004044556291773915,-0.0013997884234413505,-35.363325,149.164658,96950.0,-22.5,2.0,-48.5,1.0,-12.5,-979.0,-105.0,-2.0,1.5,RTL,119797.0
20:37:12,0.006713919108733535,0.002097022137604654,-1.7085502743721008,0.6287266314029694,-0.002341540763154626,-0.0012770234607160091,-35.3633259,149.16465825,97300.0,-21.0,2.0,3.5,0.0,37.5,-1007.0,631.0,-1.0,2.0,RTL,171090.5
20:37:14,-0.0015703519602539018,0.0030972687527537346,-1.7086971998214722,-0.30302785336971283,-0.0013279690174385905,0.0001134511549025774,-35.36332655,149.16465835000002,97541.5,-13.5,0.0,-43.5,-0.5,-11.5,-1031.5,-301.0,0.5,3.0,RTL,222384.0
