time_stamp,MODE,lat,lon,relative_alt,roll,pitch,yaw,rollspeed,pitchspeed,yawspeed,xacc,yacc,zacc,xgyro,ygyro,zgyro,vx,vy,vz,alt,VFR_HUD_alt,EK2_ALT_SOURCE,RTL_ALT
13:00:30.334,STABILIZE,-35.3632622,149.1652375,0,-0.0006849208730272949,0.000988112878985703,0.021818431094288826,0.00031656830105930567,0.0002782238298095763,0.0015357591910287738,0,2,-1000,1,0,0,-1,1,0,583960,583.9599609375,0.0,1500.0
13:00:30.537,STABILIZE,-35.363262,149.1652375,1457,0.024434342980384827,-0.0010859229369089007,0.020286090672016144,0.046992603689432144,-0.007235323078930378,0.002513806102797389,0,0,-1015,47,-6,1,1,6,-145,585410,585.4099731445312,0.0,1500.0
13:00:30.737,AUTO,-35.363262,149.1652377,1834,0.03581356629729271,-0.0029994992073625326,0.02044757269322872,0.04486705735325813,-0.008111580274999142,0.00301710469648242,0,-1,-1006,45,-7,2,1,12,-147,585790,585.7899780273438,0.0,1500.0
13:00:30.938,AUTO,-35.3632619,149.1652381,2217,0.04663262143731117,-0.005292925518006086,0.02068040333688259,0.04231172800064087,-0.009324857033789158,0.003437486244365573,1,-3,-1002,43,-8,3,3,21,-148,586170,586.1699829101562,0.0,1500.0
13:00:31.139,AUTO,-35.3632618,149.1652389,2608,0.05687130242586136,-0.008052689954638481,0.02093636244535446,0.03894637152552605,-0.011393891647458076,0.003812251379713416,1,-5,-999,39,-10,3,5,32,-148,586560,586.5599975585938,0.0,1500.0
13:00:31.340,AUTO,-35.3632616,149.1652399,2990,0.061527807265520096,-0.007617178838700056,-0.01094862725585699,-0.035765521228313446,0.043177347630262375,-0.062271006405353546,2,-8,-990,-35,43,-62,9,45,-147,586950,586.9500122070312,0.0,1500.0
13:00:31.542,AUTO,-35.3632616,149.1652399,2990,0.061527807265520096,-0.007617178838700056,-0.01094862725585699,-0.035765521228313446,0.043177347630262375,-0.062271006405353546,2,-8,-990,-35,43,-62,9,45,-147,586950,586.9500122070312,0.0,1500.0
13:00:31.743,AUTO,-35.3632613,149.1652412,3367,0.028319910168647766,0.007831638678908348,-0.027090732008218765,-0.1999499648809433,0.031115494668483734,-0.05936737731099129,2,-11,-987,-199,32,-59,10,53,-144,587320,587.3200073242188,0.0,1500.0
13:00:31.944,AUTO,-35.3632613,149.1652412,3367,0.028319910168647766,0.007831638678908348,-0.027090732008218765,-0.1999499648809433,0.031115494668483734,-0.05936737731099129,2,-11,-987,-199,32,-59,10,53,-144,587320,587.3200073242188,0.0,1500.0
13:00:32.146,AUTO,-35.3632613,149.1652412,3367,0.028319910168647766,0.007831638678908348,-0.027090732008218765,-0.1999499648809433,0.031115494668483734,-0.05936737731099129,2,-11,-987,-199,32,-59,10,53,-144,587320,587.3200073242188,0.0,1500.0
13:00:32.347,AUTO,-35.3632613,149.1652412,3367,0.028319910168647766,0.007831638678908348,-0.027090732008218765,-0.1999499648809433,0.031115494668483734,-0.05936737731099129,2,-11,-987,-199,32,-59,10,53,-144,587320,587.3200073242188,0.0,1500.0
13:00:32.548,AUTO,-35.3632606,149.1652445,4489,-0.06378967314958572,0.007672422099858522,-0.06587008386850357,-0.026713887229561806,-0.008569884113967419,-0.043021611869335175,2,-7,-1008,-26,-7,-43,7,19,-148,588440,588.4400024414062,0.0,1500.0
13:00:32.749,AUTO,-35.3632604,149.1652447,4873,-0.06887748092412949,0.001958930864930153,-0.07180456817150116,-0.014751761220395565,-0.021008282899856567,-0.02479577623307705,0,-3,-1002,-14,-20,-24,6,1,-149,588830,588.8300170898438,0.0,1500.0
13:00:32.950,AUTO,-35.3632603,149.1652445,5257,-0.06735976040363312,0.0003662276722025126,-0.0791546031832695,0.0214141383767128,0.0063524250872433186,-0.028983213007450104,-1,0,-1001,22,7,-29,4,-16,-148,589210,589.2099609375,0.0,1500.0
13:00:33.151,AUTO,-35.3632602,149.1652439,5641,-0.05778113752603531,0.001789489877410233,-0.08622600138187408,0.050027817487716675,0.005270935129374266,-0.019529173150658607,-3,3,-1001,50,5,-19,2,-31,-148,589600,589.5999755859375,0.0,1500.0
13:00:33.352,AUTO,-35.3632602,149.165243,6025,-0.04421233385801315,0.00298151932656765,-0.09082706272602081,0.0576496496796608,0.0065715862438082695,-0.01302946638315916,-6,8,-1001,58,7,-13,0,-42,-148,589980,589.97998046875,0.0,1500.0
13:00:33.553,AUTO,-35.3632602,149.165243,6025,-0.04421233385801315,0.00298151932656765,-0.09082706272602081,0.0576496496796608,0.0065715862438082695,-0.01302946638315916,-6,8,-1001,58,7,-13,0,-42,-148,589980,589.97998046875,0.0,1500.0
13:00:33.754,AUTO,-35.3632602,149.1652417,6408,-0.029573289677500725,0.004887539427727461,-0.09376370906829834,0.06040222942829132,0.008966171182692051,-0.008109926246106625,-5,7,-1001,61,9,-8,-2,-50,-149,590360,590.3599853515625,0.0,1500.0
13:00:33.955,AUTO,-35.3632602,149.1652417,6408,-0.029573289677500725,0.004887539427727461,-0.09376370906829834,0.06040222942829132,0.008966171182692051,-0.008109926246106625,-5,7,-1001,61,9,-8,-2,-50,-149,590360,590.3599853515625,0.0,1500.0
13:00:34.156,AUTO,-35.3632602,149.1652417,6408,-0.029573289677500725,0.004887539427727461,-0.09376370906829834,0.06040222942829132,0.008966171182692051,-0.008109926246106625,-5,7,-1001,61,9,-8,-2,-50,-149,590360,590.3599853515625,0.0,1500.0
13:00:34.359,AUTO,-35.3632606,149.1652373,7575,0.018543686717748642,0.01244742888957262,-0.09557537734508514,0.0643434152007103,0.007668717298656702,0.0007043327204883099,-5,12,-1003,65,8,0,-11,-47,-151,591530,591.5299682617188,0.0,1500.0
13:00:34.561,AUTO,-35.3632606,149.1652373,7575,0.018543686717748642,0.01244742888957262,-0.09557537734508514,0.0643434152007103,0.007668717298656702,0.0007043327204883099,-5,12,-1003,65,8,0,-11,-47,-151,591530,591.5299682617188,0.0,1500.0
13:00:34.762,AUTO,-35.3632609,149.165236,7966,0.03474126383662224,0.014118053950369358,-0.09472837299108505,0.06421950459480286,0.004763689357787371,0.001988333184272051,-3,10,-1003,64,5,1,-14,-38,-151,591920,591.9199829101562,0.0,1500.0
13:00:34.963,AUTO,-35.3632613,149.1652351,8357,0.05033179000020027,0.014537381939589977,-0.09343638271093369,0.06210455298423767,-0.0003186069370713085,0.003243046347051859,-1,8,-1002,62,0,3,-17,-26,-152,592310,592.3099975585938,0.0,1500.0
13:00:35.164,AUTO,-35.3632617,149.1652345,8750,0.062385424971580505,0.011291230097413063,-0.08929646760225296,0.025335703045129776,-0.033032000064849854,0.03337865322828293,1,6,-998,26,-32,32,-19,-11,-152,592710,592.7099609375,0.0,1500.0
13:00:35.364,AUTO,-35.3632621,149.1652343,9139,0.0608966201543808,-0.001106094685383141,-0.0797165259718895,-0.045557521283626556,-0.041456207633018494,0.0337427482008934,1,3,-994,-44,-40,33,-18,4,-150,593090,593.0899658203125,0.0,1500.0
13:00:35.565,AUTO,-35.3632621,149.1652343,9139,0.0608966201543808,-0.001106094685383141,-0.0797165259718895,-0.045557521283626556,-0.041456207633018494,0.0337427482008934,1,3,-994,-44,-40,33,-18,4,-150,593090,593.0899658203125,0.0,1500.0
13:00:35.766,AUTO,-35.3632625,149.1652344,9524,0.04175185784697533,-0.008003011345863342,-0.07417252659797668,-0.09075886756181717,-0.01537448912858963,0.013795224949717522,4,0,-995,-90,-14,13,-14,16,-148,593480,593.47998046875,0.0,1500.0
13:00:35.967,AUTO,-35.3632625,149.1652344,9524,0.04175185784697533,-0.008003011345863342,-0.07417252659797668,-0.09075886756181717,-0.01537448912858963,0.013795224949717522,4,0,-995,-90,-14,13,-14,16,-148,593480,593.47998046875,0.0,1500.0
13:00:36.168,AUTO,-35.3632625,149.1652344,9524,0.04175185784697533,-0.008003011345863342,-0.07417252659797668,-0.09075886756181717,-0.01537448912858963,0.013795224949717522,4,0,-995,-90,-14,13,-14,16,-148,593480,593.47998046875,0.0,1500.0
13:00:36.369,AUTO,-35.363263,149.1652359,10671,-0.012802785262465477,-0.014002733863890171,-0.077727310359478,-0.04412176460027695,-0.0021550292149186134,-0.01855839043855667,2,-3,-1002,-43,-1,-18,-1,18,-149,594630,594.6300048828125,0.0,1500.0
13:00:36.570,AUTO,-35.363263,149.1652359,10671,-0.012802785262465477,-0.014002733863890171,-0.077727310359478,-0.04412176460027695,-0.0021550292149186134,-0.01855839043855667,2,-3,-1002,-43,-1,-18,-1,18,-149,594630,594.6300048828125,0.0,1500.0
13:00:36.771,AUTO,-35.363263,149.1652363,11057,-0.02047009952366352,-0.01412811130285263,-0.08360785245895386,-0.02121060900390148,0.0020099433604627848,-0.022709302604198456,1,-3,-1002,-20,3,-22,2,12,-150,595010,595.010009765625,0.0,1500.0
13:00:36.972,AUTO,-35.3632629,149.1652365,11444,-0.022938350215554237,-0.01331530325114727,-0.09046945720911026,-0.0002138343988917768,0.00651863869279623,-0.027480728924274445,0,-2,-1002,0,7,-27,6,4,-150,595400,595.3999633789062,0.0,1500.0
13:00:37.173,AUTO,-35.3632628,149.1652365,11836,-0.02147638611495495,-0.011336763389408588,-0.09797881543636322,0.01192003209143877,0.010456770658493042,-0.0294489786028862,-1,-1,-1001,12,11,-29,8,-2,-151,595790,595.7899780273438,0.0,1500.0
13:00:37.374,AUTO,-35.3632626,149.1652365,12225,-0.016654618084430695,-0.008561166003346443,-0.10557374358177185,0.024472152814269066,0.013856006786227226,-0.030100567266345024,-2,0,-1001,25,14,-30,10,-7,-151,596180,596.1799926757812,0.0,1500.0
13:00:37.575,AUTO,-35.3632623,149.1652362,12614,-0.009992888197302818,-0.005033743102103472,-0.11313778907060623,0.027646714821457863,0.015252205543220043,-0.0280318446457386,-2,0,-1001,25,14,-30,11,-11,-151,596570,596.1799926757812,0.0,1500.0
13:00:37.776,AUTO,-35.3632623,149.1652362,12614,-0.009992888197302818,-0.005033743102103472,-0.11313778907060623,0.027646714821457863,0.015252205543220043,-0.0280318446457386,-4,0,-1000,28,16,-28,11,-11,-151,596570,596.5700073242188,0.0,1500.0
13:00:37.978,AUTO,-35.3632623,149.1652362,12614,-0.009992888197302818,-0.005033743102103472,-0.11313778907060623,0.027646714821457863,0.015252205543220043,-0.0280318446457386,-4,0,-1000,28,16,-28,11,-11,-151,596570,596.5700073242188,0.0,1500.0
13:00:38.180,AUTO,-35.3632623,149.1652362,12614,-0.009992888197302818,-0.005033743102103472,-0.11313778907060623,0.027646714821457863,0.015252205543220043,-0.0280318446457386,-4,0,-1000,28,16,-28,11,-11,-151,596570,596.5700073242188,0.0,1500.0
13:00:38.382,AUTO,-35.3632616,149.1652349,13780,0.013737174682319164,0.011336318217217922,-0.12698183953762054,0.03732691705226898,0.02866005338728428,-0.0012459194986149669,-4,1,-1000,38,29,-1,8,-12,-151,597740,597.739990234375,0.0,1500.0
13:00:38.582,AUTO,-35.3632614,149.1652346,14169,0.02092697098851204,0.017018534243106842,-0.12671628594398499,0.020753979682922363,0.018314246088266373,0.005691028665751219,-4,1,-1000,21,18,5,5,-8,-152,598120,598.1199951171875,0.0,1500.0
13:00:38.784,AUTO,-35.3632614,149.1652346,14169,0.02092697098851204,0.017018534243106842,-0.12671628594398499,0.020753979682922363,0.018314246088266373,0.005691028665751219,-4,1,-1000,21,18,5,5,-8,-152,598120,598.1199951171875,0.0,1500.0
13:00:38.984,AUTO,-35.3632613,149.1652344,14559,0.0240114014595747,0.0190495103597641,-0.12560950219631195,0.005638319067656994,0.004585607443004847,0.006231225561350584,-2,0,-999,6,5,6,1,-2,-151,598510,598.510009765625,0.0,1500.0
13:00:39.185,AUTO,-35.3632612,149.1652344,14949,0.023710772395133972,0.01869296282529831,-0.1241452619433403,-0.004068866837769747,-0.0031726949382573366,0.007303459569811821,0,0,-999,-3,-2,7,-2,3,-151,598900,598.8999633789062,0.0,1500.0
13:00:39.386,AUTO,-35.3632612,149.1652344,15339,0.021156812086701393,0.016860783100128174,-0.12251994758844376,-0.014969343319535255,-0.00964786484837532,0.006554012186825275,0,0,-999,-14,-8,6,-5,8,-151,599290,599.2899780273438,0.0,1500.0
13:00:39.587,AUTO,-35.3632612,149.1652345,15726,0.017232058569788933,0.014102482236921787,-0.12097305804491043,-0.018903860822319984,-0.009708632715046406,0.006680439226329327,1,-1,-999,-18,-8,6,-7,11,-151,599680,599.6799926757812,0.0,1500.0
13:00:39.788,AUTO,-35.3632612,149.1652345,15726,0.017232058569788933,0.014102482236921787,-0.12097305804491043,-0.018903860822319984,-0.009708632715046406,0.006680439226329327,1,-1,-999,-18,-8,6,-7,11,-151,599680,599.6799926757812,0.0,1500.0
13:00:39.990,AUTO,-35.3632612,149.1652345,15726,0.017232058569788933,0.014102482236921787,-0.12097305804491043,-0.018903860822319984,-0.009708632715046406,0.006680439226329327,1,-1,-999,-18,-8,6,-7,11,-151,599680,599.6799926757812,0.0,1500.0
13:00:40.191,AUTO,-35.3632612,149.1652345,15726,0.017232058569788933,0.014102482236921787,-0.12097305804491043,-0.018903860822319984,-0.009708632715046406,0.006680439226329327,1,-1,-999,-18,-8,6,-7,11,-151,599680,599.6799926757812,0.0,1500.0
13:00:40.393,AUTO,-35.3632612,149.1652345,15726,0.017232058569788933,0.014102482236921787,-0.12097305804491043,-0.018903860822319984,-0.009708632715046406,0.006680439226329327,1,-1,-999,-18,-8,6,-7,11,-151,599680,599.6799926757812,0.0,1500.0
13:00:40.595,AUTO,-35.3632618,149.1652359,17278,0.0022399325389415026,0.004050661809742451,-0.11527762562036514,-0.007566772401332855,-0.005881958641111851,0.006160424556583166,3,-1,-1000,-6,-5,5,-9,15,-151,601230,601.22998046875,0.0,1500.0
13:00:40.796,AUTO,-35.3632618,149.1652359,17278,0.0022399325389415026,0.004050661809742451,-0.11527762562036514,-0.007566772401332855,-0.005881958641111851,0.006160424556583166,3,-1,-1000,-6,-5,5,-9,15,-151,601230,601.22998046875,0.0,1500.0
13:00:40.997,AUTO,-35.363262,149.1652363,17666,0.0002384023682679981,0.0028120889328420162,-0.11383858323097229,-0.005081096198409796,-0.005992903374135494,0.006598932668566704,2,-2,-1001,-4,-5,6,-8,14,-151,601620,601.6199951171875,0.0,1500.0
13:00:41.198,AUTO,-35.3632621,149.1652366,18054,-0.0010132420575246215,0.0016550816362723708,-0.11242669075727463,-0.005346288438886404,-0.0031534619629383087,0.005549103952944279,2,-1,-1000,-4,-2,5,-8,13,-151,602010,602.010009765625,0.0,1500.0
13:00:41.399,AUTO,-35.3632623,149.1652369,18442,-0.0018128763185814023,0.0008005870040506124,-0.11104699969291687,-0.00035253935493528843,-0.003372580511495471,0.006284248549491167,2,-1,-1000,0,-2,5,-7,11,-152,602400,602.3999633789062,0.0,1500.0
13:00:41.599,AUTO,-35.3632624,149.1652371,18832,-0.0020957072265446186,0.0002704250218812376,-0.10974341630935669,0.0006165424128994346,-0.0021977205760776997,0.005097102373838425,1,0,-1000,1,-1,4,-6,10,-152,602790,602.7899780273438,0.0,1500.0
13:00:41.800,AUTO,-35.3632624,149.1652371,18832,-0.0020957072265446186,0.0002704250218812376,-0.10974341630935669,0.0006165424128994346,-0.0021977205760776997,0.005097102373838425,1,0,-1000,1,-1,4,-6,10,-152,602790,602.7899780273438,0.0,1500.0
13:00:42.002,AUTO,-35.3632624,149.1652371,18832,-0.0020957072265446186,0.0002704250218812376,-0.10974341630935669,0.0006165424128994346,-0.0021977205760776997,0.005097102373838425,1,0,-1000,1,-1,4,-6,10,-152,602790,602.7899780273438,0.0,1500.0
13:00:42.204,AUTO,-35.3632624,149.1652371,18832,-0.0020957072265446186,0.0002704250218812376,-0.10974341630935669,0.0006165424128994346,-0.0021977205760776997,0.005097102373838425,1,0,-1000,1,-1,4,-6,10,-152,602790,602.7899780273438,0.0,1500.0
13:00:42.405,AUTO,-35.3632626,149.1652375,20001,-0.0011546517489477992,-2.619504630274605e-05,-0.10579656809568405,0.0022708321921527386,-0.0007885147351771593,0.00428733229637146,1,0,-1001,3,0,4,-3,5,-152,603960,603.9599609375,0.0,1500.0
13:00:42.606,AUTO,-35.3632626,149.1652376,20391,-0.0005705708172172308,-1.962868554983288e-05,-0.10455722361803055,0.0034280645195394754,0.00025059975450858474,0.002727384213358164,0,0,-1000,4,0,2,-2,4,-152,604350,604.3499755859375,0.0,1500.0
13:00:42.807,AUTO,-35.3632626,149.1652376,20391,-0.0005705708172172308,-1.962868554983288e-05,-0.10455722361803055,0.0034280645195394754,0.00025059975450858474,0.002727384213358164,0,0,-1000,4,0,2,-2,4,-152,604350,604.3499755859375,0.0,1500.0
13:00:43.008,AUTO,-35.3632626,149.1652377,20780,0.0002734216395765543,0.00016644381685182452,-0.10337508469820023,0.003778888378292322,0.0012530998792499304,0.003089682897552848,0,0,-1000,4,2,2,-2,3,-152,604740,604.739990234375,0.0,1500.0
13:00:43.209,AUTO,-35.3632626,149.1652377,21174,0.0010271843057125807,0.00020228770154062659,-0.10226449370384216,0.0023559911642223597,0.0005494477227330208,0.0035243884194642305,0,0,-1000,3,1,2,-1,2,-152,605130,605.1300048828125,0.0,1500.0
13:00:43.409,AUTO,-35.3632626,149.1652377,21564,0.0017902407562360168,0.00031584297539666295,-0.101077601313591,0.0010262958239763975,-0.0009702019160613418,0.002908754162490368,0,0,-1000,1,0,2,-1,1,-152,605520,605.5199584960938,0.0,1500.0
13:00:43.610,AUTO,-35.3632626,149.1652376,21953,0.002350005554035306,0.0005447165458463132,-0.09982537478208542,0.0035577185917645693,0.0018514804542064667,0.0053543769754469395,0,0,-1000,4,2,4,0,1,-152,605910,605.9099731445312,0.0,1500.0
13:00:43.811,AUTO,-35.3632626,149.1652376,21953,0.002350005554035306,0.0005447165458463132,-0.09982537478208542,0.0035577185917645693,0.0018514804542064667,0.0053543769754469395,0,0,-1000,4,2,4,0,1,-152,605910,605.9099731445312,0.0,1500.0
13:00:44.012,AUTO,-35.3632626,149.1652376,21953,0.002350005554035306,0.0005447165458463132,-0.09982537478208542,0.0035577185917645693,0.0018514804542064667,0.0053543769754469395,0,0,-1000,4,2,4,0,1,-152,605910,605.9099731445312,0.0,1500.0
13:00:44.212,AUTO,-35.3632626,149.1652376,21953,0.002350005554035306,0.0005447165458463132,-0.09982537478208542,0.0035577185917645693,0.0018514804542064667,0.0053543769754469395,0,0,-1000,4,2,4,0,1,-152,605910,605.9099731445312,0.0,1500.0
13:00:44.414,AUTO,-35.3632626,149.1652376,23118,0.003036568872630596,0.0008906903676688671,-0.09652821719646454,-0.001384578412398696,-0.0011427262797951698,0.004170634318143129,0,0,-1000,0,0,3,0,1,-152,607070,607.0700073242188,0.0,1500.0
13:00:44.615,AUTO,-35.3632626,149.1652376,23508,0.0029556204099208117,0.001069133635610342,-0.09535706043243408,0.0006022687302902341,0.001758543774485588,0.0063097551465034485,0,0,-1000,1,2,5,0,1,-152,607460,607.4599609375,0.0,1500.0
13:00:44.815,AUTO,-35.3632626,149.1652376,23508,0.0029556204099208117,0.001069133635610342,-0.09535706043243408,0.0006022687302902341,0.001758543774485588,0.0063097551465034485,0,0,-1000,1,2,5,0,1,-152,607460,607.4599609375,0.0,1500.0
13:00:45.018,AUTO,-35.3632626,149.1652376,23897,0.002857319312170148,0.0015746797434985638,-0.09435788542032242,-0.0010371051030233502,0.0033998715225607157,0.00318109686486423,-1,0,-1000,0,4,2,0,1,-152,607850,607.8499755859375,0.0,1500.0
13:00:45.219,AUTO,-35.3632625,149.1652376,24288,0.0028769047930836678,0.002075864700600505,-0.09341350942850113,-6.847269833087921e-05,0.0015652563888579607,0.001696155988611281,0,0,-1000,0,2,1,0,1,-152,608240,608.239990234375,0.0,1500.0
13:00:45.420,AUTO,-35.3632625,149.1652376,24676,0.0027839194517582655,0.002473123138770461,-0.09239800274372101,3.933731932193041e-06,0.00043400266440585256,0.002773546613752842,0,0,-1000,0,1,2,0,1,-152,608630,608.6300048828125,0.0,1500.0
13:00:45.621,AUTO,-35.3632624,149.1652376,25066,0.0024631547275930643,0.0027035484090447426,-0.09076264500617981,-0.006170941516757011,0.004668583162128925,0.030539624392986298,0,0,-995,-5,5,30,0,1,-152,609020,609.0199584960938,0.0,1500.0
13:00:45.822,AUTO,-35.3632624,149.1652376,25066,0.0024631547275930643,0.0027035484090447426,-0.09076264500617981,-0.006170941516757011,0.004668583162128925,0.030539624392986298,0,0,-995,-5,5,30,0,1,-152,609020,609.0199584960938,0.0,1500.0
13:00:46.023,AUTO,-35.3632624,149.1652376,25066,0.0024631547275930643,0.0027035484090447426,-0.09076264500617981,-0.006170941516757011,0.004668583162128925,0.030539624392986298,0,0,-995,-5,5,30,0,1,-152,609020,609.0199584960938,0.0,1500.0
13:00:46.224,AUTO,-35.3632624,149.1652376,25066,0.0024631547275930643,0.0027035484090447426,-0.09076264500617981,-0.006170941516757011,0.004668583162128925,0.030539624392986298,0,0,-995,-5,5,30,0,1,-152,609020,609.0199584960938,0.0,1500.0
13:00:46.425,AUTO,-35.3632624,149.1652374,26229,0.005135136190801859,0.007155388593673706,-0.07375484704971313,0.02153107337653637,-0.012422217056155205,0.018929218873381615,0,0,-1001,22,-11,18,-5,-1,-153,610180,610.1799926757812,0.0,1500.0
13:00:46.626,AUTO,-35.3632624,149.1652373,26620,0.008798453956842422,0.004106611013412476,-0.06967686861753464,0.010240333154797554,-0.011962560005486012,0.014849314466118813,0,1,-1000,11,-11,14,-5,0,-153,610580,610.5799560546875,0.0,1500.0
13:00:46.827,AUTO,-35.3632625,149.1652373,27011,0.00963979959487915,0.001518618082627654,-0.06660845130681992,0.001402490888722241,-0.009149866178631783,0.01005853246897459,0,1,-1000,11,-11,14,-5,1,-153,610970,610.969970703125,0.0,1500.0
13:00:47.028,AUTO,-35.3632625,149.1652373,27011,0.00963979959487915,0.001518618082627654,-0.06660845130681992,0.001402490888722241,-0.009149866178631783,0.01005853246897459,0,0,-1000,2,-8,9,-5,1,-153,610970,610.969970703125,0.0,1500.0
13:00:47.229,AUTO,-35.3632626,149.1652373,27401,0.008495818823575974,-0.0008920461987145245,-0.06440814584493637,-0.006273586302995682,-0.008085514418780804,0.007024687714874744,0,0,-999,-5,-7,6,-5,3,-153,611360,611.3599853515625,0.0,1500.0
13:00:47.430,AUTO,-35.3632627,149.1652372,27791,0.005998135078698397,-0.003145697293803096,-0.0630573257803917,-0.011507636867463589,-0.008338856510818005,0.00419137766584754,0,0,-999,-10,-7,4,-3,4,-152,611750,611.75,0.0,1500.0
13:00:47.631,AUTO,-35.3632627,149.1652373,28180,0.0030223559588193893,-0.004999259952455759,-0.06274235993623734,-0.012662806548178196,-0.005761335138231516,-0.001700848457403481,0,0,-1000,-11,-4,-1,-1,4,-152,612140,612.1400146484375,0.0,1500.0
13:00:47.832,AUTO,-35.3632627,149.1652373,28180,0.0030223559588193893,-0.004999259952455759,-0.06274235993623734,-0.012662806548178196,-0.005761335138231516,-0.001700848457403481,0,0,-1000,-11,-4,-1,-1,4,-152,612140,612.1400146484375,0.0,1500.0
13:00:48.033,AUTO,-35.3632627,149.1652373,28180,0.0030223559588193893,-0.004999259952455759,-0.06274235993623734,-0.012662806548178196,-0.005761335138231516,-0.001700848457403481,0,0,-1000,-11,-4,-1,-1,4,-152,612140,612.1400146484375,0.0,1500.0
13:00:48.233,AUTO,-35.3632627,149.1652373,28180,0.0030223559588193893,-0.004999259952455759,-0.06274235993623734,-0.012662806548178196,-0.005761335138231516,-0.001700848457403481,0,0,-1000,-11,-4,-1,-1,4,-152,612140,612.1400146484375,0.0,1500.0
13:00:48.434,AUTO,-35.3632626,149.1652374,29347,-0.0034856207203119993,-0.006573220249265432,-0.06768237054347992,-0.00638093426823616,0.0009625601815059781,-0.010339060798287392,0,0,-1000,-5,1,-10,3,1,-152,613300,613.2999877929688,0.0,1500.0
13:00:48.635,AUTO,-35.3632625,149.1652373,29735,-0.002922924468293786,-0.005071839317679405,-0.06959990411996841,0.010522505268454552,0.012140349484980106,-0.004245447926223278,-1,0,-1000,11,13,-4,5,0,-152,613690,613.6900024414062,0.0,1500.0
13:00:48.836,AUTO,-35.3632623,149.1652373,30128,0.0002541965222917497,-0.001072373939678073,-0.07011020928621292,0.015080929733812809,0.016751118004322052,-0.0005755078746005893,-1,0,-1000,15,17,0,5,-1,-152,614080,614.0799560546875,0.0,1500.0
13:00:49.038,AUTO,-35.3632623,149.1652373,30128,0.0002541965222917497,-0.001072373939678073,-0.07011020928621292,0.015080929733812809,0.016751118004322052,-0.0005755078746005893,-1,0,-1000,15,17,0,5,-1,-152,614080,614.0799560546875,0.0,1500.0
13:00:49.239,AUTO,-35.3632622,149.1652372,30518,0.0036268190015107393,0.002493737032637,-0.06975430250167847,0.009512403979897499,0.012591579928994179,0.0018185576191172004,-2,0,-1000,10,13,1,5,-1,-153,614470,614.469970703125,0.0,1500.0
13:00:49.440,AUTO,-35.363262,149.1652372,30907,0.005568301305174828,0.005040516145527363,-0.06924577802419662,0.004546584095805883,0.006658704020082951,0.0029474860057234764,-2,0,-1000,5,7,2,4,-1,-153,614860,614.8599853515625,0.0,1500.0
13:00:49.641,AUTO,-35.3632619,149.1652371,31296,0.006542045157402754,0.005834326148033142,-0.06860356777906418,0.004156246781349182,0.0017062737606465816,0.002166236285120249,-1,0,-1000,5,2,2,3,0,-153,615250,615.25,0.0,1500.0
13:00:49.842,AUTO,-35.3632619,149.1652371,31296,0.006542045157402754,0.005834326148033142,-0.06860356777906418,0.004156246781349182,0.0017062737606465816,0.002166236285120249,-1,0,-1000,5,2,2,3,0,-153,615250,615.25,0.0,1500.0
13:00:50.043,AUTO,-35.3632619,149.1652371,31296,0.006542045157402754,0.005834326148033142,-0.06860356777906418,0.004156246781349182,0.0017062737606465816,0.002166236285120249,-1,0,-1000,5,2,2,3,0,-153,615250,615.25,0.0,1500.0
13:00:50.243,AUTO,-35.3632619,149.1652371,31296,0.006542045157402754,0.005834326148033142,-0.06860356777906418,0.004156246781349182,0.0017062737606465816,0.002166236285120249,-1,0,-1000,5,2,2,3,0,-153,615250,615.25,0.0,1500.0
13:00:50.444,AUTO,-35.3632617,149.165237,32464,0.005224046763032675,0.005556324031203985,-0.066645048558712,-0.0017379287164658308,-0.0019552225712686777,0.003224598476663232,0,0,-1000,0,-1,3,0,2,-152,616420,616.4199829101562,0.0,1500.0
13:00:50.645,AUTO,-35.3632617,149.165237,32852,0.004288553260266781,0.005017607007175684,-0.06597959995269775,-0.006568312644958496,-0.00275874650105834,0.0023789843544363976,0,0,-999,-5,-1,2,-1,3,-152,616810,616.8099975585938,0.0,1500.0
13:00:50.846,AUTO,-35.3632617,149.165237,33242,0.0035453748423606157,0.004202037118375301,-0.06532895565032959,0.0009810716146603227,-0.0009975605644285679,0.002450808184221387,0,0,-1000,2,0,2,-1,3,-152,617200,617.2000122070312,0.0,1500.0
13:00:51.046,AUTO,-35.3632617,149.165237,33242,0.0035453748423606157,0.004202037118375301,-0.06532895565032959,0.0009810716146603227,-0.0009975605644285679,0.002450808184221387,0,0,-1000,2,0,2,-1,3,-152,617200,617.2000122070312,0.0,1500.0
13:00:51.247,AUTO,-35.3632617,149.1652371,33631,0.002954613184556365,0.003636349458247423,-0.06468769907951355,-0.0015745274722576141,-0.0020534272771328688,0.005006853956729174,0,0,-1000,0,-1,4,-2,3,-152,617590,617.5899658203125,0.0,1500.0
13:00:51.448,AUTO,-35.3632617,149.1652371,34019,0.002604931592941284,0.0031573595479130745,-0.0640224814414978,-0.004305231384932995,-0.003190983785316348,0.002375737065449357,0,0,-1000,-3,-2,2,-2,3,-152,617970,617.969970703125,0.0,1500.0
13:00:51.649,AUTO,-35.3632617,149.1652372,34408,0.002017875434830785,0.0024455019738525152,-0.06337150186300278,0.0006626234389841557,-0.0028798782732337713,0.0027429615147411823,0,0,-1000,1,-1,2,-2,3,-152,618360,618.3599853515625,0.0,1500.0
13:00:51.850,AUTO,-35.3632617,149.1652372,34408,0.002017875434830785,0.0024455019738525152,-0.06337150186300278,0.0006626234389841557,-0.0028798782732337713,0.0027429615147411823,0,0,-1000,1,-1,2,-2,3,-152,618360,618.3599853515625,0.0,1500.0
13:00:52.051,AUTO,-35.3632617,149.1652372,34408,0.002017875434830785,0.0024455019738525152,-0.06337150186300278,0.0006626234389841557,-0.0028798782732337713,0.0027429615147411823,0,0,-1000,1,-1,2,-2,3,-152,618360,618.3599853515625,0.0,1500.0
13:00:52.252,AUTO,-35.3632617,149.1652372,34408,0.002017875434830785,0.0024455019738525152,-0.06337150186300278,0.0006626234389841557,-0.0028798782732337713,0.0027429615147411823,0,0,-1000,1,-1,2,-2,3,-152,618360,618.3599853515625,0.0,1500.0
13:00:52.453,AUTO,-35.3632617,149.1652373,35575,0.001209296635352075,0.0019563466776162386,-0.06161101534962654,-0.001464284723624587,-0.0018393502105027437,0.0038851569406688213,0,0,-1000,0,0,3,-2,2,-152,619530,619.5299682617188,0.0,1500.0
13:00:52.654,AUTO,-35.3632618,149.1652373,35964,0.0011841125087812543,0.0020206072367727757,-0.06105396896600723,0.001759336912073195,0.0006824692245572805,0.0025730107445269823,0,0,-1000,2,1,2,-2,2,-152,619920,619.9199829101562,0.0,1500.0
13:00:52.855,AUTO,-35.3632618,149.1652374,36353,0.0009829472983255982,0.0018091953825205564,-0.06046075373888016,-0.0020040124654769897,0.00019535282626748085,0.002448109444230795,0,0,-1000,-1,1,2,-2,2,-152,620310,620.3099975585938,0.0,1500.0
13:00:53.056,AUTO,-35.3632618,149.1652374,36353,0.0009829472983255982,0.0018091953825205564,-0.06046075373888016,-0.0020040124654769897,0.00019535282626748085,0.002448109444230795,0,0,-1000,-1,1,2,-2,2,-152,620310,620.3099975585938,0.0,1500.0
13:00:53.256,AUTO,-35.3632618,149.1652374,36742,0.0009320025565102696,0.0018055655527859926,-0.0599333792924881,0.002031913958489895,0.00019936950411647558,0.0026699937880039215,0,0,-1001,2,1,2,-2,2,-152,620700,620.7000122070312,0.0,1500.0
13:00:53.457,AUTO,-35.3632618,149.1652374,37139,0.0011046580038964748,0.001805618405342102,-0.059334926307201385,0.00032371305860579014,-0.0014163079904392362,0.002959440229460597,0,0,-1000,1,0,3,-2,1,-152,621090,621.0899658203125,0.0,1500.0
13:00:53.658,AUTO,-35.3632618,149.1652374,37527,0.001297792186960578,0.001405262155458331,-0.05876128003001213,0.003577414434403181,-0.0016900092596188188,0.004808160476386547,0,0,-1000,4,0,4,-2,1,-152,621480,621.47998046875,0.0,1500.0
13:00:53.859,AUTO,-35.3632618,149.1652374,37527,0.001297792186960578,0.001405262155458331,-0.05876128003001213,0.003577414434403181,-0.0016900092596188188,0.004808160476386547,0,0,-1000,4,0,4,-2,1,-152,621480,621.47998046875,0.0,1500.0
13:00:54.061,AUTO,-35.3632618,149.1652374,37527,0.001297792186960578,0.001405262155458331,-0.05876128003001213,0.003577414434403181,-0.0016900092596188188,0.004808160476386547,0,0,-1000,4,0,4,-2,1,-152,621480,621.47998046875,0.0,1500.0
13:00:54.262,AUTO,-35.3632618,149.1652374,37527,0.001297792186960578,0.001405262155458331,-0.05876128003001213,0.003577414434403181,-0.0016900092596188188,0.004808160476386547,0,0,-1000,4,0,4,-2,1,-152,621480,621.47998046875,0.0,1500.0
13:00:54.463,AUTO,-35.3632619,149.1652374,38686,0.0014597821282222867,0.0006212935550138354,-0.0572710782289505,-0.0008218758157454431,-0.00267071183770895,0.0031763147562742233,0,0,-1000,0,-1,3,-2,1,-152,622640,622.6400146484375,0.0,1500.0
13:00:54.663,AUTO,-35.3632619,149.1652374,39074,0.0014526416780427098,0.0004545027913991362,-0.05673297494649887,-0.0008485598955303431,6.464833859354258e-05,0.0026095842476934195,0,0,-999,0,1,2,-2,1,-152,623030,623.0299682617188,0.0,1500.0
13:00:54.864,AUTO,-35.363262,149.1652374,39463,0.0014880048111081123,0.0004085192922502756,-0.05626305937767029,0.0020296070724725723,0.0015818410320207477,0.0024196687154471874,0,0,-1000,3,2,2,-1,0,-152,623420,623.4199829101562,0.0,1500.0
13:00:55.065,AUTO,-35.363262,149.1652374,39463,0.0014880048111081123,0.0004085192922502756,-0.05626305937767029,0.0020296070724725723,0.0015818410320207477,0.0024196687154471874,0,0,-1000,3,2,2,-1,0,-152,623420,623.4199829101562,0.0,1500.0
13:00:55.266,AUTO,-35.363262,149.1652374,39853,0.001486611901782453,0.0004815419379156083,-0.05582038685679436,0.0005924412980675697,0.0009175775339826941,0.001813416718505323,0,0,-1000,2,1,1,-1,0,-152,623810,623.8099975585938,0.0,1500.0
13:00:55.467,AUTO,-35.363262,149.1652374,40242,0.0014533631037920713,0.00040181042277254164,-0.05534172058105469,-0.0032369429245591164,-0.0002869878662750125,0.0014051392208784819,0,0,-999,-2,0,1,-1,0,-152,624200,624.2000122070312,0.0,1500.0
13:00:55.668,AUTO,-35.363262,149.1652374,40630,0.0015676607144996524,0.0003816057578660548,-0.05487768352031708,0.0034903124906122684,0.000911576789803803,0.002628921065479517,0,0,-1001,4,1,2,-1,0,-152,624590,624.5899658203125,0.0,1500.0
13:00:55.869,AUTO,-35.363262,149.1652374,40630,0.0015676607144996524,0.0003816057578660548,-0.05487768352031708,0.0034903124906122684,0.000911576789803803,0.002628921065479517,0,0,-1001,4,1,2,-1,0,-152,624590,624.5899658203125,0.0,1500.0
13:00:56.070,AUTO,-35.363262,149.1652374,40630,0.0015676607144996524,0.0003816057578660548,-0.05487768352031708,0.0034903124906122684,0.000911576789803803,0.002628921065479517,0,0,-1001,4,1,2,-1,0,-152,624590,624.5899658203125,0.0,1500.0
13:00:56.271,AUTO,-35.363262,149.1652374,40630,0.0015676607144996524,0.0003816057578660548,-0.05487768352031708,0.0034903124906122684,0.000911576789803803,0.002628921065479517,0,0,-1001,4,1,2,-1,0,-152,624590,624.5899658203125,0.0,1500.0
13:00:56.472,AUTO,-35.363262,149.1652374,41804,0.00225142203271389,0.0007307755295187235,-0.05329513177275658,-0.0003536227159202099,-0.0006979351164773107,0.0019592884927988052,0,0,-1000,0,0,2,0,0,-152,625760,625.760009765625,0.0,1500.0
13:00:56.673,AUTO,-35.363262,149.1652374,42193,0.002462259028106928,0.0008860652451403439,-0.05284988507628441,-0.000803329749032855,-0.0009667903650552034,0.002871220698580146,0,0,-1000,0,0,2,0,0,-152,626150,626.1499633789062,0.0,1500.0
13:00:56.874,AUTO,-35.363262,149.1652374,42583,0.002403685124590993,0.001127467374317348,-0.052458375692367554,0.00016774889081716537,0.0031551658175885677,0.0024144500494003296,0,0,-999,1,4,2,0,0,-152,626540,626.5399780273438,0.0,1500.0
13:00:57.075,AUTO,-35.363262,149.1652374,42583,0.002403685124590993,0.001127467374317348,-0.052458375692367554,0.00016774889081716537,0.0031551658175885677,0.0024144500494003296,0,0,-999,1,4,2,0,0,-152,626540,626.5399780273438,0.0,1500.0
13:00:57.276,AUTO,-35.363262,149.1652374,42971,0.002182042459025979,0.0011674396228045225,-0.05209224298596382,0.00020810356363654137,0.0005425917915999889,0.0010233577340841293,0,0,-1000,1,1,1,0,0,-152,626930,626.9299926757812,0.0,1500.0
13:00:57.476,AUTO,-35.363262,149.1652374,43360,0.0023552074562758207,0.0013787962961941957,-0.05165676772594452,-0.0008140691788867116,0.0005440530367195606,0.0022297119721770287,0,0,-1000,0,1,2,0,0,-152,627320,627.3200073242188,0.0,1500.0
13:00:57.678,AUTO,-35.363262,149.1652373,43749,0.0024680658243596554,0.0014062876580283046,-0.0512041412293911,0.0001296214759349823,0.0008932998171076179,0.003264523344114423,0,0,-1000,1,1,3,0,0,-152,627700,627.7000122070312,0.0,1500.0
13:00:57.879,AUTO,-35.363262,149.1652373,43749,0.0024680658243596554,0.0014062876580283046,-0.0512041412293911,0.0001296214759349823,0.0008932998171076179,0.003264523344114423,0,0,-1000,1,1,3,0,0,-152,627700,627.7000122070312,0.0,1500.0
13:00:58.081,AUTO,-35.363262,149.1652373,43749,0.0024680658243596554,0.0014062876580283046,-0.0512041412293911,0.0001296214759349823,0.0008932998171076179,0.003264523344114423,0,0,-1000,1,1,3,0,0,-152,627700,627.7000122070312,0.0,1500.0
13:00:58.283,AUTO,-35.363262,149.1652373,43749,0.0024680658243596554,0.0014062876580283046,-0.0512041412293911,0.0001296214759349823,0.0008932998171076179,0.003264523344114423,0,0,-1000,1,1,3,0,0,-152,627700,627.7000122070312,0.0,1500.0
13:00:58.484,AUTO,-35.363262,149.1652373,44916,0.0022448331583291292,0.0011722783092409372,-0.0498637855052948,-0.0014037031214684248,0.00021328218281269073,0.0035531315952539444,0,0,-1000,0,1,3,-1,1,-152,628870,628.8699951171875,0.0,1500.0
13:00:58.685,AUTO,-35.363262,149.1652373,45304,0.002223862800747156,0.0015097676077857614,-0.04947537183761597,0.0038602687418460846,0.0017664844635874033,0.001589882536791265,0,0,-1000,4,3,1,-1,1,-152,629260,629.260009765625,0.0,1500.0
13:00:58.886,AUTO,-35.363262,149.1652373,45692,0.0019887040834873915,0.0016104778042063117,-0.049139391630887985,-0.002652817638590932,5.1393755711615086e-05,0.0025685785803943872,0,0,-1000,-1,1,2,-1,1,-152,629650,629.6499633789062,0.0,1500.0
13:00:59.087,AUTO,-35.363262,149.1652373,46081,0.002016026061028242,0.0016693839570507407,-0.04877588152885437,-0.0017129115294665098,0.00038514251355081797,0.0026952698826789856,0,0,-1000,-1,1,2,-1,1,-152,630040,629.6499633789062,0.0,1500.0
13:00:59.288,AUTO,-35.363262,149.1652373,46081,0.002016026061028242,0.0016693839570507407,-0.04877588152885437,-0.0017129115294665098,0.00038514251355081797,0.0026952698826789856,0,0,-1000,0,1,2,-1,1,-152,630040,630.0399780273438,0.0,1500.0
13:00:59.489,AUTO,-35.363262,149.1652373,46474,0.0020041216630488634,0.0015660669887438416,-0.048389457166194916,0.0028402497991919518,-0.000525031122379005,0.002076737117022276,0,0,-1001,3,0,2,-1,1,-152,630430,630.4299926757812,0.0,1500.0
13:00:59.690,AUTO,-35.363262,149.1652373,46862,-0.0006247267592698336,0.0036449593026190996,-0.04500715062022209,-0.047367654740810394,0.04199333116412163,0.04674835130572319,0,0,-982,-46,42,46,-1,1,-151,630820,630.8200073242188,0.0,1500.0
13:00:59.891,AUTO,-35.363262,149.1652373,46862,-0.0006247267592698336,0.0036449593026190996,-0.04500715062022209,-0.047367654740810394,0.04199333116412163,0.04674835130572319,0,0,-982,-46,42,46,-1,1,-151,630820,630.8200073242188,0.0,1500.0
13:01:00.092,AUTO,-35.363262,149.1652373,46862,-0.0006247267592698336,0.0036449593026190996,-0.04500715062022209,-0.047367654740810394,0.04199333116412163,0.04674835130572319,0,0,-982,-46,42,46,-1,1,-151,630820,630.8200073242188,0.0,1500.0
13:01:00.294,AUTO,-35.363262,149.1652373,46862,-0.0006247267592698336,0.0036449593026190996,-0.04500715062022209,-0.047367654740810394,0.04199333116412163,0.04674835130572319,0,0,-982,-46,42,46,-1,1,-151,630820,630.8200073242188,0.0,1500.0
13:01:00.495,AUTO,-35.3632626,149.1652365,47944,-0.0542214959859848,0.05647176131606102,0.050880882889032364,0.10291243344545364,-0.1609112024307251,0.07430898398160934,2,6,-944,104,-159,74,-30,-27,-126,631900,631.8999633789062,0.0,1500.0
13:01:00.696,AUTO,-35.3632633,149.1652356,48250,-0.019952882081270218,0.01130743883550167,0.06445402652025223,0.14122064411640167,-0.17453420162200928,0.028634781017899513,2,10,-946,142,-173,29,-37,-34,-112,632210,632.2099609375,0.0,1500.0
13:01:00.897,AUTO,-35.3632641,149.1652347,48523,0.01039335411041975,-0.023880165070295334,0.06874194741249084,0.10352648049592972,-0.11522161960601807,0.00907476618885994,3,10,-953,104,-113,9,-34,-32,-100,632480,632.47998046875,0.0,1500.0
13:01:01.098,AUTO,-35.3632647,149.1652338,48766,0.030634451657533646,-0.04372872784733772,0.06918919831514359,0.059309221804142,-0.051320891827344894,-0.00030852045165374875,2,8,-959,60,-50,0,-25,-24,-89,632720,632.719970703125,0.0,1500.0
13:01:01.299,AUTO,-35.3632647,149.1652338,48766,0.030634451657533646,-0.04372872784733772,0.06918919831514359,0.059309221804142,-0.051320891827344894,-0.00030852045165374875,2,8,-959,60,-50,0,-25,-24,-89,632720,632.719970703125,0.0,1500.0
13:01:01.499,AUTO,-35.3632652,149.1652332,48982,0.04119880124926567,-0.050391677767038345,0.06851283460855484,0.03521101921796799,-0.008195359259843826,-0.003004042897373438,1,6,-964,36,-6,-2,-14,-14,-80,632940,632.9400024414062,0.0,1500.0
13:01:01.700,AUTO,-35.3632653,149.1652329,49174,0.04379316419363022,-0.048616111278533936,0.06756910681724548,-0.013330936431884766,0.018407201394438744,-0.0036099387798458338,0,1,-969,-12,19,-3,-2,-2,-71,633130,633.1300048828125,0.0,1500.0
13:01:01.901,AUTO,-35.3632653,149.1652329,49174,0.04379316419363022,-0.048616111278533936,0.06756910681724548,-0.013330936431884766,0.018407201394438744,-0.0036099387798458338,0,1,-969,-12,19,-3,-2,-2,-71,633130,633.1300048828125,0.0,1500.0
13:01:02.102,AUTO,-35.3632653,149.1652329,49174,0.04379316419363022,-0.048616111278533936,0.06756910681724548,-0.013330936431884766,0.018407201394438744,-0.0036099387798458338,0,1,-969,-12,19,-3,-2,-2,-71,633130,633.1300048828125,0.0,1500.0
13:01:02.304,AUTO,-35.3632653,149.1652329,49174,0.04379316419363022,-0.048616111278533936,0.06756910681724548,-0.013330936431884766,0.018407201394438744,-0.0036099387798458338,0,1,-969,-12,19,-3,-2,-2,-71,633130,633.1300048828125,0.0,1500.0
13:01:02.505,AUTO,-35.3632647,149.1652335,49635,0.027604905888438225,-0.02065282315015793,0.06407143920660019,-0.17227983474731445,0.04012683406472206,-0.002196981105953455,-2,-12,-977,-171,41,-1,20,21,-51,633590,633.5899658203125,0.0,1500.0
13:01:02.706,AUTO,-35.3632641,149.1652341,49758,0.022544177249073982,-0.0107212383300066,0.06275349855422974,0.13685567677021027,0.03786376118659973,0.0018258291529491544,-2,6,-980,138,39,2,23,26,-45,633710,633.7099609375,0.0,1500.0
13:01:02.909,AUTO,-35.3632636,149.1652348,49865,0.02126537449657917,-0.0025705297011882067,0.06149982661008835,0.3372231721878052,0.031169172376394272,-0.0016928864642977715,-2,-1,-971,337,32,-1,24,27,-38,633820,633.8200073242188,0.0,1500.0
13:01:03.110,AUTO,-35.363263,149.1652354,49954,0.00990369077771902,0.004237678367644548,0.06030610203742981,-0.37686386704444885,0.025521980598568916,0.00044157818774692714,-1,-37,-976,-376,26,0,24,26,-33,633910,633.9099731445312,0.0,1500.0
13:01:03.311,AUTO,-35.363263,149.1652354,49954,0.00990369077771902,0.004237678367644548,0.06030610203742981,-0.37686386704444885,0.025521980598568916,0.00044157818774692714,-1,-37,-976,-376,26,0,24,26,-33,633910,633.9099731445312,0.0,1500.0
13:01:03.512,AUTO,-35.3632624,149.1652361,50031,-0.0004561154346447438,0.010132630355656147,0.05943262204527855,-0.4958188235759735,0.023008469492197037,0.0043324981816112995,-1,-17,-977,-494,24,4,22,26,-27,633990,633.989990234375,0.0,1500.0
13:01:03.713,AUTO,-35.3632619,149.1652368,50092,-0.002161934971809387,0.014584196731448174,0.058433160185813904,0.25780391693115234,0.011166921816766262,0.004263890441507101,-1,18,-971,260,12,4,19,25,-22,634050,634.0499877929688,0.0,1500.0
13:01:03.915,AUTO,-35.3632619,149.1652368,50092,-0.002161934971809387,0.014584196731448174,0.058433160185813904,0.25780391693115234,0.011166921816766262,0.004263890441507101,-1,18,-971,260,12,4,19,25,-22,634050,634.0499877929688,0.0,1500.0
13:01:04.116,AUTO,-35.3632619,149.1652368,50092,-0.002161934971809387,0.014584196731448174,0.058433160185813904,0.25780391693115234,0.011166921816766262,0.004263890441507101,-1,18,-971,260,12,4,19,25,-22,634050,634.0499877929688,0.0,1500.0
13:01:04.318,AUTO,-35.3632619,149.1652368,50092,-0.002161934971809387,0.014584196731448174,0.058433160185813904,0.25780391693115234,0.011166921816766262,0.004263890441507101,-1,18,-971,260,12,4,19,25,-22,634050,634.0499877929688,0.0,1500.0
13:01:04.519,AUTO,-35.3632608,149.1652384,50178,-0.007172179874032736,0.016928691416978836,0.056172970682382584,-0.43421900272369385,-0.002751698950305581,-0.0028378916904330254,0,-37,-959,-434,-1,-2,8,14,-2,634130,634.1300048828125,0.0,1500.0
13:01:04.720,AUTO,-35.3632607,149.1652387,50162,-0.04443695396184921,0.04359352961182594,0.05450030788779259,-0.9133571982383728,0.007126975804567337,-0.01096265483647585,3,-42,-944,-912,8,-10,1,7,13,634120,634.1199951171875,0.0,1500.0
13:01:04.921,AUTO,-35.3632607,149.1652389,50119,-0.031432244926691055,0.023620961233973503,0.053429439663887024,-0.3463808298110962,-0.12482470273971558,-0.023784425109624863,2,-1,-1001,-343,-123,-23,-5,0,16,634070,634.0700073242188,0.0,1500.0
13:01:05.122,AUTO,-35.3632609,149.165239,50077,-0.00513033289462328,-0.0065575228072702885,0.05229264497756958,0.44527924060821533,-0.1031653881072998,-0.009402623400092125,2,37,-999,448,-101,-9,-6,-1,14,634030,634.0299682617188,0.0,1500.0
13:01:05.323,AUTO,-35.3632609,149.165239,50077,-0.00513033289462328,-0.0065575228072702885,0.05229264497756958,0.44527924060821533,-0.1031653881072998,-0.009402623400092125,2,37,-999,448,-101,-9,-6,-1,14,634030,634.0299682617188,0.0,1500.0
13:01:05.524,AUTO,-35.3632609,149.165239,50039,0.01972915418446064,-0.028450246900320053,0.05107564106583595,0.8518636226654053,-0.07209718227386475,0.007996498607099056,1,32,-1015,853,-70,8,-1,0,11,633990,633.989990234375,0.0,1500.0
13:01:05.725,AUTO,-35.3632609,149.1652392,50010,0.03661505877971649,-0.044993046671152115,0.04906773939728737,0.5937212109565735,-0.0646427795290947,0.00817907601594925,1,3,-1014,593,-63,8,7,4,8,633970,633.969970703125,0.0,1500.0
13:01:05.926,AUTO,-35.3632609,149.1652392,50010,0.03661505877971649,-0.044993046671152115,0.04906773939728737,0.5937212109565735,-0.0646427795290947,0.00817907601594925,1,3,-1014,593,-63,8,7,4,8,633970,633.969970703125,0.0,1500.0
13:01:06.127,AUTO,-35.3632609,149.1652392,50010,0.03661505877971649,-0.044993046671152115,0.04906773939728737,0.5937212109565735,-0.0646427795290947,0.00817907601594925,1,3,-1014,593,-63,8,7,4,8,633970,633.969970703125,0.0,1500.0
13:01:06.328,AUTO,-35.3632609,149.1652392,50010,0.03661505877971649,-0.044993046671152115,0.04906773939728737,0.5937212109565735,-0.0646427795290947,0.00817907601594925,1,3,-1014,593,-63,8,7,4,8,633970,633.969970703125,0.0,1500.0
13:01:06.531,AUTO,-35.3632593,149.1652412,49964,0.03184175491333008,-0.08433766663074493,0.16831855475902557,-0.5166329741477966,-0.07521864026784897,0.7704833149909973,-4,-24,-1017,-514,-74,771,50,32,0,633920,633.9199829101562,0.0,1500.0
13:01:06.732,AUTO,-35.3632581,149.1652424,49957,0.025783207267522812,-0.10075285285711288,0.38453131914138794,-0.09903105348348618,-0.05103597790002823,0.824852466583252,-13,-4,-1016,-96,-49,825,67,44,0,633910,633.9099731445312,0.0,1500.0
13:01:06.933,AUTO,-35.3632564,149.1652441,49954,0.02085786871612072,-0.11364919692277908,0.59038245677948,0.6291490197181702,-0.020048335194587708,0.7746787071228027,-21,14,-1012,631,-18,775,86,58,-1,633910,633.9099731445312,0.0,1500.0
13:01:07.134,AUTO,-35.3632544,149.165246,49952,0.0071204355917871,-0.1257765293121338,0.7561139464378357,0.2876887619495392,-0.04953376203775406,0.42388060688972473,-26,-14,-1002,287,-48,424,105,72,-1,633910,633.9099731445312,0.0,1500.0
13:01:07.335,AUTO,-35.3632519,149.1652485,49951,-0.003207312198355794,-0.13711026310920715,0.7962019443511963,-0.3986346125602722,-0.037018705159425735,0.0281891580671072,-26,-14,-1002,287,-48,424,126,87,0,633910,633.9099731445312,0.0,1500.0
13:01:07.536,AUTO,-35.3632519,149.1652485,49951,-0.003207312198355794,-0.13711026310920715,0.7962019443511963,-0.3986346125602722,-0.037018705159425735,0.0281891580671072,-35,-46,-996,-398,-35,28,126,87,0,633910,633.9099731445312,0.0,1500.0
13:01:07.739,AUTO,-35.3632489,149.1652513,49948,-0.007168857846409082,-0.14861327409744263,0.7845096588134766,-0.5180493593215942,-0.03734567016363144,-0.08706554025411606,-38,-33,-1006,-516,-36,-86,147,104,0,633900,633.8999633789062,0.0,1500.0
13:01:07.940,AUTO,-35.3632489,149.1652513,49948,-0.007168857846409082,-0.14861327409744263,0.7845096588134766,-0.5180493593215942,-0.03734567016363144,-0.08706554025411606,-38,-33,-1006,-516,-36,-86,147,104,0,633900,633.8999633789062,0.0,1500.0
13:01:08.141,AUTO,-35.3632489,149.1652513,49948,-0.007168857846409082,-0.14861327409744263,0.7845096588134766,-0.5180493593215942,-0.03734567016363144,-0.08706554025411606,-38,-33,-1006,-516,-36,-86,147,104,0,633900,633.8999633789062,0.0,1500.0
13:01:08.342,AUTO,-35.3632489,149.1652513,49948,-0.007168857846409082,-0.14861327409744263,0.7845096588134766,-0.5180493593215942,-0.03734567016363144,-0.08706554025411606,-38,-33,-1006,-516,-36,-86,147,104,0,633900,633.8999633789062,0.0,1500.0
13:01:08.543,AUTO,-35.3632369,149.1652627,49933,0.01888727769255638,-0.18592901527881622,0.7459211349487305,0.09464588016271591,-0.025093944743275642,0.0011741274502128363,-52,-41,-1001,94,-24,1,219,159,1,633890,633.8900146484375,0.0,1500.0
13:01:08.744,AUTO,-35.3632317,149.1652676,49926,0.020539337769150734,-0.18480341136455536,0.7402492761611938,-0.3404480516910553,0.01944773644208908,-0.017319897189736366,-67,-57,-1010,-340,20,-16,245,179,0,633880,633.8800048828125,0.0,1500.0
13:01:08.945,AUTO,-35.363226,149.1652729,49922,0.02880793996155262,-0.18250320851802826,0.7362341284751892,-0.07966284453868866,-0.0002873147604987025,-0.042836807668209076,-72,-41,-1011,-78,1,-42,268,198,0,633880,633.8800048828125,0.0,1500.0
13:01:09.146,AUTO,-35.3632197,149.1652787,49920,0.042483679950237274,-0.18405039608478546,0.7342362403869629,0.35742926597595215,0.0060414597392082214,-0.003706105751916766,-76,-23,-1006,358,7,-3,289,216,0,633880,633.8800048828125,0.0,1500.0
13:01:09.347,AUTO,-35.363213,149.165285,49918,0.04518933594226837,-0.1893959790468216,0.7343294024467468,0.04531647264957428,-0.018800320103764534,0.02810050919651985,-75,-43,-996,45,-17,28,310,234,0,633870,633.8699951171875,0.0,1500.0
13:01:09.549,AUTO,-35.363213,149.165285,49918,0.04518933594226837,-0.1893959790468216,0.7343294024467468,0.04531647264957428,-0.018800320103764534,0.02810050919651985,-75,-43,-996,45,-17,28,310,234,0,633870,633.8699951171875,0.0,1500.0
13:01:09.749,AUTO,-35.3632058,149.1652919,49914,0.04271727055311203,-0.18990787863731384,0.7325909733772278,-0.25598910450935364,0.006177492439746857,-0.012108677066862583,-78,-66,-1006,-255,7,-11,331,253,0,633870,633.8699951171875,0.0,1500.0
13:01:09.951,AUTO,-35.3632058,149.1652919,49914,0.04271727055311203,-0.18990787863731384,0.7325909733772278,-0.25598910450935364,0.006177492439746857,-0.012108677066862583,-78,-66,-1006,-255,7,-11,331,253,0,633870,633.8699951171875,0.0,1500.0
13:01:10.153,AUTO,-35.3632058,149.1652919,49914,0.04271727055311203,-0.18990787863731384,0.7325909733772278,-0.25598910450935364,0.006177492439746857,-0.012108677066862583,-78,-66,-1006,-255,7,-11,331,253,0,633870,633.8699951171875,0.0,1500.0
13:01:10.356,AUTO,-35.3632058,149.1652919,49914,0.04271727055311203,-0.18990787863731384,0.7325909733772278,-0.25598910450935364,0.006177492439746857,-0.012108677066862583,-78,-66,-1006,-255,7,-11,331,253,0,633870,633.8699951171875,0.0,1500.0
13:01:10.557,AUTO,-35.3631817,149.1653153,49900,0.05136420205235481,-0.21396160125732422,0.7283645272254944,-0.12862519919872284,-0.029141567647457123,0.004532376304268837,-97,-63,-999,-127,-27,4,392,307,2,633860,633.8599853515625,0.0,1500.0
13:01:10.758,AUTO,-35.3631727,149.1653241,49892,0.05523745343089104,-0.21673545241355896,0.7262129187583923,0.02053985744714737,0.01413500402122736,-0.015766356140375137,-96,-44,-1001,21,15,-15,414,326,2,633850,633.8499755859375,0.0,1500.0
13:01:10.959,AUTO,-35.3631631,149.1653335,49887,0.05913786217570305,-0.2049245983362198,0.7254208326339722,0.07762859016656876,0.05230085924267769,-0.009144434705376625,-123,-65,-1015,78,53,-8,434,343,-1,633840,633.8399658203125,0.0,1500.0
13:01:11.160,AUTO,-35.3631532,149.1653432,49890,0.06273674219846725,-0.19802653789520264,0.7242591977119446,-0.029399219900369644,0.02977399155497551,-0.005139040760695934,-111,-77,-1006,-28,30,-4,451,358,-3,633850,633.8499755859375,0.0,1500.0
13:01:11.361,AUTO,-35.3631428,149.1653534,49897,0.06739546358585358,-0.19077003002166748,0.7229868769645691,0.005884149111807346,0.026010116562247276,-0.008837568573653698,-109,-76,-1000,6,27,-8,468,371,-4,633850,633.8499755859375,0.0,1500.0
13:01:11.562,AUTO,-35.3631428,149.1653534,49897,0.06739546358585358,-0.19077003002166748,0.7229868769645691,0.005884149111807346,0.026010116562247276,-0.008837568573653698,-109,-76,-1000,6,27,-8,468,371,-4,633850,633.8499755859375,0.0,1500.0
13:01:11.762,AUTO,-35.363132,149.165364,49908,0.07360027730464935,-0.1783238649368286,0.7218493819236755,0.03407653421163559,0.01870102994143963,-0.0012116464786231518,-122,-68,-996,34,19,0,480,383,-7,633860,633.8599853515625,0.0,1500.0
13:01:11.964,AUTO,-35.363132,149.165364,49908,0.07360027730464935,-0.1783238649368286,0.7218493819236755,0.03407653421163559,0.01870102994143963,-0.0012116464786231518,-122,-68,-996,34,19,0,480,383,-7,633860,633.8599853515625,0.0,1500.0
13:01:12.165,AUTO,-35.363132,149.165364,49908,0.07360027730464935,-0.1783238649368286,0.7218493819236755,0.03407653421163559,0.01870102994143963,-0.0012116464786231518,-122,-68,-996,34,19,0,480,383,-7,633860,633.8599853515625,0.0,1500.0
13:01:12.366,AUTO,-35.363132,149.165364,49908,0.07360027730464935,-0.1783238649368286,0.7218493819236755,0.03407653421163559,0.01870102994143963,-0.0012116464786231518,-122,-68,-996,34,19,0,480,383,-7,633860,633.8599853515625,0.0,1500.0
13:01:12.568,AUTO,-35.3630987,149.165397,49953,0.07284725457429886,-0.1681489199399948,0.7210248112678528,0.03307468444108963,-0.011847162619233131,-0.007064868230372667,-126,-67,-985,34,-10,-7,507,409,-5,633910,633.9099731445312,0.0,1500.0
13:01:12.768,AUTO,-35.3630872,149.1654085,49966,0.07428250461816788,-0.1666242927312851,0.7199869751930237,0.022619016468524933,0.01627238094806671,-0.007940703071653843,-133,-83,-989,23,17,-7,514,415,-5,633920,633.9199829101562,0.0,1500.0
13:01:12.969,AUTO,-35.3630754,149.1654202,49978,0.07948948442935944,-0.1590879261493683,0.7188068628311157,0.028509818017482758,0.03974016755819321,-0.0005398512585088611,-127,-84,-990,29,40,0,521,420,-5,633930,633.9299926757812,0.0,1500.0
13:01:13.170,AUTO,-35.3630636,149.1654319,49990,0.08007773756980896,-0.15190164744853973,0.7180514931678772,0.0012726776767522097,0.024605024605989456,-0.011922345496714115,-117,-79,-984,2,25,-11,526,425,-5,633950,633.9500122070312,0.0,1500.0
13:01:13.371,AUTO,-35.3630518,149.1654437,50002,0.07906549423933029,-0.1467050164937973,0.7178136110305786,-0.008418118581175804,0.012973916716873646,0.008412939496338367,-144,-88,-990,-7,14,8,529,428,-4,633960,633.9599609375,0.0,1500.0
13:01:13.572,AUTO,-35.3630518,149.1654437,50002,0.07906549423933029,-0.1467050164937973,0.7178136110305786,-0.008418118581175804,0.012973916716873646,0.008412939496338367,-144,-88,-990,-7,14,8,529,428,-4,633960,633.9599609375,0.0,1500.0
13:01:13.773,AUTO,-35.3630399,149.1654557,50012,0.0785321295261383,-0.1419062316417694,0.7174801826477051,-0.0036625689826905727,0.033748138695955276,0.006383810192346573,-137,-75,-987,-2,34,6,531,431,-3,633970,633.969970703125,0.0,1500.0
13:01:13.974,AUTO,-35.3630399,149.1654557,50012,0.0785321295261383,-0.1419062316417694,0.7174801826477051,-0.0036625689826905727,0.033748138695955276,0.006383810192346573,-137,-75,-987,-2,34,6,531,431,-3,633970,633.969970703125,0.0,1500.0
13:01:14.175,AUTO,-35.3630399,149.1654557,50012,0.0785321295261383,-0.1419062316417694,0.7174801826477051,-0.0036625689826905727,0.033748138695955276,0.006383810192346573,-137,-75,-987,-2,34,6,531,431,-3,633970,633.969970703125,0.0,1500.0
13:01:14.377,AUTO,-35.3630041,149.1654914,50044,0.07510536164045334,-0.12292890250682831,0.7168036103248596,-0.1283007562160492,-0.03369245305657387,0.02976859174668789,-130,-88,-977,-127,-32,30,528,430,-3,634000,634.0,0.0,1500.0
13:01:14.579,AUTO,-35.3630041,149.1654914,50044,0.07510536164045334,-0.12292890250682831,0.7168036103248596,-0.1283007562160492,-0.03369245305657387,0.02976859174668789,-130,-88,-977,-127,-32,30,528,430,-3,634000,634.0,0.0,1500.0
13:01:14.780,AUTO,-35.3629922,149.1655034,50048,0.07889280468225479,-0.13066497445106506,0.7154420018196106,0.05219254270195961,-0.013925965875387192,-0.008985098451375961,-131,-76,-974,53,-12,-8,528,428,0,634000,634.0,0.0,1500.0
13:01:14.980,AUTO,-35.3629803,149.1655153,50045,0.0814511775970459,-0.1324705332517624,0.715059220790863,0.11194898188114166,-0.0075125074945390224,0.008113620802760124,-128,-72,-984,112,-6,8,529,429,2,634000,634.0,0.0,1500.0
13:01:15.181,AUTO,-35.3629684,149.1655271,50039,0.07690974324941635,-0.13155357539653778,0.7151032090187073,-0.16997908055782318,0.01301159430295229,0.012261739932000637,-139,-92,-993,-169,14,12,530,430,3,633990,633.989990234375,0.0,1500.0
13:01:15.382,AUTO,-35.3629564,149.165539,50034,0.07978227734565735,-0.1381128877401352,0.7143323421478271,0.11114057153463364,-0.024593103677034378,-0.008088561706244946,-120,-73,-973,112,-23,-7,530,430,3,633990,633.989990234375,0.0,1500.0
13:01:15.583,AUTO,-35.3629564,149.165539,50034,0.07978227734565735,-0.1381128877401352,0.7143323421478271,0.11114057153463364,-0.024593103677034378,-0.008088561706244946,-120,-73,-973,112,-23,-7,530,430,3,633990,633.989990234375,0.0,1500.0
13:01:15.784,AUTO,-35.3629443,149.1655509,50026,0.0874876081943512,-0.14033961296081543,0.7131945490837097,0.11310042440891266,0.008100580424070358,-0.009542098268866539,-131,-77,-983,113,9,-9,533,430,4,633980,633.97998046875,0.0,1500.0
13:01:15.986,AUTO,-35.3629443,149.1655509,50026,0.0874876081943512,-0.14033961296081543,0.7131945490837097,0.11310042440891266,0.008100580424070358,-0.009542098268866539,-131,-77,-983,113,9,-9,533,430,4,633980,633.97998046875,0.0,1500.0
13:01:16.187,AUTO,-35.3629443,149.1655509,50026,0.0874876081943512,-0.14033961296081543,0.7131945490837097,0.11310042440891266,0.008100580424070358,-0.009542098268866539,-131,-77,-983,113,9,-9,533,430,4,633980,633.97998046875,0.0,1500.0
13:01:16.389,AUTO,-35.3629081,149.1655865,50013,0.08962786942720413,-0.1338738203048706,0.7121105790138245,0.07766790688037872,-0.03670981898903847,0.011629178188741207,-152,-76,-992,78,-35,11,533,433,1,633970,633.969970703125,0.0,1500.0
13:01:16.591,AUTO,-35.3628961,149.1655984,50010,0.08272548764944077,-0.14056991040706635,0.7121306657791138,-0.19689296185970306,0.0013985985424369574,0.013971361331641674,-152,-76,-992,78,-35,11,533,435,4,633970,633.969970703125,0.0,1500.0
13:01:16.793,AUTO,-35.3628961,149.1655984,50010,0.08272548764944077,-0.14056991040706635,0.7121306657791138,-0.19689296185970306,0.0013985985424369574,0.013971361331641674,-126,-87,-977,-196,2,14,533,435,4,633970,633.969970703125,0.0,1500.0
13:01:16.994,AUTO,-35.362884,149.1656103,50006,0.08840355277061462,-0.13514627516269684,0.7109030485153198,0.1358894407749176,0.02659282460808754,-0.02438858523964882,-134,-98,-999,137,27,-24,535,435,2,633960,633.9599609375,0.0,1500.0
13:01:17.195,AUTO,-35.3628719,149.1656222,50006,0.09330714493989944,-0.13057902455329895,0.7105371356010437,-0.07743274420499802,-0.007302792742848396,0.015726031735539436,-132,-92,-989,-77,-5,16,535,435,0,633960,633.9599609375,0.0,1500.0
13:01:17.397,AUTO,-35.3628599,149.1656341,50007,0.08894233405590057,-0.1321496218442917,0.7100248336791992,-0.11313183605670929,-0.02696169726550579,-0.004023806657642126,-145,-82,-988,-112,-25,-3,533,436,1,633960,633.9599609375,0.0,1500.0
13:01:17.598,AUTO,-35.3628478,149.1656461,50007,0.09149342030286789,-0.1298375427722931,0.709287166595459,0.18714691698551178,0.01985968090593815,-0.014383727684617043,-155,-75,-1003,188,21,-13,534,437,1,633960,633.9599609375,0.0,1500.0
13:01:17.799,AUTO,-35.3628478,149.1656461,50007,0.09149342030286789,-0.1298375427722931,0.709287166595459,0.18714691698551178,0.01985968090593815,-0.014383727684617043,-155,-75,-1003,188,21,-13,534,437,1,633960,633.9599609375,0.0,1500.0
13:01:18.000,AUTO,-35.3628478,149.1656461,50007,0.09149342030286789,-0.1298375427722931,0.709287166595459,0.18714691698551178,0.01985968090593815,-0.014383727684617043,-155,-75,-1003,188,21,-13,534,437,1,633960,633.9599609375,0.0,1500.0
13:01:18.201,AUTO,-35.3628478,149.1656461,50007,0.09149342030286789,-0.1298375427722931,0.709287166595459,0.18714691698551178,0.01985968090593815,-0.014383727684617043,-155,-75,-1003,188,21,-13,534,437,1,633960,633.9599609375,0.0,1500.0
13:01:18.402,AUTO,-35.3628116,149.1656822,50020,0.08818353712558746,-0.12674881517887115,0.7082423567771912,0.20205138623714447,-0.012233538553118706,-0.007020513527095318,-129,-78,-982,202,-11,-6,531,436,0,633980,633.97998046875,0.0,1500.0
13:01:18.603,AUTO,-35.3627994,149.1656943,50024,0.08338458091020584,-0.1259266883134842,0.7076016068458557,-0.20683112740516663,0.029145851731300354,-0.005583918187767267,-114,-88,-979,-205,30,-5,531,436,1,633980,633.97998046875,0.0,1500.0
13:01:18.804,AUTO,-35.3627994,149.1656943,50024,0.08338458091020584,-0.1259266883134842,0.7076016068458557,-0.20683112740516663,0.029145851731300354,-0.005583918187767267,-114,-88,-979,-205,30,-5,531,436,1,633980,633.97998046875,0.0,1500.0
13:01:19.005,AUTO,-35.3627874,149.1657062,50028,0.08326347172260284,-0.1246606782078743,0.7066426277160645,0.06670684367418289,-0.009940936230123043,-0.02625986747443676,-150,-75,-995,68,-8,-26,530,435,1,633980,633.97998046875,0.0,1500.0
13:01:19.206,AUTO,-35.3627754,149.1657182,50031,0.08907350152730942,-0.1279490888118744,0.7065224051475525,0.18086989223957062,0.001706091221421957,0.005707212258130312,-132,-91,-986,181,3,6,529,433,2,633990,633.989990234375,0.0,1500.0
13:01:19.407,AUTO,-35.3627634,149.1657302,50032,0.08214472234249115,-0.12598823010921478,0.7064419984817505,-0.25512728095054626,0.01128116250038147,0.00922493264079094,-128,-68,-980,-254,12,9,528,434,3,633990,633.989990234375,0.0,1500.0
13:01:19.608,AUTO,-35.3627515,149.1657422,50033,0.07701615244150162,-0.12291349470615387,0.7060142755508423,0.11537402123212814,0.0038338734302669764,-0.03251834586262703,-130,-69,-989,116,5,-32,527,434,1,633990,633.989990234375,0.0,1500.0
13:01:19.810,AUTO,-35.3627515,149.1657422,50033,0.07701615244150162,-0.12291349470615387,0.7060142755508423,0.11537402123212814,0.0038338734302669764,-0.03251834586262703,-130,-69,-989,116,5,-32,527,434,1,633990,633.989990234375,0.0,1500.0
13:01:20.013,AUTO,-35.3627515,149.1657422,50033,0.07701615244150162,-0.12291349470615387,0.7060142755508423,0.11537402123212814,0.0038338734302669764,-0.03251834586262703,-130,-69,-989,116,5,-32,527,434,1,633990,633.989990234375,0.0,1500.0
13:01:20.216,AUTO,-35.3627515,149.1657422,50033,0.07701615244150162,-0.12291349470615387,0.7060142755508423,0.11537402123212814,0.0038338734302669764,-0.03251834586262703,-130,-69,-989,116,5,-32,527,434,1,633990,633.989990234375,0.0,1500.0
