time_stamp,MODE,lat,lon,relative_alt,roll,pitch,yaw,rollspeed,pitchspeed,yawspeed,xacc,yacc,zacc,xgyro,ygyro,zgyro,vx,vy,vz,RTL_ALT
12:14:34.855,STABILIZE,-35.3632622,149.1652374,0,0.0002687164815142751,0.0013988412683829665,0.025322917848825455,0.00027359178056940436,0.00018231832655146718,0.0021206210367381573,0,1,-1000,0,0,0,-2,1,-1,1500.0
12:14:35.056,STABILIZE,-35.3632622,149.1652374,0,0.0002687164815142751,0.0013988412683829665,0.025322917848825455,0.00027359178056940436,0.00018231832655146718,0.0021206210367381573,0,1,-1000,0,0,0,-2,1,-1,1500.0
12:14:35.258,STABILIZE,-35.3632622,149.1652374,0,0.0002687164815142751,0.0013988412683829665,0.025322917848825455,0.00027359178056940436,0.00018231832655146718,0.0021206210367381573,0,1,-1000,0,0,0,-2,1,-1,1500.0
12:14:35.459,STABILIZE,-35.3632622,149.1652374,0,0.0002687164815142751,0.0013988412683829665,0.025322917848825455,0.00027359178056940436,0.00018231832655146718,0.0021206210367381573,0,1,-1000,0,0,0,-2,1,-1,1500.0
12:14:35.660,STABILIZE,-35.3632622,149.1652375,0,0.00011785129754571244,0.0011875972850248218,0.024721495807170868,0.00028901820769533515,0.000313783559249714,0.0020846049301326275,0,1,-1000,0,0,0,-1,1,0,1500.0
12:14:35.861,STABILIZE,-35.3632622,149.1652375,0,6.476456474047154e-05,0.0011380427749827504,0.024576086550951004,0.0002730088890530169,0.00022079743212088943,0.0019122583325952291,0,1,-1000,0,0,0,-1,1,0,1500.0
12:14:36.062,STABILIZE,-35.3632622,149.1652375,0,5.374312422645744e-06,0.001094513456337154,0.02444358356297016,0.00028347873012535274,0.00019524438539519906,0.001924365060403943,0,1,-1000,0,0,0,-1,2,0,1500.0
12:14:36.264,STABILIZE,-35.3632622,149.1652375,0,5.374312422645744e-06,0.001094513456337154,0.02444358356297016,0.00028347873012535274,0.00019524438539519906,0.001924365060403943,0,1,-1000,0,0,0,-1,2,0,1500.0
12:14:36.465,STABILIZE,-35.3632622,149.1652375,0,5.374312422645744e-06,0.001094513456337154,0.02444358356297016,0.00028347873012535274,0.00019524438539519906,0.001924365060403943,0,1,-1000,0,0,0,-1,2,0,1500.0
12:14:36.666,STABILIZE,-35.3632622,149.1652375,0,-0.00010369146184530109,0.001042744959704578,0.024163490161299706,0.00023650270304642618,0.00029893332975916564,0.0019525181269273162,0,1,-1000,0,0,0,-1,2,0,1500.0
12:14:36.868,STABILIZE,-35.3632622,149.1652375,0,-0.00010369146184530109,0.001042744959704578,0.024163490161299706,0.00023650270304642618,0.00029893332975916564,0.0019525181269273162,0,1,-1000,0,0,0,-1,2,0,1500.0
12:14:37.069,STABILIZE,-35.3632622,149.1652375,0,-0.00010369146184530109,0.001042744959704578,0.024163490161299706,0.00023650270304642618,0.00029893332975916564,0.0019525181269273162,0,1,-1000,0,0,0,-1,2,0,1500.0
12:14:37.270,STABILIZE,-35.3632622,149.1652375,0,-0.00010369146184530109,0.001042744959704578,0.024163490161299706,0.00023650270304642618,0.00029893332975916564,0.0019525181269273162,0,1,-1000,0,0,0,-1,2,0,1500.0
12:14:37.471,STABILIZE,-35.3632622,149.1652375,0,-0.00010369146184530109,0.001042744959704578,0.024163490161299706,0.00023650270304642618,0.00029893332975916564,0.0019525181269273162,0,1,-1000,0,0,0,-1,2,0,1500.0
12:14:37.672,STABILIZE,-35.3632621,149.1652375,0,-0.0001644536096137017,0.0009740215609781444,0.0236852765083313,0.00024474874953739345,0.0003283014229964465,0.0019587192218750715,0,1,-1000,0,0,0,-1,2,0,1500.0
12:14:37.874,STABILIZE,-35.3632621,149.1652375,0,-0.0001644536096137017,0.0009740215609781444,0.0236852765083313,0.00024474874953739345,0.0003283014229964465,0.0019587192218750715,0,1,-1000,0,0,0,-1,2,0,1500.0
12:14:38.075,STABILIZE,-35.3632621,149.1652375,0,-0.0001644536096137017,0.0009740215609781444,0.0236852765083313,0.00024474874953739345,0.0003283014229964465,0.0019587192218750715,0,1,-1000,0,0,0,-1,2,0,1500.0
12:14:38.276,STABILIZE,-35.3632621,149.1652375,0,-0.0001644536096137017,0.0009740215609781444,0.0236852765083313,0.00024474874953739345,0.0003283014229964465,0.0019587192218750715,0,1,-1000,0,0,0,-1,2,0,1500.0
12:14:38.479,STABILIZE,-35.3632621,149.1652375,0,-0.000344773376127705,0.0009372010827064514,0.023262377828359604,0.00025755580281838775,0.00021520745940506458,0.001755394390784204,0,1,-1000,0,0,1,-1,1,0,1500.0
12:14:38.680,STABILIZE,-35.3632621,149.1652375,0,-0.000344773376127705,0.0009372010827064514,0.023262377828359604,0.00025755580281838775,0.00021520745940506458,0.001755394390784204,0,1,-1000,0,0,1,-1,1,0,1500.0
12:14:38.881,STABILIZE,-35.3632621,149.1652375,0,-0.000344773376127705,0.0009372010827064514,0.023262377828359604,0.00025755580281838775,0.00021520745940506458,0.001755394390784204,0,1,-1000,0,0,1,-1,1,0,1500.0
12:14:39.082,STABILIZE,-35.3632621,149.1652375,0,-0.000344773376127705,0.0009372010827064514,0.023262377828359604,0.00025755580281838775,0.00021520745940506458,0.001755394390784204,0,1,-1000,0,0,1,-1,1,0,1500.0
12:14:39.284,STABILIZE,-35.3632621,149.1652375,0,-0.000490359088871628,0.0009258807403966784,0.02297382429242134,0.00027479673735797405,0.00025879975873976946,0.0019175353227183223,0,2,-1000,0,0,0,-1,1,0,1500.0
12:14:39.485,STABILIZE,-35.3632621,149.1652375,0,-0.000490359088871628,0.0009258807403966784,0.02297382429242134,0.00027479673735797405,0.00025879975873976946,0.0019175353227183223,0,2,-1000,0,0,0,-1,1,0,1500.0
12:14:39.686,STABILIZE,-35.3632621,149.1652375,0,-0.000490359088871628,0.0009258807403966784,0.02297382429242134,0.00027479673735797405,0.00025879975873976946,0.0019175353227183223,0,2,-1000,0,0,0,-1,1,0,1500.0
12:14:39.887,STABILIZE,-35.3632621,149.1652375,0,-0.000490359088871628,0.0009258807403966784,0.02297382429242134,0.00027479673735797405,0.00025879975873976946,0.0019175353227183223,0,1,-1000,0,0,0,-1,1,0,1500.0
12:14:40.089,STABILIZE,-35.3632621,149.1652375,0,-0.000490359088871628,0.0009258807403966784,0.02297382429242134,0.00027479673735797405,0.00025879975873976946,0.0019175353227183223,0,1,-1000,0,0,0,-1,1,0,1500.0
12:14:40.290,STABILIZE,-35.3632621,149.1652375,0,-0.000490359088871628,0.0009258807403966784,0.02297382429242134,0.00027479673735797405,0.00025879975873976946,0.0019175353227183223,0,1,-1000,0,0,0,-1,1,0,1500.0
12:14:40.491,STABILIZE,-35.3632621,149.1652375,0,-0.000490359088871628,0.0009258807403966784,0.02297382429242134,0.00027479673735797405,0.00025879975873976946,0.0019175353227183223,0,1,-1000,0,0,0,-1,1,0,1500.0
12:14:40.692,STABILIZE,-35.3632621,149.1652375,0,-0.000490359088871628,0.0009258807403966784,0.02297382429242134,0.00027479673735797405,0.00025879975873976946,0.0019175353227183223,0,1,-1000,0,0,0,-1,1,0,1500.0
12:14:40.893,STABILIZE,-35.3632621,149.1652375,0,-0.000490359088871628,0.0009258807403966784,0.02297382429242134,0.00027479673735797405,0.00025879975873976946,0.0019175353227183223,0,1,-1000,0,0,0,-1,1,0,1500.0
12:14:41.095,STABILIZE,-35.3632621,149.1652375,0,-0.000490359088871628,0.0009258807403966784,0.02297382429242134,0.00027479673735797405,0.00025879975873976946,0.0019175353227183223,0,1,-1000,0,0,0,-1,1,0,1500.0
12:14:41.296,STABILIZE,-35.3632621,149.1652375,0,-0.000490359088871628,0.0009258807403966784,0.02297382429242134,0.00027479673735797405,0.00025879975873976946,0.0019175353227183223,0,1,-1000,0,0,0,-1,1,0,1500.0
12:14:41.497,STABILIZE,-35.3632621,149.1652375,0,-0.0005038060480728745,0.0009157706517726183,0.022218873724341393,0.0002843007678166032,0.00025556539185345173,0.00174181186594069,0,2,-1000,0,1,1,-1,1,0,1500.0
12:14:41.698,STABILIZE,-35.3632621,149.1652375,0,-0.0005038060480728745,0.0009157706517726183,0.022218873724341393,0.0002843007678166032,0.00025556539185345173,0.00174181186594069,0,2,-1000,0,1,1,-1,1,0,1500.0
12:14:41.899,STABILIZE,-35.3632621,149.1652375,0,-0.0005038060480728745,0.0009157706517726183,0.022218873724341393,0.0002843007678166032,0.00025556539185345173,0.00174181186594069,0,2,-1000,0,1,1,-1,1,0,1500.0
12:14:42.100,STABILIZE,-35.3632621,149.1652375,0,-0.0005239385645836592,0.0009257548954337835,0.02208567038178444,0.0003377698012627661,0.00031452777329832315,0.0016306403558701277,0,1,-1000,0,0,1,-1,1,0,1500.0
12:14:42.302,STABILIZE,-35.3632621,149.1652375,0,-0.0005239385645836592,0.0009257548954337835,0.02208567038178444,0.0003377698012627661,0.00031452777329832315,0.0016306403558701277,0,1,-1000,0,0,0,-1,1,0,1500.0
12:14:42.503,STABILIZE,-35.3632621,149.1652375,0,-0.0005617478163912892,0.0009331221226602793,0.02191663719713688,0.00013779045548290014,0.00032598257530480623,0.001587443519383669,0,1,-1000,0,0,0,-1,1,0,1500.0
12:14:42.704,STABILIZE,-35.3632621,149.1652375,0,-0.0005617478163912892,0.0009331221226602793,0.02191663719713688,0.00013779045548290014,0.00032598257530480623,0.001587443519383669,0,1,-1000,0,0,0,-1,1,0,1500.0
12:14:42.905,STABILIZE,-35.3632621,149.1652375,0,-0.0005617478163912892,0.0009331221226602793,0.02191663719713688,0.00013779045548290014,0.00032598257530480623,0.001587443519383669,0,1,-1000,0,0,0,-1,1,0,1500.0
12:14:43.107,STABILIZE,-35.3632621,149.1652375,0,-0.0005617478163912892,0.0009331221226602793,0.02191663719713688,0.00013779045548290014,0.00032598257530480623,0.001587443519383669,0,1,-1000,0,0,0,-1,1,0,1500.0
12:14:43.308,STABILIZE,-35.3632621,149.1652375,0,-0.0005617478163912892,0.0009331221226602793,0.02191663719713688,0.00013779045548290014,0.00032598257530480623,0.001587443519383669,0,1,-1000,0,0,0,-1,1,0,1500.0
12:14:43.509,STABILIZE,-35.3632622,149.1652375,0,-0.0006501026800833642,0.0009563322528265417,0.02162768691778183,9.09761874936521e-05,0.0003410243079997599,0.0015509624499827623,0,1,-1000,0,1,0,-1,1,0,1500.0
12:14:43.710,STABILIZE,-35.3632622,149.1652375,0,-0.0006501026800833642,0.0009563322528265417,0.02162768691778183,9.09761874936521e-05,0.0003410243079997599,0.0015509624499827623,0,1,-1000,0,1,0,-1,1,0,1500.0
12:14:43.912,STABILIZE,-35.3632622,149.1652375,0,-0.0006663126405328512,0.0009588436805643141,0.02154810167849064,0.0002688661916181445,0.00015730876475572586,0.0015791780315339565,0,1,-1000,0,1,0,-1,1,0,1500.0
12:14:44.113,STABILIZE,-35.3632622,149.1652375,0,-5.2257830247981474e-05,0.0009604594088159502,0.02147464081645012,0.00027357443468645215,0.00031284376746043563,0.0016192803159356117,0,1,-1000,0,0,0,-1,1,0,1500.0
12:14:44.314,STABILIZE,-35.3632622,149.1652375,0,-5.2257830247981474e-05,0.0009604594088159502,0.02147464081645012,0.00027357443468645215,0.00031284376746043563,0.0016192803159356117,0,1,-1000,0,0,0,-1,1,0,1500.0
12:14:44.516,STABILIZE,-35.3632622,149.1652375,0,-6.437289266614243e-05,0.0009561121696606278,0.02132522314786911,0.0002786609111353755,0.00032619101693853736,0.00152123614680022,0,1,-1000,0,1,0,-1,1,0,1500.0
12:14:44.717,STABILIZE,-35.3632622,149.1652375,0,-6.437289266614243e-05,0.0009561121696606278,0.02132522314786911,0.0002786609111353755,0.00032619101693853736,0.00152123614680022,0,1,-1000,0,1,0,-1,1,0,1500.0
12:14:44.918,STABILIZE,-35.3632622,149.1652375,0,-6.437289266614243e-05,0.0009561121696606278,0.02132522314786911,0.0002786609111353755,0.00032619101693853736,0.00152123614680022,0,1,-1000,0,1,0,-1,1,0,1500.0
12:14:45.119,STABILIZE,-35.3632622,149.1652375,0,-6.437289266614243e-05,0.0009561121696606278,0.02132522314786911,0.0002786609111353755,0.00032619101693853736,0.00152123614680022,0,1,-1000,0,1,0,-1,1,0,1500.0
12:14:45.321,STABILIZE,-35.3632622,149.1652375,0,-6.437289266614243e-05,0.0009561121696606278,0.02132522314786911,0.0002786609111353755,0.00032619101693853736,0.00152123614680022,0,1,-1000,0,1,0,-1,1,0,1500.0
12:14:45.523,STABILIZE,-35.3632622,149.1652375,0,-0.00014771462883800268,0.0009650705032981932,0.020983371883630753,0.00023756641894578934,0.0002529764315113425,0.0015865457244217396,0,1,-1000,0,1,0,-1,2,0,1500.0
12:14:45.724,STABILIZE,-35.3632622,149.1652375,0,-0.00014771462883800268,0.0009650705032981932,0.020983371883630753,0.00023756641894578934,0.0002529764315113425,0.0015865457244217396,0,1,-1000,0,1,0,-1,2,0,1500.0
12:14:45.926,STABILIZE,-35.3632622,149.1652375,0,-0.00014771462883800268,0.0009650705032981932,0.020983371883630753,0.00023756641894578934,0.0002529764315113425,0.0015865457244217396,0,1,-1000,0,1,0,-1,2,0,1500.0
12:14:46.127,STABILIZE,-35.3632622,149.1652375,0,-0.0002111417124979198,0.0009685588302090764,0.020825808867812157,0.0001881342031992972,0.0002920408733189106,0.0015283641405403614,0,1,-1000,0,1,1,-1,2,0,1500.0
12:14:46.328,STABILIZE,-35.3632622,149.1652375,0,-0.00025252244086004794,0.0009718253277242184,0.02074485272169113,0.00025050179101526737,0.0003504217602312565,0.0014925772557035089,0,1,-1000,0,0,1,-1,2,0,1500.0
12:14:46.529,STABILIZE,-35.3632622,149.1652375,0,-0.00025252244086004794,0.0009718253277242184,0.02074485272169113,0.00025050179101526737,0.0003504217602312565,0.0014925772557035089,0,2,-1000,1,1,1,-1,2,0,1500.0
12:14:46.731,STABILIZE,-35.3632622,149.1652375,0,-0.00025252244086004794,0.0009718253277242184,0.02074485272169113,0.00025050179101526737,0.0003504217602312565,0.0014925772557035089,0,2,-1000,1,1,1,-1,2,0,1500.0
12:14:46.939,STABILIZE,-35.3632622,149.1652375,0,-0.00025252244086004794,0.0009718253277242184,0.02074485272169113,0.00025050179101526737,0.0003504217602312565,0.0014925772557035089,0,2,-1000,1,1,1,-1,2,0,1500.0
12:14:47.151,STABILIZE,-35.3632622,149.1652375,0,-0.00025252244086004794,0.0009718253277242184,0.02074485272169113,0.00025050179101526737,0.0003504217602312565,0.0014925772557035089,0,2,-1000,1,1,1,-1,2,0,1500.0
12:14:47.353,STABILIZE,-35.3632622,149.1652375,0,-0.00010357621067669243,0.0009975391440093517,0.02044162154197693,0.0028260163962841034,0.0003569239052012563,0.001474785036407411,0,23,-967,3,1,1,-1,3,1,1500.0
12:14:47.554,STABILIZE,-35.3632622,149.1652375,0,-0.00010357621067669243,0.0009975391440093517,0.02044162154197693,0.0028260163962841034,0.0003569239052012563,0.001474785036407411,0,23,-967,3,1,1,-1,3,1,1500.0
12:14:47.759,AUTO,-35.3632622,149.1652376,0,-0.0002687601954676211,0.0009991691913455725,0.02030409686267376,0.0003016961272805929,0.0001890704152174294,0.001364145427942276,0,1,-1000,0,1,1,-1,3,1,1500.0
12:14:47.960,AUTO,-35.3632622,149.1652376,0,-0.0002687601954676211,0.0009991691913455725,0.02030409686267376,0.0003016961272805929,0.0001890704152174294,0.001364145427942276,0,1,-1000,0,1,1,-1,3,1,6402.0
12:14:48.162,AUTO,-35.3632622,149.1652376,4,-0.0003455730911809951,0.0009988797828555107,0.02022823505103588,0.00040689302841201425,0.00023938383674249053,0.0014755232259631157,0,1,-1000,0,1,1,-1,2,1,6402.0
12:14:48.363,AUTO,-35.3632622,149.1652376,2,-0.00041644496377557516,0.0009988989913836122,0.02017127349972725,0.0002245354698970914,0.0002489231410436332,0.0013166710268706083,0,1,-1000,0,1,0,-1,2,1,6402.0
12:14:48.565,AUTO,-35.3632622,149.1652376,1,-0.0004786417121067643,0.0010044180089607835,0.020128091797232628,0.00015120202442631125,0.00037578109186142683,0.0014724868815392256,0,1,-1000,1,0,0,-1,2,1,6402.0
12:14:48.767,AUTO,-35.3632622,149.1652376,1,-0.0004786417121067643,0.0010044180089607835,0.020128091797232628,0.00015120202442631125,0.00037578109186142683,0.0014724868815392256,0,1,-1000,1,0,0,-1,2,1,6402.0
12:14:48.968,AUTO,-35.3632622,149.1652376,1,-0.0004786417121067643,0.0010044180089607835,0.020128091797232628,0.00015120202442631125,0.00037578109186142683,0.0014724868815392256,0,1,-1000,1,0,0,-1,2,1,6402.0
12:14:49.170,AUTO,-35.3632622,149.1652376,1,-0.0004786417121067643,0.0010044180089607835,0.020128091797232628,0.00015120202442631125,0.00037578109186142683,0.0014724868815392256,0,1,-1000,1,0,0,-1,2,1,6402.0
12:14:49.372,AUTO,-35.3632621,149.1652375,0,-0.0004883522051386535,0.0011228363728150725,0.01996847242116928,0.00021234567975625396,0.00025026622461155057,0.001438044011592865,0,2,-1000,0,0,1,0,0,1,6402.0
12:14:49.573,AUTO,-35.3632621,149.1652375,0,-0.0004564319970086217,0.0011818365892395377,0.0198991522192955,0.00027862231945618987,0.0003306244616396725,0.0013458195608109236,0,2,-1000,0,0,0,0,0,1,6402.0
12:14:49.774,AUTO,-35.3632621,149.1652375,0,-0.0004127580323256552,0.0012438250705599785,0.019841738045215607,0.0002872036420740187,0.0002033619093708694,0.0014818367781117558,0,1,-1000,0,0,1,0,0,1,6402.0
12:14:49.975,AUTO,-35.3632621,149.1652375,0,-0.0004127580323256552,0.0012438250705599785,0.019841738045215607,0.0002872036420740187,0.0002033619093708694,0.0014818367781117558,0,1,-1000,0,0,1,0,0,1,6402.0
12:14:50.176,AUTO,-35.3632621,149.1652375,0,-0.0003663604729808867,0.0013094267342239618,0.01978878490626812,0.00026790384436026216,0.00012226426042616367,0.001424216665327549,0,2,-1000,0,1,0,0,0,1,6402.0
12:14:50.378,AUTO,-35.3632621,149.1652375,0,-0.0003175026213284582,0.0013842062326148152,0.019724391400814056,0.00022657390218228102,0.0002983395825140178,0.0014179692370817065,0,1,-1000,1,0,0,0,0,1,6402.0
12:14:50.579,AUTO,-35.3632621,149.1652374,0,-0.0002685428480617702,0.0014479514211416245,0.019658435136079788,0.00022967037511989474,0.00026005174731835723,0.001433506840839982,0,1,-1000,1,0,0,0,0,1,6402.0
12:14:50.781,AUTO,-35.3632621,149.1652374,0,-0.0002685428480617702,0.0014479514211416245,0.019658435136079788,0.00022967037511989474,0.00026005174731835723,0.001433506840839982,0,1,-1000,1,0,0,0,0,1,36990.0
12:14:50.982,AUTO,-35.3632621,149.1652374,0,-0.0002685428480617702,0.0014479514211416245,0.019658435136079788,0.00022967037511989474,0.00026005174731835723,0.001433506840839982,0,1,-1000,1,0,0,0,0,1,36990.0
12:14:51.183,AUTO,-35.3632621,149.1652374,0,-0.0002685428480617702,0.0014479514211416245,0.019658435136079788,0.00022967037511989474,0.00026005174731835723,0.001433506840839982,0,1,-1000,1,0,0,0,0,1,36990.0
12:14:51.385,AUTO,-35.3632621,149.1652374,0,3.58096367563121e-05,0.0016791699454188347,0.019465187564492226,0.00038892938755452633,0.00029039866058155894,0.0013151286402717233,0,1,-1000,0,1,0,0,-1,0,36990.0
12:14:51.586,AUTO,-35.3632621,149.1652374,0,9.899531141854823e-05,0.0017567019676789641,0.019396435469388962,0.0003017535200342536,0.00029690295923501253,0.001370467129163444,0,2,-1000,1,0,0,0,-1,0,36990.0
12:14:51.787,AUTO,-35.3632621,149.1652374,1,0.0016490364214405417,0.0014092568308115005,0.019415225833654404,0.024228878319263458,-0.012763392180204391,0.0028049496468156576,0,0,-1067,24,-12,2,0,0,-3,36990.0
12:14:51.988,AUTO,-35.3632621,149.1652374,51,0.005470676347613335,-0.0006626320537179708,0.01948581077158451,-0.01225744653493166,-0.0017329517286270857,0.0003429432399570942,0,0,-1139,-11,0,0,0,0,-36,36990.0
12:14:52.190,AUTO,-35.3632621,149.1652374,51,0.005470676347613335,-0.0006626320537179708,0.01948581077158451,-0.01225744653493166,-0.0017329517286270857,0.0003429432399570942,0,0,-1139,-11,0,0,0,0,-36,36990.0
12:14:52.392,AUTO,-35.3632621,149.1652375,184,0.004232731182128191,4.720350989373401e-05,0.019415048882365227,0.0033906055614352226,0.004606318194419146,0.0017325000371783972,0,0,-1131,3,5,1,0,0,-70,36990.0
12:14:52.593,AUTO,-35.3632621,149.1652375,396,0.0024064851459115744,0.0011398658389225602,0.019541168585419655,0.0002536941901780665,0.0024714008904993534,0.002489469014108181,0,0,-1111,0,3,2,0,1,-99,36990.0
12:14:52.795,AUTO,-35.3632621,149.1652375,396,0.0024064851459115744,0.0011398658389225602,0.019541168585419655,0.0002536941901780665,0.0024714008904993534,0.002489469014108181,0,0,-1111,0,3,2,0,1,-99,36990.0
12:14:52.997,AUTO,-35.3632621,149.1652375,396,0.0024064851459115744,0.0011398658389225602,0.019541168585419655,0.0002536941901780665,0.0024714008904993534,0.002489469014108181,0,0,-1111,0,3,2,0,1,-99,36990.0
12:14:53.199,AUTO,-35.3632621,149.1652375,396,0.0024064851459115744,0.0011398658389225602,0.019541168585419655,0.0002536941901780665,0.0024714008904993534,0.002489469014108181,0,0,-1111,0,3,2,0,1,-99,36990.0
12:14:53.400,AUTO,-35.363262,149.1652375,1378,0.021719669923186302,-0.0007190968608483672,0.01862936280667782,0.046766072511672974,-0.0071472167037427425,0.001547591295093298,0,0,-1018,47,-6,1,1,5,-144,36990.0
12:14:53.602,AUTO,-35.363262,149.1652378,1755,0.03312108665704727,-0.00269297044724226,0.018657393753528595,0.04487341642379761,-0.008181276731193066,0.002379128709435463,0,-1,-1007,45,-7,2,1,11,-147,36990.0
12:14:53.803,AUTO,-35.3632619,149.1652382,2138,0.04397710785269737,-0.004857943393290043,0.01880655251443386,0.04236539080739021,-0.00889071449637413,0.0030444697476923466,1,-3,-1002,42,-8,2,3,19,-148,83230.0
12:14:54.005,AUTO,-35.3632618,149.1652388,2523,0.05411245673894882,-0.007490040734410286,0.018982315436005592,0.03922189772129059,-0.0117396991699934,0.0032039033249020576,1,-5,-1000,39,-11,3,5,30,-148,83230.0
12:14:54.206,AUTO,-35.3632618,149.1652388,2523,0.05411245673894882,-0.007490040734410286,0.018982315436005592,0.03922189772129059,-0.0117396991699934,0.0032039033249020576,1,-5,-1000,39,-11,3,5,30,-148,83230.0
12:14:54.408,AUTO,-35.3632616,149.1652398,2917,0.06118575483560562,-0.008735698647797108,-0.009421712718904018,-0.011439618654549122,0.022291449829936028,-0.04050397500395775,0,-7,-993,-11,23,-40,8,42,-147,83230.0
12:14:54.610,AUTO,-35.3632614,149.1652411,3297,0.041848473250865936,0.012462317012250423,-0.0312996543943882,-0.13539734482765198,0.09730042517185211,-0.1009020060300827,3,-11,-990,-134,97,-101,9,52,-145,83230.0
12:14:54.812,AUTO,-35.3632614,149.1652411,3297,0.041848473250865936,0.012462317012250423,-0.0312996543943882,-0.13539734482765198,0.09730042517185211,-0.1009020060300827,3,-11,-990,-134,97,-101,9,52,-145,83230.0
12:14:55.014,AUTO,-35.3632614,149.1652411,3297,0.041848473250865936,0.012462317012250423,-0.0312996543943882,-0.13539734482765198,0.09730042517185211,-0.1009020060300827,3,-11,-990,-134,97,-101,9,52,-145,83230.0
12:14:55.216,AUTO,-35.3632614,149.1652411,3297,0.041848473250865936,0.012462317012250423,-0.0312996543943882,-0.13539734482765198,0.09730042517185211,-0.1009020060300827,3,-11,-990,-134,97,-101,9,52,-145,83230.0
12:14:55.418,AUTO,-35.3632609,149.165245,4424,-0.03502659872174263,0.015436828136444092,-0.07576453685760498,-0.029237067326903343,-0.014137538149952888,-0.04727530479431152,4,-8,-1005,-28,-13,-47,0,36,-148,83230.0
12:14:55.619,AUTO,-35.3632609,149.1652458,4809,-0.04649653658270836,0.009881005622446537,-0.0836230218410492,-0.0595235675573349,-0.02304164506494999,-0.028071347624063492,3,-3,-1000,-59,-22,-28,-1,24,-149,83230.0
12:14:55.821,AUTO,-35.3632609,149.1652463,5193,-0.06541864573955536,0.0015544898342341185,-0.08612258732318878,-0.08365925401449203,-0.037348609417676926,-0.00390513869933784,3,-3,-998,-83,-36,-4,-3,8,-148,83230.0
12:14:56.023,AUTO,-35.3632609,149.1652463,5576,-0.0765458196401596,-0.005461419001221657,-0.08728954941034317,0.007832705974578857,-0.012384251691401005,-0.011982610449194908,0,0,-1005,8,-11,-12,-3,-10,-148,83230.0
12:14:56.225,AUTO,-35.3632609,149.1652463,5576,-0.0765458196401596,-0.005461419001221657,-0.08728954941034317,0.007832705974578857,-0.012384251691401005,-0.011982610449194908,0,0,-1005,8,-11,-12,-3,-10,-148,83230.0
12:14:56.427,AUTO,-35.363261,149.1652458,5960,-0.06719791889190674,-0.006698303390294313,-0.09049070626497269,0.050151653587818146,-0.0029692642856389284,-0.007984316907823086,-2,4,-1002,51,-2,-8,-2,-28,-148,83230.0
12:14:56.629,AUTO,-35.363261,149.1652449,6344,-0.05347626656293869,-0.006978355813771486,-0.09339874237775803,0.05722653120756149,0.001334669766947627,-0.004571083467453718,-4,7,-1001,57,2,-4,-2,-41,-148,83230.0
12:14:56.831,AUTO,-35.363261,149.1652449,6344,-0.05347626656293869,-0.006978355813771486,-0.09339874237775803,0.05722653120756149,0.001334669766947627,-0.004571083467453718,-4,7,-1001,57,2,-4,-2,-41,-148,78322.0
12:14:57.046,AUTO,-35.363261,149.1652449,6344,-0.05347626656293869,-0.006978355813771486,-0.09339874237775803,0.05722653120756149,0.001334669766947627,-0.004571083467453718,-4,7,-1001,57,2,-4,-2,-41,-148,78322.0
12:14:57.248,AUTO,-35.363261,149.1652449,6344,-0.05347626656293869,-0.006978355813771486,-0.09339874237775803,0.05722653120756149,0.001334669766947627,-0.004571083467453718,-4,7,-1001,57,2,-4,-2,-41,-148,78322.0
12:14:57.450,AUTO,-35.3632613,149.1652405,7506,-0.006471037864685059,-0.000657827069517225,-0.09654846042394638,0.06508779525756836,0.012308252044022083,0.001963392598554492,-7,14,-1003,65,12,1,-4,-58,-150,78322.0
12:14:57.651,AUTO,-35.3632614,149.1652389,7894,0.009985566139221191,0.0025270332116633654,-0.09611961990594864,0.06795177608728409,0.012986156158149242,0.002598852850496769,-7,13,-1003,68,13,2,-5,-55,-151,78322.0
12:14:57.853,AUTO,-35.3632616,149.1652374,8283,0.026425709947943687,0.005480957217514515,-0.09524153172969818,0.06634342670440674,0.011184599250555038,0.0035947514697909355,-6,11,-1003,66,11,3,-7,-48,-152,78322.0
12:14:58.055,AUTO,-35.3632618,149.1652361,8675,0.04245339334011078,0.007740015164017677,-0.09397963434457779,0.06373551487922668,0.007534979842603207,0.004395008087158203,-4,8,-1003,64,8,3,-9,-38,-152,78322.0
12:14:58.256,AUTO,-35.363262,149.1652352,9068,0.05789647996425629,0.008948992937803268,-0.0925728976726532,0.06059427559375763,0.0029160804115235806,0.005010395776480436,-3,9,-1002,61,3,4,-10,-24,-152,78322.0
12:14:58.458,AUTO,-35.363262,149.1652352,9068,0.05789647996425629,0.008948992937803268,-0.0925728976726532,0.06059427559375763,0.0029160804115235806,0.005010395776480436,-3,9,-1002,61,3,4,-10,-24,-152,78322.0
12:14:58.660,AUTO,-35.3632622,149.1652347,9461,0.06370560824871063,0.001687318435870111,-0.08436613529920578,-0.013665721751749516,-0.05497586727142334,0.04859001189470291,0,4,-995,-12,-54,48,-10,-8,-151,78322.0
12:14:58.862,AUTO,-35.3632622,149.1652347,9461,0.06370560824871063,0.001687318435870111,-0.08436613529920578,-0.013665721751749516,-0.05497586727142334,0.04859001189470291,0,4,-995,-12,-54,48,-10,-8,-151,78322.0
12:14:59.064,AUTO,-35.3632622,149.1652347,9461,0.06370560824871063,0.001687318435870111,-0.08436613529920578,-0.013665721751749516,-0.05497586727142334,0.04859001189470291,0,4,-995,-12,-54,48,-10,-8,-151,78322.0
12:14:59.266,AUTO,-35.3632626,149.165235,10616,0.010523022152483463,-0.008045579306781292,-0.07565461099147797,-0.05876335874199867,0.009395242668688297,-0.014319347217679024,1,-2,-1001,-58,10,-14,0,16,-149,78322.0
12:14:59.467,AUTO,-35.3632626,149.165235,10616,0.010523022152483463,-0.008045579306781292,-0.07565461099147797,-0.05876335874199867,0.009395242668688297,-0.014319347217679024,1,-2,-1001,-58,10,-14,0,16,-149,78322.0
12:14:59.669,AUTO,-35.3632626,149.1652353,11000,-0.0010085317771881819,-0.005972282029688358,-0.0807403102517128,-0.03582961857318878,0.008245541714131832,-0.022868439555168152,1,-3,-1003,-35,8,-23,2,15,-149,78322.0
12:14:59.870,AUTO,-35.3632626,149.1652357,11385,-0.0077642104588449,-0.00428071478381753,-0.08734937012195587,-0.019692789763212204,0.00545392045751214,-0.023952141404151917,1,-3,-1002,-19,6,-24,4,12,-150,153894.0
12:15:00.072,AUTO,-35.3632625,149.1652359,11772,-0.010853196494281292,-0.0026882875245064497,-0.09520307183265686,-0.007027897052466869,0.008124493062496185,-0.029369445517659187,0,-2,-1002,-6,8,-29,5,8,-150,153894.0
12:15:00.273,AUTO,-35.3632624,149.1652361,12163,-0.011002449318766594,-0.0010780738666653633,-0.10313710570335388,0.006242132745683193,0.006245467811822891,-0.028798051178455353,0,-1,-1002,6,7,-29,5,4,-151,153894.0
12:15:00.475,AUTO,-35.3632624,149.1652361,12163,-0.011002449318766594,-0.0010780738666653633,-0.10313710570335388,0.006242132745683193,0.006245467811822891,-0.028798051178455353,0,-1,-1002,6,7,-29,5,4,-151,153894.0
12:15:00.677,AUTO,-35.3632622,149.1652361,12552,-0.008929627016186714,0.0002095153322443366,-0.11047638207674026,0.011698896996676922,0.006199861876666546,-0.029018733650445938,-1,-1,-1001,12,6,-29,5,0,-151,153894.0
12:15:00.879,AUTO,-35.3632622,149.1652361,12552,-0.008929627016186714,0.0002095153322443366,-0.11047638207674026,0.011698896996676922,0.006199861876666546,-0.029018733650445938,-1,-1,-1001,12,6,-29,5,0,-151,153894.0
12:15:01.080,AUTO,-35.3632622,149.1652361,12552,-0.008929627016186714,0.0002095153322443366,-0.11047638207674026,0.011698896996676922,0.006199861876666546,-0.029018733650445938,-1,-1,-1001,12,6,-29,5,0,-151,153894.0
12:15:01.282,AUTO,-35.3632618,149.1652359,13716,0.001363326096907258,0.004655427765101194,-0.12961991131305695,0.012939129956066608,0.005496781785041094,-0.02135232463479042,-2,0,-1000,13,6,-21,4,-4,-151,153894.0
12:15:01.483,AUTO,-35.3632618,149.1652359,13716,0.001363326096907258,0.004655427765101194,-0.12961991131305695,0.012939129956066608,0.005496781785041094,-0.02135232463479042,-2,0,-1000,13,6,-21,4,-4,-151,153894.0
12:15:01.684,AUTO,-35.3632617,149.1652357,14106,0.003994723316282034,0.005648296792060137,-0.1348179131746292,0.01127667911350727,0.004683005157858133,-0.018717488273978233,-1,0,-1000,11,5,-19,2,-4,-152,153894.0
12:15:01.886,AUTO,-35.3632617,149.1652356,14496,0.006298850756138563,0.006726114545017481,-0.13968269526958466,0.007475673221051693,0.004251057747751474,-0.016761207953095436,-1,0,-999,8,5,-17,1,-3,-152,153894.0
12:15:02.087,AUTO,-35.3632616,149.1652355,14885,0.00789062213152647,0.007127219811081886,-0.14375637471675873,0.006501021794974804,0.0014692205004394054,-0.013082395307719707,-1,0,-1000,7,2,-13,0,-2,-152,153894.0
12:15:02.289,AUTO,-35.3632616,149.1652354,15274,0.00885732751339674,0.007214169017970562,-0.14739394187927246,0.004716507624834776,-0.0007995786145329475,-0.013195699080824852,-1,0,-1000,5,0,-13,0,0,-152,153894.0
12:15:02.492,AUTO,-35.3632615,149.1652353,15664,0.008993656374514103,0.0070460280403494835,-0.15078067779541016,0.000530709105078131,0.000270285177975893,-0.01114786509424448,0,0,-999,1,0,-11,-1,0,-152,153894.0
12:15:02.694,AUTO,-35.3632615,149.1652353,15664,0.008993656374514103,0.0070460280403494835,-0.15078067779541016,0.000530709105078131,0.000270285177975893,-0.01114786509424448,0,0,-999,1,0,-11,-1,0,-152,153894.0
12:15:02.895,AUTO,-35.3632615,149.1652353,15664,0.008993656374514103,0.0070460280403494835,-0.15078067779541016,0.000530709105078131,0.000270285177975893,-0.01114786509424448,0,0,-999,1,0,-11,-1,0,-152,256096.0
12:15:03.097,AUTO,-35.3632615,149.1652353,15664,0.008993656374514103,0.0070460280403494835,-0.15078067779541016,0.000530709105078131,0.000270285177975893,-0.01114786509424448,0,0,-999,1,0,-11,-1,0,-152,256096.0
12:15:03.298,AUTO,-35.3632615,149.1652354,16832,0.0073446109890937805,0.005689546000212431,-0.16066068410873413,-0.0036678193137049675,-0.0009733904153108597,-0.014238991774618626,0,0,-1000,-2,0,-14,-3,4,-152,256096.0
12:15:03.500,AUTO,-35.3632615,149.1652354,17221,0.006334643345326185,0.005182234104722738,-0.16425690054893494,-0.0038023144006729126,-0.0012314345221966505,-0.014936919324100018,0,0,-1000,-3,0,-15,-3,5,-152,256096.0
12:15:03.702,AUTO,-35.3632615,149.1652354,17221,0.006334643345326185,0.005182234104722738,-0.16425690054893494,-0.0038023144006729126,-0.0012314345221966505,-0.014936919324100018,0,0,-1000,-3,0,-15,-3,5,-152,256096.0
12:15:03.903,AUTO,-35.3632615,149.1652355,17611,0.005364340264350176,0.004748355597257614,-0.16812296211719513,-0.0017284450586885214,-0.0015693509485572577,-0.014858352020382881,0,0,-1000,0,0,-14,-3,6,-152,256096.0
12:15:04.105,AUTO,-35.3632616,149.1652356,18000,0.004319179803133011,0.0043069738894701,-0.17220249772071838,-0.005081803537905216,-0.001975857187062502,-0.01580645889043808,0,0,-1000,-4,-1,-16,-3,6,-152,256096.0
12:15:04.306,AUTO,-35.3632616,149.1652357,18389,0.003661384806036949,0.004108229652047157,-0.17675402760505676,-0.002627793001011014,9.427417535334826e-05,-0.01913493685424328,0,0,-1000,-2,1,-19,-3,6,-152,256096.0
12:15:04.508,AUTO,-35.3632616,149.1652358,18778,-0.005085460841655731,0.003841439727693796,-0.1814642697572708,-0.06527595967054367,0.00013771187514066696,-0.019663788378238678,0,-1,-996,-64,0,-20,-3,5,-151,256096.0
12:15:04.710,AUTO,-35.3632616,149.1652358,18778,-0.005085460841655731,0.003841439727693796,-0.1814642697572708,-0.06527595967054367,0.00013771187514066696,-0.019663788378238678,0,-1,-996,-64,0,-20,-3,5,-151,256096.0
12:15:04.911,AUTO,-35.3632616,149.1652358,18778,-0.005085460841655731,0.003841439727693796,-0.1814642697572708,-0.06527595967054367,0.00013771187514066696,-0.019663788378238678,0,-1,-996,-64,0,-20,-3,5,-151,256096.0
12:15:05.113,AUTO,-35.3632616,149.1652358,18778,-0.005085460841655731,0.003841439727693796,-0.1814642697572708,-0.06527595967054367,0.00013771187514066696,-0.019663788378238678,0,-1,-996,-64,0,-20,-3,5,-151,256096.0
12:15:05.315,AUTO,-35.3632619,149.1652353,19919,-0.05103646218776703,0.03485722839832306,-0.12178629636764526,-0.00650653475895524,0.10216348618268967,0.3657238185405731,-1,3,-981,-5,103,365,-13,-20,-143,256096.0
12:15:05.516,AUTO,-35.3632622,149.1652346,20278,-0.04463531821966171,0.0537315309047699,-0.01175877545028925,0.06383658200502396,-0.039772458374500275,0.40174925327301025,1,7,-958,64,-39,401,-24,-30,-136,256096.0
12:15:05.719,AUTO,-35.3632622,149.1652346,20278,-0.04463531821966171,0.0537315309047699,-0.01175877545028925,0.06383658200502396,-0.039772458374500275,0.40174925327301025,1,7,-958,64,-39,401,-24,-30,-136,256096.0
12:15:05.920,AUTO,-35.3632628,149.1652336,20613,-0.013226659968495369,0.022184422239661217,0.059667401015758514,0.13800907135009766,-0.17433123290538788,0.17697004973888397,2,10,-954,138,-173,176,-32,-36,-125,267521.0
12:15:06.122,AUTO,-35.3632635,149.1652326,20919,0.020080795511603355,-0.01604045368731022,0.08181851357221603,0.11960510909557343,-0.12156915664672852,0.02278166636824608,2,9,-956,120,-120,22,-31,-33,-114,267521.0
12:15:06.325,AUTO,-35.3632641,149.1652317,21200,0.044576819986104965,-0.03607514128088951,0.0774979516863823,0.0738786980509758,-0.0484294518828392,-0.03980846330523491,2,8,-960,74,-47,-39,-24,-23,-103,267521.0
12:15:06.527,AUTO,-35.3632645,149.1652312,21453,0.057692427188158035,-0.04165663197636604,0.06618830561637878,0.03150342404842377,-0.0065797679126262665,-0.04845141991972923,1,5,-963,32,-5,-48,-15,-9,-93,267521.0
12:15:06.729,AUTO,-35.3632645,149.1652312,21453,0.057692427188158035,-0.04165663197636604,0.06618830561637878,0.03150342404842377,-0.0065797679126262665,-0.04845141991972923,1,5,-963,32,-5,-48,-15,-9,-93,267521.0
12:15:06.931,AUTO,-35.3632645,149.1652312,21453,0.057692427188158035,-0.04165663197636604,0.06618830561637878,0.03150342404842377,-0.0065797679126262665,-0.04845141991972923,1,5,-963,32,-5,-48,-15,-9,-93,267521.0
12:15:07.133,AUTO,-35.3632645,149.1652312,21453,0.057692427188158035,-0.04165663197636604,0.06618830561637878,0.03150342404842377,-0.0065797679126262665,-0.04845141991972923,1,5,-963,32,-5,-48,-15,-9,-93,267521.0
12:15:07.334,AUTO,-35.3632646,149.1652319,22070,0.0452524833381176,-0.02434111200273037,0.05039510503411293,-0.04116836562752724,0.03525024652481079,-0.0031308475881814957,0,-5,-973,-40,36,-3,9,28,-69,267521.0
12:15:07.536,AUTO,-35.3632644,149.1652326,22239,0.03498101234436035,-0.015436003915965557,0.04972652718424797,-0.036203205585479736,0.03704988211393356,0.0024166367948055267,1,-8,-975,-35,38,2,14,35,-62,267521.0
12:15:07.738,AUTO,-35.3632644,149.1652326,22239,0.03498101234436035,-0.015436003915965557,0.04972652718424797,-0.036203205585479736,0.03704988211393356,0.0024166367948055267,1,-8,-975,-35,38,2,14,35,-62,267521.0
12:15:07.940,AUTO,-35.363264,149.1652335,22391,0.023702051490545273,-0.006629412528127432,0.04963422194123268,-0.04541441798210144,0.03514740616083145,0.0024839877150952816,1,-10,-976,-44,36,2,17,39,-56,267521.0
12:15:08.141,AUTO,-35.3632636,149.1652345,22528,0.013066403567790985,0.0005674308631569147,0.04896526783704758,-0.04500466585159302,0.02483060583472252,0.001029475126415491,0,-10,-977,-44,25,0,18,40,-51,267521.0
12:15:08.343,AUTO,-35.3632631,149.1652355,22650,0.004525940399616957,0.006182861514389515,0.04826453700661659,-0.027934612706303596,0.02018708921968937,-0.0008783854427747428,0,-10,-978,-26,21,0,18,39,-45,267521.0
12:15:08.545,AUTO,-35.3632627,149.1652365,22757,-0.0016514721792191267,0.010685710236430168,0.047551609575748444,-0.01742226630449295,0.014439630322158337,0.0016671039629727602,0,-9,-977,-16,15,1,17,36,-40,267521.0
12:15:08.750,AUTO,-35.3632627,149.1652365,22757,-0.0016514721792191267,0.010685710236430168,0.047551609575748444,-0.01742226630449295,0.014439630322158337,0.0016671039629727602,0,-9,-977,-16,15,1,17,36,-40,267521.0
12:15:08.958,AUTO,-35.3632627,149.1652365,22757,-0.0016514721792191267,0.010685710236430168,0.047551609575748444,-0.01742226630449295,0.014439630322158337,0.0016671039629727602,0,-9,-977,-16,15,1,17,36,-40,43953.0
12:15:09.160,AUTO,-35.3632627,149.1652365,22757,-0.0016514721792191267,0.010685710236430168,0.047551609575748444,-0.01742226630449295,0.014439630322158337,0.0016671039629727602,0,-9,-977,-16,15,1,17,36,-40,43953.0
12:15:09.362,AUTO,-35.3632616,149.1652391,23011,-0.011723244562745094,0.014829604886472225,0.04495875909924507,-0.00184897449798882,-0.0015555922873318195,-0.0018916013650596142,0,-5,-973,-1,0,-1,8,20,-19,43953.0
12:15:09.563,AUTO,-35.3632616,149.1652391,23011,-0.011723244562745094,0.014829604886472225,0.04495875909924507,-0.00184897449798882,-0.0015555922873318195,-0.0018916013650596142,0,-5,-973,-1,0,-1,8,20,-19,43953.0
12:15:09.764,AUTO,-35.3632614,149.1652395,23048,-0.012083758600056171,0.013818983919918537,0.04423389956355095,-0.006867893505841494,-0.005941282492130995,-0.003687558462843299,0,-4,-970,-5,-5,-4,5,15,-12,43953.0
12:15:09.966,AUTO,-35.3632613,149.1652399,23066,-0.011476311832666397,0.012113125994801521,0.04335860162973404,0.009530103765428066,-0.00691085122525692,-0.005295347422361374,0,-1,-965,10,-5,-5,3,11,-3,43953.0
12:15:10.168,AUTO,-35.3632612,149.1652401,23056,-0.04835125431418419,0.02593323029577732,0.04178699851036072,-0.33732858300209045,0.015991387888789177,-0.004499237984418869,0,-12,-942,-336,16,-4,0,3,11,43953.0
12:15:10.370,AUTO,-35.3632612,149.1652401,23015,-0.04050141200423241,0.011290820315480232,0.04101160913705826,0.3370950222015381,-0.10061988979578018,-0.017673814669251442,0,30,-975,339,-99,-17,-4,-6,18,43953.0
12:15:10.572,AUTO,-35.3632612,149.1652401,23015,-0.04050141200423241,0.011290820315480232,0.04101160913705826,0.3370950222015381,-0.10061988979578018,-0.017673814669251442,0,30,-975,339,-99,-17,-4,-6,18,43953.0
12:15:10.774,AUTO,-35.3632612,149.1652397,22958,-0.006122966296970844,-0.015569922514259815,0.040274739265441895,0.8992308974266052,-0.09565412253141403,-0.007582010235637426,-3,41,-1023,900,-94,-7,-3,-13,21,43953.0
12:15:10.976,AUTO,-35.3632612,149.1652397,22958,-0.006122966296970844,-0.015569922514259815,0.040274739265441895,0.8992308974266052,-0.09565412253141403,-0.007582010235637426,-3,41,-1023,900,-94,-7,-3,-13,21,43953.0
12:15:11.177,AUTO,-35.3632612,149.1652397,22958,-0.006122966296970844,-0.015569922514259815,0.040274739265441895,0.8992308974266052,-0.09565412253141403,-0.007582010235637426,-3,41,-1023,900,-94,-7,-3,-13,21,43953.0
12:15:11.379,AUTO,-35.3632606,149.1652385,22833,0.009080681949853897,-0.06709276884794235,0.03714246675372124,-0.4879571795463562,-0.055793751031160355,-0.0012032960075885057,-7,-32,-1031,-487,-54,-1,27,-13,5,43953.0
12:15:11.580,AUTO,-35.3632606,149.1652385,22833,0.009080681949853897,-0.06709276884794235,0.03714246675372124,-0.4879571795463562,-0.055793751031160355,-0.0012032960075885057,-7,-32,-1031,-487,-54,-1,27,-13,5,43953.0
12:15:11.781,AUTO,-35.3632598,149.1652382,22817,0.006498479750007391,-0.07918211072683334,0.03529893979430199,-0.5327252149581909,-0.04515746235847473,-0.00939769484102726,-11,-16,-1008,-531,-44,-9,43,-10,3,43953.0
12:15:11.984,AUTO,-35.3632586,149.1652379,22809,0.015604640357196331,-0.0904361829161644,0.06302999705076218,0.22910180687904358,-0.035098087042570114,0.23140542209148407,-15,15,-1016,231,-34,231,61,-6,0,260330.0
12:15:12.186,AUTO,-35.363257,149.1652377,22807,0.02448584884405136,-0.1013757511973381,0.1155666634440422,0.6031874418258667,-0.04119861498475075,0.16351252794265747,-18,14,-1008,604,-40,163,81,-3,-1,260330.0
12:15:12.387,AUTO,-35.3632549,149.1652376,22809,0.02474510297179222,-0.11198293417692184,0.13979610800743103,0.164540097117424,-0.04452917352318764,0.0611984059214592,-22,-17,-1004,164,-43,61,102,0,-2,260330.0
12:15:12.590,AUTO,-35.3632549,149.1652376,22809,0.02474510297179222,-0.11198293417692184,0.13979610800743103,0.164540097117424,-0.04452917352318764,0.0611984059214592,-22,-17,-1004,164,-43,61,102,0,-2,260330.0
12:15:12.792,AUTO,-35.3632524,149.1652376,22814,0.014973380602896214,-0.12356434017419815,0.14165650308132172,-0.5107739567756653,-0.04572555050253868,0.0007738408166915178,-26,-38,-1003,-510,-44,0,125,3,-4,260330.0
12:15:12.993,AUTO,-35.3632524,149.1652376,22814,0.014973380602896214,-0.12356434017419815,0.14165650308132172,-0.5107739567756653,-0.04572555050253868,0.0007738408166915178,-26,-38,-1003,-510,-44,0,125,3,-4,260330.0
12:15:13.195,AUTO,-35.3632524,149.1652376,22814,0.014973380602896214,-0.12356434017419815,0.14165650308132172,-0.5107739567756653,-0.04572555050253868,0.0007738408166915178,-26,-38,-1003,-510,-44,0,125,3,-4,260330.0
12:15:13.397,AUTO,-35.3632415,149.165238,22838,0.033789072185754776,-0.1578570008277893,0.12193141132593155,0.41432443261146545,-0.05592773109674454,-0.0009544510976411402,-39,-11,-1002,414,-54,0,202,15,-3,260330.0
12:15:13.599,AUTO,-35.3632367,149.1652383,22846,0.03206157311797142,-0.17185494303703308,0.11870764940977097,-0.26902687549591064,-0.05721452087163925,0.01648043282330036,-46,-44,-1006,-268,-56,16,231,17,-4,260330.0
12:15:13.801,AUTO,-35.3632367,149.1652383,22846,0.03206157311797142,-0.17185494303703308,0.11870764940977097,-0.26902687549591064,-0.05721452087163925,0.01648043282330036,-46,-44,-1006,-268,-56,16,231,17,-4,260330.0
12:15:14.002,AUTO,-35.3632312,149.1652386,22854,0.033033180981874466,-0.18583263456821442,0.11553563922643661,-0.07730241119861603,-0.04080985113978386,0.00786434207111597,-60,-28,-1010,-75,-39,7,262,21,-4,260330.0
12:15:14.204,AUTO,-35.363225,149.165239,22864,0.046411510556936264,-0.18793097138404846,0.1137189194560051,0.2967302203178406,0.02269439771771431,0.012368128634989262,-59,-19,-1010,297,23,12,294,25,-4,260330.0
12:15:14.406,AUTO,-35.3632181,149.1652395,22877,0.05027599632740021,-0.1847541183233261,0.11316172033548355,-0.014104447327554226,-0.005698572378605604,0.02313288301229477,-64,-42,-1007,-13,-4,22,324,28,-6,260330.0
12:15:14.608,AUTO,-35.3632105,149.16524,22892,0.04854871705174446,-0.1854994297027588,0.11303118616342545,-0.18450751900672913,0.01910322718322277,0.02149389684200287,-73,-42,-1009,-183,20,21,352,33,-6,260330.0
12:15:14.810,AUTO,-35.3632105,149.16524,22892,0.04854871705174446,-0.1854994297027588,0.11303118616342545,-0.18450751900672913,0.01910322718322277,0.02149389684200287,-73,-42,-1009,-183,20,21,352,33,-6,260330.0
12:15:15.012,AUTO,-35.3632105,149.16524,22892,0.04854871705174446,-0.1854994297027588,0.11303118616342545,-0.18450751900672913,0.01910322718322277,0.02149389684200287,-73,-42,-1009,-183,20,21,352,33,-6,255001.0
12:15:15.214,AUTO,-35.3632105,149.16524,22892,0.04854871705174446,-0.1854994297027588,0.11303118616342545,-0.18450751900672913,0.01910322718322277,0.02149389684200287,-73,-42,-1009,-183,20,21,352,33,-6,255001.0
12:15:15.416,AUTO,-35.3631843,149.1652422,22947,0.06011296808719635,-0.2014480084180832,0.10978717356920242,-0.026247119531035423,-0.026437805965542793,0.021019531413912773,-90,-52,-1003,-25,-25,21,433,44,-7,255001.0
12:15:15.617,AUTO,-35.3631744,149.1652432,22967,0.060671616345644,-0.21015417575836182,0.10941307246685028,0.0025543165393173695,-0.03346766531467438,0.016552429646253586,-89,-37,-996,3,-32,16,460,49,-7,255001.0
12:15:15.819,AUTO,-35.3631744,149.1652432,22967,0.060671616345644,-0.21015417575836182,0.10941307246685028,0.0025543165393173695,-0.03346766531467438,0.016552429646253586,-89,-37,-996,3,-32,16,460,49,-7,255001.0
12:15:16.020,AUTO,-35.3631638,149.1652442,22987,0.06234555318951607,-0.21760907769203186,0.10863985121250153,0.01939055696129799,-0.02290961518883705,0.01752130687236786,-103,-52,-1000,20,-22,17,488,52,-7,255001.0
12:15:16.222,AUTO,-35.3631525,149.1652453,23007,0.06292818486690521,-0.21985819935798645,0.10830704122781754,-0.024767238646745682,0.011555829085409641,0.01726323924958706,-107,-51,-1006,-23,12,17,516,56,-8,255001.0
12:15:16.424,AUTO,-35.3631406,149.1652466,23031,0.06455323845148087,-0.2143746167421341,0.109433114528656,0.0037409127689898014,0.03172475844621658,0.02179916761815548,-122,-47,-1011,5,32,22,543,59,-10,255001.0
12:15:16.626,AUTO,-35.363128,149.165248,23062,0.06324005126953125,-0.20566816627979279,0.10996386408805847,-0.0041201491840183735,0.03884326294064522,0.011449710465967655,-110,-50,-1002,-2,39,11,567,62,-13,255001.0
12:15:16.828,AUTO,-35.363128,149.165248,23062,0.06324005126953125,-0.20566816627979279,0.10996386408805847,-0.0041201491840183735,0.03884326294064522,0.011449710465967655,-110,-50,-1002,-2,39,11,567,62,-13,255001.0
12:15:17.030,AUTO,-35.363128,149.165248,23062,0.06324005126953125,-0.20566816627979279,0.10996386408805847,-0.0041201491840183735,0.03884326294064522,0.011449710465967655,-110,-50,-1002,-2,39,11,567,62,-13,255001.0
12:15:17.231,AUTO,-35.363128,149.165248,23062,0.06324005126953125,-0.20566816627979279,0.10996386408805847,-0.0041201491840183735,0.03884326294064522,0.011449710465967655,-110,-50,-1002,-2,39,11,567,62,-13,255001.0
12:15:17.433,AUTO,-35.3630881,149.1652524,23188,0.06599278002977371,-0.18646660447120667,0.10981782525777817,0.006505435798317194,0.0057630459778010845,0.0034530796110630035,-131,-58,-998,7,6,3,622,67,-19,255001.0
12:15:17.635,AUTO,-35.3630741,149.165254,23238,0.06532688438892365,-0.1839902549982071,0.10958162695169449,-0.016342012211680412,0.009274900890886784,0.0012929339427500963,-157,-37,-1002,-14,10,1,634,69,-20,255001.0
12:15:17.837,AUTO,-35.3630741,149.165254,23238,0.06532688438892365,-0.1839902549982071,0.10958162695169449,-0.016342012211680412,0.009274900890886784,0.0012929339427500963,-157,-37,-1002,-14,10,1,634,69,-20,255001.0
12:15:18.038,AUTO,-35.3630597,149.1652556,23289,0.06374633312225342,-0.18357938528060913,0.11055304110050201,0.004815826658159494,0.010550599545240402,0.0051689245738089085,-128,-69,-991,6,11,5,647,68,-19,275736.0
12:15:18.240,AUTO,-35.3630451,149.1652572,23340,0.06659992784261703,-0.17929725348949432,0.11060622334480286,0.0292923916131258,0.01520932000130415,-0.0008572576916776597,-126,-48,-982,30,15,0,657,69,-19,275736.0
12:15:18.442,AUTO,-35.3630301,149.1652588,23391,0.0683697983622551,-0.16972708702087402,0.11045723408460617,0.01186111755669117,0.04953744262456894,0.0005496689700521529,-143,-66,-1000,13,50,0,667,69,-20,275736.0
12:15:18.644,AUTO,-35.3630149,149.1652605,23445,0.06873956322669983,-0.1605541706085205,0.11175458878278732,-0.01585792936384678,0.029139835387468338,-0.0013606254942715168,-145,-65,-992,-14,29,0,674,69,-21,275736.0
12:15:18.851,AUTO,-35.3630149,149.1652605,23445,0.06873956322669983,-0.1605541706085205,0.11175458878278732,-0.01585792936384678,0.029139835387468338,-0.0013606254942715168,-145,-65,-992,-14,29,0,674,69,-21,275736.0
12:15:19.055,AUTO,-35.3630149,149.1652605,23445,0.06873956322669983,-0.1605541706085205,0.11175458878278732,-0.01585792936384678,0.029139835387468338,-0.0013606254942715168,-145,-65,-992,-14,29,0,674,69,-21,275736.0
12:15:19.259,AUTO,-35.3630149,149.1652605,23445,0.06873956322669983,-0.1605541706085205,0.11175458878278732,-0.01585792936384678,0.029139835387468338,-0.0013606254942715168,-145,-65,-992,-14,29,0,674,69,-21,275736.0
12:15:19.461,AUTO,-35.3629689,149.1652654,23606,0.07669290900230408,-0.13792286813259125,0.11135968565940857,0.03309677913784981,0.044448371976614,-0.018262721598148346,-124,-80,-986,34,45,-18,686,68,-20,275736.0
12:15:19.663,AUTO,-35.3629533,149.165267,23663,0.08068142086267471,-0.12911970913410187,0.1107686311006546,0.0035207546316087246,0.01971331797540188,-0.008228150196373463,-140,-74,-983,5,20,-8,683,67,-21,275736.0
12:15:19.864,AUTO,-35.3629379,149.1652686,23716,0.07808123528957367,-0.12954166531562805,0.11054112762212753,-0.03284124284982681,0.0109159667044878,-0.006820071022957563,-137,-64,-973,-31,11,-6,681,69,-18,275736.0
12:15:20.066,AUTO,-35.3629379,149.1652686,23716,0.07808123528957367,-0.12954166531562805,0.11054112762212753,-0.03284124284982681,0.0109159667044878,-0.006820071022957563,-137,-64,-973,-31,11,-6,681,69,-18,275736.0
12:15:20.268,AUTO,-35.3629226,149.1652703,23762,0.07591048628091812,-0.1319885402917862,0.111312635242939,0.05470121279358864,-0.05670339614152908,-0.008343864232301712,-155,-82,-983,56,-55,-8,678,67,-17,275736.0
12:15:20.470,AUTO,-35.3629074,149.165272,23800,0.07864493876695633,-0.14298060536384583,0.10994213074445724,-0.017411425709724426,-0.0037975285667926073,-0.008229434490203857,-130,-58,-965,-16,-2,-8,677,68,-11,275736.0
12:15:20.672,AUTO,-35.362892,149.1652737,23827,0.07609300315380096,-0.1393537074327469,0.109149269759655,0.01383320614695549,0.0100955655798316,-0.013090659864246845,-126,-71,-986,15,11,-13,680,68,-10,275736.0
12:15:20.873,AUTO,-35.362892,149.1652737,23827,0.07609300315380096,-0.1393537074327469,0.109149269759655,0.01383320614695549,0.0100955655798316,-0.013090659864246845,-126,-71,-986,15,11,-13,680,68,-10,275736.0
12:15:21.075,AUTO,-35.362892,149.1652737,23827,0.07609300315380096,-0.1393537074327469,0.109149269759655,0.01383320614695549,0.0100955655798316,-0.013090659864246845,-126,-71,-986,15,11,-13,680,68,-10,47480.0
12:15:21.277,AUTO,-35.362892,149.1652737,23827,0.07609300315380096,-0.1393537074327469,0.109149269759655,0.01383320614695549,0.0100955655798316,-0.013090659864246845,-126,-71,-986,15,11,-13,680,68,-10,47480.0
12:15:21.479,AUTO,-35.3628461,149.1652788,23908,0.07205528020858765,-0.1476590633392334,0.1054757684469223,0.01898198388516903,-0.013082427904009819,-0.0030080985743552446,-146,-83,-991,20,-12,-3,683,67,-9,47480.0
12:15:21.680,AUTO,-35.3628307,149.1652806,23935,0.07049132138490677,-0.14560402929782867,0.10520754754543304,-0.04118702560663223,0.01879936456680298,-0.0017073326744139194,-134,-70,-990,-39,19,-1,685,67,-9,47480.0
12:15:21.882,AUTO,-35.3628153,149.1652823,23965,0.06848601996898651,-0.1400979906320572,0.10590963065624237,-0.012994654476642609,0.011432225815951824,-0.0027154923882335424,-135,-65,-991,-11,12,-3,687,66,-11,47480.0
12:15:22.083,AUTO,-35.3628153,149.1652823,23965,0.06848601996898651,-0.1400979906320572,0.10590963065624237,-0.012994654476642609,0.011432225815951824,-0.0027154923882335424,-135,-65,-991,-11,12,-3,687,66,-11,47480.0
12:15:22.285,AUTO,-35.3627998,149.1652841,24000,0.0672881156206131,-0.1370181441307068,0.10652338713407516,0.006341929081827402,-0.006960166152566671,0.008375152014195919,-151,-46,-997,8,-6,8,687,67,-13,47480.0
12:15:22.487,AUTO,-35.3627843,149.1652858,24038,0.06642479449510574,-0.13857753574848175,0.10586246848106384,0.04738380014896393,0.01454311516135931,-0.0181571152061224,-133,-97,-987,49,15,-18,688,64,-13,47480.0
12:15:22.689,AUTO,-35.3627688,149.1652875,24076,0.0733799859881401,-0.1343151032924652,0.10371612012386322,-0.013898088596761227,0.01677030324935913,-0.010177742689847946,-137,-73,-989,-12,18,-10,689,62,-14,47480.0
12:15:22.891,AUTO,-35.3627688,149.1652875,24076,0.0733799859881401,-0.1343151032924652,0.10371612012386322,-0.013898088596761227,0.01677030324935913,-0.010177742689847946,-137,-73,-989,-12,18,-10,689,62,-14,47480.0
12:15:23.093,AUTO,-35.3627688,149.1652875,24076,0.0733799859881401,-0.1343151032924652,0.10371612012386322,-0.013898088596761227,0.01677030324935913,-0.010177742689847946,-137,-73,-989,-12,18,-10,689,62,-14,47480.0
12:15:23.295,AUTO,-35.3627688,149.1652875,24076,0.0733799859881401,-0.1343151032924652,0.10371612012386322,-0.013898088596761227,0.01677030324935913,-0.010177742689847946,-137,-73,-989,-12,18,-10,689,62,-14,47480.0
12:15:23.497,AUTO,-35.3627223,149.1652924,24196,0.07248374819755554,-0.13299956917762756,0.10225001722574234,-0.06994342058897018,0.03178391978144646,0.010742530226707458,-130,-65,-990,-68,32,10,687,62,-13,47480.0
12:15:23.699,AUTO,-35.3627068,149.1652941,24237,0.07202626764774323,-0.13085253536701202,0.10229571163654327,0.027643898501992226,-0.018593277782201767,-0.004953491501510143,-134,-74,-978,29,-17,-5,685,60,-15,47480.0
12:15:23.900,AUTO,-35.3626915,149.1652957,24278,0.07176472991704941,-0.1355533003807068,0.10216158628463745,-0.0030852644704282284,-0.01481583807617426,0.006945746019482613,-130,-70,-975,-1,-13,6,683,60,-13,136188.0
12:15:24.102,AUTO,-35.3626758,149.1652974,24315,0.07112961262464523,-0.13658994436264038,0.10074547678232193,-0.04051965847611427,0.0026097772642970085,-0.005324691534042358,-133,-79,-986,-38,3,-5,682,60,-12,136188.0
12:15:24.304,AUTO,-35.3626758,149.1652974,24315,0.07112961262464523,-0.13658994436264038,0.10074547678232193,-0.04051965847611427,0.0026097772642970085,-0.005324691534042358,-133,-79,-986,-38,3,-5,682,60,-12,136188.0
12:15:24.506,AUTO,-35.3626605,149.1652991,24352,0.06884907931089401,-0.1296095997095108,0.09992321580648422,-0.030550897121429443,0.033771634101867676,-0.005763094872236252,-149,-55,-998,-29,34,-5,681,60,-13,136188.0
12:15:24.708,AUTO,-35.3626452,149.1653008,24394,0.07159136235713959,-0.10984299331903458,0.10008066147565842,0.03472427278757095,0.09123294055461884,-0.01261077355593443,-127,-65,-1000,36,91,-12,679,58,-16,136188.0
12:15:24.910,AUTO,-35.3626452,149.1653008,24394,0.07159136235713959,-0.10984299331903458,0.10008066147565842,0.03472427278757095,0.09123294055461884,-0.01261077355593443,-127,-65,-1000,36,91,-12,679,58,-16,136188.0
12:15:25.111,AUTO,-35.3626452,149.1653008,24394,0.07159136235713959,-0.10984299331903458,0.10008066147565842,0.03472427278757095,0.09123294055461884,-0.01261077355593443,-127,-65,-1000,36,91,-12,679,58,-16,136188.0
12:15:25.313,AUTO,-35.3626452,149.1653008,24394,0.07159136235713959,-0.10984299331903458,0.10008066147565842,0.03472427278757095,0.09123294055461884,-0.01261077355593443,-127,-65,-1000,36,91,-12,679,58,-16,136188.0
12:15:25.515,AUTO,-35.3626006,149.1653055,24559,0.07478825747966766,-0.06849099695682526,0.09988874942064285,-0.009202610701322556,0.041648607701063156,-0.011854134500026703,-138,-77,-986,-7,42,-11,644,53,-20,136188.0
12:15:25.717,AUTO,-35.3625862,149.165307,24613,0.07366785407066345,-0.056492503732442856,0.10063156485557556,-0.02510591596364975,0.05830059200525284,-0.0018918327987194061,-131,-67,-987,-23,59,-2,629,52,-18,136188.0
12:15:25.919,AUTO,-35.3625721,149.1653086,24663,0.0672672763466835,-0.04680342972278595,0.1006002128124237,-0.014388784766197205,0.028183860704302788,-0.001286539831198752,-123,-78,-984,-12,29,-1,610,51,-17,136188.0
12:15:26.120,AUTO,-35.3625585,149.1653101,24708,0.06714047491550446,-0.03513333946466446,0.10053764283657074,-0.02075621858239174,0.04676990211009979,4.526405973592773e-05,-134,-75,-990,-19,47,0,590,49,-15,136188.0
12:15:26.322,AUTO,-35.3625585,149.1653101,24708,0.06714047491550446,-0.03513333946466446,0.10053764283657074,-0.02075621858239174,0.04676990211009979,4.526405973592773e-05,-134,-75,-990,-19,47,0,590,49,-15,136188.0
12:15:26.524,AUTO,-35.3625455,149.1653116,24748,0.0658692717552185,-0.02548137865960598,0.10022561997175217,-0.024195238947868347,0.06168514862656593,-0.0037561168428510427,-110,-64,-985,-22,62,-3,569,47,-12,136188.0
12:15:26.726,AUTO,-35.3625328,149.1653129,24782,0.06691902130842209,-0.009118102490901947,0.10037357360124588,0.06734543293714523,0.05376506969332695,-0.004600330255925655,-116,-67,-994,68,54,-4,546,44,-12,136188.0
12:15:26.928,AUTO,-35.3625328,149.1653129,24782,0.06691902130842209,-0.009118102490901947,0.10037357360124588,0.06734543293714523,0.05376506969332695,-0.004600330255925655,-116,-67,-994,68,54,-4,546,44,-12,3385.0
12:15:27.129,AUTO,-35.3625328,149.1653129,24782,0.06691902130842209,-0.009118102490901947,0.10037357360124588,0.06734543293714523,0.05376506969332695,-0.004600330255925655,-116,-67,-994,68,54,-4,546,44,-12,3385.0
12:15:27.331,AUTO,-35.3625328,149.1653129,24782,0.06691902130842209,-0.009118102490901947,0.10037357360124588,0.06734543293714523,0.05376506969332695,-0.004600330255925655,-116,-67,-994,68,54,-4,546,44,-12,3385.0
12:15:27.533,AUTO,-35.3624979,149.1653167,24864,0.06608259677886963,0.025555862113833427,0.10066087543964386,0.34404638409614563,0.032656267285346985,-0.016489995643496513,-101,-36,-993,346,33,-16,465,38,-6,3385.0
12:15:27.735,AUTO,-35.3624877,149.1653178,24880,0.07025250047445297,0.03656861558556557,0.10011480748653412,0.2788480520248413,0.06640175729990005,0.01906074397265911,-89,-71,-977,279,67,19,436,35,-3,3385.0
12:15:27.936,AUTO,-35.3624781,149.1653189,24886,0.05189927667379379,0.05169235169887543,0.1004658043384552,-0.6069345474243164,0.04135642573237419,0.04721242934465408,-76,-95,-992,-606,42,47,405,33,0,3385.0
12:15:28.138,AUTO,-35.3624693,149.1653199,24888,0.04089096933603287,0.05251075699925423,0.10024914890527725,-0.7319299578666687,-0.020756354555487633,0.00907811988145113,-77,-69,-1007,-730,-19,8,373,32,0,3385.0
12:15:28.340,AUTO,-35.3624693,149.1653199,24888,0.04089096933603287,0.05251075699925423,0.10024914890527725,-0.7319299578666687,-0.020756354555487633,0.00907811988145113,-77,-69,-1007,-730,-19,8,373,32,0,3385.0
12:15:28.542,AUTO,-35.3624612,149.1653209,24889,0.04114195704460144,0.046137064695358276,0.09976095706224442,0.0857696458697319,-0.02141839638352394,-0.027837106958031654,-70,-23,-996,88,-20,-27,343,31,0,3385.0
12:15:28.744,AUTO,-35.3624538,149.1653218,24886,0.04164207726716995,0.043534357100725174,0.09705066680908203,0.5306704044342041,-0.0008141983998939395,-0.03554482012987137,-69,-11,-1024,533,0,-35,315,29,1,3385.0
12:15:28.946,AUTO,-35.3624538,149.1653218,24886,0.04164207726716995,0.043534357100725174,0.09705066680908203,0.5306704044342041,-0.0008141983998939395,-0.03554482012987137,-69,-11,-1024,533,0,-35,315,29,1,3385.0
12:15:29.148,AUTO,-35.3624538,149.1653218,24886,0.04164207726716995,0.043534357100725174,0.09705066680908203,0.5306704044342041,-0.0008141983998939395,-0.03554482012987137,-69,-11,-1024,533,0,-35,315,29,1,3385.0
12:15:29.350,AUTO,-35.3624538,149.1653218,24886,0.04164207726716995,0.043534357100725174,0.09705066680908203,0.5306704044342041,-0.0008141983998939395,-0.03554482012987137,-69,-11,-1024,533,0,-35,315,29,1,3385.0
12:15:29.552,AUTO,-35.362435,149.1653237,24888,0.03387003391981125,0.0617704913020134,0.10012345761060715,-0.5804130434989929,0.03095712885260582,0.018203863874077797,-50,-64,-1019,-579,32,18,237,20,-1,3385.0
12:15:29.754,AUTO,-35.36243,149.1653242,24891,0.022678066045045853,0.06743470579385757,0.10012951493263245,-0.7705038785934448,0.02832215651869774,0.005619141273200512,-43,-52,-1022,-768,29,6,210,19,0,3385.0
12:15:29.955,AUTO,-35.3624255,149.1653246,24894,0.019031532108783722,0.07263793051242828,0.09914109855890274,-0.272117555141449,0.02117025852203369,-0.0031597521156072617,-37,-11,-1000,-269,22,-3,182,18,-1,105041.0
12:15:30.157,AUTO,-35.3624218,149.165325,24897,0.02766653522849083,0.07742676138877869,0.09889690577983856,0.4856936037540436,-0.004098106175661087,-0.014999398030340672,-33,21,-1010,488,-3,-14,155,17,-2,105041.0
12:15:30.359,AUTO,-35.3624186,149.1653253,24902,0.03156084194779396,0.07114744186401367,0.09887266159057617,0.4213196635246277,-0.04101777449250221,0.0047297184355556965,-29,-7,-1003,422,-40,4,129,14,-2,105041.0
12:15:30.561,AUTO,-35.3624186,149.1653253,24902,0.03156084194779396,0.07114744186401367,0.09887266159057617,0.4213196635246277,-0.04101777449250221,0.0047297184355556965,-29,-7,-1003,422,-40,4,129,14,-2,105041.0
12:15:30.763,AUTO,-35.362416,149.1653254,24907,0.026111219078302383,0.06088314577937126,0.09879400581121445,-0.3310009837150574,-0.039533454924821854,0.008245558477938175,-25,-51,-996,-330,-38,8,106,12,-2,105041.0
12:15:30.965,AUTO,-35.362416,149.1653254,24907,0.026111219078302383,0.06088314577937126,0.09879400581121445,-0.3310009837150574,-0.039533454924821854,0.008245558477938175,-25,-51,-996,-330,-38,8,106,12,-2,105041.0
12:15:31.166,AUTO,-35.362416,149.1653254,24907,0.026111219078302383,0.06088314577937126,0.09879400581121445,-0.3310009837150574,-0.039533454924821854,0.008245558477938175,-25,-51,-996,-330,-38,8,106,12,-2,105041.0
12:15:31.369,AUTO,-35.3624108,149.1653255,24902,0.008993605151772499,0.04355083405971527,0.09750870615243912,-0.29736199975013733,-0.016021905466914177,-0.008553288877010345,-13,0,-1011,-294,-14,-8,55,13,0,105041.0
12:15:31.570,AUTO,-35.3624108,149.1653255,24902,0.008993605151772499,0.04355083405971527,0.09750870615243912,-0.29736199975013733,-0.016021905466914177,-0.008553288877010345,-13,0,-1011,-294,-14,-8,55,13,0,105041.0
