time_stamp,MODE,lat,lon,relative_alt,roll,pitch,yaw,rollspeed,pitchspeed,yawspeed,xacc,yacc,zacc,xgyro,ygyro,zgyro,vx,vy,vz,RTL_ALT
17:00:15.978,STABILIZE,-35.3632622,149.1652375,0,0.0004335795238148421,0.0015208058757707477,0.02714620716869831,0.0001853381108958274,0.0002536910178605467,0.00226312386803329,0,1,-1000,0,0,0,-2,4,2,1500.0
17:00:16.179,STABILIZE,-35.3632622,149.1652375,0,0.0004335795238148421,0.0015208058757707477,0.02714620716869831,0.0001853381108958274,0.0002536910178605467,0.00226312386803329,0,1,-1000,0,0,0,-2,4,2,1500.0
17:00:16.379,STABILIZE,-35.3632622,149.1652375,0,0.0004335795238148421,0.0015208058757707477,0.02714620716869831,0.0001853381108958274,0.0002536910178605467,0.00226312386803329,0,1,-1000,0,0,0,-2,4,2,1500.0
17:00:16.580,STABILIZE,-35.3632622,149.1652375,0,0.0004335795238148421,0.0015208058757707477,0.02714620716869831,0.0001853381108958274,0.0002536910178605467,0.00226312386803329,0,1,-1000,0,0,0,-2,4,2,1500.0
17:00:16.780,STABILIZE,-35.3632622,149.1652375,0,0.0004335795238148421,0.0015208058757707477,0.02714620716869831,0.0001853381108958274,0.0002536910178605467,0.00226312386803329,0,1,-1000,0,0,0,-2,4,2,1500.0
17:00:16.981,STABILIZE,-35.3632622,149.1652375,0,0.0004335795238148421,0.0015208058757707477,0.02714620716869831,0.0001853381108958274,0.0002536910178605467,0.00226312386803329,0,1,-1000,0,0,0,-2,4,2,1500.0
17:00:17.182,STABILIZE,-35.3632622,149.1652375,0,0.0004335795238148421,0.0015208058757707477,0.02714620716869831,0.0001853381108958274,0.0002536910178605467,0.00226312386803329,0,1,-1000,0,0,0,-2,4,2,1500.0
17:00:17.382,STABILIZE,-35.3632622,149.1652376,0,-0.0004849510150961578,0.0012366381706669927,0.02631860226392746,0.00018125143833458424,0.0002358460915274918,0.002168507780879736,0,1,-1000,0,0,0,-1,2,2,1500.0
17:00:17.584,STABILIZE,-35.3632622,149.1652376,0,-0.0004849510150961578,0.0012366381706669927,0.02631860226392746,0.00018125143833458424,0.0002358460915274918,0.002168507780879736,0,1,-1000,0,0,0,-1,2,2,1500.0
17:00:17.785,STABILIZE,-35.3632622,149.1652376,0,-0.0004849510150961578,0.0012366381706669927,0.02631860226392746,0.00018125143833458424,0.0002358460915274918,0.002168507780879736,0,1,-1000,0,0,0,-1,2,2,1500.0
17:00:17.986,STABILIZE,-35.3632622,149.1652375,0,-0.000717041315510869,0.0011528662871569395,0.026104649528861046,0.0001305326004512608,0.00024088076315820217,0.00214475579559803,0,1,-1000,0,0,0,-1,1,1,1500.0
17:00:18.188,STABILIZE,-35.3632622,149.1652375,0,-0.0008081112755462527,0.0011141502764075994,0.026004891842603683,0.00016602122923359275,0.0001888716360554099,0.002237476874142885,0,1,-1000,0,1,0,-1,1,1,1500.0
17:00:18.389,STABILIZE,-35.3632622,149.1652375,0,-0.0008081112755462527,0.0011141502764075994,0.026004891842603683,0.00016602122923359275,0.0001888716360554099,0.002237476874142885,0,1,-1000,0,1,0,-1,1,1,1500.0
17:00:18.590,STABILIZE,-35.3632622,149.1652375,0,-0.0008081112755462527,0.0011141502764075994,0.026004891842603683,0.00016602122923359275,0.0001888716360554099,0.002237476874142885,0,1,-1000,0,1,0,-1,1,1,1500.0
17:00:18.792,STABILIZE,-35.3632622,149.1652375,0,-0.0008081112755462527,0.0011141502764075994,0.026004891842603683,0.00016602122923359275,0.0001888716360554099,0.002237476874142885,0,1,-1000,0,1,0,-1,1,1,1500.0
17:00:18.993,STABILIZE,-35.3632622,149.1652375,0,-0.0008081112755462527,0.0011141502764075994,0.026004891842603683,0.00016602122923359275,0.0001888716360554099,0.002237476874142885,0,1,-1000,0,1,0,-1,1,1,1500.0
17:00:19.195,STABILIZE,-35.3632622,149.1652375,0,-0.0008081112755462527,0.0011141502764075994,0.026004891842603683,0.00016602122923359275,0.0001888716360554099,0.002237476874142885,0,1,-1000,0,1,0,-1,1,1,1500.0
17:00:19.396,STABILIZE,-35.3632622,149.1652375,0,-0.0008081112755462527,0.0011141502764075994,0.026004891842603683,0.00016602122923359275,0.0001888716360554099,0.002237476874142885,0,1,-1000,0,1,0,-1,1,1,1500.0
17:00:19.597,STABILIZE,-35.3632622,149.1652375,0,-0.0008081112755462527,0.0011141502764075994,0.026004891842603683,0.00016602122923359275,0.0001888716360554099,0.002237476874142885,0,1,-1000,0,1,0,-1,1,1,1500.0
17:00:19.799,STABILIZE,-35.3632622,149.1652375,0,-0.0008081112755462527,0.0011141502764075994,0.026004891842603683,0.00016602122923359275,0.0001888716360554099,0.002237476874142885,0,1,-1000,0,1,0,-1,1,1,1500.0
17:00:20.000,STABILIZE,-35.3632622,149.1652375,0,-0.0008081112755462527,0.0011141502764075994,0.026004891842603683,0.00016602122923359275,0.0001888716360554099,0.002237476874142885,0,1,-1000,0,1,0,-1,1,1,1500.0
17:00:20.202,STABILIZE,-35.3632621,149.1652375,0,-0.0009181481436826289,0.0009758794330991805,0.02530069090425968,0.00013681332347914577,0.00028222479159012437,0.002060761209577322,0,1,-1000,0,0,0,-1,1,1,1500.0
17:00:20.403,STABILIZE,-35.3632621,149.1652375,0,-0.0009181481436826289,0.0009758794330991805,0.02530069090425968,0.00013681332347914577,0.00028222479159012437,0.002060761209577322,0,1,-1000,1,0,0,-1,1,1,1500.0
17:00:20.604,STABILIZE,-35.3632621,149.1652375,0,-0.0009181481436826289,0.0009758794330991805,0.02530069090425968,0.00013681332347914577,0.00028222479159012437,0.002060761209577322,0,1,-1000,1,0,0,-1,1,1,1500.0
17:00:20.805,STABILIZE,-35.3632621,149.1652375,0,-0.0009181481436826289,0.0009758794330991805,0.02530069090425968,0.00013681332347914577,0.00028222479159012437,0.002060761209577322,0,1,-1000,1,0,0,-1,1,1,1500.0
17:00:21.007,STABILIZE,-35.3632621,149.1652375,0,-0.0009181481436826289,0.0009758794330991805,0.02530069090425968,0.00013681332347914577,0.00028222479159012437,0.002060761209577322,0,1,-1000,1,0,0,-1,1,1,1500.0
17:00:21.208,STABILIZE,-35.3632621,149.1652375,0,-0.0009181481436826289,0.0009758794330991805,0.02530069090425968,0.00013681332347914577,0.00028222479159012437,0.002060761209577322,0,1,-1000,1,0,0,-1,1,1,1500.0
17:00:21.410,STABILIZE,-35.3632621,149.1652375,0,-0.001038848771713674,0.0009412110666744411,0.024936426430940628,0.00023103831335902214,0.00016883498756214976,0.0018772028852254152,0,1,-1000,0,0,0,-1,0,1,1500.0
17:00:21.611,STABILIZE,-35.3632621,149.1652375,0,-0.001038848771713674,0.0009412110666744411,0.024936426430940628,0.00023103831335902214,0.00016883498756214976,0.0018772028852254152,0,1,-1000,0,0,0,-1,0,1,1500.0
17:00:21.813,STABILIZE,-35.3632621,149.1652375,0,-0.001038848771713674,0.0009412110666744411,0.024936426430940628,0.00023103831335902214,0.00016883498756214976,0.0018772028852254152,0,1,-1000,0,0,0,-1,0,1,1500.0
17:00:22.014,STABILIZE,-35.3632621,149.1652375,0,-0.001038848771713674,0.0009412110666744411,0.024936426430940628,0.00023103831335902214,0.00016883498756214976,0.0018772028852254152,0,1,-1000,0,0,0,-1,0,1,1500.0
17:00:22.215,STABILIZE,-35.3632621,149.1652375,0,-0.001038848771713674,0.0009412110666744411,0.024936426430940628,0.00023103831335902214,0.00016883498756214976,0.0018772028852254152,0,1,-1000,0,0,0,-1,0,1,1500.0
17:00:22.416,STABILIZE,-35.3632621,149.1652375,0,-0.001038848771713674,0.0009412110666744411,0.024936426430940628,0.00023103831335902214,0.00016883498756214976,0.0018772028852254152,0,1,-1000,0,0,0,-1,0,1,1500.0
17:00:22.618,STABILIZE,-35.3632621,149.1652375,0,-0.0010850225808098912,0.0009414461674168706,0.024550490081310272,0.00030427606543526053,0.0003678568173199892,0.00174996186979115,0,1,-1000,0,0,0,-1,0,0,1500.0
17:00:22.819,STABILIZE,-35.3632621,149.1652375,0,-0.0010850225808098912,0.0009414461674168706,0.024550490081310272,0.00030427606543526053,0.0003678568173199892,0.00174996186979115,0,1,-1000,0,0,0,-1,0,0,1500.0
17:00:23.020,STABILIZE,-35.3632621,149.1652375,0,-0.0010850225808098912,0.0009414461674168706,0.024550490081310272,0.00030427606543526053,0.0003678568173199892,0.00174996186979115,0,1,-1000,0,0,0,-1,0,0,1500.0
17:00:23.221,STABILIZE,-35.3632621,149.1652375,0,-0.0010850225808098912,0.0009414461674168706,0.024550490081310272,0.00030427606543526053,0.0003678568173199892,0.00174996186979115,0,1,-1000,0,0,0,-1,0,0,1500.0
17:00:23.423,STABILIZE,-35.3632621,149.1652375,0,-0.0010861633345484734,0.000940516940318048,0.02434302680194378,0.00018417852697893977,0.00023958331439644098,0.0018069692887365818,0,1,-1000,0,0,1,-1,0,0,1500.0
17:00:23.625,STABILIZE,-35.3632621,149.1652375,0,-0.0010861633345484734,0.000940516940318048,0.02434302680194378,0.00018417852697893977,0.00023958331439644098,0.0018069692887365818,0,1,-1000,0,1,0,-1,0,0,1500.0
17:00:23.827,STABILIZE,-35.3632621,149.1652375,0,-0.0010861633345484734,0.000940516940318048,0.02434302680194378,0.00018417852697893977,0.00023958331439644098,0.0018069692887365818,0,1,-1000,0,0,1,-1,0,0,1500.0
17:00:24.028,STABILIZE,-35.3632621,149.1652375,0,-0.0010861633345484734,0.000940516940318048,0.02434302680194378,0.00018417852697893977,0.00023958331439644098,0.0018069692887365818,0,1,-1000,0,0,1,-1,0,0,1500.0
17:00:24.229,STABILIZE,-35.3632621,149.1652375,0,-0.0010861633345484734,0.000940516940318048,0.02434302680194378,0.00018417852697893977,0.00023958331439644098,0.0018069692887365818,0,1,-1000,0,0,1,-1,0,0,1500.0
17:00:24.431,STABILIZE,-35.3632621,149.1652375,0,-0.0010796262649819255,0.0009532762924209237,0.024079829454421997,0.0002969935885630548,0.00023665488697588444,0.0018226169049739838,0,2,-1000,0,1,0,-1,0,0,1500.0
17:00:24.633,STABILIZE,-35.3632622,149.1652375,0,-0.0010787347564473748,0.0009596158633939922,0.02401615120470524,0.00023612851509824395,0.00027809629682451487,0.00180037971585989,0,1,-1000,0,0,0,-1,0,0,1500.0
17:00:24.845,STABILIZE,-35.3632622,149.1652375,0,-0.0010787347564473748,0.0009596158633939922,0.02401615120470524,0.00023612851509824395,0.00027809629682451487,0.00180037971585989,0,1,-1000,0,0,0,-1,0,0,1500.0
17:00:25.047,STABILIZE,-35.3632622,149.1652375,0,-0.0010787347564473748,0.0009596158633939922,0.02401615120470524,0.00023612851509824395,0.00027809629682451487,0.00180037971585989,0,1,-1000,0,0,0,-1,0,0,1500.0
17:00:25.248,STABILIZE,-35.3632622,149.1652375,0,-0.0010787347564473748,0.0009596158633939922,0.02401615120470524,0.00023612851509824395,0.00027809629682451487,0.00180037971585989,0,1,-1000,0,0,0,-1,0,0,1500.0
17:00:25.449,STABILIZE,-35.3632622,149.1652375,0,-0.0010787347564473748,0.0009596158633939922,0.02401615120470524,0.00023612851509824395,0.00027809629682451487,0.00180037971585989,0,1,-1000,0,0,0,-1,0,0,1500.0
17:00:25.651,STABILIZE,-35.3632622,149.1652375,0,-0.0010877017630264163,0.0009689487051218748,0.023752765730023384,0.00030993978725746274,0.00021767651196569204,0.0018355342326685786,0,1,-1000,0,0,0,-1,0,0,1500.0
17:00:25.852,STABILIZE,-35.3632622,149.1652375,0,-0.001091454760171473,0.0009694262989796698,0.02367248572409153,0.0002658358425833285,0.0003198341582901776,0.0016054342268034816,0,2,-1000,0,1,0,-1,1,0,1500.0
17:00:26.053,STABILIZE,-35.3632622,149.1652375,0,-0.001091454760171473,0.0009694262989796698,0.02367248572409153,0.0002658358425833285,0.0003198341582901776,0.0016054342268034816,0,2,-1000,0,1,0,-1,1,0,1500.0
17:00:26.255,STABILIZE,-35.3632622,149.1652375,0,-0.001091454760171473,0.0009694262989796698,0.02367248572409153,0.0002658358425833285,0.0003198341582901776,0.0016054342268034816,0,2,-1000,0,1,0,-1,1,0,1500.0
17:00:26.456,STABILIZE,-35.3632622,149.1652375,0,-0.0007762077148072422,0.0009666483383625746,0.023555820807814598,0.00022866902872920036,0.00031866278732195497,0.0016495217569172382,0,1,-1000,0,1,1,-1,2,1,1500.0
17:00:26.657,STABILIZE,-35.3632622,149.1652375,0,-0.0007762077148072422,0.0009666483383625746,0.023555820807814598,0.00022866902872920036,0.00031866278732195497,0.0016495217569172382,0,1,-1000,0,0,1,-1,2,1,1500.0
17:00:26.858,STABILIZE,-35.3632622,149.1652375,0,-0.0007762077148072422,0.0009666483383625746,0.023555820807814598,0.00022866902872920036,0.00031866278732195497,0.0016495217569172382,0,1,-1000,0,0,1,-1,2,1,1500.0
17:00:27.060,STABILIZE,-35.3632622,149.1652375,0,-0.0007762077148072422,0.0009666483383625746,0.023555820807814598,0.00022866902872920036,0.00031866278732195497,0.0016495217569172382,0,1,-1000,0,0,1,-1,2,1,1500.0
17:00:27.261,STABILIZE,-35.3632622,149.1652375,0,-0.0007762077148072422,0.0009666483383625746,0.023555820807814598,0.00022866902872920036,0.00031866278732195497,0.0016495217569172382,0,1,-1000,0,0,1,-1,2,1,1500.0
17:00:27.463,STABILIZE,-35.3632622,149.1652375,0,-0.0008848343277350068,0.0009558998281136155,0.02327442169189453,0.00019027246162295341,0.0003524246858432889,0.0017374021699652076,0,1,-1000,1,0,0,-1,1,0,1500.0
17:00:27.664,STABILIZE,-35.3632622,149.1652375,0,-0.0008848343277350068,0.0009558998281136155,0.02327442169189453,0.00019027246162295341,0.0003524246858432889,0.0017374021699652076,0,2,-1000,1,1,0,-1,1,0,1500.0
17:00:27.866,STABILIZE,-35.3632622,149.1652375,0,-0.0008848343277350068,0.0009558998281136155,0.02327442169189453,0.00019027246162295341,0.0003524246858432889,0.0017374021699652076,0,2,-1000,1,1,0,-1,1,0,1500.0
17:00:28.067,STABILIZE,-35.3632622,149.1652375,0,-0.0008848343277350068,0.0009558998281136155,0.02327442169189453,0.00019027246162295341,0.0003524246858432889,0.0017374021699652076,0,2,-1000,1,1,0,-1,1,0,1500.0
17:00:28.268,STABILIZE,-35.3632622,149.1652375,0,-0.0009637512266635895,0.0009520123130641878,0.02307993546128273,0.00030381191754713655,0.0003263648832216859,0.0016188046429306269,0,1,-1000,1,0,0,-1,1,0,1500.0
17:00:28.470,STABILIZE,-35.3632622,149.1652375,0,-0.0009866973850876093,0.000949873065110296,0.023004917427897453,0.00011511211050674319,0.00011349347187206149,0.001661548507399857,0,2,-1000,1,1,1,-1,1,0,1500.0
17:00:28.671,STABILIZE,-35.3632622,149.1652375,0,-0.0010076098842546344,0.0009570373222231865,0.022950485348701477,0.00027476641116663814,0.00028028280939906836,0.001582804135978222,0,2,-1000,0,1,1,-1,1,0,1500.0
17:00:28.873,STABILIZE,-35.3632622,149.1652375,0,-0.0010076098842546344,0.0009570373222231865,0.022950485348701477,0.00027476641116663814,0.00028028280939906836,0.001582804135978222,0,2,-1000,0,1,1,-1,1,0,1500.0
17:00:29.074,STABILIZE,-35.3632622,149.1652375,0,-0.0010076098842546344,0.0009570373222231865,0.022950485348701477,0.00027476641116663814,0.00028028280939906836,0.001582804135978222,0,2,-1000,0,1,1,-1,1,0,1500.0
17:00:29.276,STABILIZE,-35.3632622,149.1652375,0,-0.0010076098842546344,0.0009570373222231865,0.022950485348701477,0.00027476641116663814,0.00028028280939906836,0.001582804135978222,0,2,-1000,0,1,1,-1,1,0,1500.0
17:00:29.477,STABILIZE,-35.3632622,149.1652375,0,-0.0010076098842546344,0.0009570373222231865,0.022950485348701477,0.00027476641116663814,0.00028028280939906836,0.001582804135978222,0,2,-1000,0,1,1,-1,1,0,1500.0
17:00:29.678,STABILIZE,-35.3632622,149.1652375,0,-0.0010778227588161826,0.0009790817275643349,0.022715970873832703,0.00024173810379579663,0.00024299969663843513,0.00152560044080019,0,2,-1000,0,0,1,-1,1,0,1500.0
17:00:29.880,STABILIZE,-35.3632622,149.1652375,0,-0.0007713931845501065,0.0009857428958639503,0.02264995686709881,0.0001975978957489133,0.000246104144025594,0.0014876869972795248,0,2,-1000,1,0,1,-1,2,1,1500.0
17:00:30.081,STABILIZE,-35.3632622,149.1652375,0,-0.000818938366137445,0.0009752896148711443,0.022582443431019783,0.00036084704333916306,0.00023578276159241796,0.0015342104015871882,0,2,-1000,1,1,1,-1,2,1,1500.0
17:00:30.286,STABILIZE,-35.3632622,149.1652375,0,-0.000818938366137445,0.0009752896148711443,0.022582443431019783,0.00036084704333916306,0.00023578276159241796,0.0015342104015871882,0,2,-1000,1,1,1,-1,2,1,1500.0
17:00:30.488,STABILIZE,-35.3632622,149.1652375,0,-0.000818938366137445,0.0009752896148711443,0.022582443431019783,0.00036084704333916306,0.00023578276159241796,0.0015342104015871882,0,2,-1000,1,1,1,-1,2,1,1500.0
17:00:30.689,STABILIZE,-35.3632622,149.1652375,0,-0.000818938366137445,0.0009752896148711443,0.022582443431019783,0.00036084704333916306,0.00023578276159241796,0.0015342104015871882,0,1,-1000,0,1,1,-1,2,1,1500.0
17:00:30.891,STABILIZE,-35.3632622,149.1652375,0,-0.000818938366137445,0.0009752896148711443,0.022582443431019783,0.00036084704333916306,0.00023578276159241796,0.0015342104015871882,0,1,-1000,0,1,1,-1,2,1,1500.0
17:00:31.092,STABILIZE,-35.3632622,149.1652375,0,-0.000818938366137445,0.0009752896148711443,0.022582443431019783,0.00036084704333916306,0.00023578276159241796,0.0015342104015871882,0,1,-1000,0,1,1,-1,2,1,1500.0
17:00:31.294,STABILIZE,-35.3632622,149.1652375,0,-0.000818938366137445,0.0009752896148711443,0.022582443431019783,0.00036084704333916306,0.00023578276159241796,0.0015342104015871882,0,1,-1000,0,1,1,-1,2,1,1500.0
17:00:31.496,STABILIZE,-35.3632622,149.1652375,0,-0.0010010508121922612,0.000989023712463677,0.02232050895690918,0.00034485384821891785,0.000237095111515373,0.001624746946617961,0,1,-1000,1,1,1,-1,1,0,1500.0
17:00:31.697,STABILIZE,-35.3632622,149.1652375,0,-0.0010010508121922612,0.000989023712463677,0.02232050895690918,0.00034485384821891785,0.000237095111515373,0.001624746946617961,0,1,-1000,1,1,1,-1,1,0,1500.0
17:00:31.899,STABILIZE,-35.3632622,149.1652375,0,-0.0010010508121922612,0.000989023712463677,0.02232050895690918,0.00034485384821891785,0.000237095111515373,0.001624746946617961,0,1,-1000,1,1,1,-1,1,0,1500.0
17:00:32.100,STABILIZE,-35.3632622,149.1652375,0,-0.0010010508121922612,0.000989023712463677,0.02232050895690918,0.00034485384821891785,0.000237095111515373,0.001624746946617961,0,1,-1000,0,0,1,-1,1,0,1500.0
17:00:32.301,STABILIZE,-35.3632622,149.1652375,0,-0.0010010508121922612,0.000989023712463677,0.02232050895690918,0.00034485384821891785,0.000237095111515373,0.001624746946617961,0,1,-1000,0,0,1,-1,1,0,1500.0
17:00:32.503,STABILIZE,-35.3632622,149.1652375,0,-0.0010010508121922612,0.000989023712463677,0.02232050895690918,0.00034485384821891785,0.000237095111515373,0.001624746946617961,0,1,-1000,0,0,1,-1,1,0,1500.0
17:00:32.704,STABILIZE,-35.3632622,149.1652375,0,-0.0011173844104632735,0.0010076338658109307,0.022045036777853966,0.00012709829024970531,0.00031590077560395,0.001375888241454959,0,1,-1000,0,1,0,-1,1,0,1500.0
17:00:32.906,AUTO,-35.3632622,149.1652375,0,-0.0011173844104632735,0.0010076338658109307,0.022045036777853966,0.00012709829024970531,0.00031590077560395,0.001375888241454959,0,1,-1000,0,1,0,-1,1,0,1500.0
17:00:33.107,AUTO,-35.3632622,149.1652375,0,-0.0011173844104632735,0.0010076338658109307,0.022045036777853966,0.00012709829024970531,0.00031590077560395,0.001375888241454959,0,1,-1000,0,1,0,-1,1,0,1500.0
17:00:33.308,AUTO,-35.3632622,149.1652375,0,-0.0011173844104632735,0.0010076338658109307,0.022045036777853966,0.00012709829024970531,0.00031590077560395,0.001375888241454959,0,1,-1000,0,1,0,-1,1,0,1500.0
17:00:33.517,AUTO,-35.3632622,149.1652375,7,-0.0008530035265721381,0.0009829651098698378,0.021935708820819855,0.000219176581595093,0.00013335474068298936,0.0016349120996892452,0,1,-1000,1,0,0,-1,2,1,1500.0
17:00:33.724,AUTO,-35.3632622,149.1652375,5,-0.0008809318533167243,0.0009883136954158545,0.021886754781007767,0.0001668253680691123,0.0002505446318536997,0.0014271922409534454,0,1,-1000,1,0,0,-1,1,1,1500.0
17:00:34.034,AUTO,-35.3632621,149.1652375,4,-0.0009018504060804844,0.0010081406217068434,0.02184390276670456,0.0002875652862712741,0.0003064374323002994,0.001373204868286848,0,1,-1000,0,1,1,0,1,1,1500.0
17:00:34.308,AUTO,-35.3632621,149.1652375,4,-0.000897479010745883,0.0010383378248661757,0.021779881790280342,0.00024953781394287944,0.0003540787729434669,0.0014874516054987907,0,1,-1000,0,1,0,0,0,0,1500.0
17:00:34.518,AUTO,-35.3632621,149.1652375,4,-0.0008725545485503972,0.0010812885593622923,0.021742306649684906,0.0003410087083466351,0.0002124175662174821,0.0016248425235971808,0,2,-1000,0,0,1,0,0,0,1500.0
17:00:34.721,AUTO,-35.3632621,149.1652375,4,-0.0008339951164089143,0.0011420140508562326,0.021701890975236893,0.0003111371770501137,0.0002922773128375411,0.001495284028351307,0,1,-1000,1,0,0,0,0,0,1500.0
17:00:34.925,AUTO,-35.3632621,149.1652375,4,-0.0008339951164089143,0.0011420140508562326,0.021701890975236893,0.0003111371770501137,0.0002922773128375411,0.001495284028351307,0,1,-1000,1,0,0,0,0,0,1500.0
17:00:35.139,AUTO,-35.3632621,149.1652375,4,-0.0008339951164089143,0.0011420140508562326,0.021701890975236893,0.0003111371770501137,0.0002922773128375411,0.001495284028351307,0,1,-1000,1,0,0,0,0,0,1500.0
17:00:35.347,AUTO,-35.3632621,149.1652375,5,-0.0006749931490048766,0.001333453576080501,0.021564282476902008,0.000286509923171252,0.0002879827516153455,0.0014353166334331036,0,2,-1000,0,0,1,0,0,0,1500.0
17:00:35.549,AUTO,-35.3632621,149.1652375,5,-0.0006749931490048766,0.001333453576080501,0.021564282476902008,0.000286509923171252,0.0002879827516153455,0.0014353166334331036,0,2,-1000,0,0,1,0,0,0,148801.0
17:00:35.750,AUTO,-35.3632621,149.1652374,5,-0.0006127160741016269,0.001403314177878201,0.021499890834093094,0.00036770052975043654,0.0002930691698566079,0.0013423621421679854,0,1,-1000,0,0,0,0,0,0,148801.0
17:00:35.952,AUTO,-35.3632621,149.1652374,6,-0.0005612763925455511,0.0014811191940680146,0.021437587216496468,0.00035663857124745846,0.00022359431022778153,0.0013722134754061699,0,1,-1000,0,1,0,0,0,0,148801.0
17:00:36.154,AUTO,-35.3632621,149.1652374,6,-0.0005106452153995633,0.0015567988157272339,0.021382907405495644,0.00024102552561089396,0.00028092594584450126,0.0014076650841161609,0,2,-1000,0,0,0,0,0,0,148801.0
17:00:36.356,AUTO,-35.3632621,149.1652374,7,-0.0004454082518350333,0.0016298539703711867,0.021325279027223587,0.0003827041946351528,0.0002920249244198203,0.0013987231068313122,0,1,-1000,1,0,0,0,0,0,148801.0
17:00:36.558,AUTO,-35.3632621,149.1652374,7,-0.0004454082518350333,0.0016298539703711867,0.021325279027223587,0.0003827041946351528,0.0002920249244198203,0.0013987231068313122,0,1,-1000,1,0,0,0,0,0,148801.0
17:00:36.760,AUTO,-35.3632621,149.1652374,7,-0.00038363877683877945,0.0017030901508405805,0.02125232107937336,0.00033969368087127805,0.000333040370605886,0.0014386781258508563,0,1,-1000,1,1,0,0,0,0,148801.0
17:00:36.962,AUTO,-35.3632621,149.1652374,7,-0.00038363877683877945,0.0017030901508405805,0.02125232107937336,0.00033969368087127805,0.000333040370605886,0.0014386781258508563,0,1,-1000,1,1,0,0,0,0,148801.0
17:00:37.163,AUTO,-35.3632621,149.1652374,7,-0.00038363877683877945,0.0017030901508405805,0.02125232107937336,0.00033969368087127805,0.000333040370605886,0.0014386781258508563,0,1,-1000,1,1,0,0,0,0,148801.0
17:00:37.365,AUTO,-35.3632621,149.1652375,196,0.0031578780617564917,0.00017865406698547304,0.02117210626602173,0.004499969072639942,0.0051202066242694855,0.0003255898773204535,0,0,-1131,5,6,0,0,0,-70,148801.0
17:00:37.567,AUTO,-35.3632621,149.1652375,196,0.0031578780617564917,0.00017865406698547304,0.02117210626602173,0.004499969072639942,0.0051202066242694855,0.0003255898773204535,0,0,-1131,5,6,0,0,0,-70,148801.0
17:00:37.768,AUTO,-35.3632621,149.1652375,408,0.0019140997901558876,0.0010741271544247866,0.020974241197109222,-0.0043983967043459415,0.0035408134572207928,0.0005201797466725111,0,0,-1109,-3,4,0,0,0,-99,148801.0
17:00:37.970,AUTO,-35.3632621,149.1652375,685,0.0011884067207574844,0.001694589271210134,0.020857227966189384,-0.006371033377945423,0.0017497851513326168,0.0006069738301448524,0,0,-1090,-5,2,0,0,0,-122,148801.0
17:00:38.172,AUTO,-35.3632621,149.1652375,1020,0.009208769537508488,0.0010212609777227044,0.02055472321808338,0.04719427227973938,-0.005595010705292225,0.0011046244762837887,0,0,-1044,47,-4,0,0,1,-138,148801.0
17:00:38.374,AUTO,-35.363262,149.1652375,1384,0.02103321999311447,-0.000700012082234025,0.020503167062997818,0.047702934592962265,-0.007207811344414949,0.0020618888083845377,0,0,-1019,48,-6,1,0,4,-145,148801.0
17:00:38.576,AUTO,-35.363262,149.1652375,1384,0.02103321999311447,-0.000700012082234025,0.020503167062997818,0.047702934592962265,-0.007207811344414949,0.0020618888083845377,0,0,-1019,48,-6,1,0,4,-145,148801.0
17:00:38.778,AUTO,-35.363262,149.1652377,1762,0.03252720087766647,-0.002603766042739153,0.020630819723010063,0.04486607015132904,-0.007980565540492535,0.002656408818438649,0,-1,-1008,45,-7,2,1,10,-148,148801.0
17:00:38.979,AUTO,-35.363262,149.1652377,1762,0.03252720087766647,-0.002603766042739153,0.020630819723010063,0.04486607015132904,-0.007980565540492535,0.002656408818438649,0,-1,-1008,45,-7,2,1,10,-148,148801.0
17:00:39.181,AUTO,-35.363262,149.1652377,1762,0.03252720087766647,-0.002603766042739153,0.020630819723010063,0.04486607015132904,-0.007980565540492535,0.002656408818438649,0,-1,-1008,45,-7,2,1,10,-148,148801.0
17:00:39.383,AUTO,-35.3632616,149.1652396,2913,0.061978165060281754,-0.009658929891884327,-0.00630917539820075,0.011249154806137085,0.0037316649686545134,-0.02067740634083748,1,-8,-995,11,4,-21,8,41,-149,148801.0
17:00:39.595,AUTO,-35.3632614,149.1652409,3294,0.04525759816169739,0.00973287783563137,-0.027238328009843826,-0.12967553734779358,0.10789120197296143,-0.10527542978525162,2,-10,-989,-129,108,-105,10,52,-146,148801.0
17:00:39.855,AUTO,-35.3632612,149.1652423,3671,0.0022467782255262136,0.02365274727344513,-0.048501741141080856,-0.17860744893550873,0.007501020561903715,-0.07423936575651169,3,-10,-998,-177,8,-74,7,54,-145,148801.0
17:00:40.182,AUTO,-35.363261,149.1652437,4049,-0.023865025490522385,0.02180556207895279,-0.06407245248556137,-0.05961066111922264,-0.010201784782111645,-0.06518517434597015,3,-9,-1011,-58,-9,-65,3,48,-148,148801.0
17:00:40.449,AUTO,-35.3632609,149.1652449,4432,-0.03311052918434143,0.0183931402862072,-0.07690135389566422,-0.02486034296452999,-0.010387422516942024,-0.05314857140183449,5,-10,-1006,-24,-9,-53,0,38,-150,148801.0
17:00:40.729,AUTO,-35.3632609,149.1652457,4817,-0.04393716901540756,0.012416310608386993,-0.08515967428684235,-0.06062265858054161,-0.030399847775697708,-0.025837639346718788,5,-6,-1000,-59,-29,-26,-2,26,-150,148801.0
17:00:40.932,AUTO,-35.3632609,149.1652457,4817,-0.04393716901540756,0.012416310608386993,-0.08515967428684235,-0.06062265858054161,-0.030399847775697708,-0.025837639346718788,5,-6,-1000,-59,-29,-26,-2,26,-150,148801.0
17:00:41.135,AUTO,-35.3632609,149.1652457,4817,-0.04393716901540756,0.012416310608386993,-0.08515967428684235,-0.06062265858054161,-0.030399847775697708,-0.025837639346718788,5,-6,-1000,-59,-29,-26,-2,26,-150,148801.0
17:00:41.350,AUTO,-35.363261,149.1652459,5974,-0.07089700549840927,-0.00936159398406744,-0.08841994404792786,0.0465516671538353,-0.0018627778626978397,-0.0066085029393434525,-1,3,-1003,47,-1,-6,-2,-25,-150,18507.0
17:00:41.552,AUTO,-35.363261,149.1652459,5974,-0.07089700549840927,-0.00936159398406744,-0.08841994404792786,0.0465516671538353,-0.0018627778626978397,-0.0066085029393434525,-1,3,-1003,47,-1,-6,-2,-25,-150,18507.0
17:00:41.754,AUTO,-35.3632611,149.1652451,6358,-0.05768847092986107,-0.00966357160359621,-0.09009566158056259,0.056972749531269073,0.0006742110126651824,-0.003063027746975422,-3,6,-1000,57,1,-3,-2,-40,-150,18507.0
17:00:41.956,AUTO,-35.3632612,149.1652439,6743,-0.043002720922231674,-0.008658991195261478,-0.09134770184755325,0.06039460003376007,0.006512675434350967,-0.0007654465734958649,-5,9,-1001,60,7,0,-1,-51,-150,18507.0
17:00:42.159,AUTO,-35.3632612,149.1652423,7127,-0.027464227750897408,-0.006365967448800802,-0.09218756854534149,0.06314873695373535,0.010846815072000027,0.001017807051539421,-6,8,-1002,63,11,0,-1,-58,-150,18507.0
17:00:42.361,AUTO,-35.3632613,149.1652407,7513,-0.011143327690660954,-0.003165324917063117,-0.09240342676639557,0.06684303283691406,0.013937326148152351,0.0018851053901016712,-7,12,-1003,67,14,1,-2,-61,-151,18507.0
17:00:42.563,AUTO,-35.3632613,149.1652407,7513,-0.011143327690660954,-0.003165324917063117,-0.09240342676639557,0.06684303283691406,0.013937326148152351,0.0018851053901016712,-7,12,-1003,67,14,1,-2,-61,-151,18507.0
17:00:42.765,AUTO,-35.3632613,149.165239,7905,0.005420472007244825,0.0004735745023936033,-0.09214627742767334,0.06641774624586105,0.014199335128068924,0.003305218880996108,-6,6,-1004,66,14,2,-3,-59,-152,18507.0
17:00:42.967,AUTO,-35.3632613,149.165239,7905,0.005420472007244825,0.0004735745023936033,-0.09214627742767334,0.06641774624586105,0.014199335128068924,0.003305218880996108,-6,6,-1004,66,14,2,-3,-59,-152,18507.0
17:00:43.169,AUTO,-35.3632613,149.165239,7905,0.005420472007244825,0.0004735745023936033,-0.09214627742767334,0.06641774624586105,0.014199335128068924,0.003305218880996108,-6,6,-1004,66,14,2,-3,-59,-152,18507.0
17:00:43.371,AUTO,-35.3632617,149.1652349,9077,0.05361829325556755,0.008950529620051384,-0.08938723057508469,0.06157219782471657,0.00607764907181263,0.004360342398285866,-4,11,-1003,62,6,3,-8,-30,-154,18507.0
17:00:43.573,AUTO,-35.3632617,149.1652349,9077,0.05361829325556755,0.008950529620051384,-0.08938723057508469,0.06157219782471657,0.00607764907181263,0.004360342398285866,-4,11,-1003,62,6,3,-8,-30,-154,18507.0
17:00:43.775,AUTO,-35.3632619,149.1652342,9471,0.06834915280342102,0.009601615369319916,-0.08819003403186798,0.05777660757303238,0.00011914491187781096,0.004958143923431635,0,4,-1001,58,0,4,-9,-14,-154,18507.0
17:00:43.977,AUTO,-35.3632621,149.165234,9862,0.06904067099094391,0.003392476588487625,-0.08254136890172958,-0.05515352636575699,-0.033290568739175797,0.026343071833252907,0,1,-991,-54,-32,26,-9,3,-152,18507.0
17:00:44.179,AUTO,-35.3632623,149.1652342,10247,0.046809833496809006,-0.0027280005160719156,-0.0786675289273262,-0.10293392091989517,-0.0152408042922616,0.009711679071187973,2,-1,-994,-102,-14,9,-7,16,-150,18507.0
17:00:44.381,AUTO,-35.3632624,149.1652346,10630,0.022035781294107437,-0.004967154935002327,-0.07837675511837006,-0.08976106345653534,-0.006530008744448423,-0.0021341184619814157,3,-3,-1000,-89,-5,-2,-4,23,-149,18507.0
17:00:44.584,AUTO,-35.3632624,149.1652346,10630,0.022035781294107437,-0.004967154935002327,-0.07837675511837006,-0.08976106345653534,-0.006530008744448423,-0.0021341184619814157,3,-3,-1000,-89,-5,-2,-4,23,-149,18507.0
17:00:44.786,AUTO,-35.3632625,149.1652352,11012,0.0030438227113336325,-0.005487076006829739,-0.08168920874595642,-0.06689834594726562,0.0012249784776940942,-0.01703537628054619,3,-3,-1002,-65,1,-17,-1,24,-150,18507.0
17:00:44.988,AUTO,-35.3632625,149.1652352,11012,0.0030438227113336325,-0.005487076006829739,-0.08168920874595642,-0.06689834594726562,0.0012249784776940942,-0.01703537628054619,3,-3,-1002,-65,1,-17,-1,24,-150,18507.0
17:00:45.190,AUTO,-35.3632625,149.1652352,11012,0.0030438227113336325,-0.005487076006829739,-0.08168920874595642,-0.06689834594726562,0.0012249784776940942,-0.01703537628054619,3,-3,-1002,-65,1,-17,-1,24,-150,18507.0
17:00:45.413,AUTO,-35.3632625,149.1652366,12169,-0.018396325409412384,-0.003989270888268948,-0.10139644891023636,0.0013074013404548168,0.003869003616273403,-0.027131633833050728,0,-2,-1002,1,4,-27,4,9,-152,18507.0
17:00:45.621,AUTO,-35.3632624,149.1652367,12561,-0.017080824822187424,-0.0029913673643022776,-0.10905274003744125,0.009640528820455074,0.0064758057706058025,-0.028994297608733177,0,-1,-1001,10,7,-29,4,3,-152,18507.0
17:00:45.945,AUTO,-35.3632623,149.1652367,12951,-0.013312985189259052,-0.0015493438113480806,-0.11638530343770981,0.016391992568969727,0.005387629847973585,-0.02622346393764019,-1,-1,-1000,16,6,-26,5,-1,-153,18507.0
17:00:46.230,AUTO,-35.3632621,149.1652366,13341,-0.008739256300032139,0.00014466376160271466,-0.12354586273431778,0.019863829016685486,0.008583382703363895,-0.028623616322875023,-1,0,-1000,20,9,-28,5,-4,-153,18507.0
17:00:46.493,AUTO,-35.363262,149.1652366,13731,-0.003843327984213829,0.002202374627813697,-0.13021785020828247,0.020079970359802246,0.008339975960552692,-0.025343766435980797,-2,0,-1000,20,8,-25,4,-6,-153,18507.0
17:00:46.695,AUTO,-35.3632619,149.1652363,14121,0.0009394224034622312,0.0037093968130648136,-0.13587115705013275,0.018931128084659576,0.006415777374058962,-0.021383527666330338,-2,1,-1000,19,7,-21,3,-7,-153,18507.0
17:00:46.897,AUTO,-35.3632619,149.1652363,14121,0.0009394224034622312,0.0037093968130648136,-0.13587115705013275,0.018931128084659576,0.006415777374058962,-0.021383527666330338,-2,1,-1000,19,7,-21,3,-7,-153,18507.0
17:00:47.103,AUTO,-35.3632619,149.1652363,14121,0.0009394224034622312,0.0037093968130648136,-0.13587115705013275,0.018931128084659576,0.006415777374058962,-0.021383527666330338,-2,1,-1000,19,7,-21,3,-7,-153,18507.0
17:00:47.310,AUTO,-35.3632619,149.1652363,14121,0.0009394224034622312,0.0037093968130648136,-0.13587115705013275,0.018931128084659576,0.006415777374058962,-0.021383527666330338,-2,1,-1000,19,7,-21,3,-7,-153,146351.0
17:00:47.512,AUTO,-35.3632617,149.1652357,15286,0.008859355002641678,0.006461817305535078,-0.14896878600120544,0.007793834432959557,0.0011963527649641037,-0.013620940037071705,-1,0,-1000,8,1,-13,0,-4,-153,146351.0
17:00:47.714,AUTO,-35.3632616,149.1652356,15677,0.00970903318375349,0.006838915403932333,-0.15248897671699524,0.003874465124681592,0.0035753133706748486,-0.014876017346978188,-1,0,-1000,4,4,-14,0,-2,-153,146351.0
17:00:47.916,AUTO,-35.3632616,149.1652355,16066,0.009829881601035595,0.006855580024421215,-0.15551438927650452,-0.001285830745473504,-0.001168681075796485,-0.009715911000967026,0,0,-999,0,0,-10,-1,0,-153,146351.0
17:00:48.119,AUTO,-35.3632616,149.1652355,16455,0.00934070535004139,0.006301768124103546,-0.1582937389612198,-0.0008139963028952479,-0.0024382988922297955,-0.010882917791604996,0,0,-1000,0,-1,-11,-1,1,-153,146351.0
17:00:48.321,AUTO,-35.3632616,149.1652355,16455,0.00934070535004139,0.006301768124103546,-0.1582937389612198,-0.0008139963028952479,-0.0024382988922297955,-0.010882917791604996,0,0,-1000,0,-1,-11,-1,1,-153,146351.0
17:00:48.524,AUTO,-35.3632616,149.1652355,16844,0.008456668816506863,0.005715264473110437,-0.16113241016864777,-0.005089024547487497,-0.0013026136439293623,-0.011783454567193985,0,0,-1000,-4,0,-11,-2,3,-153,146351.0
17:00:48.726,AUTO,-35.3632616,149.1652355,17238,0.007334323134273291,0.005273882299661636,-0.1642640382051468,-0.0021080526057630777,-0.0006579435430467129,-0.013091607950627804,0,0,-1000,-1,0,-13,-2,4,-153,146351.0
17:00:48.927,AUTO,-35.3632616,149.1652355,17238,0.007334323134273291,0.005273882299661636,-0.1642640382051468,-0.0021080526057630777,-0.0006579435430467129,-0.013091607950627804,0,0,-1000,-1,0,-13,-2,4,-153,146351.0
17:00:49.129,AUTO,-35.3632616,149.1652355,17238,0.007334323134273291,0.005273882299661636,-0.1642640382051468,-0.0021080526057630777,-0.0006579435430467129,-0.013091607950627804,0,0,-1000,-1,0,-13,-2,4,-153,146351.0
17:00:49.331,AUTO,-35.3632616,149.1652355,17238,0.007334323134273291,0.005273882299661636,-0.1642640382051468,-0.0021080526057630777,-0.0006579435430467129,-0.013091607950627804,0,0,-1000,-1,0,-13,-2,4,-153,146351.0
17:00:49.533,AUTO,-35.3632616,149.1652357,18404,0.004381070379167795,0.004065794870257378,-0.17518843710422516,-0.0010177403455600142,-0.0011899955570697784,-0.01709325984120369,0,0,-1000,0,0,-17,-3,5,-153,146351.0
17:00:49.734,AUTO,-35.3632616,149.1652358,18794,0.0036625084467232227,0.003617772599682212,-0.17928867042064667,-0.002576458500698209,0.0005531974020414054,-0.018905995413661003,0,0,-1000,-1,1,-19,-3,6,-153,146351.0
17:00:49.936,AUTO,-35.3632617,149.1652359,19184,0.003051307052373886,0.003614150220528245,-0.18385514616966248,-0.0008044872083701193,0.0018036862602457404,-0.01875266432762146,0,0,-1000,0,2,-19,-3,5,-153,146351.0
17:00:50.137,AUTO,-35.3632617,149.1652359,19581,0.0026409190613776445,0.003570451168343425,-0.18863581120967865,-0.0009723798139020801,-0.000169685750734061,-0.0189568642526865,0,0,-1000,0,0,-19,-3,5,-153,146351.0
17:00:50.339,AUTO,-35.3632617,149.1652359,19581,0.0026409190613776445,0.003570451168343425,-0.18863581120967865,-0.0009723798139020801,-0.000169685750734061,-0.0189568642526865,0,0,-1000,0,0,-19,-3,5,-153,146351.0
17:00:50.541,AUTO,-35.3632617,149.165236,19970,0.002367151202633977,0.0036209679674357176,-0.19370274245738983,-0.0004661654238589108,0.0010732254013419151,-0.022364744916558266,0,0,-1000,0,2,-22,-3,5,-153,146351.0
17:00:50.743,AUTO,-35.3632617,149.1652361,20359,0.0020039500668644905,0.0035260396543890238,-0.19868294894695282,-0.003221347229555249,0.0005577272386290133,-0.020462695509195328,0,0,-999,-2,1,-20,-3,5,-153,146351.0
17:00:50.946,AUTO,-35.3632617,149.1652361,20359,0.0020039500668644905,0.0035260396543890238,-0.19868294894695282,-0.003221347229555249,0.0005577272386290133,-0.020462695509195328,0,0,-999,-2,1,-20,-3,5,-153,146351.0
17:00:51.161,AUTO,-35.3632617,149.1652361,20359,0.0020039500668644905,0.0035260396543890238,-0.19868294894695282,-0.003221347229555249,0.0005577272386290133,-0.020462695509195328,0,0,-999,-2,1,-20,-3,5,-153,146351.0
17:00:51.471,AUTO,-35.3632617,149.1652363,21675,0.0020166959147900343,0.00311503023840487,-0.21551410853862762,-0.0025230306200683117,0.0005071816849522293,-0.020824454724788666,0,0,-999,-1,1,-21,-2,4,-153,146351.0
17:00:51.757,AUTO,-35.3632618,149.1652364,22065,0.0018653263105079532,0.003011330496519804,-0.22041334211826324,0.0009488042560406029,-7.93336657807231e-05,-0.018946582451462746,0,0,-1000,1,0,-19,-2,3,-153,146351.0
17:00:52.119,AUTO,-35.3632618,149.1652364,22454,0.0019419168820604682,0.002970611210912466,-0.2254342883825302,0.0034845455083996058,0.0018092559184879065,-0.021729279309511185,0,0,-1000,4,2,-21,-2,3,-153,146351.0
17:00:52.346,AUTO,-35.3632618,149.1652365,22843,0.0019930354319512844,0.0032665575854480267,-0.23070265352725983,-0.00046477571595460176,0.002416663570329547,-0.021373985335230827,0,0,-1000,0,3,-21,-2,3,-153,146351.0
17:00:52.548,AUTO,-35.3632618,149.1652365,23233,0.0020521425176411867,0.0032711427193135023,-0.23576165735721588,-0.0013824886409565806,0.00034143985249102116,-0.019508039578795433,0,0,-999,0,1,-19,-2,3,-153,146351.0
17:00:52.751,AUTO,-35.3632618,149.1652366,23623,0.002348324516788125,0.003049065126106143,-0.24057888984680176,0.0030160441529005766,-0.002157306531444192,-0.01867724396288395,0,0,-1000,4,-1,-19,-2,3,-153,146351.0
17:00:52.955,AUTO,-35.3632618,149.1652366,23623,0.002348324516788125,0.003049065126106143,-0.24057888984680176,0.0030160441529005766,-0.002157306531444192,-0.01867724396288395,0,0,-1000,4,-1,-19,-2,3,-153,146351.0
17:00:53.159,AUTO,-35.3632618,149.1652366,23623,0.002348324516788125,0.003049065126106143,-0.24057888984680176,0.0030160441529005766,-0.002157306531444192,-0.01867724396288395,0,0,-1000,4,-1,-19,-2,3,-153,44426.0
17:00:53.361,AUTO,-35.3632618,149.1652366,23623,0.002348324516788125,0.003049065126106143,-0.24057888984680176,0.0030160441529005766,-0.002157306531444192,-0.01867724396288395,0,0,-1000,4,-1,-19,-2,3,-153,44426.0
17:00:53.563,AUTO,-35.3632619,149.1652367,24792,0.0024919628631323576,0.002588430419564247,-0.2549218237400055,0.0006799700786359608,-0.0010516908951103687,-0.016472697257995605,0,0,-1000,1,0,-16,-2,3,-153,44426.0
17:00:53.765,AUTO,-35.3632619,149.1652367,25181,-0.00021862908033654094,0.0023902582470327616,-0.2589530348777771,-0.09893608838319778,0.004775762092322111,-0.0026111744809895754,0,-3,-981,-98,5,-2,-2,2,-153,44426.0
17:00:53.966,AUTO,-35.3632619,149.1652367,25567,-0.010763019323348999,0.004708240274339914,-0.257474422454834,-0.0021090724039822817,0.007427049335092306,0.01126270741224289,0,0,-1002,-1,8,11,-3,0,-152,44426.0
17:00:54.168,AUTO,-35.3632619,149.1652367,25567,-0.010763019323348999,0.004708240274339914,-0.257474422454834,-0.0021090724039822817,0.007427049335092306,0.01126270741224289,0,0,-1002,-1,8,11,-3,0,-152,44426.0
17:00:54.369,AUTO,-35.363262,149.1652367,25954,-0.004282413516193628,0.005217222962528467,-0.25352907180786133,0.03473082184791565,-0.0015678914496675134,0.0188092440366745,0,0,-1003,35,0,18,-4,-1,-153,44426.0
17:00:54.571,AUTO,-35.3632621,149.1652366,26343,0.0036360423546284437,0.004355418961495161,-0.24797748029232025,0.027646919712424278,-0.003857544856145978,0.023646607995033264,0,1,-1000,28,-2,23,-5,-1,-153,44426.0
17:00:54.773,AUTO,-35.3632622,149.1652366,26732,0.008496665395796299,0.0035431671421974897,-0.24162079393863678,0.012693719007074833,-0.004125143866986036,0.025684446096420288,0,0,-1000,13,-3,25,-5,0,-153,44426.0
17:00:54.975,AUTO,-35.3632622,149.1652366,26732,0.008496665395796299,0.0035431671421974897,-0.24162079393863678,0.012693719007074833,-0.004125143866986036,0.025684446096420288,0,0,-1000,13,-3,25,-5,0,-153,44426.0
17:00:55.177,AUTO,-35.3632622,149.1652366,26732,0.008496665395796299,0.0035431671421974897,-0.24162079393863678,0.012693719007074833,-0.004125143866986036,0.025684446096420288,0,0,-1000,13,-3,25,-5,0,-153,44426.0
17:00:55.379,AUTO,-35.3632622,149.1652366,26732,0.008496665395796299,0.0035431671421974897,-0.24162079393863678,0.012693719007074833,-0.004125143866986036,0.025684446096420288,0,0,-1000,13,-3,25,-5,0,-153,44426.0
17:00:55.580,AUTO,-35.3632624,149.1652366,27898,0.009677396155893803,0.0012794957729056478,-0.22227630019187927,-0.005911570508033037,-0.00031188130378723145,0.02302687056362629,0,0,-1000,-5,0,22,-3,5,-153,44426.0
17:00:55.782,AUTO,-35.3632624,149.1652367,28286,0.00783233717083931,0.0009920586599037051,-0.21641111373901367,-0.008651930838823318,-0.0007795841665938497,0.023586351424455643,1,0,-999,-7,0,23,-2,7,-153,44426.0
17:00:55.984,AUTO,-35.3632624,149.1652369,28682,0.006105628330260515,0.0010136803612113,-0.21073073148727417,-0.004512513987720013,0.0006543116760440171,0.022009696811437607,0,0,-1000,-3,1,21,-1,8,-153,44426.0
17:00:56.185,AUTO,-35.3632624,149.1652369,28682,0.006105628330260515,0.0010136803612113,-0.21073073148727417,-0.004512513987720013,0.0006543116760440171,0.022009696811437607,0,0,-1000,-3,1,21,-1,8,-153,44426.0
17:00:56.387,AUTO,-35.3632624,149.1652371,29069,0.004472231026738882,0.0013305734610185027,-0.2053798884153366,-0.007616136223077774,0.0026838965713977814,0.021276624873280525,0,-1,-1000,-6,3,21,-1,8,-153,44426.0
17:00:56.589,AUTO,-35.3632624,149.1652372,29455,0.002864662790670991,0.0017840343061834574,-0.2002263367176056,-0.007222471758723259,0.0013167313300073147,0.0213166456669569,0,-1,-1000,-6,2,21,0,8,-153,44426.0
17:00:56.790,AUTO,-35.3632624,149.1652374,29843,0.001385746174491942,0.001808356144465506,-0.19538439810276031,-0.006337787955999374,-0.0010912182042375207,0.018712617456912994,0,0,-1000,-5,0,18,0,7,-153,44426.0
17:00:56.992,AUTO,-35.3632624,149.1652374,29843,0.001385746174491942,0.001808356144465506,-0.19538439810276031,-0.006337787955999374,-0.0010912182042375207,0.018712617456912994,0,0,-1000,-5,0,18,0,7,-153,44426.0
17:00:57.218,AUTO,-35.3632624,149.1652374,29843,0.001385746174491942,0.001808356144465506,-0.19538439810276031,-0.006337787955999374,-0.0010912182042375207,0.018712617456912994,0,0,-1000,-5,0,18,0,7,-153,44426.0
17:00:57.455,AUTO,-35.3632624,149.1652374,29843,0.001385746174491942,0.001808356144465506,-0.19538439810276031,-0.006337787955999374,-0.0010912182042375207,0.018712617456912994,0,0,-1000,-5,0,18,0,7,-153,44426.0
17:00:57.685,AUTO,-35.3632624,149.1652378,31006,-0.0005324679659679532,0.0018054924439638853,-0.18199099600315094,-0.00388168403878808,0.00033979653380811214,0.017453547567129135,0,-1,-999,-2,1,17,0,5,-153,44426.0
17:00:57.963,AUTO,-35.3632624,149.1652379,31782,-0.0005751954158768058,0.0014518593670800328,-0.1737516075372696,0.0017503167036920786,-0.0001600314280949533,0.017215341329574585,0,0,-1000,2,0,17,0,3,-153,44426.0
17:00:58.294,AUTO,-35.3632623,149.165238,32171,-0.0005271974368952215,0.0012087364448234439,-0.16975979506969452,0.000719664734788239,0.0009536180295981467,0.017057837918400764,0,0,-1000,1,1,16,0,2,-153,44426.0
17:00:58.496,AUTO,-35.3632623,149.165238,32559,-0.00010155754716834053,0.0012023641029372811,-0.16590501368045807,0.0026720070745795965,-0.0009949597297236323,0.014438155107200146,0,0,-1001,3,0,14,0,2,-153,44426.0
17:00:58.699,AUTO,-35.3632623,149.165238,32947,0.0001070674552465789,0.0010480551281943917,-0.16228114068508148,0.00018031371291726828,-0.0010099948849529028,0.01559138111770153,0,0,-1000,1,0,15,0,1,-153,44426.0
17:00:58.901,AUTO,-35.3632623,149.165238,32947,0.0001070674552465789,0.0010480551281943917,-0.16228114068508148,0.00018031371291726828,-0.0010099948849529028,0.01559138111770153,0,0,-1000,1,0,15,0,1,-153,44426.0
17:00:59.104,AUTO,-35.3632623,149.165238,32947,0.0001070674552465789,0.0010480551281943917,-0.16228114068508148,0.00018031371291726828,-0.0010099948849529028,0.01559138111770153,0,0,-1000,1,0,15,0,1,-153,52411.0
17:00:59.306,AUTO,-35.3632623,149.165238,32947,0.0001070674552465789,0.0010480551281943917,-0.16228114068508148,0.00018031371291726828,-0.0010099948849529028,0.01559138111770153,0,0,-1000,1,0,15,0,1,-153,52411.0
17:00:59.507,AUTO,-35.3632623,149.165238,34112,0.0009613956208340824,0.0014241879107430577,-0.15209516882896423,-0.0018400880508124828,0.001077745808288455,0.01313309371471405,0,0,-999,0,2,13,0,0,-153,52411.0
17:00:59.709,AUTO,-35.3632623,149.165238,34497,-0.006637025624513626,0.00872221402823925,-0.1334763616323471,-0.07751546800136566,0.07529310137033463,0.16917066276073456,-1,0,-973,-76,76,168,0,0,-149,52411.0
17:00:59.911,AUTO,-35.3632623,149.165238,34497,-0.006637025624513626,0.00872221402823925,-0.1334763616323471,-0.07751546800136566,0.07529310137033463,0.16917066276073456,-1,0,-973,-76,76,168,0,0,-149,52411.0
17:01:00.112,AUTO,-35.3632623,149.1652379,34867,-0.032306138426065445,0.03711695224046707,-0.05830464884638786,-0.1308196783065796,0.12231045216321945,0.4176510274410248,0,0,-973,-129,123,417,-6,-4,-142,52411.0
17:01:00.314,AUTO,-35.3632625,149.1652376,35220,-0.06019919738173485,0.06952453404664993,0.0743781253695488,-0.10021157562732697,0.036427732557058334,0.535575270652771,2,3,-959,-99,37,535,-18,-16,-135,52411.0
17:01:00.516,AUTO,-35.363263,149.1652369,35545,-0.05103445053100586,0.046848513185977936,0.16952018439769745,0.08014113456010818,-0.1949024349451065,0.25298643112182617,4,7,-943,81,-193,252,-30,-30,-120,52411.0
17:01:00.718,AUTO,-35.3632637,149.1652359,35833,-0.02189330756664276,-0.0018268442945554852,0.21034711599349976,0.12320440262556076,-0.18132711946964264,0.09280415624380112,3,9,-947,124,-180,92,-32,-37,-107,52411.0
17:01:00.920,AUTO,-35.3632637,149.1652359,35833,-0.02189330756664276,-0.0018268442945554852,0.21034711599349976,0.12320440262556076,-0.18132711946964264,0.09280415624380112,3,9,-947,124,-180,92,-32,-37,-107,52411.0
17:01:01.123,AUTO,-35.3632637,149.1652359,35833,-0.02189330756664276,-0.0018268442945554852,0.21034711599349976,0.12320440262556076,-0.18132711946964264,0.09280415624380112,3,9,-947,124,-180,92,-32,-37,-107,52411.0
17:01:01.325,AUTO,-35.3632637,149.1652359,35833,-0.02189330756664276,-0.0018268442945554852,0.21034711599349976,0.12320440262556076,-0.18132711946964264,0.09280415624380112,3,9,-947,124,-180,92,-32,-37,-107,52411.0
17:01:01.527,AUTO,-35.3632651,149.1652333,36521,0.038055386394262314,-0.05287495255470276,0.20881815254688263,0.03893912956118584,0.004076695069670677,-0.03557712212204933,0,6,-966,39,5,-35,-6,-16,-75,52411.0
17:01:01.729,AUTO,-35.3632651,149.1652329,36700,0.042442068457603455,-0.04804622009396553,0.19976240396499634,-0.003173316828906536,0.028520291671156883,-0.03561358526349068,-1,1,-970,-2,29,-35,2,-4,-67,52411.0
17:01:01.931,AUTO,-35.3632651,149.1652329,36700,0.042442068457603455,-0.04804622009396553,0.19976240396499634,-0.003173316828906536,0.028520291671156883,-0.03561358526349068,-1,1,-970,-2,29,-35,2,-4,-67,52411.0
17:01:02.132,AUTO,-35.363265,149.1652329,36861,0.041014157235622406,-0.039254430681467056,0.1913623958826065,-0.029395340010523796,0.03836642578244209,-0.029561722651124,-2,-1,-974,-28,39,-29,10,6,-59,52411.0
17:01:02.334,AUTO,-35.3632647,149.1652331,37003,0.037629738450050354,-0.028386924415826797,0.18429644405841827,0.0443044938147068,0.04450558125972748,-0.025488924235105515,-2,-1,-978,45,45,-25,16,16,-53,52411.0
17:01:02.536,AUTO,-35.3632643,149.1652335,37130,0.030325040221214294,-0.017637131735682487,0.17823630571365356,-0.12259086966514587,0.041887786239385605,-0.019607046619057655,-3,-13,-978,-122,42,-19,20,22,-48,52411.0
17:01:02.739,AUTO,-35.3632638,149.1652341,37242,0.02083323709666729,-0.007856663316488266,0.17293144762516022,-0.050522711127996445,0.03312332183122635,-0.015145075507462025,0,0,-980,-49,34,-15,22,27,-43,52411.0
17:01:02.940,AUTO,-35.3632638,149.1652341,37242,0.02083323709666729,-0.007856663316488266,0.17293144762516022,-0.050522711127996445,0.03312332183122635,-0.015145075507462025,0,0,-980,-49,34,-15,22,27,-43,52411.0
17:01:03.159,AUTO,-35.3632638,149.1652341,37242,0.02083323709666729,-0.007856663316488266,0.17293144762516022,-0.050522711127996445,0.03312332183122635,-0.015145075507462025,0,0,-980,-49,34,-15,22,27,-43,52411.0
17:01:03.488,AUTO,-35.3632622,149.1652363,37489,-0.0020511311013251543,0.01170833595097065,0.15949422121047974,-0.6065555214881897,0.02074645459651947,-0.01457703672349453,-1,-37,-984,-605,22,-14,19,28,-24,52411.0
17:01:03.694,AUTO,-35.3632618,149.165237,37542,-0.009596801362931728,0.014999817125499249,0.15539750456809998,-0.4604242146015167,0.009163993410766125,-0.01078706793487072,-1,-15,-973,-458,10,-10,15,25,-18,52411.0
17:01:03.986,AUTO,-35.3632614,149.1652375,37578,-0.010214912705123425,0.015928294509649277,0.15130186080932617,-0.16443373262882233,0.0008754631271585822,-0.009445277974009514,0,17,-987,-162,2,-9,12,22,-13,52411.0
17:01:04.198,AUTO,-35.3632611,149.165238,37601,-0.0007712705992162228,0.015305493026971817,0.14744552969932556,0.6349085569381714,-0.0019206965807825327,-0.008197663351893425,0,17,-987,-162,2,-9,9,19,-6,52411.0
17:01:04.454,AUTO,-35.363261,149.1652383,37602,-0.009379829280078411,0.032710157334804535,0.13930146396160126,0.32551807165145874,0.10922429710626602,-0.06580743938684464,1,0,-906,325,110,-65,5,14,6,52411.0
17:01:04.657,AUTO,-35.363261,149.1652383,37602,-0.009379829280078411,0.032710157334804535,0.13930146396160126,0.32551807165145874,0.10922429710626602,-0.06580743938684464,1,0,-906,325,110,-65,5,14,6,52411.0
17:01:04.861,AUTO,-35.3632609,149.1652385,37562,-0.019977370277047157,0.03421691805124283,0.13915377855300903,-0.2917284369468689,-0.08983810991048813,0.018258562311530113,1,-32,-986,-292,-88,18,-2,5,17,52411.0
17:01:05.065,AUTO,-35.3632609,149.1652385,37562,-0.019977370277047157,0.03421691805124283,0.13915377855300903,-0.2917284369468689,-0.08983810991048813,0.018258562311530113,1,-32,-986,-292,-88,18,-2,5,17,50393.0
17:01:05.267,AUTO,-35.3632609,149.1652385,37562,-0.019977370277047157,0.03421691805124283,0.13915377855300903,-0.2917284369468689,-0.08983810991048813,0.018258562311530113,1,-32,-986,-292,-88,18,-2,5,17,50393.0
17:01:05.469,AUTO,-35.3632609,149.1652381,37435,0.0002287987299496308,-0.04801437631249428,0.13474218547344208,-0.08683494478464127,-0.0690254345536232,-0.022544169798493385,-2,19,-1012,-84,-67,-22,6,1,8,50393.0
17:01:05.670,AUTO,-35.3632609,149.1652381,37435,0.0002287987299496308,-0.04801437631249428,0.13474218547344208,-0.08683494478464127,-0.0690254345536232,-0.022544169798493385,-2,19,-1012,-84,-67,-22,6,1,8,50393.0
17:01:05.872,AUTO,-35.3632607,149.1652378,37413,0.022074317559599876,-0.0650458037853241,0.13203683495521545,0.6644433736801147,-0.060434773564338684,-0.020634125918149948,-4,37,-1012,666,-59,-20,18,3,4,50393.0
17:01:06.073,AUTO,-35.3632601,149.1652377,37395,0.0364290252327919,-0.07885223627090454,0.12788130342960358,0.7197477221488953,-0.05085812136530876,-0.013061421923339367,-8,17,-1028,720,-49,-12,34,9,2,50393.0
17:01:06.275,AUTO,-35.3632592,149.1652377,37381,0.03709856793284416,-0.09011213481426239,0.13429032266139984,0.2866579592227936,-0.046440206468105316,0.17596587538719177,-11,-10,-1010,286,-45,176,51,15,2,50393.0
17:01:06.477,AUTO,-35.3632579,149.1652379,37372,0.0250026136636734,-0.10452382266521454,0.24837945401668549,-0.327698290348053,-0.05576390027999878,0.69207763671875,-13,-38,-1011,-327,-54,692,71,21,0,50393.0
17:01:06.679,AUTO,-35.3632579,149.1652379,37372,0.0250026136636734,-0.10452382266521454,0.24837945401668549,-0.327698290348053,-0.05576390027999878,0.69207763671875,-13,-38,-1011,-327,-54,692,71,21,0,50393.0
17:01:06.881,AUTO,-35.3632561,149.1652381,37367,0.0076634748838841915,-0.1178637221455574,0.3863917589187622,-0.5088927745819092,-0.03440612182021141,0.3944326341152191,-20,-23,-999,-507,-33,394,91,28,0,50393.0
17:01:07.083,AUTO,-35.3632561,149.1652381,37367,0.0076634748838841915,-0.1178637221455574,0.3863917589187622,-0.5088927745819092,-0.03440612182021141,0.3944326341152191,-20,-23,-999,-507,-33,394,91,28,0,50393.0
17:01:07.286,AUTO,-35.3632561,149.1652381,37367,0.0076634748838841915,-0.1178637221455574,0.3863917589187622,-0.5088927745819092,-0.03440612182021141,0.3944326341152191,-20,-23,-999,-507,-33,394,91,28,0,50393.0
17:01:07.488,AUTO,-35.3632477,149.1652402,37343,0.026902008801698685,-0.15233583748340607,0.42400676012039185,0.3438529372215271,-0.04510001093149185,-0.023587865754961967,-36,-13,-996,344,-44,-23,160,54,2,50393.0
17:01:07.691,AUTO,-35.3632439,149.1652413,37329,0.02472870983183384,-0.16361357271671295,0.406490296125412,-0.3736685812473297,-0.04008174687623978,-0.016330258920788765,-40,-47,-994,-373,-38,-15,187,63,3,50393.0
17:01:07.893,AUTO,-35.3632439,149.1652413,37329,0.02472870983183384,-0.16361357271671295,0.406490296125412,-0.3736685812473297,-0.04008174687623978,-0.016330258920788765,-40,-47,-994,-373,-38,-15,187,63,3,50393.0
17:01:08.095,AUTO,-35.3632394,149.1652427,37312,0.02162252552807331,-0.17724627256393433,0.3939010500907898,-0.3361489772796631,-0.06376989185810089,-0.022060835734009743,-49,-36,-1009,-334,-62,-21,214,73,3,50393.0
17:01:08.297,AUTO,-35.3632343,149.1652444,37296,0.03151789307594299,-0.18845495581626892,0.38754692673683167,0.32990729808807373,-0.04190928488969803,-0.016317006200551987,-55,0,-1000,332,-40,-15,243,84,4,50393.0
17:01:08.499,AUTO,-35.3632286,149.1652465,37275,0.03464274853467941,-0.19599467515945435,0.3869251608848572,0.31106138229370117,-0.015270077623426914,0.021707218140363693,-64,-21,-1009,312,-14,22,273,94,5,50393.0
17:01:08.701,AUTO,-35.3632222,149.1652489,37256,0.030284952372312546,-0.19513121247291565,0.3864603340625763,-0.2551212012767792,0.01192147471010685,0.02854856476187706,-66,-45,-1003,-254,12,29,303,102,5,50393.0
17:01:08.903,AUTO,-35.3632222,149.1652489,37256,0.030284952372312546,-0.19513121247291565,0.3864603340625763,-0.2551212012767792,0.01192147471010685,0.02854856476187706,-66,-45,-1003,-254,12,29,303,102,5,50393.0
17:01:09.174,AUTO,-35.3632222,149.1652489,37256,0.030284952372312546,-0.19513121247291565,0.3864603340625763,-0.2551212012767792,0.01192147471010685,0.02854856476187706,-66,-45,-1003,-254,12,29,303,102,5,50393.0
17:01:09.410,AUTO,-35.3632222,149.1652489,37256,0.030284952372312546,-0.19513121247291565,0.3864603340625763,-0.2551212012767792,0.01192147471010685,0.02854856476187706,-66,-45,-1003,-254,12,29,303,102,5,50393.0
17:01:09.666,AUTO,-35.3631993,149.1652577,37193,0.03219412639737129,-0.19516468048095703,0.3864002227783203,0.18646208941936493,-0.02009626477956772,0.006307701580226421,-75,-45,-993,187,-19,7,384,126,6,50393.0
17:01:09.909,AUTO,-35.3631905,149.1652611,37171,0.026986191049218178,-0.20093205571174622,0.38524329662323,-0.22144551575183868,-0.017797989770770073,0.017239699140191078,-88,-46,-995,-220,-16,17,409,133,7,50393.0
17:01:10.148,AUTO,-35.3631811,149.1652647,37147,0.03071633167564869,-0.20882466435432434,0.38221338391304016,-0.04902545362710953,-0.038887929171323776,-0.03122873418033123,-99,-37,-994,-47,-38,-30,435,138,8,50393.0
17:01:10.350,AUTO,-35.3631713,149.1652685,37119,0.03803592920303345,-0.22210124135017395,0.38048383593559265,0.22348760068416595,-0.05310257151722908,-0.013869981281459332,-95,-42,-990,225,-52,-13,462,143,10,50393.0
17:01:10.553,AUTO,-35.3631607,149.1652725,37087,0.03468172252178192,-0.22939270734786987,0.3787902295589447,-0.16580143570899963,-0.01979956030845642,0.0022029182873666286,-109,-58,-993,-164,-18,2,489,151,12,50393.0
17:01:10.756,AUTO,-35.3631495,149.1652767,37052,0.03277875483036041,-0.22815799713134766,0.3775779902935028,-0.011065533384680748,0.01313368696719408,-0.008085668087005615,-116,-49,-1001,-9,14,-7,516,159,12,50393.0
17:01:10.962,AUTO,-35.3631495,149.1652767,37052,0.03277875483036041,-0.22815799713134766,0.3775779902935028,-0.011065533384680748,0.01313368696719408,-0.008085668087005615,-116,-49,-1001,-9,14,-7,516,159,12,50393.0
17:01:11.165,AUTO,-35.3631495,149.1652767,37052,0.03277875483036041,-0.22815799713134766,0.3775779902935028,-0.011065533384680748,0.01313368696719408,-0.008085668087005615,-116,-49,-1001,-9,14,-7,516,159,12,128057.0
17:01:11.368,AUTO,-35.3631495,149.1652767,37052,0.03277875483036041,-0.22815799713134766,0.3775779902935028,-0.011065533384680748,0.01313368696719408,-0.008085668087005615,-116,-49,-1001,-9,14,-7,516,159,12,128057.0
17:01:11.570,AUTO,-35.3631125,149.1652906,36964,0.04229249805212021,-0.19890117645263672,0.3732304573059082,0.027609512209892273,0.05389786511659622,-0.005364311393350363,-124,-50,-1000,29,54,-4,581,175,7,128057.0
17:01:11.772,AUTO,-35.3630993,149.1652956,36943,0.04479487985372543,-0.18765220046043396,0.37239688634872437,0.012829789891839027,0.04425258934497833,-0.001823048572987318,-134,-66,-999,14,45,-1,596,178,5,128057.0
17:01:11.974,AUTO,-35.3630857,149.1653005,36925,0.05455297604203224,-0.18414582312107086,0.3695388436317444,-0.028149491176009178,0.0035877232439816,0.008101562038064003,-136,-52,-989,-26,4,8,609,180,5,128057.0
17:01:12.176,AUTO,-35.3630857,149.1653005,36925,0.05455297604203224,-0.18414582312107086,0.3695388436317444,-0.028149491176009178,0.0035877232439816,0.008101562038064003,-136,-52,-989,-26,4,8,609,180,5,128057.0
17:01:12.378,AUTO,-35.3630719,149.1653055,36903,0.05230215564370155,-0.18159063160419464,0.36865076422691345,-0.0038091770838946104,0.016948174685239792,0.006548474542796612,-143,-39,-992,-2,17,7,619,185,6,128057.0
17:01:12.580,AUTO,-35.3630575,149.1653108,36880,0.055818889290094376,-0.17568540573120117,0.3669992685317993,0.06781140714883804,0.024454008787870407,-0.015536220744252205,-139,-63,-991,69,25,-14,630,187,7,128057.0
17:01:12.782,AUTO,-35.3630431,149.1653159,36858,0.059737429022789,-0.1692081242799759,0.36548158526420593,-0.03955327346920967,-0.006286723539233208,-0.009483082219958305,-151,-61,-992,-38,-5,-8,637,189,6,128057.0
17:01:12.984,AUTO,-35.3630431,149.1653159,36858,0.059737429022789,-0.1692081242799759,0.36548158526420593,-0.03955327346920967,-0.006286723539233208,-0.009483082219958305,-151,-61,-992,-38,-5,-8,637,189,6,128057.0
17:01:13.186,AUTO,-35.3630431,149.1653159,36858,0.059737429022789,-0.1692081242799759,0.36548158526420593,-0.03955327346920967,-0.006286723539233208,-0.009483082219958305,-151,-61,-992,-38,-5,-8,637,189,6,128057.0
17:01:13.388,AUTO,-35.3630431,149.1653159,36858,0.059737429022789,-0.1692081242799759,0.36548158526420593,-0.03955327346920967,-0.006286723539233208,-0.009483082219958305,-151,-61,-992,-38,-5,-8,637,189,6,128057.0
17:01:13.590,AUTO,-35.3629996,149.1653315,36781,0.0731087401509285,-0.1526181995868683,0.3613582253456116,0.03333897888660431,0.025680961087346077,-0.003997294697910547,-157,-86,-1006,35,26,-3,654,194,7,128057.0
17:01:13.791,AUTO,-35.3629848,149.1653369,36755,0.0715857744216919,-0.14544203877449036,0.36051514744758606,-0.07527010142803192,0.043377552181482315,-0.0015845326706767082,-139,-64,-986,-73,44,-1,655,197,8,128057.0
17:01:14.025,AUTO,-35.36297,149.1653423,36729,0.06969573348760605,-0.1374434232711792,0.3609752953052521,0.11208612471818924,0.023813601583242416,-0.015861326828598976,-141,-64,-988,113,24,-15,654,199,8,128057.0
17:01:14.251,AUTO,-35.3629553,149.1653477,36703,0.0687151700258255,-0.13453489542007446,0.3600294888019562,-0.10628420114517212,-0.011431682854890823,0.001232366543263197,-150,-74,-983,-104,-10,1,652,198,9,128057.0
17:01:14.544,AUTO,-35.3629405,149.1653531,36672,0.07132890075445175,-0.1351231038570404,0.35731661319732666,-0.06976030766963959,-0.0090453727170825,-0.014969419687986374,-131,-73,-973,-67,-8,-14,650,197,11,128057.0
17:01:14.909,AUTO,-35.3629258,149.1653585,36635,0.07860124856233597,-0.13779889047145844,0.35535135865211487,0.29866161942481995,-0.013172338716685772,-0.018325582146644592,-137,-58,-978,300,-12,-17,650,197,13,128057.0
17:01:15.146,AUTO,-35.3629258,149.1653585,36635,0.07860124856233597,-0.13779889047145844,0.35535135865211487,0.29866161942481995,-0.013172338716685772,-0.018325582146644592,-137,-58,-978,300,-12,-17,650,197,13,128057.0
