time_stamp,MODE,lat,lon,relative_alt,roll,pitch,yaw,rollspeed,pitchspeed,yawspeed,xacc,yacc,zacc,xgyro,ygyro,zgyro,vx,vy,vz,RTL_ALT
12:35:57.580,STABILIZE,-35.3632621,149.1652374,48,-0.0002198304864577949,0.0015473973471671343,0.029247945174574852,0.0001834917056839913,0.00010041450150310993,0.0023753298446536064,0,1,-1000,0,0,0,-1,0,-3,1500.0
12:35:57.782,STABILIZE,-35.3632621,149.1652374,45,-0.0002077669050777331,0.0015859066043049097,0.029078766703605652,0.0003014477842953056,0.00021520702284760773,0.0023647542111575603,0,1,-1000,0,0,0,-1,1,-3,1500.0
12:35:57.983,STABILIZE,-35.3632621,149.1652374,45,-0.0002077669050777331,0.0015859066043049097,0.029078766703605652,0.0003014477842953056,0.00021520702284760773,0.0023647542111575603,0,1,-1000,0,0,0,-1,1,-3,1500.0
12:35:58.183,STABILIZE,-35.3632621,149.1652374,45,-0.0002077669050777331,0.0015859066043049097,0.029078766703605652,0.0003014477842953056,0.00021520702284760773,0.0023647542111575603,0,1,-1000,0,0,0,-1,1,-3,1500.0
12:35:58.384,STABILIZE,-35.3632621,149.1652374,45,-0.0002077669050777331,0.0015859066043049097,0.029078766703605652,0.0003014477842953056,0.00021520702284760773,0.0023647542111575603,0,1,-1000,0,0,0,-1,1,-3,1500.0
12:35:58.585,STABILIZE,-35.3632621,149.1652374,45,-0.0002077669050777331,0.0015859066043049097,0.029078766703605652,0.0003014477842953056,0.00021520702284760773,0.0023647542111575603,0,1,-1000,0,0,0,-1,1,-3,1500.0
12:35:58.786,STABILIZE,-35.3632621,149.1652374,39,-0.0002598532009869814,0.0015989193925634027,0.028371114283800125,0.0002738304901868105,0.0002586370101198554,0.002415016293525696,0,1,-1000,0,0,0,-1,1,-2,1500.0
12:35:58.988,STABILIZE,-35.3632621,149.1652374,38,-0.00028732456848956645,0.0015754073392599821,0.028185050934553146,0.0002824602124746889,0.0002558409178163856,0.002431298606097698,0,1,-1000,0,0,0,-2,1,-2,1500.0
12:35:59.189,STABILIZE,-35.3632621,149.1652374,38,-0.00028732456848956645,0.0015754073392599821,0.028185050934553146,0.0002824602124746889,0.0002558409178163856,0.002431298606097698,0,1,-1000,0,0,0,-2,1,-2,1500.0
12:35:59.391,STABILIZE,-35.3632621,149.1652374,38,-0.00028732456848956645,0.0015754073392599821,0.028185050934553146,0.0002824602124746889,0.0002558409178163856,0.002431298606097698,0,1,-1000,0,0,0,-2,1,-2,1500.0
12:35:59.593,STABILIZE,-35.3632621,149.1652374,38,-0.00028732456848956645,0.0015754073392599821,0.028185050934553146,0.0002824602124746889,0.0002558409178163856,0.002431298606097698,0,1,-1000,0,0,0,-2,1,-2,1500.0
12:35:59.795,STABILIZE,-35.3632621,149.1652374,38,-0.00028732456848956645,0.0015754073392599821,0.028185050934553146,0.0002824602124746889,0.0002558409178163856,0.002431298606097698,0,1,-1000,0,0,0,-2,1,-2,1500.0
12:35:59.997,STABILIZE,-35.3632622,149.1652375,29,-0.00029832994914613664,0.0013786848867312074,0.02757962793111801,0.00018176977755501866,0.00032010089489631355,0.0022166112903505564,0,1,-1000,0,0,0,-2,2,0,1500.0
12:36:00.199,STABILIZE,-35.3632622,149.1652375,29,-0.00029832994914613664,0.0013786848867312074,0.02757962793111801,0.00018176977755501866,0.00032010089489631355,0.0022166112903505564,0,1,-1000,0,0,0,-2,2,0,1500.0
12:36:00.401,STABILIZE,-35.3632622,149.1652375,29,-0.00029832994914613664,0.0013786848867312074,0.02757962793111801,0.00018176977755501866,0.00032010089489631355,0.0022166112903505564,0,1,-1000,0,0,0,-2,2,0,1500.0
12:36:00.602,STABILIZE,-35.3632622,149.1652375,29,-0.00029832994914613664,0.0013786848867312074,0.02757962793111801,0.00018176977755501866,0.00032010089489631355,0.0022166112903505564,0,1,-1000,0,0,0,-2,2,0,1500.0
12:36:00.804,STABILIZE,-35.3632622,149.1652375,29,-0.00029832994914613664,0.0013786848867312074,0.02757962793111801,0.00018176977755501866,0.00032010089489631355,0.0022166112903505564,0,1,-1000,0,0,0,-2,2,0,1500.0
12:36:01.005,STABILIZE,-35.3632622,149.1652375,29,-0.0006718713557347655,0.0011759151238948107,0.027016213163733482,0.00017155305249616504,0.00022797798737883568,0.002130070235580206,0,1,-1000,0,0,0,-2,2,0,1500.0
12:36:01.207,STABILIZE,-35.3632622,149.1652375,25,-0.0007423052447848022,0.001129268086515367,0.026906367391347885,0.00021531095262616873,0.00021401079720817506,0.0021246580872684717,0,1,-1000,0,1,1,-1,1,0,1500.0
12:36:01.408,STABILIZE,-35.3632622,149.1652375,25,-0.0007423052447848022,0.001129268086515367,0.026906367391347885,0.00021531095262616873,0.00021401079720817506,0.0021246580872684717,0,1,-1000,0,1,1,-1,1,0,1500.0
12:36:01.610,STABILIZE,-35.3632622,149.1652375,24,-0.0007994343177415431,0.0010935055324807763,0.026761624962091446,0.00020829588174819946,0.0003215901379007846,0.002115660347044468,0,1,-1000,0,1,0,-1,1,0,1500.0
12:36:01.811,STABILIZE,-35.3632622,149.1652375,24,-0.0007994343177415431,0.0010935055324807763,0.026761624962091446,0.00020829588174819946,0.0003215901379007846,0.002115660347044468,0,1,-1000,0,1,0,-1,1,0,1500.0
12:36:02.014,STABILIZE,-35.3632622,149.1652375,24,-0.0007994343177415431,0.0010935055324807763,0.026761624962091446,0.00020829588174819946,0.0003215901379007846,0.002115660347044468,0,1,-1000,0,1,0,-1,1,0,1500.0
12:36:02.216,STABILIZE,-35.3632622,149.1652375,24,-0.0007994343177415431,0.0010935055324807763,0.026761624962091446,0.00020829588174819946,0.0003215901379007846,0.002115660347044468,0,1,-1000,0,1,0,-1,1,0,1500.0
12:36:02.418,STABILIZE,-35.3632622,149.1652375,24,-0.0007994343177415431,0.0010935055324807763,0.026761624962091446,0.00020829588174819946,0.0003215901379007846,0.002115660347044468,0,1,-1000,0,1,0,-1,1,0,1500.0
12:36:02.619,STABILIZE,-35.3632622,149.1652375,24,-0.0007994343177415431,0.0010935055324807763,0.026761624962091446,0.00020829588174819946,0.0003215901379007846,0.002115660347044468,0,1,-1000,0,1,0,-1,1,0,1500.0
12:36:02.820,STABILIZE,-35.3632621,149.1652375,23,-0.0008558956906199455,0.000987441511824727,0.02621610090136528,0.00013929384294897318,0.0002734880254138261,0.0019490832928568125,0,1,-1000,0,0,1,-1,0,-1,1500.0
12:36:03.022,STABILIZE,-35.3632621,149.1652375,26,-0.0008558956906199455,0.000987441511824727,0.02621610090136528,0.00013929384294897318,0.0002734880254138261,0.0019490832928568125,0,1,-1000,0,0,0,-1,0,-1,1500.0
12:36:03.223,STABILIZE,-35.3632621,149.1652375,27,-0.0008558956906199455,0.000987441511824727,0.02621610090136528,0.00013929384294897318,0.0002734880254138261,0.0019490832928568125,0,1,-1000,0,0,0,-1,0,-1,1500.0
12:36:03.424,STABILIZE,-35.3632621,149.1652375,28,-0.0008558956906199455,0.000987441511824727,0.02621610090136528,0.00013929384294897318,0.0002734880254138261,0.0019490832928568125,0,1,-1000,0,0,0,-1,0,-1,1500.0
12:36:03.626,STABILIZE,-35.3632621,149.1652375,28,-0.0008558956906199455,0.000987441511824727,0.02621610090136528,0.00013929384294897318,0.0002734880254138261,0.0019490832928568125,0,1,-1000,0,0,0,-1,0,-1,1500.0
12:36:03.828,STABILIZE,-35.3632621,149.1652375,28,-0.0008558956906199455,0.000987441511824727,0.02621610090136528,0.00013929384294897318,0.0002734880254138261,0.0019490832928568125,0,1,-1000,0,0,0,-1,0,-1,1500.0
12:36:04.029,STABILIZE,-35.3632621,149.1652375,28,-0.0008018583175726235,0.0009582641068845987,0.025712816044688225,0.0002240405883640051,0.00020930703612975776,0.0019634338095784187,0,1,-1000,0,0,0,-1,0,-1,1500.0
12:36:04.231,STABILIZE,-35.3632621,149.1652375,28,-0.0008018583175726235,0.0009582641068845987,0.025712816044688225,0.0002240405883640051,0.00020930703612975776,0.0019634338095784187,0,1,-1000,0,0,0,-1,0,-1,1500.0
12:36:04.433,STABILIZE,-35.3632621,149.1652375,28,-0.0008018583175726235,0.0009582641068845987,0.025712816044688225,0.0002240405883640051,0.00020930703612975776,0.0019634338095784187,0,1,-1000,0,0,0,-1,0,-1,1500.0
12:36:04.634,STABILIZE,-35.3632621,149.1652375,28,-0.0008018583175726235,0.0009582641068845987,0.025712816044688225,0.0002240405883640051,0.00020930703612975776,0.0019634338095784187,0,1,-1000,0,0,0,-1,0,-1,1500.0
12:36:04.836,STABILIZE,-35.3632621,149.1652375,28,-0.0008018583175726235,0.0009582641068845987,0.025712816044688225,0.0002240405883640051,0.00020930703612975776,0.0019634338095784187,0,1,-1000,0,0,0,-1,0,-1,1500.0
12:36:05.038,STABILIZE,-35.3632621,149.1652375,28,-0.0008018583175726235,0.0009582641068845987,0.025712816044688225,0.0002240405883640051,0.00020930703612975776,0.0019634338095784187,0,1,-1000,0,0,0,-1,0,-1,1500.0
12:36:05.239,STABILIZE,-35.3632621,149.1652375,28,-0.0007990032318048179,0.0009364418801851571,0.025221964344382286,0.00018137029837816954,0.0002443301782477647,0.0018921850714832544,0,1,-1000,0,0,0,-1,1,0,1500.0
12:36:05.441,STABILIZE,-35.3632621,149.1652375,27,-0.0007978258072398603,0.0009339182870462537,0.02512309141457081,0.00014368054689839482,0.00028450466925278306,0.001787594286724925,0,1,-1000,1,0,0,-1,1,0,1500.0
12:36:05.642,STABILIZE,-35.3632621,149.1652375,27,-0.0007978258072398603,0.0009339182870462537,0.02512309141457081,0.00014368054689839482,0.00028450466925278306,0.001787594286724925,0,1,-1000,1,0,0,-1,1,0,1500.0
12:36:05.844,STABILIZE,-35.3632621,149.1652375,27,-0.0007940409705042839,0.0009298513759858906,0.025014329701662064,0.00034112605499103665,0.0002599236322566867,0.0018268571002408862,0,1,-1000,0,0,0,-1,1,0,1500.0
12:36:06.045,STABILIZE,-35.3632621,149.1652375,27,-0.0007940409705042839,0.0009298513759858906,0.025014329701662064,0.00034112605499103665,0.0002599236322566867,0.0018268571002408862,0,1,-1000,0,0,0,-1,1,0,1500.0
12:36:06.247,STABILIZE,-35.3632621,149.1652375,27,-0.0007940409705042839,0.0009298513759858906,0.025014329701662064,0.00034112605499103665,0.0002599236322566867,0.0018268571002408862,0,1,-1000,0,0,0,-1,1,0,1500.0
12:36:06.449,STABILIZE,-35.3632621,149.1652375,27,-0.0007940409705042839,0.0009298513759858906,0.025014329701662064,0.00034112605499103665,0.0002599236322566867,0.0018268571002408862,0,1,-1000,0,0,0,-1,1,0,1500.0
12:36:06.650,STABILIZE,-35.3632621,149.1652375,27,-0.0007940409705042839,0.0009298513759858906,0.025014329701662064,0.00034112605499103665,0.0002599236322566867,0.0018268571002408862,0,1,-1000,0,0,0,-1,1,0,1500.0
12:36:06.852,STABILIZE,-35.3632621,149.1652375,27,-0.0007940409705042839,0.0009298513759858906,0.025014329701662064,0.00034112605499103665,0.0002599236322566867,0.0018268571002408862,0,1,-1000,0,0,0,-1,1,0,1500.0
12:36:07.054,STABILIZE,-35.3632621,149.1652375,20,-0.0007940409705042839,0.0009298513759858906,0.025014329701662064,0.00034112605499103665,0.0002599236322566867,0.0018268571002408862,0,1,-1000,0,0,0,-1,1,0,1500.0
12:36:07.256,STABILIZE,-35.3632621,149.1652375,19,-0.0007940409705042839,0.0009298513759858906,0.025014329701662064,0.00034112605499103665,0.0002599236322566867,0.0018268571002408862,0,1,-1000,0,0,0,-1,1,0,1500.0
12:36:07.457,STABILIZE,-35.3632621,149.1652375,18,-0.0007697814726270735,0.0009439710411243141,0.02432982809841633,0.00021957518765702844,0.0003322608536109328,0.0017520696856081486,0,2,-1000,0,1,0,-1,1,0,1500.0
12:36:07.659,STABILIZE,-35.3632621,149.1652375,18,-0.0007697814726270735,0.0009439710411243141,0.02432982809841633,0.00021957518765702844,0.0003322608536109328,0.0017520696856081486,0,2,-1000,0,1,0,-1,1,0,1500.0
12:36:07.860,STABILIZE,-35.3632621,149.1652375,18,-0.0007697814726270735,0.0009439710411243141,0.02432982809841633,0.00021957518765702844,0.0003322608536109328,0.0017520696856081486,0,2,-1000,0,1,0,-1,1,0,1500.0
12:36:08.062,STABILIZE,-35.3632621,149.1652375,18,-0.0007697814726270735,0.0009439710411243141,0.02432982809841633,0.00021957518765702844,0.0003322608536109328,0.0017520696856081486,0,2,-1000,0,1,0,-1,1,0,1500.0
12:36:08.263,STABILIZE,-35.3632621,149.1652375,18,-0.0007697814726270735,0.0009439710411243141,0.02432982809841633,0.00021957518765702844,0.0003322608536109328,0.0017520696856081486,0,2,-1000,0,1,0,-1,1,0,1500.0
12:36:08.465,STABILIZE,-35.3632621,149.1652375,18,-0.0007697814726270735,0.0009439710411243141,0.02432982809841633,0.00021957518765702844,0.0003322608536109328,0.0017520696856081486,0,2,-1000,0,1,0,-1,1,0,1500.0
12:36:08.684,STABILIZE,-35.3632622,149.1652375,15,-0.0009079296723939478,0.0009521960746496916,0.023895863443613052,0.00036294921301305294,0.00033754861215129495,0.0017382781952619553,0,1,-1000,0,0,0,-1,1,0,1500.0
12:36:08.885,STABILIZE,-35.3632622,149.1652375,15,-0.0009079296723939478,0.0009521960746496916,0.023895863443613052,0.00036294921301305294,0.00033754861215129495,0.0017382781952619553,0,1,-1000,0,0,0,-1,1,0,1500.0
12:36:09.087,STABILIZE,-35.3632622,149.1652375,15,-0.0009429841884411871,0.0009548555826768279,0.02379428781569004,0.0001310032093897462,0.0003089879173785448,0.0017280919710174203,0,1,-1000,0,0,0,-1,1,0,1500.0
12:36:09.289,STABILIZE,-35.3632622,149.1652375,14,-0.0009740162058733404,0.0009561552433297038,0.023721573874354362,0.0003015607362613082,0.0003200045321136713,0.0016319758724421263,0,1,-1000,0,1,1,-1,1,0,1500.0
12:36:09.492,STABILIZE,-35.3632622,149.1652375,14,-0.0009943018667399883,0.0009586146334186196,0.02364223264157772,0.0002796626649796963,0.00018566742073744535,0.0016591113526374102,0,1,-1000,1,0,1,-1,1,0,1500.0
12:36:09.695,STABILIZE,-35.3632622,149.1652375,12,-0.0008592616650275886,0.0009587439708411694,0.023555565625429153,0.00012621405767276883,0.00022981042275205255,0.0016875257715582848,0,2,-1000,0,0,0,-1,1,0,1500.0
12:36:09.896,STABILIZE,-35.3632622,149.1652375,12,-0.0008592616650275886,0.0009587439708411694,0.023555565625429153,0.00012621405767276883,0.00022981042275205255,0.0016875257715582848,0,2,-1000,0,0,0,-1,1,0,1500.0
12:36:10.098,STABILIZE,-35.3632622,149.1652375,10,-0.0008791754953563213,0.0009606171515770257,0.023477215319871902,0.00030936015537008643,0.0002406786079518497,0.0017418209463357925,0,1,-1000,1,0,1,-1,1,0,1500.0
12:36:10.300,STABILIZE,-35.3632622,149.1652375,10,-0.0008791754953563213,0.0009606171515770257,0.023477215319871902,0.00030936015537008643,0.0002406786079518497,0.0017418209463357925,0,1,-1000,1,0,1,-1,1,0,1500.0
12:36:10.502,STABILIZE,-35.3632622,149.1652375,10,-0.0008791754953563213,0.0009606171515770257,0.023477215319871902,0.00030936015537008643,0.0002406786079518497,0.0017418209463357925,0,1,-1000,1,0,1,-1,1,0,1500.0
12:36:10.704,STABILIZE,-35.3632622,149.1652375,10,-0.0008791754953563213,0.0009606171515770257,0.023477215319871902,0.00030936015537008643,0.0002406786079518497,0.0017418209463357925,0,1,-1000,1,0,1,-1,1,0,1500.0
12:36:10.906,STABILIZE,-35.3632622,149.1652375,10,-0.0008791754953563213,0.0009606171515770257,0.023477215319871902,0.00030936015537008643,0.0002406786079518497,0.0017418209463357925,0,1,-1000,1,0,1,-1,1,0,1500.0
12:36:11.107,STABILIZE,-35.3632622,149.1652375,10,-0.0008791754953563213,0.0009606171515770257,0.023477215319871902,0.00030936015537008643,0.0002406786079518497,0.0017418209463357925,0,1,-1000,1,0,1,-1,1,0,1500.0
12:36:11.309,STABILIZE,-35.3632622,149.1652375,10,-0.0008791754953563213,0.0009606171515770257,0.023477215319871902,0.00030936015537008643,0.0002406786079518497,0.0017418209463357925,0,1,-1000,0,1,0,-1,1,0,1500.0
12:36:11.511,STABILIZE,-35.3632622,149.1652375,10,-0.0008791754953563213,0.0009606171515770257,0.023477215319871902,0.00030936015537008643,0.0002406786079518497,0.0017418209463357925,0,1,-1000,0,0,0,-1,1,0,1500.0
12:36:11.713,STABILIZE,-35.3632622,149.1652375,6,-0.001058845198713243,0.0009626578539609909,0.02298012003302574,0.00029013468883931637,0.00027626787777990103,0.0016554601024836302,0,2,-1000,0,1,0,-1,1,0,1500.0
12:36:11.915,STABILIZE,-35.3632622,149.1652375,6,-0.001058845198713243,0.0009626578539609909,0.02298012003302574,0.00029013468883931637,0.00027626787777990103,0.0016554601024836302,0,2,-1000,0,1,0,-1,1,0,1500.0
12:36:12.116,STABILIZE,-35.3632622,149.1652375,6,-0.001058845198713243,0.0009626578539609909,0.02298012003302574,0.00029013468883931637,0.00027626787777990103,0.0016554601024836302,0,2,-1000,0,1,0,-1,1,0,1500.0
12:36:12.318,AUTO,-35.3632622,149.1652375,6,-0.001058845198713243,0.0009626578539609909,0.02298012003302574,0.00029013468883931637,0.00027626787777990103,0.0016554601024836302,0,2,-1000,0,1,0,-1,1,0,1500.0
12:36:12.520,AUTO,-35.3632622,149.1652375,6,-0.001058845198713243,0.0009626578539609909,0.02298012003302574,0.00029013468883931637,0.00027626787777990103,0.0016554601024836302,0,2,-1000,0,1,0,-1,1,0,1500.0
12:36:12.722,AUTO,-35.3632622,149.1652375,5,-0.0011224995832890272,0.000984568614512682,0.02274175174534321,0.00042393640615046024,0.00023959437385201454,0.0015738073270767927,0,2,-1000,0,1,0,-1,1,0,1500.0
12:36:12.923,AUTO,-35.3632622,149.1652375,5,-0.0011226879432797432,0.0009872051887214184,0.022688770666718483,0.00018091098172590137,0.00027251854771748185,0.001498503377661109,0,1,-1000,0,1,0,-1,0,0,1500.0
12:36:13.124,AUTO,-35.3632622,149.1652375,5,-0.0011226879432797432,0.0009872051887214184,0.022688770666718483,0.00018091098172590137,0.00027251854771748185,0.001498503377661109,0,1,-1000,0,1,0,-1,0,0,1500.0
12:36:13.330,AUTO,-35.3632621,149.1652375,1,-0.0008103948784992099,0.0010123118991032243,0.022622674703598022,9.849481284618378e-05,0.0002510456833988428,0.001549027394503355,0,2,-1000,0,0,0,0,1,1,1500.0
12:36:13.532,AUTO,-35.3632621,149.1652375,0,-0.0008023636182770133,0.001042986405082047,0.022556256502866745,0.00019426742801442742,0.00025079090846702456,0.0015767363365739584,0,1,-1000,1,0,0,0,1,1,108103.0
12:36:13.733,AUTO,-35.3632621,149.1652375,0,-0.000775848631747067,0.0010894574224948883,0.02248898707330227,0.00036484753945842385,0.00022254814393818378,0.00149763491936028,0,1,-1000,0,1,1,0,0,1,108103.0
12:36:13.934,AUTO,-35.3632621,149.1652375,0,-0.0007446210947819054,0.0011477596126496792,0.022405974566936493,0.00032284256303682923,0.0002865829155780375,0.0016132729360833764,0,1,-1000,0,0,0,0,0,1,108103.0
12:36:14.136,AUTO,-35.3632621,149.1652375,0,-0.0007446210947819054,0.0011477596126496792,0.022405974566936493,0.00032284256303682923,0.0002865829155780375,0.0016132729360833764,0,1,-1000,0,0,0,0,0,1,108103.0
12:36:14.337,AUTO,-35.3632621,149.1652375,0,-0.0007446210947819054,0.0011477596126496792,0.022405974566936493,0.00032284256303682923,0.0002865829155780375,0.0016132729360833764,0,1,-1000,0,0,0,0,0,1,108103.0
12:36:14.539,AUTO,-35.3632621,149.1652375,0,-0.0007446210947819054,0.0011477596126496792,0.022405974566936493,0.00032284256303682923,0.0002865829155780375,0.0016132729360833764,0,1,-1000,0,0,0,0,0,1,108103.0
12:36:14.740,AUTO,-35.3632621,149.1652375,0,-0.0005981686990708113,0.0013587374705821276,0.022208048030734062,0.0003143123467452824,0.0002822646638378501,0.0014440801460295916,0,1,-1000,1,1,1,0,0,1,108103.0
12:36:14.941,AUTO,-35.3632621,149.1652375,0,-0.0005429163575172424,0.001426305272616446,0.02213227190077305,0.00027529645012691617,0.00023439759388566017,0.0014826320111751556,0,1,-1000,1,0,0,0,0,1,108103.0
12:36:15.142,AUTO,-35.3632621,149.1652375,0,-0.0005429163575172424,0.001426305272616446,0.02213227190077305,0.00027529645012691617,0.00023439759388566017,0.0014826320111751556,0,1,-1000,1,0,0,0,0,1,108103.0
12:36:15.343,AUTO,-35.3632621,149.1652374,0,-0.0004868116229772568,0.0015037786215543747,0.02206466719508171,0.00028053991263732314,0.0003479612641967833,0.0014503011479973793,0,1,-1000,0,0,0,0,0,0,108103.0
12:36:15.545,AUTO,-35.3632621,149.1652374,0,-0.00043235940393060446,0.0015791903715580702,0.021973738446831703,0.0002574160462245345,0.000315034412778914,0.0014480744721367955,0,1,-1000,0,1,0,0,0,0,108103.0
12:36:15.746,AUTO,-35.3632621,149.1652374,0,-0.00036905170418322086,0.0016567603452131152,0.021885883063077927,0.0003083702176809311,0.0002956429962068796,0.0013847071677446365,0,1,-1000,0,1,1,0,0,0,108103.0
12:36:15.948,AUTO,-35.3632621,149.1652374,0,-0.0003089821257162839,0.0017257881117984653,0.021804096177220345,0.00024690618738532066,0.00030432402854785323,0.0014759637415409088,0,1,-1000,1,0,0,0,0,0,108103.0
12:36:16.149,AUTO,-35.3632621,149.1652374,0,-0.0003089821257162839,0.0017257881117984653,0.021804096177220345,0.00024690618738532066,0.00030432402854785323,0.0014759637415409088,0,1,-1000,1,0,0,0,0,0,108103.0
12:36:16.351,AUTO,-35.3632621,149.1652374,0,-0.0003089821257162839,0.0017257881117984653,0.021804096177220345,0.00024690618738532066,0.00030432402854785323,0.0014759637415409088,0,1,-1000,1,0,0,0,0,0,108103.0
12:36:16.553,AUTO,-35.3632621,149.1652374,0,-0.0003089821257162839,0.0017257881117984653,0.021804096177220345,0.00024690618738532066,0.00030432402854785323,0.0014759637415409088,0,1,-1000,1,0,0,0,0,0,108103.0
12:36:16.755,AUTO,-35.3632621,149.1652375,180,0.0033800327219069004,0.00016903401410672814,0.021738668903708458,0.00660312594845891,0.005271262489259243,0.0021083932369947433,0,0,-1130,7,5,1,0,0,-69,108103.0
12:36:16.956,AUTO,-35.3632621,149.1652375,389,0.0020399128552526236,0.0011024507693946362,0.021667296066880226,-0.006891264114528894,0.001903013326227665,0.0017171293729916215,0,0,-1110,-6,2,1,0,0,-98,108103.0
12:36:17.157,AUTO,-35.3632621,149.1652375,389,0.0020399128552526236,0.0011024507693946362,0.021667296066880226,-0.006891264114528894,0.001903013326227665,0.0017171293729916215,0,0,-1110,-6,2,1,0,0,-98,108103.0
12:36:17.359,AUTO,-35.3632621,149.1652375,664,0.0013298073317855597,0.00165780377574265,0.02159569412469864,-0.0027330208104103804,0.0010098405182361603,-0.00014294800348579884,0,0,-1090,-1,1,0,0,0,-122,108103.0
12:36:17.561,AUTO,-35.3632621,149.1652375,998,0.009588717482984066,0.0010029776021838188,0.021188512444496155,0.04715979844331741,-0.005709073040634394,0.0010084208333864808,0,0,-1044,47,-5,0,0,1,-137,270142.0
12:36:17.763,AUTO,-35.363262,149.1652375,1362,0.02139507792890072,-0.0007336243870668113,0.021101459860801697,0.047003164887428284,-0.007308704312890768,0.002010518219321966,0,0,-1018,47,-6,1,0,4,-144,270142.0
12:36:17.965,AUTO,-35.363262,149.1652377,1740,0.032859284430742264,-0.0026538115926086903,0.021183272823691368,0.04493395611643791,-0.008056911639869213,0.0026781002525240183,0,-1,-1007,45,-7,2,1,10,-147,270142.0
12:36:18.166,AUTO,-35.363262,149.1652377,1740,0.032859284430742264,-0.0026538115926086903,0.021183272823691368,0.04493395611643791,-0.008056911639869213,0.0026781002525240183,0,-1,-1007,45,-7,2,1,10,-147,270142.0
12:36:18.368,AUTO,-35.363262,149.1652377,1740,0.032859284430742264,-0.0026538115926086903,0.021183272823691368,0.04493395611643791,-0.008056911639869213,0.0026781002525240183,0,-1,-1007,45,-7,2,1,10,-147,270142.0
12:36:18.571,AUTO,-35.363262,149.1652377,1740,0.032859284430742264,-0.0026538115926086903,0.021183272823691368,0.04493395611643791,-0.008056911639869213,0.0026781002525240183,0,-1,-1007,45,-7,2,1,10,-147,270142.0
12:36:18.773,AUTO,-35.3632616,149.1652397,2896,0.062048815190792084,-0.009548353031277657,-0.006724647246301174,-0.00038181402487680316,0.011250415816903114,-0.035277850925922394,1,-7,-993,0,12,-35,8,42,-148,270142.0
12:36:18.975,AUTO,-35.3632614,149.1652409,3277,0.04427866265177727,0.01079531665891409,-0.028160762041807175,-0.1261889785528183,0.10429433733224869,-0.10539426654577255,3,-12,-990,-125,104,-105,10,52,-145,270142.0
12:36:19.176,AUTO,-35.3632612,149.1652424,3653,0.0010236947564408183,0.023718345910310745,-0.048690713942050934,-0.1785006821155548,0.003282788209617138,-0.07153734564781189,2,-12,-999,-177,4,-72,6,54,-144,270142.0
12:36:19.380,AUTO,-35.3632612,149.1652424,3653,0.0010236947564408183,0.023718345910310745,-0.048690713942050934,-0.1785006821155548,0.003282788209617138,-0.07153734564781189,2,-12,-999,-177,4,-72,6,54,-144,270142.0
12:36:19.582,AUTO,-35.363261,149.1652438,4031,-0.02520063892006874,0.02080250158905983,-0.06339647620916367,-0.05860386788845062,-0.012750539928674698,-0.0603896826505661,4,-10,-1011,-57,-12,-60,3,47,-147,270142.0
12:36:19.785,AUTO,-35.3632609,149.1652449,4413,-0.034579817205667496,0.016734542325139046,-0.07543328404426575,-0.03194659203290939,-0.013786112889647484,-0.04602603614330292,4,-9,-1005,-31,-13,-46,0,36,-149,270142.0
12:36:19.988,AUTO,-35.3632609,149.1652457,4798,-0.04720531031489372,0.010577735491096973,-0.08324386179447174,-0.06641872972249985,-0.029972737655043602,-0.023101678118109703,4,-6,-1000,-65,-29,-23,-2,24,-149,270142.0
12:36:20.190,AUTO,-35.3632609,149.1652457,4798,-0.04720531031489372,0.010577735491096973,-0.08324386179447174,-0.06641872972249985,-0.029972737655043602,-0.023101678118109703,4,-6,-1000,-65,-29,-23,-2,24,-149,270142.0
12:36:20.392,AUTO,-35.3632609,149.1652457,4798,-0.04720531031489372,0.010577735491096973,-0.08324386179447174,-0.06641872972249985,-0.029972737655043602,-0.023101678118109703,4,-6,-1000,-65,-29,-23,-2,24,-149,270142.0
12:36:20.594,AUTO,-35.3632609,149.1652457,4798,-0.04720531031489372,0.010577735491096973,-0.08324386179447174,-0.06641872972249985,-0.029972737655043602,-0.023101678118109703,4,-6,-1000,-65,-29,-23,-2,24,-149,270142.0
12:36:20.797,AUTO,-35.363261,149.1652458,5951,-0.06864029169082642,-0.007870867848396301,-0.08883580565452576,0.049696821719408035,-0.0029512473847717047,-0.007018428295850754,-1,3,-1002,50,-2,-7,-2,-27,-149,270142.0
12:36:20.998,AUTO,-35.3632611,149.1652449,6336,-0.0550348274409771,-0.00811390858143568,-0.09086558222770691,0.057281240820884705,0.0017591984942555428,-0.0037425521295517683,-4,8,-1000,57,2,-4,-2,-41,-149,270142.0
12:36:21.200,AUTO,-35.3632611,149.1652436,6720,-0.04018114134669304,-0.006945181172341108,-0.09230461716651917,0.06130817160010338,0.007366720587015152,-0.001540772384032607,-6,13,-1001,61,8,-2,-2,-51,-149,270142.0
12:36:21.404,AUTO,-35.3632611,149.1652436,6720,-0.04018114134669304,-0.006945181172341108,-0.09230461716651917,0.06130817160010338,0.007366720587015152,-0.001540772384032607,-6,13,-1001,61,8,-2,-2,-51,-149,19503.0
12:36:21.606,AUTO,-35.3632612,149.1652421,7109,-0.024423951283097267,-0.00454399548470974,-0.09306713938713074,0.06428052484989166,0.011158893816173077,0.0005647555226460099,-6,8,-1002,65,11,0,-2,-57,-150,19503.0
12:36:21.808,AUTO,-35.3632612,149.1652405,7495,-0.008219968527555466,-0.00135736633092165,-0.09313589334487915,0.06618206948041916,0.013716266490519047,0.0016277958638966084,-8,15,-1003,67,14,0,-3,-59,-150,19503.0
12:36:22.011,AUTO,-35.3632613,149.1652388,7884,0.008240154944360256,0.002088824287056923,-0.09266068786382675,0.06721312552690506,0.01413138397037983,0.002578913467004895,-7,13,-1004,67,14,2,-4,-57,-151,19503.0
12:36:22.213,AUTO,-35.3632613,149.1652388,7884,0.008240154944360256,0.002088824287056923,-0.09266068786382675,0.06721312552690506,0.01413138397037983,0.002578913467004895,-7,13,-1004,67,14,2,-4,-57,-151,19503.0
12:36:22.416,AUTO,-35.3632613,149.1652388,7884,0.008240154944360256,0.002088824287056923,-0.09266068786382675,0.06721312552690506,0.01413138397037983,0.002578913467004895,-7,13,-1004,67,14,2,-4,-57,-151,19503.0
12:36:22.618,AUTO,-35.3632613,149.1652388,7884,0.008240154944360256,0.002088824287056923,-0.09266068786382675,0.06721312552690506,0.01413138397037983,0.002578913467004895,-7,13,-1004,67,14,2,-4,-57,-151,19503.0
12:36:22.820,AUTO,-35.3632618,149.1652349,9055,0.056135863065719604,0.009514403529465199,-0.08936237543821335,0.06061609461903572,0.0040867021307349205,0.00444622989743948,-3,7,-1002,61,4,3,-9,-27,-153,19503.0
12:36:23.021,AUTO,-35.363262,149.1652343,9449,0.06949165463447571,0.008809586986899376,-0.08669951558113098,0.02960444986820221,-0.019877932965755463,0.030001679435372353,-1,6,-997,30,-19,29,-10,-10,-153,19503.0
12:36:23.223,AUTO,-35.3632623,149.1652341,9840,0.06159522011876106,-0.001994267338886857,-0.07823342829942703,-0.07574757933616638,-0.03481685370206833,0.030393322929739952,0,2,-991,-75,-34,30,-9,5,-151,19503.0
12:36:23.425,AUTO,-35.3632624,149.1652344,10226,0.038393814116716385,-0.006878473795950413,-0.07435378432273865,-0.09602698683738708,-0.007052476052194834,0.006878252606838942,2,0,-996,-95,-6,6,-6,16,-149,19503.0
12:36:23.627,AUTO,-35.3632624,149.1652344,10226,0.038393814116716385,-0.006878473795950413,-0.07435378432273865,-0.09602698683738708,-0.007052476052194834,0.006878252606838942,2,0,-996,-95,-6,6,-6,16,-149,19503.0
12:36:23.831,AUTO,-35.3632625,149.1652347,10608,0.016739141196012497,-0.006917107850313187,-0.07525501400232315,-0.07790142297744751,0.002942369319498539,-0.009649521671235561,3,-2,-1000,-77,3,-10,-2,21,-149,19503.0
12:36:24.033,AUTO,-35.3632626,149.1652352,10991,0.00035875270259566605,-0.006106766406446695,-0.07947671413421631,-0.05664414167404175,0.003514719195663929,-0.020727382972836494,2,-4,-1002,-55,4,-21,0,21,-149,19503.0
12:36:24.235,AUTO,-35.3632626,149.1652352,10991,0.00035875270259566605,-0.006106766406446695,-0.07947671413421631,-0.05664414167404175,0.003514719195663929,-0.020727382972836494,2,-4,-1002,-55,4,-21,0,21,-149,19503.0
12:36:24.436,AUTO,-35.3632626,149.1652352,10991,0.00035875270259566605,-0.006106766406446695,-0.07947671413421631,-0.05664414167404175,0.003514719195663929,-0.020727382972836494,2,-4,-1002,-55,4,-21,0,21,-149,19503.0
12:36:24.638,AUTO,-35.3632626,149.1652352,10991,0.00035875270259566605,-0.006106766406446695,-0.07947671413421631,-0.05664414167404175,0.003514719195663929,-0.020727382972836494,2,-4,-1002,-55,4,-21,0,21,-149,19503.0
12:36:24.840,AUTO,-35.3632625,149.1652364,12152,-0.0164287481456995,-0.003162943758070469,-0.1009262353181839,0.002402106998488307,0.006057188846170902,-0.031071757897734642,0,-2,-1002,2,6,-31,4,7,-152,19503.0
12:36:25.041,AUTO,-35.3632623,149.1652365,12541,-0.014126993715763092,-0.0015427145408466458,-0.10896612703800201,0.011875670403242111,0.006568538025021553,-0.027868904173374176,0,-1,-1001,12,7,-28,5,2,-152,19503.0
12:36:25.242,AUTO,-35.3632622,149.1652365,12931,-0.010588164441287518,-0.0003067810321226716,-0.11616329103708267,0.015757139772176743,0.004835668485611677,-0.0254144836217165,-1,0,-1000,16,5,-25,5,-1,-152,19503.0
12:36:25.444,AUTO,-35.3632621,149.1652365,13320,-0.006396962329745293,0.0011082332348451018,-0.12284377217292786,0.01902363821864128,0.007799690589308739,-0.02648450806736946,-1,0,-1001,19,8,-26,5,-4,-152,149947.0
12:36:25.646,AUTO,-35.3632621,149.1652365,13320,-0.006396962329745293,0.0011082332348451018,-0.12284377217292786,0.01902363821864128,0.007799690589308739,-0.02648450806736946,-1,0,-1001,19,8,-26,5,-4,-152,149947.0
12:36:25.847,AUTO,-35.363262,149.1652363,13711,-0.0019369326764717698,0.0030448585748672485,-0.12924011051654816,0.01725054159760475,0.007447074167430401,-0.022856347262859344,-2,0,-1000,17,7,-22,4,-6,-152,149947.0
12:36:26.049,AUTO,-35.3632618,149.1652361,14106,0.0023697419092059135,0.0048464033752679825,-0.13509225845336914,0.01661398448050022,0.00689172325655818,-0.018526827916502953,-2,0,-1000,17,7,-19,3,-6,-153,149947.0
12:36:26.251,AUTO,-35.3632618,149.1652361,14106,0.0023697419092059135,0.0048464033752679825,-0.13509225845336914,0.01661398448050022,0.00689172325655818,-0.018526827916502953,-2,0,-1000,17,7,-19,3,-6,-153,149947.0
12:36:26.453,AUTO,-35.3632618,149.1652361,14106,0.0023697419092059135,0.0048464033752679825,-0.13509225845336914,0.01661398448050022,0.00689172325655818,-0.018526827916502953,-2,0,-1000,17,7,-19,3,-6,-153,149947.0
12:36:26.655,AUTO,-35.3632618,149.1652361,14106,0.0023697419092059135,0.0048464033752679825,-0.13509225845336914,0.01661398448050022,0.00689172325655818,-0.018526827916502953,-2,0,-1000,17,7,-19,3,-6,-153,149947.0
12:36:26.857,AUTO,-35.3632616,149.1652356,15271,0.009401241317391396,0.007266550324857235,-0.14795973896980286,0.00381325650960207,0.004181426949799061,-0.01612861081957817,-1,0,-999,4,4,-16,0,-2,-152,149947.0
12:36:27.059,AUTO,-35.3632616,149.1652355,15661,0.009742998518049717,0.007296641357243061,-0.1512019783258438,-0.00044399334001354873,-0.00012471614172682166,-0.011556298471987247,0,0,-999,0,0,-12,0,0,-152,149947.0
12:36:27.260,AUTO,-35.3632616,149.1652354,16050,0.009573222137987614,0.0069168019108474255,-0.15413641929626465,-0.0030684517696499825,-0.0026778283063322306,-0.010186967439949512,0,0,-999,-2,-1,-10,-1,1,-152,149947.0
12:36:27.462,AUTO,-35.3632616,149.1652354,16439,0.009056854993104935,0.006218410097062588,-0.15686175227165222,-0.0024828941095620394,-0.003822138998657465,-0.01128370501101017,0,0,-1000,-1,-3,-11,-2,2,-152,149947.0
12:36:27.663,AUTO,-35.3632616,149.1652354,16439,0.009056854993104935,0.006218410097062588,-0.15686175227165222,-0.0024828941095620394,-0.003822138998657465,-0.01128370501101017,0,0,-1000,-1,-3,-11,-2,2,-152,149947.0
12:36:27.865,AUTO,-35.3632616,149.1652354,16829,0.008435231633484364,0.005361445248126984,-0.15956729650497437,-0.0029237898997962475,-0.0016661888221278787,-0.012965102680027485,0,0,-1000,-2,0,-13,-2,4,-152,149947.0
12:36:28.067,AUTO,-35.3632616,149.1652354,17218,0.007592430338263512,0.005212507210671902,-0.16295163333415985,-0.004121364094316959,3.1544710509479046e-05,-0.013676120899617672,0,0,-1000,-3,0,-14,-3,5,-152,149947.0
12:36:28.268,AUTO,-35.3632616,149.1652354,17218,0.007592430338263512,0.005212507210671902,-0.16295163333415985,-0.004121364094316959,3.1544710509479046e-05,-0.013676120899617672,0,0,-1000,-3,0,-14,-3,5,-152,149947.0
12:36:28.470,AUTO,-35.3632616,149.1652354,17218,0.007592430338263512,0.005212507210671902,-0.16295163333415985,-0.004121364094316959,3.1544710509479046e-05,-0.013676120899617672,0,0,-1000,-3,0,-14,-3,5,-152,149947.0
12:36:28.672,AUTO,-35.3632616,149.1652354,17218,0.007592430338263512,0.005212507210671902,-0.16295163333415985,-0.004121364094316959,3.1544710509479046e-05,-0.013676120899617672,0,0,-1000,-3,0,-14,-3,5,-152,149947.0
12:36:28.873,AUTO,-35.3632616,149.1652357,18385,0.003909922670572996,0.003852932248264551,-0.17431725561618805,-0.0032767276279628277,-0.0003767794696614146,-0.0193774476647377,0,0,-1000,-2,0,-19,-3,6,-153,149947.0
12:36:29.075,AUTO,-35.3632617,149.1652358,18779,0.003124636597931385,0.0036802445538342,-0.1788209080696106,-0.0007185586728155613,-0.00017025001579895616,-0.0179431214928627,0,0,-1001,0,0,-18,-3,6,-153,149947.0
12:36:29.276,AUTO,-35.3632617,149.1652359,19168,0.002369214314967394,0.00350793544203043,-0.1835157722234726,-0.001018563169054687,0.0003183723893016577,-0.0188156608492136,0,0,-1000,0,0,-19,-3,6,-153,149947.0
12:36:29.478,AUTO,-35.3632617,149.165236,19557,0.0018477393314242363,0.003416195511817932,-0.18842247128486633,-0.001845360267907381,-7.419259054586291e-05,-0.020619485527276993,0,0,-1000,-1,0,-20,-3,5,-153,50529.0
12:36:29.683,AUTO,-35.3632617,149.1652361,19946,0.0014875674387440085,0.003268284723162651,-0.19340069591999054,-0.0011899597011506557,0.00046599359484389424,-0.02160593681037426,0,0,-1000,0,1,-22,-3,5,-153,50529.0
12:36:29.886,AUTO,-35.3632617,149.1652361,19946,0.0014875674387440085,0.003268284723162651,-0.19340069591999054,-0.0011899597011506557,0.00046599359484389424,-0.02160593681037426,0,0,-1000,0,1,-22,-3,5,-153,50529.0
12:36:30.088,AUTO,-35.3632617,149.1652362,20336,0.0014198082499206066,0.003469350514933467,-0.1986570507287979,0.0003974705468863249,0.0023775212466716766,-0.020937995985150337,0,0,-1000,1,2,-21,-3,4,-153,50529.0
12:36:30.289,AUTO,-35.3632617,149.1652362,20336,0.0014198082499206066,0.003469350514933467,-0.1986570507287979,0.0003974705468863249,0.0023775212466716766,-0.020937995985150337,0,0,-1000,1,2,-21,-3,4,-153,50529.0
12:36:30.494,AUTO,-35.3632617,149.1652362,20336,0.0014198082499206066,0.003469350514933467,-0.1986570507287979,0.0003974705468863249,0.0023775212466716766,-0.020937995985150337,0,0,-1000,1,2,-21,-3,4,-153,50529.0
12:36:30.696,AUTO,-35.3632618,149.1652362,21493,-0.03836459293961525,0.007792450487613678,-0.20539574325084686,-0.060469236224889755,0.05593317374587059,0.08892073482275009,0,0,-984,-59,56,88,-5,-5,-149,50529.0
12:36:30.898,AUTO,-35.3632618,149.1652362,21493,-0.03836459293961525,0.007792450487613678,-0.20539574325084686,-0.060469236224889755,0.05593317374587059,0.08892073482275009,0,0,-984,-59,56,88,-5,-5,-149,50529.0
12:36:31.099,AUTO,-35.3632619,149.165236,21868,-0.04570217430591583,0.03175273910164833,-0.15187112987041473,-0.023285089060664177,0.09835967421531677,0.3288859724998474,0,2,-981,-22,99,328,-11,-14,-144,50529.0
12:36:31.301,AUTO,-35.3632622,149.1652354,22229,-0.048574935644865036,0.056857284158468246,-0.03693194314837456,-0.015558491460978985,0.031325675547122955,0.5096411108970642,0,6,-975,-15,31,509,-22,-24,-139,50529.0
12:36:31.502,AUTO,-35.3632628,149.1652345,22570,-0.02834050916135311,0.03593255952000618,0.05934187397360802,0.11217737942934036,-0.17617228627204895,0.26274001598358154,2,10,-955,112,-175,262,-33,-33,-128,50529.0
12:36:31.704,AUTO,-35.3632635,149.1652336,22883,0.0036018546670675278,-0.007866312749683857,0.09717430174350739,0.12253960222005844,-0.15395565330982208,0.06157127022743225,2,11,-955,123,-153,61,-34,-34,-117,50529.0
12:36:31.906,AUTO,-35.3632635,149.1652336,22883,0.0036018546670675278,-0.007866312749683857,0.09717430174350739,0.12253960222005844,-0.15395565330982208,0.06157127022743225,2,11,-955,123,-153,61,-34,-34,-117,50529.0
12:36:32.109,AUTO,-35.3632642,149.1652327,23173,0.030708041042089462,-0.03502177819609642,0.09833882749080658,0.0924438089132309,-0.06983274966478348,-0.030383143573999405,2,9,-959,93,-69,-30,-28,-27,-106,50529.0
12:36:32.311,AUTO,-35.3632642,149.1652327,23173,0.030708041042089462,-0.03502177819609642,0.09833882749080658,0.0924438089132309,-0.06983274966478348,-0.030383143573999405,2,9,-959,93,-69,-30,-28,-27,-106,50529.0
12:36:32.513,AUTO,-35.3632642,149.1652327,23173,0.030708041042089462,-0.03502177819609642,0.09833882749080658,0.0924438089132309,-0.06983274966478348,-0.030383143573999405,2,9,-959,93,-69,-30,-28,-27,-106,50529.0
12:36:32.715,AUTO,-35.3632651,149.1652317,23874,0.05381794273853302,-0.03913789242506027,0.06930331140756607,-0.012383975088596344,0.026887206360697746,-0.017895642668008804,0,0,-969,-11,27,-18,1,11,-78,50529.0
12:36:32.918,AUTO,-35.3632651,149.1652317,23874,0.05381794273853302,-0.03913789242506027,0.06930331140756607,-0.012383975088596344,0.026887206360697746,-0.017895642668008804,0,0,-969,-11,27,-18,1,11,-78,50529.0
12:36:33.120,AUTO,-35.3632649,149.1652321,24064,0.04729791730642319,-0.03102845512330532,0.06629165261983871,-0.025386719033122063,0.03573790565133095,-0.007038469891995192,0,-4,-972,-24,36,-7,8,22,-71,50529.0
12:36:33.322,AUTO,-35.3632648,149.1652326,24236,0.037829913198947906,-0.021219559013843536,0.06520108878612518,-0.04621335119009018,0.041514307260513306,0.00043095494038425386,0,-7,-975,-45,42,0,15,30,-64,50529.0
12:36:33.523,AUTO,-35.3632643,149.1652335,24394,0.02673964574933052,-0.011276429519057274,0.06468334794044495,-0.04300478845834732,0.03861231356859207,0.0014738710597157478,0,-8,-976,-42,39,1,18,35,-58,43433.0
12:36:33.725,AUTO,-35.3632639,149.1652344,24534,0.0168672613799572,-0.002700088545680046,0.06401325017213821,-0.02373461239039898,0.031179195269942284,0.0009829936316236854,0,-9,-977,-22,32,0,20,37,-52,43433.0
12:36:33.927,AUTO,-35.3632639,149.1652344,24534,0.0168672613799572,-0.002700088545680046,0.06401325017213821,-0.02373461239039898,0.031179195269942284,0.0009829936316236854,0,-9,-977,-22,32,0,20,37,-52,43433.0
12:36:34.129,AUTO,-35.3632634,149.1652353,24660,0.008487028069794178,0.004133779089897871,0.06313349306583405,-0.04101364314556122,0.026157360523939133,0.0007919169729575515,0,-11,-977,-40,27,0,20,37,-47,43433.0
12:36:34.331,AUTO,-35.3632634,149.1652353,24660,0.008487028069794178,0.004133779089897871,0.06313349306583405,-0.04101364314556122,0.026157360523939133,0.0007919169729575515,0,-11,-977,-40,27,0,20,37,-47,43433.0
12:36:34.533,AUTO,-35.3632634,149.1652353,24660,0.008487028069794178,0.004133779089897871,0.06313349306583405,-0.04101364314556122,0.026157360523939133,0.0007919169729575515,0,-11,-977,-40,27,0,20,37,-47,43433.0
12:36:34.735,AUTO,-35.3632621,149.1652379,24946,-0.00713942339643836,0.015088737942278385,0.060431528836488724,-0.017904410138726234,0.006867966149002314,-0.0004803026677109301,0,-9,-975,-17,7,0,14,27,-30,43433.0
12:36:34.936,AUTO,-35.3632617,149.1652386,25012,-0.010669566690921783,0.015895096585154533,0.05947459489107132,-0.061185117810964584,0.004036899656057358,-0.0034226165153086185,0,-7,-974,-60,4,-3,11,23,-23,43433.0
12:36:35.138,AUTO,-35.3632617,149.1652386,25012,-0.010669566690921783,0.015895096585154533,0.05947459489107132,-0.061185117810964584,0.004036899656057358,-0.0034226165153086185,0,-7,-974,-60,4,-3,11,23,-23,43433.0
12:36:35.339,AUTO,-35.3632615,149.1652391,25073,-0.009348824620246887,0.015597994439303875,0.05847816914319992,0.15376758575439453,-0.0016325314063578844,-0.005019918084144592,0,4,-964,154,0,-5,8,18,-24,43433.0
12:36:35.541,AUTO,-35.3632613,149.1652395,25117,-0.012226413004100323,0.014251504093408585,0.05731784552335739,-0.29013946652412415,-0.006542573682963848,-0.005174589809030294,0,-27,-955,-290,-5,-5,5,13,-14,43433.0
12:36:35.743,AUTO,-35.3632611,149.1652398,25129,-0.030019773170351982,0.016539953649044037,0.050501830875873566,-1.1247705221176147,0.1270798295736313,-0.0663999542593956,-3,-43,-917,-1123,128,-66,3,8,2,43433.0
12:36:35.945,AUTO,-35.3632611,149.16524,25095,-0.05300356447696686,0.03239234536886215,0.052957549691200256,-0.3071710765361786,0.006421094294637442,-0.00572957145050168,0,7,-989,-305,7,-5,-2,0,16,43433.0
12:36:36.147,AUTO,-35.3632611,149.16524,25095,-0.05300356447696686,0.03239234536886215,0.052957549691200256,-0.3071710765361786,0.006421094294637442,-0.00572957145050168,0,7,-989,-305,7,-5,-2,0,16,43433.0
12:36:36.349,AUTO,-35.3632611,149.16524,25095,-0.05300356447696686,0.03239234536886215,0.052957549691200256,-0.3071710765361786,0.006421094294637442,-0.00572957145050168,0,7,-989,-305,7,-5,-2,0,16,43433.0
12:36:36.551,AUTO,-35.3632611,149.16524,25095,-0.05300356447696686,0.03239234536886215,0.052957549691200256,-0.3071710765361786,0.006421094294637442,-0.00572957145050168,0,7,-989,-305,7,-5,-2,0,16,43433.0
12:36:36.752,AUTO,-35.3632617,149.165239,24955,-0.005329051520675421,0.036070168018341064,0.0519859716296196,0.4420517683029175,0.011572076007723808,-0.009276666678488255,3,11,-1022,442,12,-9,-23,-19,12,43433.0
12:36:36.954,AUTO,-35.3632623,149.1652385,24922,-0.011961263604462147,0.040146008133888245,0.05034696310758591,-0.31987789273262024,0.018638959154486656,-0.011170503683388233,4,-25,-1009,-320,19,-11,-31,-22,10,43433.0
12:36:37.156,AUTO,-35.3632623,149.1652385,24922,-0.011961263604462147,0.040146008133888245,0.05034696310758591,-0.31987789273262024,0.018638959154486656,-0.011170503683388233,4,-25,-1009,-320,19,-11,-31,-22,10,43433.0
12:36:37.357,AUTO,-35.3632631,149.1652379,24896,-0.020771201699972153,0.045156992971897125,0.04957751929759979,-0.7694478631019592,0.017383571714162827,-0.0028897153679281473,7,-24,-1002,-768,18,-2,-40,-23,7,43433.0
12:36:37.559,AUTO,-35.3632641,149.1652373,24876,-0.02084282785654068,0.050943661481142044,0.04815869778394699,-0.3354814648628235,0.02195075899362564,-9.707534627523273e-05,11,9,-1008,-333,22,0,-50,-24,4,218912.0
12:36:37.760,AUTO,-35.3632654,149.1652367,24862,-0.01595241017639637,0.05831189081072807,0.03850575163960457,0.4143398702144623,0.01761694997549057,-0.1229758933186531,9,43,-1011,416,18,-123,-61,-24,2,218912.0
12:36:37.962,AUTO,-35.3632669,149.165236,24851,-0.02033260464668274,0.06231934577226639,-0.07154424488544464,0.6188706755638123,-0.014465748332440853,-0.700639009475708,10,34,-1008,619,-13,-700,-74,-27,3,218912.0
12:36:38.166,AUTO,-35.3632669,149.165236,24851,-0.02033260464668274,0.06231934577226639,-0.07154424488544464,0.6188706755638123,-0.014465748332440853,-0.700639009475708,10,34,-1008,619,-13,-700,-74,-27,3,218912.0
12:36:38.368,AUTO,-35.3632669,149.165236,24851,-0.02033260464668274,0.06231934577226639,-0.07154424488544464,0.6188706755638123,-0.014465748332440853,-0.700639009475708,10,34,-1008,619,-13,-700,-74,-27,3,218912.0
12:36:38.570,AUTO,-35.3632669,149.165236,24851,-0.02033260464668274,0.06231934577226639,-0.07154424488544464,0.6188706755638123,-0.014465748332440853,-0.700639009475708,10,34,-1008,619,-13,-700,-74,-27,3,218912.0
12:36:38.773,AUTO,-35.3632734,149.1652336,24815,-0.09973915666341782,0.042194969952106476,-0.6977419853210449,-0.4368128776550293,0.013580229133367538,-0.7743328213691711,0,27,-1006,-435,14,-774,-120,-36,2,218912.0
12:36:38.974,AUTO,-35.3632763,149.1652327,24800,-0.11489180475473404,0.025440264493227005,-0.8858451843261719,0.21979376673698425,0.0036276632454246283,-0.7227421998977661,0,55,-1001,222,4,-722,-138,-42,5,218912.0
12:36:39.176,AUTO,-35.3632796,149.1652316,24784,-0.12211570888757706,0.003402405884116888,-1.0650743246078491,0.5413281917572021,-0.03129636123776436,-0.7126652002334595,-14,59,-1006,542,-30,-713,-159,-47,5,218912.0
12:36:39.378,AUTO,-35.3632796,149.1652316,24784,-0.12211570888757706,0.003402405884116888,-1.0650743246078491,0.5413281917572021,-0.03129636123776436,-0.7126652002334595,-14,59,-1006,542,-30,-713,-159,-47,5,218912.0
12:36:39.580,AUTO,-35.3632836,149.1652303,24763,-0.13846801221370697,-0.02477186731994152,-1.2447779178619385,-0.2604643404483795,-0.008980119600892067,-0.6898959279060364,-23,18,-1007,-260,-7,-690,-183,-55,6,218912.0
12:36:39.783,AUTO,-35.363288,149.1652288,24739,-0.1521351933479309,-0.05505235865712166,-1.42060387134552,-0.6323698163032532,-0.01304326020181179,-0.6983349919319153,-29,17,-1005,-631,-12,-698,-207,-62,7,218912.0
12:36:39.985,AUTO,-35.363293,149.1652272,24713,-0.14707113802433014,-0.08738889545202255,-1.5962684154510498,-0.03706712648272514,-0.028735024854540825,-0.7274829745292664,-46,50,-1002,-35,-27,-727,-233,-71,8,218912.0
12:36:40.196,AUTO,-35.363293,149.1652272,24713,-0.14707113802433014,-0.08738889545202255,-1.5962684154510498,-0.03706712648272514,-0.028735024854540825,-0.7274829745292664,-46,50,-1002,-35,-27,-727,-233,-71,8,218912.0
12:36:40.398,AUTO,-35.363293,149.1652272,24713,-0.14707113802433014,-0.08738889545202255,-1.5962684154510498,-0.03706712648272514,-0.028735024854540825,-0.7274829745292664,-46,50,-1002,-35,-27,-727,-233,-71,8,218912.0
12:36:40.600,AUTO,-35.363293,149.1652272,24713,-0.14707113802433014,-0.08738889545202255,-1.5962684154510498,-0.03706712648272514,-0.028735024854540825,-0.7274829745292664,-46,50,-1002,-35,-27,-727,-233,-71,8,218912.0
12:36:40.802,AUTO,-35.3633116,149.1652207,24627,-0.07518741488456726,-0.16097451746463776,-2.130631685256958,-0.4685319662094116,0.0063811675645411015,-0.7008481025695801,-80,-16,-997,-468,7,-701,-313,-96,10,218912.0
12:36:41.003,AUTO,-35.3633189,149.165218,24596,-0.03762245923280716,-0.17830297350883484,-2.3146960735321045,-0.024889973923563957,-0.033662740141153336,-0.7423916459083557,-81,2,-997,-23,-32,-742,-336,-105,10,218912.0
12:36:41.205,AUTO,-35.3633267,149.1652151,24562,0.00013267678150441498,-0.18877120316028595,-2.4979467391967773,0.3988063335418701,-0.047124918550252914,-0.7393301725387573,-87,1,-997,400,-46,-739,-359,-114,12,300000.0
12:36:41.407,AUTO,-35.3633267,149.1652151,24562,0.00013267678150441498,-0.18877120316028595,-2.4979467391967773,0.3988063335418701,-0.047124918550252914,-0.7393301725387573,-87,1,-997,400,-46,-739,-359,-114,12,300000.0
12:36:41.609,AUTO,-35.363335,149.165212,24525,0.03216938301920891,-0.19728437066078186,-2.680276393890381,0.0028987224213778973,-0.03750070556998253,-0.6835500001907349,-88,-43,-993,3,-36,-683,-383,-123,14,300000.0
12:36:41.811,AUTO,-35.3633439,149.1652085,24483,0.05314048007130623,-0.20201821625232697,-2.8296329975128174,-0.3364733159542084,-0.03739204257726669,-0.3954627513885498,-87,-56,-997,-335,-36,-395,-409,-132,16,300000.0
12:36:42.013,AUTO,-35.3633534,149.1652047,24437,0.06566333025693893,-0.20574931800365448,-2.878129005432129,0.1851637065410614,-0.015363351441919804,-0.0612015426158905,-74,-45,-990,186,-14,-61,-437,-141,17,300000.0
12:36:42.216,AUTO,-35.3633534,149.1652047,24437,0.06566333025693893,-0.20574931800365448,-2.878129005432129,0.1851637065410614,-0.015363351441919804,-0.0612015426158905,-74,-45,-990,186,-14,-61,-437,-141,17,300000.0
12:36:42.417,AUTO,-35.3633534,149.1652047,24437,0.06566333025693893,-0.20574931800365448,-2.878129005432129,0.1851637065410614,-0.015363351441919804,-0.0612015426158905,-74,-45,-990,186,-14,-61,-437,-141,17,300000.0
12:36:42.620,AUTO,-35.3633534,149.1652047,24437,0.06566333025693893,-0.20574931800365448,-2.878129005432129,0.1851637065410614,-0.015363351441919804,-0.0612015426158905,-74,-45,-990,186,-14,-61,-437,-141,17,300000.0
12:36:42.822,AUTO,-35.3633856,149.1651919,24284,0.06639071553945541,-0.20437729358673096,-2.822420597076416,0.1709827333688736,0.05851486697793007,0.04179012030363083,-112,-52,-1008,171,59,41,-516,-165,17,300000.0
12:36:43.023,AUTO,-35.3633975,149.1651872,24237,0.06691277027130127,-0.19451874494552612,-2.8135581016540527,0.020886819809675217,0.04133402183651924,0.024983195587992668,-106,-66,-995,21,42,24,-537,-172,16,300000.0
12:36:43.225,AUTO,-35.3634098,149.1651823,24193,0.06376731395721436,-0.18611468374729156,-2.8117904663085938,-0.12390363961458206,0.013003155589103699,0.001537470961920917,-99,-58,-989,-123,13,1,-556,-179,15,300000.0
12:36:43.426,AUTO,-35.3634098,149.1651823,24193,0.06376731395721436,-0.18611468374729156,-2.8117904663085938,-0.12390363961458206,0.013003155589103699,0.001537470961920917,-99,-58,-989,-123,13,1,-556,-179,15,300000.0
12:36:43.628,AUTO,-35.3634225,149.1651772,24151,0.06559149920940399,-0.17960642278194427,-2.8127238750457764,0.13066239655017853,0.0026917243376374245,-0.01685028336942196,-108,-76,-988,131,3,-16,-571,-183,14,300000.0
12:36:43.830,AUTO,-35.3634354,149.1651721,24108,0.06760188192129135,-0.18223470449447632,-2.8145952224731445,-0.04119297116994858,0.011699460446834564,-0.011906275525689125,-119,-86,-982,-40,12,-11,-584,-186,16,300000.0
12:36:44.032,AUTO,-35.3634488,149.1651669,24062,0.07389330863952637,-0.17471888661384583,-2.8173885345458984,-0.025184813886880875,0.028283044695854187,-0.014657028019428253,-123,-66,-992,-24,29,-14,-598,-190,16,300000.0
12:36:44.235,AUTO,-35.3634488,149.1651669,24062,0.07389330863952637,-0.17471888661384583,-2.8173885345458984,-0.025184813886880875,0.028283044695854187,-0.014657028019428253,-123,-66,-992,-24,29,-14,-598,-190,16,300000.0
12:36:44.438,AUTO,-35.3634488,149.1651669,24062,0.07389330863952637,-0.17471888661384583,-2.8173885345458984,-0.025184813886880875,0.028283044695854187,-0.014657028019428253,-123,-66,-992,-24,29,-14,-598,-190,16,300000.0
12:36:44.640,AUTO,-35.3634488,149.1651669,24062,0.07389330863952637,-0.17471888661384583,-2.8173885345458984,-0.025184813886880875,0.028283044695854187,-0.014657028019428253,-123,-66,-992,-24,29,-14,-598,-190,16,300000.0
12:36:44.842,AUTO,-35.3634903,149.1651508,23923,0.0788130834698677,-0.1609891951084137,-2.8182294368743896,0.1178576797246933,-0.010384190827608109,-0.009239308536052704,-126,-62,-982,118,-9,-9,-627,-200,18,300000.0
12:36:45.044,AUTO,-35.3635045,149.1651453,23873,0.08272960036993027,-0.1592336744070053,-2.818072557449341,0.06779223680496216,0.01585390232503414,0.0016533929156139493,-135,-80,-981,68,16,1,-633,-201,19,2982.0
12:36:45.246,AUTO,-35.3635191,149.1651396,23819,0.07939819246530533,-0.1487325131893158,-2.818246364593506,-0.1369304358959198,0.052701279520988464,-0.0024316965136677027,-136,-72,-997,-135,53,-2,-639,-204,19,2982.0
12:36:45.448,AUTO,-35.3635336,149.165134,23768,0.08539988845586777,-0.13852791488170624,-2.8187782764434814,0.22567866742610931,0.041946470737457275,-0.0206353347748518,-132,-63,-989,226,42,-20,-642,-205,18,2982.0
12:36:45.650,AUTO,-35.3635336,149.165134,23768,0.08539988845586777,-0.13852791488170624,-2.8187782764434814,0.22567866742610931,0.041946470737457275,-0.0206353347748518,-132,-63,-989,226,42,-20,-642,-205,18,2982.0
12:36:45.852,AUTO,-35.363548,149.1651284,23718,0.08441080898046494,-0.13381293416023254,-2.8188819885253906,-0.13221114873886108,0.027614139020442963,0.008692861534655094,-134,-89,-985,-131,28,8,-643,-205,18,2982.0
12:36:46.054,AUTO,-35.3635625,149.1651229,23667,0.08185456693172455,-0.13357357680797577,-2.8196516036987305,-0.17729853093624115,0.006585773080587387,-0.014640958979725838,-128,-80,-973,-176,7,-15,-642,-205,20,2982.0
12:36:46.257,AUTO,-35.3635625,149.1651229,23667,0.08185456693172455,-0.13357357680797577,-2.8196516036987305,-0.17729853093624115,0.006585773080587387,-0.014640958979725838,-128,-80,-973,-176,7,-15,-642,-205,20,2982.0
12:36:46.459,AUTO,-35.3635625,149.1651229,23667,0.08185456693172455,-0.13357357680797577,-2.8196516036987305,-0.17729853093624115,0.006585773080587387,-0.014640958979725838,-128,-80,-973,-176,7,-15,-642,-205,20,2982.0
12:36:46.661,AUTO,-35.3635625,149.1651229,23667,0.08185456693172455,-0.13357357680797577,-2.8196516036987305,-0.17729853093624115,0.006585773080587387,-0.014640958979725838,-128,-80,-973,-176,7,-15,-642,-205,20,2982.0
12:36:46.863,AUTO,-35.3636057,149.1651063,23491,0.08483581990003586,-0.1402297019958496,-2.8219127655029297,-0.4014115035533905,-0.03910830244421959,0.016492584720253944,-128,-95,-976,-400,-38,16,-640,-205,24,2982.0
12:36:47.064,AUTO,-35.3636202,149.1651006,23421,0.08804783225059509,-0.1425262987613678,-2.8224434852600098,0.14321307837963104,0.0034677530638873577,-0.024984784424304962,-110,-66,-981,144,4,-25,-642,-207,26,2982.0
12:36:47.267,AUTO,-35.3636348,149.1650949,23351,0.0902104526758194,-0.137518972158432,-2.8216025829315186,0.2631666958332062,0.022584550082683563,0.011394815519452095,-131,-71,-992,263,23,11,-645,-209,25,2982.0
12:36:47.469,AUTO,-35.3636494,149.1650892,23284,0.08361600339412689,-0.13958404958248138,-2.8221704959869385,-0.3027515411376953,-0.011580283753573895,0.02670108899474144,-131,-105,-983,-302,-10,26,-646,-207,24,2982.0
12:36:47.671,AUTO,-35.3636494,149.1650892,23284,0.08361600339412689,-0.13958404958248138,-2.8221704959869385,-0.3027515411376953,-0.011580283753573895,0.02670108899474144,-131,-105,-983,-302,-10,26,-646,-207,24,2982.0
12:36:47.873,AUTO,-35.363664,149.1650835,23217,0.08627457171678543,-0.14086861908435822,-2.824207067489624,0.08561263978481293,-0.0007047712570056319,-0.03119826689362526,-134,-75,-989,86,0,-31,-647,-209,24,2982.0
12:36:48.075,AUTO,-35.3636787,149.1650777,23152,0.09184098988771439,-0.1407022327184677,-2.825324535369873,0.2244448959827423,-0.008297143504023552,-0.00859781913459301,-128,-73,-983,224,-7,-8,-649,-209,24,2982.0
12:36:48.277,AUTO,-35.3636787,149.1650777,23152,0.09184098988771439,-0.1407022327184677,-2.825324535369873,0.2244448959827423,-0.008297143504023552,-0.00859781913459301,-128,-73,-983,224,-7,-8,-649,-209,24,2982.0
12:36:48.479,AUTO,-35.3636787,149.1650777,23152,0.09184098988771439,-0.1407022327184677,-2.825324535369873,0.2244448959827423,-0.008297143504023552,-0.00859781913459301,-128,-73,-983,224,-7,-8,-649,-209,24,2982.0
12:36:48.681,AUTO,-35.3636787,149.1650777,23152,0.09184098988771439,-0.1407022327184677,-2.825324535369873,0.2244448959827423,-0.008297143504023552,-0.00859781913459301,-128,-73,-983,224,-7,-8,-649,-209,24,2982.0
12:36:48.890,AUTO,-35.3637227,149.1650603,22967,0.08557908236980438,-0.13037165999412537,-2.8231301307678223,0.19138860702514648,0.009220392443239689,0.004834223538637161,-138,-89,-990,192,10,4,-651,-208,20,2982.0
12:36:49.091,AUTO,-35.3637373,149.1650546,22912,0.08256947994232178,-0.11935747414827347,-2.8241817951202393,-0.3538222312927246,0.060766108334064484,0.028251200914382935,-131,-98,-998,-353,61,28,-649,-206,18,217341.0
12:36:49.295,AUTO,-35.3637518,149.1650488,22862,0.07971901446580887,-0.10005500912666321,-2.8234987258911133,-0.11890695244073868,0.08766672760248184,-0.008672337979078293,-140,-68,-1003,-117,88,-8,-644,-205,16,217341.0
12:36:49.496,AUTO,-35.3637663,149.1650431,22819,0.08377531915903091,-0.08065459877252579,-2.8221497535705566,0.4618884027004242,0.07644195854663849,-0.04623987525701523,-129,-57,-998,463,77,-46,-635,-202,14,217341.0
12:36:49.698,AUTO,-35.3637805,149.1650374,22780,0.08140391856431961,-0.06695862114429474,-2.8212289810180664,-0.0009293382754549384,0.043863445520401,0.05447795242071152,-132,-103,-985,-1,44,54,-622,-196,13,217341.0
12:36:49.900,AUTO,-35.3637805,149.1650374,22780,0.08140391856431961,-0.06695862114429474,-2.8212289810180664,-0.0009293382754549384,0.043863445520401,0.05447795242071152,-132,-103,-985,-1,44,54,-622,-196,13,217341.0
12:36:50.103,AUTO,-35.3637943,149.1650319,22739,0.07140637934207916,-0.05607067048549652,-2.8216001987457275,-0.6212762594223022,0.06637705117464066,0.014318611472845078,-125,-104,-987,-621,67,14,-609,-191,14,217341.0
12:36:50.305,AUTO,-35.3637943,149.1650319,22739,0.07140637934207916,-0.05607067048549652,-2.8216001987457275,-0.6212762594223022,0.06637705117464066,0.014318611472845078,-125,-104,-987,-621,67,14,-609,-191,14,217341.0
12:36:50.507,AUTO,-35.3637943,149.1650319,22739,0.07140637934207916,-0.05607067048549652,-2.8216001987457275,-0.6212762594223022,0.06637705117464066,0.014318611472845078,-125,-104,-987,-621,67,14,-609,-191,14,217341.0
12:36:50.709,AUTO,-35.3638339,149.1650163,22604,0.0840514600276947,-0.01895665004849434,-2.8232548236846924,0.3329884707927704,0.037169355899095535,0.03093021921813488,-121,-67,-984,332,38,30,-552,-173,18,217341.0
12:36:50.910,AUTO,-35.3638339,149.1650163,22604,0.0840514600276947,-0.01895665004849434,-2.8232548236846924,0.3329884707927704,0.037169355899095535,0.03093021921813488,-121,-67,-984,332,38,30,-552,-173,18,217341.0
12:36:51.112,AUTO,-35.363846,149.1650115,22554,0.07032692432403564,-0.01288376934826374,-2.8228094577789307,-0.5207674503326416,0.0361831970512867,0.06095846742391586,-108,-111,-984,-521,37,61,-530,-164,18,217341.0
12:36:51.314,AUTO,-35.3638579,149.1650069,22503,0.06196732819080353,-0.0003014165267813951,-2.8225550651550293,-0.804533839225769,0.05057884380221367,0.02404836006462574,-107,-86,-1005,-803,51,23,-506,-158,18,217341.0
12:36:51.517,AUTO,-35.3638692,149.1650025,22454,0.0630810335278511,0.016134480014443398,-2.8212642669677734,-0.28199511766433716,0.06799216568470001,-0.031754083931446075,-107,-67,-998,-280,69,-31,-482,-150,18,217341.0
12:36:51.719,AUTO,-35.3638799,149.1649984,22407,0.07511690258979797,0.02743503637611866,-2.822646379470825,0.5556963682174683,0.026952696964144707,-0.059825144708156586,-102,-24,-1010,557,28,-60,-454,-142,17,217341.0
12:36:51.921,AUTO,-35.3638799,149.1649984,22407,0.07511690258979797,0.02743503637611866,-2.822646379470825,0.5556963682174683,0.026952696964144707,-0.059825144708156586,-102,-24,-1010,557,28,-60,-454,-142,17,217341.0
12:36:52.123,AUTO,-35.3638899,149.1649945,22362,0.07946301251649857,0.035652343183755875,-2.822523355484009,0.8611782789230347,0.040711451321840286,-0.03303208202123642,-89,-19,-1009,862,41,-32,-425,-134,17,217341.0
12:36:52.325,AUTO,-35.3638899,149.1649945,22362,0.07946301251649857,0.035652343183755875,-2.822523355484009,0.8611782789230347,0.040711451321840286,-0.03303208202123642,-89,-19,-1009,862,41,-32,-425,-134,17,217341.0
12:36:52.528,AUTO,-35.3638899,149.1649945,22362,0.07946301251649857,0.035652343183755875,-2.822523355484009,0.8611782789230347,0.040711451321840286,-0.03303208202123642,-89,-19,-1009,862,41,-32,-425,-134,17,217341.0
12:36:52.730,AUTO,-35.363916,149.1649844,22236,0.06051000952720642,0.05539274215698242,-2.821542263031006,-0.26656389236450195,-0.010842983610928059,0.02948637492954731,-74,-83,-988,-267,-9,29,-337,-108,16,217341.0
12:36:52.932,AUTO,-35.363916,149.1649844,22236,0.06051000952720642,0.05539274215698242,-2.821542263031006,-0.26656389236450195,-0.010842983610928059,0.02948637492954731,-74,-83,-988,-267,-9,29,-337,-108,16,217341.0
12:36:53.135,AUTO,-35.3639235,149.1649815,22198,0.04949846863746643,0.052631624042987823,-2.821417808532715,-0.7851828932762146,-0.007437335792928934,0.04359413683414459,-69,-86,-997,-785,-6,43,-308,-100,14,280273.0
12:36:53.337,AUTO,-35.3639303,149.1649789,22165,0.03966334089636803,0.05428702011704445,-2.821336030960083,-0.8248422741889954,0.017958546057343483,0.018285516649484634,-60,-60,-1012,-823,19,17,-281,-93,12,280273.0
12:36:53.540,AUTO,-35.3639366,149.1649766,22136,0.04082512483000755,0.06177176907658577,-2.8211565017700195,-0.18729177117347717,0.02580534666776657,-0.02510710060596466,-61,-21,-1017,-185,27,-25,-255,-86,11,280273.0
12:36:53.742,AUTO,-35.3639423,149.1649745,22113,0.05362140014767647,0.0657622441649437,-2.8208141326904297,0.6912674903869629,0.014233570545911789,-0.024363573640584946,-57,12,-1012,693,15,-24,-228,-78,9,280273.0
12:36:53.944,AUTO,-35.3639473,149.1649726,22090,0.05560120940208435,0.07209314405918121,-2.820915937423706,0.8017610311508179,0.03479636833071709,-0.016641385853290558,-48,-3,-1013,802,36,-17,-202,-71,9,280273.0
