time_stamp,roll,pitch,yaw,rollspeed,pitchspeed,yawspeed,lat,lon,relative_alt,vx,vy,vz,xacc,yacc,zacc,xgyro,ygyro,zgyro,MODE,RTL_ALT
16:05:26,-0.0005446831055451185,0.0011356002651154995,0.020466702058911324,0.00026945018908008933,0.00027122857864014804,0.00136989273596555,-35.3632621,149.1652375,10.0,0.0,0.0,0.0,0.0,1.5,-1000.0,0.5,0.5,0.0,AUTO,1500.0
16:05:28,0.00024335870693903416,0.0016870821709744632,0.019899599254131317,0.0003581169876269996,0.00033838735544122756,0.0014214565744623542,-35.3632621,149.1652375,0.0,0.0,1.0,2.0,0.0,1.0,-1000.0,0.5,0.5,0.5,AUTO,1500.0
16:05:29,0.0012404898361637606,0.000374767703760881,0.019818872679024935,0.0012374601210467517,-0.0006875763356219977,0.0013174820633139461,-35.3632621,149.165237475,182.0,0.0,0.25,-54.75,0.0,0.0,-1121.25,1.5,-0.25,0.5,AUTO,193028.0
16:05:30,0.030221490189433098,-0.0018626365053933114,0.019520273432135582,0.0463088508695364,-0.007426738739013672,0.0025118872290477157,-35.36326205,149.1652375,1620.5,0.5,8.0,-144.5,0.0,-0.5,-1011.0,46.5,-6.5,1.5,AUTO,193028.0
16:05:32,-0.03354279976338148,0.0020199163700453937,-0.06682843342423439,-0.032113032415509224,-0.010714278556406498,-0.0328084509819746,-35.36326085,149.16524535000002,4670.5,3.5,32.5,-148.0,3.5,-6.0,-1003.0,-31.0,-10.0,-32.5,AUTO,193028.0
16:05:34,-0.009972412895876914,0.010877415537834167,-0.11931632459163666,0.06891081109642982,0.011417882516980171,-0.004108870401978493,-35.36326125,149.16523999999998,7739.5,-15.0,-63.5,-149.5,-7.0,14.0,-1003.5,69.0,11.5,-3.5,AUTO,193028.0
16:05:35,0.0416489876806736,0.016113408841192722,-0.11769112385809422,0.0674848947674036,0.001678823828115128,0.0025588793214410543,-35.363262725,149.1652353,8908.0,-25.25,-40.75,-152.0,-2.0,12.5,-1003.25,67.5,2.25,1.75,AUTO,109513.0
16:05:36,0.05297937989234924,-0.06501777097582817,-0.04578217305243015,-0.027208167128264904,-0.09524798765778542,0.11670009046792984,-35.36326525,149.16523425000003,10860.5,-3.0,33.5,-149.0,5.0,-2.5,-999.5,-26.0,-94.0,116.0,AUTO,109513.0
16:05:38,-0.028657451272010803,0.03098746296018362,-0.1815144494175911,0.044057901948690414,0.017269293777644634,-0.04873289726674557,-35.36325915,149.165238,13934.0,20.0,-22.0,-153.0,-7.5,-0.5,-1001.5,44.0,17.5,-48.5,AUTO,109513.0
16:05:40,0.026112309657037258,-0.012388142058625817,-0.16682657599449158,-0.05461442656815052,-0.0579749858006835,0.05508023500442505,-35.36326095,149.165235,17063.5,-25.5,18.0,-151.0,5.5,1.0,-998.5,-53.5,-57.0,54.0,AUTO,109513.0
16:05:41,-0.006589173921383917,-0.012778811855241656,-0.1689586080610752,-0.025260212598368526,0.014555837959051132,-0.029248230857774615,-35.363261849999994,149.16523635,18224.5,-7.75,15.5,-151.5,3.5,-0.75,-1001.25,-24.25,14.75,-29.0,AUTO,443.0
16:05:42,-0.004093487863428891,0.0005954605003353208,-0.21955732256174088,0.01632392220199108,0.008173932088539004,-0.036877697333693504,-35.363262,149.16523705,20172.0,0.0,-2.0,-153.0,-0.5,0.0,-1000.0,16.5,8.5,-36.5,AUTO,443.0
16:05:44,0.007123275194317102,0.004019131534732878,-0.2650269418954849,-0.003433136036619544,-0.0007069673156365752,-0.015573069918900728,-35.363262,149.1652362,23300.5,-2.0,2.5,-153.0,0.0,0.0,-999.5,-2.0,0.0,-15.5,AUTO,443.0
16:05:46,0.004642386978957802,0.004452721914276481,-0.2854136824607849,0.028437374159693718,4.023476503789425e-05,0.01842092163860798,-35.363262250000005,149.1652364,26413.5,-4.5,-0.5,-153.0,0.0,0.5,-1000.5,29.0,1.0,18.0,AUTO,443.0
16:05:47,0.011594799114391208,0.0024793466145638376,-0.267613023519516,0.000651162990834564,-0.0014395349207916297,0.025022688787430525,-35.363262424999995,149.165236425,27580.5,-3.25,4.75,-152.5,0.0,0.25,-999.25,1.25,-0.25,24.25,AUTO,108092.0
16:05:48,0.0031875193817541003,0.0009636686882004142,-0.23914430290460587,-0.005477472674101591,0.0010454397415742278,0.021239198744297028,-35.3632625,149.1652372,29519.5,0.0,9.0,-152.0,0.5,-1.0,-1000.0,-4.5,1.5,20.5,AUTO,108092.0
16:05:50,0.029244995675981045,-0.05026713199913502,0.1331341788172722,0.05192386172711849,-0.019451714120805264,-0.03915230557322502,-35.36326535,149.1652345,31896.0,-13.5,-19.5,-63.5,1.0,6.0,-958.0,52.5,-18.0,-39.0,AUTO,108092.0
16:05:52,0.004170952481217682,0.008861439302563667,0.09299153089523315,-0.47534944117069244,0.022820767015218735,-0.011308982502669096,-35.36326285,149.16523655,32573.0,23.5,25.0,-11.0,-1.5,-35.5,-985.0,-474.5,23.5,-11.0,AUTO,108092.0
16:05:53,-0.008808113168925047,0.03370665409602225,0.08358244970440865,0.41007140278816223,0.010796915972605348,-0.005025571757869329,-35.363261699999995,149.165238175,32551.75,8.25,13.25,10.25,0.5,13.0,-978.5,411.0,12.0,-4.5,AUTO,41270.0
16:05:54,0.05692300200462341,0.03420076705515385,0.07558387517929077,0.351394971832633,0.011175873572938144,0.0007260552374646068,-35.36326285,149.16523999999998,32420.0,-29.5,30.0,-2.0,10.0,22.5,-1026.5,352.5,11.5,0.5,AUTO,41270.0
16:05:56,0.13451650738716125,-0.11172564327716827,1.3762444257736206,0.2118280902504921,-0.018446368165314198,0.692046582698822,-35.3632762,149.16526199999998,32761.0,-123.0,195.5,-31.5,-10.5,-40.0,-1021.5,212.5,-17.0,691.5,AUTO,41270.0
16:05:58,0.01866996753960848,-0.18017178773880005,2.3918527364730835,-0.006722813006490469,0.07268515788018703,0.09592624381184578,-35.36331075,149.16532495,33770.0,-255.0,382.5,-66.5,-90.5,-33.5,-1012.0,-5.0,73.0,95.5,AUTO,41270.0
16:05:59,-0.007714880397543311,-0.16722379252314568,2.456466317176819,-0.026374089065939188,-0.06634646700695157,0.07643529586493969,-35.3633294,149.165358125,34314.0,-279.25,420.0,-69.5,-108.0,-22.0,-975.0,-24.75,-65.5,76.25,AUTO,69026.0
16:06:00,-0.017669502645730972,-0.2614562213420868,2.509066104888916,0.04053560085594654,0.07195912674069405,-0.03363518603146076,-35.36336425,149.16542195,34801.5,-347.5,526.5,1.5,-135.5,-19.5,-969.0,41.5,72.5,-33.0,AUTO,69026.0
16:06:02,0.06657277047634125,-0.08066428825259209,2.3301695585250854,-0.010928224306553602,-0.041848513297736645,-0.1087895892560482,-35.3634324,149.1655469,35694.5,-359.0,537.5,-105.5,-146.5,-52.5,-1003.0,-9.5,-40.0,-108.0,AUTO,69026.0
16:06:04,0.06223603896796703,-0.08569402620196342,2.152208924293518,-0.007072601467370987,-0.050583563977852464,-0.1320338398218155,-35.363495349999994,149.16566085,37653.5,-324.0,498.0,-102.5,-110.0,-68.0,-992.0,-6.0,-49.0,-131.0,AUTO,69026.0
16:06:05,0.06549330055713654,-0.09759212844073772,2.0459896326065063,-0.014626734744524583,0.05061889719218016,-0.15254143998026848,-35.363517125,149.1657018,38393.75,-316.25,492.75,-95.75,-98.0,-78.0,-992.5,-13.25,51.75,-151.75,AUTO,39517.0
16:06:06,0.054544514045119286,-0.039126984775066376,1.8461357355117798,-0.014611580409109592,0.0007380384486168623,-0.16638566553592682,-35.3635511,149.16576835,39751.0,-278.5,462.0,-123.5,-83.5,-105.5,-1008.0,-12.5,1.5,-166.0,AUTO,39517.0
16:06:08,0.19542240351438522,0.09101904183626175,1.9164969325065613,-0.078617412596941,0.36445584893226624,0.6047153472900391,-35.3635964,149.16585794999997,42388.0,-271.0,310.5,-128.5,-67.5,-74.0,-1003.5,-77.0,365.0,604.5,AUTO,39517.0
16:06:10,-0.07559483870863914,0.08085156977176666,2.24078631401062,0.29972448013722897,-0.15934481471776962,-0.025747750885784626,-35.36362845,149.165883,43587.5,-37.0,-4.5,2.5,0.0,22.0,-995.5,302.0,-157.5,-24.5,AUTO,39517.0
16:06:11,-0.040292218793183565,0.009066937571333256,2.2418640851974487,-0.10636629536747932,-0.05657457187771797,-0.0013235321603133343,-35.3636289,149.16588322500002,43558.25,12.5,4.25,2.0,-2.25,-16.0,-1001.5,-105.5,-55.0,-1.0,AUTO,140340.0
16:06:12,0.02229977399110794,-0.010554115753620863,2.2342581748962402,0.4702334329485893,0.009257236029952765,-0.006262217648327351,-35.3636262,149.1658859,43528.5,16.5,15.0,0.0,-6.5,18.5,-1001.5,471.0,10.0,-5.0,AUTO,140340.0
16:06:14,0.01893367525190115,0.007223345339298248,2.2242740392684937,-0.5179598182439804,0.0037223685649223626,0.008504877798259258,-35.3636243,149.16589105,43499.0,-13.5,-5.5,0.0,-2.5,-17.5,-1006.0,-515.5,4.5,9.0,AUTO,140340.0
16:06:16,0.004430853703524917,0.01601838320493698,2.2189968824386597,0.042473673820495605,-0.001733466051518917,0.0002117861295118928,-35.3636259,149.1658922,43655.0,-6.0,-16.0,-30.5,0.5,-10.5,-1047.5,44.0,-0.5,1.5,RTL,140340.0
16:06:17,-0.007196912541985512,0.011418144917115569,2.2176707983016968,-0.04167044721543789,-0.002334057237021625,-0.0007275029493030161,-35.363626425,149.1658918,44035.5,-1.25,-15.0,-65.75,2.0,-3.25,-1049.75,-39.5,-0.25,0.5,RTL,23265.0
16:06:18,-0.009118322283029556,0.006708730943500996,2.214570164680481,-0.037702849484048784,-0.0012843560543842614,-0.00234799284953624,-35.36362685,149.16589105,45206.0,5.0,-9.5,-120.5,1.0,-2.0,-1043.0,-34.5,0.5,-0.5,RTL,23265.0
16:06:20,0.04104025475680828,0.0005022920668125153,2.197821259498596,-0.07097094506025314,0.07087546214461327,-0.0854464452713728,-35.36362885,149.16588925,48145.5,-36.5,-21.0,-147.0,3.0,-8.5,-992.0,-68.5,72.0,-83.5,RTL,23265.0
16:06:22,-0.049919618293643,-0.0034575683530420065,2.1175668239593506,0.060067255049943924,0.0022835368290543556,-0.00764576718211174,-35.3636303,149.16588760000002,51189.5,46.5,25.0,-149.0,-3.5,8.5,-1000.5,61.5,4.0,-6.0,RTL,23265.0
16:06:23,-0.001395624247379601,0.0014602042647311464,2.115008771419525,0.06547651253640652,0.007577519165351987,-0.00019273965153843164,-35.363626975,149.16588965,52348.75,51.5,25.0,-150.5,-5.25,11.5,-1002.75,67.0,9.0,0.75,RTL,53242.0
16:06:24,0.03971111588180065,-0.025576886720955372,2.1451499462127686,-0.053994154557585716,-0.05751498881727457,0.06519094109535217,-35.363623149999995,149.16589095,54306.5,6.0,-3.0,-150.5,1.0,2.5,-995.5,-51.5,-55.0,66.0,RTL,53242.0
16:06:26,-0.010969515424221754,0.007754456251859665,2.088788151741028,0.013316899072378874,0.007406109711155295,-0.03173145651817322,-35.36362495,149.16589205,57402.0,-1.5,11.5,-151.5,-2.0,-1.0,-1000.0,15.0,9.0,-30.0,RTL,53242.0
16:06:28,0.0004016042330476921,0.004267187207005918,2.057450294494629,-0.003032436012290418,-0.005651573883369565,-0.012443857733160257,-35.363625,149.16589255000002,60530.0,0.0,-4.0,-152.0,0.5,0.0,-1000.0,-1.0,-3.0,-10.5,RTL,53242.0
16:06:29,-0.0027325428382027894,0.0007971079539856873,2.046594798564911,-0.003844760562060401,-0.003926167148165405,-0.015834235586225986,-35.36362505,149.165892025,61698.0,-0.5,-4.75,-152.0,1.0,0.0,-1000.0,-1.75,-1.5,-14.25,RTL,137487.0
16:06:30,-0.004867360927164555,-0.0015736123896203935,2.0217132568359375,0.0006243602838367224,0.00036435527727007866,-0.022370915859937668,-35.36362525,149.16589125000002,63646.5,-1.0,-1.5,-152.0,0.5,0.0,-1000.0,1.5,1.5,-20.5,RTL,137487.0
16:06:32,-0.003374587162397802,0.001433029945474118,1.9740729928016663,0.000617463025264442,0.0008766634273342788,-0.02170437201857567,-35.363625549999995,149.165891,66762.5,0.0,0.0,-152.0,0.0,0.0,-1000.0,2.5,2.0,-20.0,RTL,137487.0
16:06:34,-0.0031801570439711213,0.0013931921566836536,1.9393470287322998,-0.0035838147159665823,-0.0002087390166707337,-0.019237651489675045,-35.36362575,149.16589084999998,69372.5,0.0,0.0,-152.0,0.0,0.0,-999.5,-1.0,1.0,-17.5,RTL,137487.0
16:06:35,-0.001563594743856811,0.0023635037359781563,1.9272021055221558,0.003667157783638686,0.002166641876101494,-0.0007839070167392492,-35.3636258,149.165890725,70816.0,-0.25,-0.75,-152.0,0.0,0.0,-999.5,5.5,3.5,0.5,RTL,177096.0
16:06:36,-0.0011697419613483362,0.002691366011276841,1.9418248534202576,-0.004067129106260836,-0.0022391807287931442,0.022778126411139965,-35.3636259,149.16589045,72367.5,-1.5,-2.5,-152.0,0.0,0.0,-1000.0,-2.0,-0.5,23.5,RTL,177096.0
16:06:38,-0.005147972144186497,0.0002984450911753811,1.9871779084205627,0.0015029350761324167,-0.0007781119202263653,0.01994357444345951,-35.3636263,149.1658898,75473.5,0.0,-0.5,-152.0,0.0,0.0,-1000.0,3.0,0.5,20.5,RTL,177096.0
16:06:40,-0.0029699925798922777,0.0007815130229573697,2.020227551460266,0.0011897542281076312,0.0006302350666373968,0.014703859575092793,-35.3636263,149.1658899,78578.0,0.5,0.5,-152.0,0.0,0.0,-1000.0,2.5,2.0,15.5,RTL,177096.0
16:06:41,-0.002291564829647541,0.0014003410760778934,2.0332691073417664,0.0002811808080878109,1.4918332453817129e-05,0.012427418725565076,-35.363626275,149.1658901,80130.75,0.0,0.0,-152.0,0.0,0.0,-1000.0,1.75,1.25,13.25,RTL,40687.0
16:06:42,-0.0018611064879223704,0.0019390975940041244,2.0441384315490723,0.00292498676571995,0.0005009028827771544,0.01095988741144538,-35.3636262,149.1658903,81684.0,0.0,0.0,-152.0,0.0,0.0,-1000.5,4.5,1.5,12.0,RTL,40687.0
16:06:44,-0.0020040004746988416,0.0021001104614697397,2.062456965446472,0.0004970889422111213,0.0014996632817201316,0.007849596673622727,-35.36362615,149.16589055,84792.5,0.0,-0.5,-152.0,0.0,0.0,-1000.0,2.0,3.0,9.0,RTL,40687.0
16:06:46,-0.0024908632040023804,0.0018977852305397391,2.076253056526184,-0.00047502899542450905,0.0004122551763430238,0.009110976941883564,-35.3636261,149.1658906,87897.5,0.0,-1.0,-152.0,0.0,0.0,-999.5,1.5,2.0,10.0,RTL,40687.0
16:06:47,-0.002040000428678468,0.001533899485366419,2.0822205543518066,0.001444876252207905,8.144529419951141e-05,0.006172803463414311,-35.3636261,149.1658906,89448.25,0.0,-1.0,-152.0,0.0,0.0,-999.75,3.0,1.75,7.25,RTL,35400.0
16:06:48,-0.0015133533161133528,0.0013947931001894176,2.0881656408309937,-0.0003933063126169145,0.00024387560551986098,0.00777784176170826,-35.36362604999999,149.1658906,91002.0,0.0,-1.0,-152.0,0.0,0.0,-1000.0,1.5,2.0,9.0,RTL,35400.0
16:06:50,-0.0023236070992425084,0.002293138182722032,2.0984606742858887,0.0006751423934474587,0.000784686824772507,0.007707738084718585,-35.363626,149.1658907,94113.0,0.0,-1.0,-152.0,0.0,0.0,-999.0,2.0,2.5,9.0,RTL,35400.0
16:06:52,-0.0022977631306275725,0.0020085603464394808,2.107558012008667,0.0007645690347999334,-0.00019208661979064345,0.004420145880430937,-35.363626,149.1658907,97215.0,0.0,-1.0,-152.0,0.0,0.0,-1000.0,2.5,1.5,5.5,RTL,35400.0
16:06:53,-0.002118126256391406,0.001737282087560743,2.1118907928466797,0.0004622441192623228,3.306448343209922e-05,0.004305897164158523,-35.363626,149.1658907,98767.25,0.0,-1.0,-152.0,0.0,0.0,-999.75,1.75,1.5,5.5,RTL,152980.0
16:06:54,-0.0022540310164913535,0.0020297577721066773,2.115882992744446,0.0003394773229956627,0.0003756400546990335,0.005641966126859188,-35.363626,149.1658907,100320.0,0.0,-1.0,-152.0,0.0,0.0,-1000.0,2.0,2.0,6.5,RTL,152980.0
16:06:56,-0.001396330539137125,0.0013068713014945388,2.1230053901672363,-0.0013645145809277892,4.824443021789193e-05,0.003118477063253522,-35.363626,149.1658907,103433.5,0.0,-1.0,-152.0,0.0,0.0,-1000.0,0.5,2.0,4.0,RTL,152980.0
16:06:58,-0.0017882495885714889,0.001820388191845268,2.1291340589523315,-0.0009456232655793428,-0.0016843724297359586,0.0035179801052436233,-35.363626,149.1658907,106541.5,0.0,-1.0,-152.0,0.0,0.0,-1000.0,0.5,0.5,4.5,RTL,152980.0
16:06:59,-0.001821793703129515,0.001815244584577158,2.131768763065338,0.00022097767214290798,-0.0004057679616380483,0.003631591855082661,-35.363626,149.1658907,108093.25,0.0,-1.0,-152.0,0.0,0.0,-999.75,2.0,1.25,4.75,RTL,27089.0
16:07:02,-0.0022324154851958156,0.002025475783739239,2.1387802362442017,-7.064745295792818e-05,0.0013614505296573043,0.004173258086666465,-35.363626,149.1658907,112753.5,0.0,-1.0,-152.0,0.0,0.0,-999.0,1.5,3.0,5.5,RTL,27089.0
16:07:04,-0.0015679682255722582,0.0015038487035781145,2.1426762342453003,0.0005798293277621269,-0.0014490856556221843,0.003271436202339828,-35.363626,149.1658907,115862.0,0.0,-1.0,-152.0,0.0,0.0,-1000.0,2.0,0.0,5.0,RTL,27089.0
16:07:05,-0.0011911800829693675,0.001454516896046698,2.144601345062256,0.0003497260622680187,0.0005258436140138656,0.002401226694928482,-35.363626,149.1658907,117413.25,0.0,-1.0,-152.0,0.0,0.0,-1000.25,2.0,2.0,3.75,RTL,104044.0
16:07:06,-0.0014624929754063487,0.0021049390779808164,2.1464312076568604,0.0014179750578477979,0.001152649288997054,0.002629033988341689,-35.363626,149.1658907,119046.0,0.0,-1.5,-152.0,0.0,0.0,-1000.0,3.0,3.0,4.5,RTL,104044.0
16:07:08,-0.001891945954412222,0.0021245687967166305,2.1492539644241333,-0.002381280646659434,0.0012987114605493844,0.0013152689207345247,-35.363626,149.1658908,122233.5,0.0,-2.0,-152.0,0.0,0.0,-999.5,0.0,3.0,3.0,RTL,104044.0
16:07:10,-0.0021769892191514373,0.002358255675062537,2.152333617210388,-0.0012787017039954662,0.0018350189784541726,0.0019338030833750963,-35.363626,149.1658908,125337.5,0.0,-2.0,-152.0,0.0,0.0,-999.5,0.0,4.0,3.5,RTL,104044.0
16:07:11,-0.002104837098158896,0.0019880416512023658,2.1539026498794556,-0.00030956658883951604,-0.00021141493925824761,0.0020495695353019983,-35.363626,149.1658908,126890.75,0.0,-2.0,-152.0,0.0,0.0,-999.5,1.5,1.75,3.25,RTL,106617.0
16:07:12,-0.0018062432645820081,0.001380261266604066,2.1547552347183228,0.0011754188453778625,-0.0007934405584819615,0.0026829116977751255,-35.363626,149.1658908,128444.5,0.0,-1.5,-152.0,0.0,0.0,-1000.0,3.0,1.0,4.0,RTL,106617.0
16:07:14,-0.0016415782738476992,0.0017425521509721875,2.156877636909485,-3.7844409234821796e-05,-1.0310206562280655e-05,0.0020757446181960404,-35.363626,149.1658908,131552.5,0.0,-1.0,-152.0,0.0,0.0,-1000.0,2.0,1.5,3.5,RTL,106617.0
16:07:16,-0.0015995842404663563,0.0020456970669329166,2.158285975456238,0.002888051443733275,0.0004389336099848151,0.001610049162991345,-35.363626,149.1658908,134660.5,0.0,-1.5,-152.0,0.0,0.0,-1000.5,4.5,2.5,3.0,RTL,106617.0
16:07:17,-0.0017108668689616024,0.0024998076842166483,2.1592496037483215,-0.000671814545057714,0.0007951782317832112,0.001561199314892292,-35.363626,149.1658908,136222.75,0.0,-2.0,-152.0,0.0,0.0,-1000.25,1.25,2.5,3.0,RTL,85062.0
16:07:18,-0.0022479408653452992,0.002571188728325069,2.1599113941192627,9.633484296500683e-05,-0.0003907293430529535,0.00015300267841666937,-35.363626,149.1658908,137771.5,0.0,-2.0,-152.0,0.0,0.0,-1000.0,2.5,1.5,2.0,RTL,85062.0
16:07:20,-0.001889038656372577,0.002035521320067346,2.1611403226852417,-0.0011114528169855475,-0.00048680842155590653,0.001677837804891169,-35.363626,149.1658908,140880.0,0.0,-2.0,-152.0,0.0,0.0,-1000.0,1.0,1.5,3.0,RTL,85062.0
16:07:22,-0.0011667285580188036,0.0017547867610119283,2.1623823642730713,-0.0017661805031821132,0.00011826434638351202,0.001290891319513321,-35.363626,149.1658908,143986.5,0.0,-2.0,-152.0,0.0,0.0,-1000.0,0.5,2.0,2.5,RTL,85062.0
16:07:23,-0.0016143334214575589,0.0020590886706486344,2.1627538800239563,0.00018433711375109851,0.00014318758621811867,0.0005248570523690432,-35.363626,149.1658908,145542.5,0.0,-2.0,-152.0,0.0,0.0,-1000.0,2.25,2.25,2.0,RTL,45085.0
16:07:24,-0.0016105211689136922,0.0020508747547864914,2.1631799936294556,0.0030589272500947118,0.0003269792068749666,-3.949343226850033e-05,-35.363626,149.1658908,147096.5,0.0,-2.0,-152.0,0.0,0.0,-1000.5,4.5,2.0,1.5,RTL,45085.0
16:07:26,-0.0016056435415521264,0.002001202432438731,2.164258122444153,0.0010796417482197285,0.0019477151799947023,0.0033264372032135725,-35.363626,149.1658908,150204.5,0.0,-2.0,-152.0,0.0,0.0,-999.5,3.0,4.0,5.0,RTL,45085.0
16:07:28,-0.002301876782439649,0.0023934144992381334,2.1654677391052246,0.0010091930162161589,-0.0003842051955871284,0.0011992432409897447,-35.363626,149.1658908,153310.5,0.0,-2.0,-152.0,0.0,0.0,-1000.0,3.0,1.5,3.0,RTL,45085.0
16:07:29,-0.0019759951683226973,0.00205177761381492,2.1656671166419983,0.0008421620586887002,0.0005755432066507638,0.0003695027553476393,-35.363626,149.1658908,154862.0,0.0,-2.0,-152.0,0.0,0.0,-999.75,3.25,2.75,2.0,RTL,54140.0
16:07:30,-0.0014637935673817992,0.0018603825592435896,2.1660300493240356,0.0007810870883986354,0.00022622564574703574,0.0007561272941529751,-35.363626,149.1658908,156415.0,0.0,-2.0,-152.0,0.0,0.0,-1000.0,3.0,2.5,2.5,RTL,54140.0
16:07:32,-0.0014202874153852463,0.0019512071157805622,2.1665611267089844,0.0009567115921527147,0.0009549222886562347,0.0005294086877256632,-35.363626,149.1658908,159521.5,0.0,-2.0,-152.0,0.0,0.0,-1000.0,3.0,2.5,2.5,RTL,54140.0
16:07:34,-0.001621491217520088,0.0021355919307097793,2.166880488395691,0.005021541262976825,0.0010093306191265583,0.0013625998981297016,-35.363626,149.1658908,162631.0,0.0,-2.0,-152.0,0.0,0.0,-1000.5,7.5,3.0,3.0,RTL,54140.0
16:07:35,-0.0014673217956442386,0.0020414103055372834,2.1671164631843567,-1.9503466319292784e-05,0.0007758510182611644,0.0010049986303783953,-35.363626,149.1658908,164182.5,0.0,-2.0,-152.0,0.0,0.0,-999.5,2.0,2.75,2.75,RTL,397.0
16:07:36,-0.0019567369017750025,0.0023035231279209256,2.1674082279205322,1.655309461057186e-05,0.0006707707652822137,0.00017888599541038275,-35.363626,149.1658908,165739.0,0.0,-2.0,-152.0,0.0,0.0,-1000.0,2.0,3.0,1.5,RTL,397.0
16:07:38,-0.0019453254644759,0.0022318626288324594,2.167585253715515,-0.0010851643746718764,0.0004944136599078774,5.540880374610424e-05,-35.363626,149.1658908,168850.5,0.0,-2.0,-152.0,0.0,0.0,-999.5,1.5,3.0,2.0,RTL,397.0
16:07:40,-0.0011936306254938245,0.0016355278203263879,2.1677712202072144,0.0024122047470882535,0.0011574020609259605,-0.0006332534831017256,-35.363626,149.1658908,171958.0,0.0,-2.0,-152.0,0.0,0.0,-1000.0,4.5,3.5,1.0,RTL,397.0
16:07:41,-0.0013460734335239977,0.0019442147167865187,2.168016731739044,-0.0008867182186804712,0.0006681237719021738,0.00038910185685381293,-35.363626,149.1658908,173506.75,0.0,-2.0,-152.0,0.0,0.0,-999.5,1.25,3.0,2.0,RTL,4889.0
16:07:42,-0.001652741921134293,0.0019937753677368164,2.168047070503235,0.0020696267019957304,0.00046616047620773315,0.0013621689286082983,-35.363626,149.1658908,175064.5,0.0,-2.0,-152.0,0.0,0.0,-1000.0,4.5,3.0,3.0,RTL,4889.0
16:07:44,-0.001555770926643163,0.0019966481486335397,2.169021964073181,0.0011824674438685179,0.0005304262740537524,0.0011675726855173707,-35.363626,149.1658908,178174.5,0.0,-2.0,-152.0,0.0,0.0,-1000.0,3.5,3.0,3.5,RTL,4889.0
16:07:46,-0.001986157731153071,0.0023352678399533033,2.169215202331543,0.0030636125011369586,0.0017415276961401105,0.0019260132685303688,-35.363626,149.1658908,181282.0,0.0,-2.0,-152.0,0.0,0.0,-1000.0,5.5,4.0,3.5,RTL,4889.0
16:07:47,-0.0023149087792262435,0.002474770415574312,2.1692172288894653,0.001099401357350871,-0.00041225674794986844,0.00028212470351718366,-35.363626,149.1658908,182834.5,0.0,-2.0,-152.0,0.0,0.0,-1000.0,3.25,2.0,2.25,RTL,24915.0
16:07:48,-0.0017744148499332368,0.0021431349450722337,2.1693387031555176,0.002176794456318021,0.00038960424717515707,0.0010157562792301178,-35.363626,149.1658908,184387.5,0.0,-2.0,-152.0,0.0,0.0,-1000.0,4.5,2.5,3.0,RTL,24915.0
16:07:50,-0.0011481019319035113,0.0017339407932013273,2.1692256927490234,0.00031908717937767506,-4.2789499275386333e-05,0.0007294850656762719,-35.363626,149.1658908,187493.5,0.0,-2.0,-152.0,0.0,0.0,-1000.0,2.5,2.0,2.5,RTL,24915.0
16:07:52,-0.0014181273872964084,0.0020965756848454475,2.1694648265838623,0.0010037350584752858,0.0009859050624072552,0.0006758449599146843,-35.363626,149.1658908,190602.5,0.0,-2.0,-152.0,0.0,0.0,-1000.0,3.5,3.5,3.0,RTL,24915.0
16:07:53,-0.0015252952580340207,0.002107856795191765,2.1693974137306213,0.0014404135872609913,0.0008851996972225606,0.0008159886638168246,-35.363626,149.1658908,192154.25,0.0,-2.0,-152.0,0.0,0.0,-1000.25,3.75,3.5,3.0,RTL,188727.0
16:07:54,-0.0015780224348418415,0.002143946709111333,2.1694236993789673,0.0014979855623096228,0.0008727853419259191,0.002451448468491435,-35.363626,149.1658908,193709.0,0.0,-2.0,-152.0,0.0,0.0,-999.5,4.0,3.5,4.5,RTL,188727.0
16:07:56,-0.0016571958549320698,0.00211115344427526,2.1694729328155518,0.0010369130177423358,0.0019804376643151045,0.0017654163530096412,-35.363626,149.1658908,196815.5,0.0,-2.0,-152.0,0.0,0.0,-999.0,3.5,4.5,4.0,RTL,188727.0
16:07:58,-0.0022175598423928022,0.0025129589485004544,2.1694867610931396,0.0014414002653211355,-0.0009201319189742208,-0.00101261684903875,-35.363626,149.1658908,199928.0,0.0,-2.0,-152.0,0.0,0.0,-1000.5,4.0,2.0,1.0,RTL,188727.0
16:07:59,-0.0019497280300129205,0.0022298353142105043,2.1702900528907776,0.0011212736135348678,0.00013800134183838964,0.0012368144816718996,-35.363626,149.1658908,201477.25,0.0,-2.0,-152.0,0.0,0.0,-1000.5,3.75,2.5,3.25,RTL,75275.0
16:08:00,-0.0014405103283934295,0.0017097755335271358,2.1702693700790405,0.0007841716287657619,0.00020394264720380306,0.000646179192699492,-35.363626,149.1658908,203030.5,0.0,-2.0,-152.0,0.0,0.0,-999.5,3.0,2.5,2.5,RTL,75275.0
16:08:02,-0.001584050478413701,0.002041285566519946,2.170070171356201,-0.00016359647270292044,0.00045991595834493637,0.001005725935101509,-35.363626,149.1658908,206138.0,0.0,-2.0,-152.0,0.0,0.0,-999.5,2.5,3.5,3.5,RTL,75275.0
16:08:04,-0.0018018516711890697,0.0018242514925077558,2.170201301574707,-0.0006809348706156015,0.0023745388025417924,0.0009089600061997771,-35.363626,149.1658908,209251.5,0.0,-2.0,-152.0,0.0,0.0,-999.5,2.0,5.0,3.0,RTL,75275.0
16:08:05,-0.0018163666827604175,0.025321685941889882,2.170110762119293,-0.0006830772035755217,0.046804770827293396,-0.0008201010932680219,-35.363625925,149.1658906,210800.5,3.5,-7.75,-151.0,0.25,0.25,-998.75,1.75,49.25,1.5,RTL,108345.0
16:08:06,-0.005055048386566341,0.06656325608491898,2.1699039936065674,-0.005150085897184908,0.03488869406282902,0.0014951769262552261,-35.36362465,149.16588819999998,212332.5,25.5,-42.5,-148.0,7.0,4.0,-997.0,-2.0,38.0,3.0,RTL,108345.0
16:08:08,-0.010772678069770336,0.16949224472045898,2.4383565187454224,-0.0071169473230838776,0.010425791144371033,0.3430456072092056,-35.363612,149.16586685,215019.0,141.0,-168.5,-91.5,45.0,17.5,-945.0,-4.0,13.5,345.0,RTL,108345.0
16:08:10,0.08595381304621696,0.1714947149157524,2.730533003807068,-0.15982810594141483,0.06939896941184998,-0.021821695379912853,-35.36357865,149.16581145,215675.5,206.0,-346.5,16.5,93.0,-20.0,-970.5,-156.5,72.0,-19.5,RTL,108345.0
16:08:11,0.0558277927339077,0.22139651700854301,2.7100775837898254,-0.08062374591827393,0.001502777449786663,-0.04580911807715893,-35.363558149999996,149.1657685,215430.0,261.5,-446.0,21.0,118.25,-9.25,-1019.5,-77.5,4.75,-42.25,RTL,38068.0
16:08:12,0.014457410899922252,0.2134426310658455,2.663139820098877,0.010756102274172008,-0.01199626550078392,-0.0344874607399106,-35.36353165,149.16571575,215307.0,327.0,-512.0,3.5,140.5,8.5,-1008.0,13.5,-8.5,-31.5,RTL,38068.0
16:08:14,-0.020552965346723795,0.1649971529841423,2.583116888999939,-0.0523495227098465,-0.028326469473540783,-0.038053423166275024,-35.3634658,149.16559705,215363.0,389.0,-563.5,-6.0,148.5,19.0,-980.0,-48.5,-24.5,-35.0,RTL,38068.0
16:08:16,-0.018770460039377213,0.15939520299434662,2.5275497436523438,0.1452924609184265,-0.045750219374895096,-0.0009185965172946453,-35.3634088,149.1654974,215394.0,390.0,-563.0,3.0,142.0,29.0,-985.0,148.0,-42.0,2.0,RTL,38068.0
16:08:17,-0.05402245931327343,0.0903112180531025,2.4958027601242065,0.044264160096645355,-0.04416618775576353,-0.015901505248621106,-35.363366825,149.1654229,215426.5,366.75,-531.25,-5.0,144.25,34.0,-990.0,48.0,-40.25,-13.25,RTL,60823.0
16:08:18,-0.07509810477495193,0.04070491840442022,2.476078828175863,-0.0033247669537862143,-0.0440817674001058,-0.012119761978586515,-35.36333573333334,149.16536733333334,215455.33333333334,324.3333333333333,-466.3333333333333,-1.0,132.0,41.666666666666664,-991.6666666666666,0.6666666666666666,-40.333333333333336,-9.333333333333334,RTL,60823.0
16:08:20,-0.051876867190003395,-0.035689281299710274,2.4399189949035645,0.08764219284057617,-0.008507352322340012,-0.0033049536868929863,-35.363285700000006,149.165281,215392.5,191.0,-267.0,3.5,70.0,34.0,-1008.0,91.5,-5.0,-0.5,RTL,60823.0
16:08:22,-0.028835604898631573,-0.05932144448161125,2.4168044328689575,0.5282938331365585,0.0348893478512764,0.011320516117848456,-35.36326475,149.1652454,215346.5,77.0,-114.0,0.0,33.5,39.0,-1006.5,531.5,38.0,13.5,RTL,60823.0
16:08:23,-0.03058815887197852,-0.03295786213129759,2.4033426642417908,0.31178057938814163,0.01757543906569481,-0.005734159436542541,-35.363260849999996,149.165236225,215340.25,34.0,-45.75,-0.25,13.25,20.25,-1006.25,315.5,20.75,-2.75,RTL,47220.0
16:08:24,-0.0357769625261426,-0.020236138254404068,2.3952856063842773,-0.4351790025830269,0.022240301594138145,-0.012540526688098907,-35.3632603,149.16523325,215341.0,20.5,-12.5,-2.0,5.0,-29.0,-1001.0,-432.5,25.5,-9.5,RTL,47220.0
16:08:26,-0.013877321500331163,0.004373668460175395,2.379132390022278,0.45496877282857895,-0.022824122570455074,-0.00807790900580585,-35.363261,149.16523245000002,215366.5,16.0,7.0,0.0,0.0,32.5,-988.0,458.0,-18.5,-4.5,RTL,47220.0
16:08:28,-0.005768804578110576,-0.0018576239817775786,2.3680789470672607,-0.5740869641304016,0.007175471866503358,-0.007964174030348659,-35.363261050000006,149.16523445,215377.0,7.0,13.0,0.5,-4.5,-21.0,-995.0,-571.0,10.5,-4.0,RTL,47220.0
16:08:29,0.017865012167021632,0.0015499063592869788,2.3620505928993225,0.0010524466633796692,0.004193036234937608,-0.004467099031899124,-35.363260624999995,149.165236825,215371.75,-1.0,3.0,0.5,-3.75,-5.5,-997.75,3.5,8.25,-1.0,RTL,78322.0
16:08:30,0.019675128161907196,0.003662655013613403,2.3580739498138428,0.25452088564634323,0.003980489214882255,-0.0078516136854887,-35.3632604,149.16523805,215373.5,-7.0,-4.5,0.0,-3.5,24.5,-999.0,258.0,8.0,-4.0,RTL,78322.0
16:08:32,0.03069794364273548,0.006111233728006482,2.348235249519348,1.341587781906128,0.004737606039270759,-0.0014608479104936123,-35.3632606,149.1652395,214813.5,-13.0,-17.0,82.0,-0.5,67.0,-979.0,1345.0,8.5,1.5,RTL,78322.0
16:08:34,0.021064686588943005,0.005686331074684858,2.3407546281814575,1.210506796836853,0.0027941339649260044,-0.001820454141125083,-35.363261,149.1652395,212610.5,-12.5,-20.0,99.5,-0.5,71.5,-1043.5,1215.0,6.5,1.0,RTL,78322.0
16:08:35,0.008273659535916522,0.005308165564201772,2.334939181804657,0.52164651080966,-0.0004972390597686172,-0.0023268781951628625,-35.363261,149.1652397,211308.75,-12.75,-20.75,98.0,-0.25,61.5,-992.25,527.25,3.75,0.75,RTL,183768.0
16:08:36,0.003425328293815255,0.004210375598631799,2.3331596851348877,0.244990611448884,-0.0019055515294894576,-0.008322318783029914,-35.363261,149.1652397,210533.5,-12.0,-21.0,94.0,-0.5,44.0,-1013.5,251.5,2.0,-5.0,RTL,183768.0
16:08:38,0.026093256659805775,0.007426870055496693,2.325064778327942,1.186441719532013,0.01434966642409563,0.002027854439802468,-35.3632604,149.16524049999998,208498.5,-19.5,-25.5,96.0,1.5,68.0,-1017.5,1192.0,18.0,4.5,RTL,183768.0
16:08:40,-0.013326790183782578,0.007587120868265629,2.3204445838928223,0.845598965883255,0.004209162667393684,-0.0007327499333769083,-35.3632623,149.16523845,206445.5,-5.5,-15.0,96.0,2.0,67.0,-993.5,851.5,8.5,2.0,RTL,183768.0
16:08:41,-0.010761036654002964,0.008283656323328614,2.318000912666321,1.2612272799015045,0.0019710997585207224,0.00403983099386096,-35.36326335,149.165237225,205169.75,3.0,-5.0,96.75,2.25,69.5,-1016.75,1266.5,6.25,7.0,RTL,271295.0
16:08:42,-0.02352922596037388,0.006683931530763705,2.315950870513916,0.9918094873428345,-0.004063140135258436,0.0031161870962629714,-35.36326396666667,149.16523646666664,204270.66666666666,11.0,0.6666666666666666,94.0,1.3333333333333333,66.0,-1033.6666666666667,997.6666666666666,0.6666666666666666,6.0,RTL,271295.0
16:08:44,0.006519351387396455,0.002018759259954095,2.3122267723083496,1.407970368862152,-0.0021779374219477177,-0.006066082278266549,-35.36326375,149.1652365,202277.0,17.0,6.5,97.0,-1.0,69.5,-1019.5,1412.0,2.5,-2.5,RTL,271295.0
16:08:46,0.033324193209409714,-0.0008030328608583659,2.3077136278152466,1.314773142337799,0.001019052229821682,-0.0035917735658586025,-35.36326175,149.1652386,200242.0,3.5,-4.5,97.5,-4.5,60.5,-1046.0,1319.0,5.5,-0.5,RTL,271295.0
16:08:47,0.05120707303285599,-0.0008598528584116139,2.3060675859451294,1.4230760633945465,0.00525882258079946,-0.0016452096751891077,-35.363260025,149.16524055,198964.5,-12.0,-17.5,99.25,-4.0,70.25,-1026.0,1428.0,9.75,1.25,RTL,266865.0
16:08:48,0.0501478910446167,0.002194621483795345,2.3050161600112915,1.321612000465393,0.007435693172737956,0.0006318584783002734,-35.363259299999996,149.16524145,198201.0,-22.5,-26.5,98.5,-1.0,63.5,-1028.5,1327.0,12.0,3.0,RTL,266865.0
16:08:50,0.028728640638291836,0.0077811349183321,2.303039073944092,1.3305628895759583,-0.0014026709832251072,0.00021081534214317799,-35.3632601,149.16524090000001,196170.0,-27.5,-31.5,99.0,1.5,52.5,-993.5,1336.0,3.5,3.0,RTL,266865.0
16:08:52,0.022188357077538967,0.00344927201513201,2.3008460998535156,0.9969817101955414,-0.0030781442765146494,0.004316737409681082,-35.3632611,149.16523945,194111.5,-14.0,-20.0,97.5,0.0,20.5,-977.0,1001.0,2.5,7.0,RTL,266865.0
16:08:53,0.018826426239684224,0.0027790231397375464,2.299484431743622,-0.009147071279585361,0.0018737410428002477,-0.006990911089815199,-35.363261349999995,149.16523882500002,192835.75,-10.25,-14.25,98.75,2.5,-44.25,-974.5,-4.75,6.5,-3.5,RTL,12750.0
16:08:54,0.014453099574893713,0.0030181047040969133,2.2987942695617676,0.28666678071022034,-0.004616070073097944,-0.008223705925047398,-35.363261699999995,149.16523834999998,192063.5,-8.5,-11.5,99.5,1.5,-25.0,-1022.0,290.5,0.5,-4.5,RTL,12750.0
16:08:56,0.029701136983931065,-0.0014661845052614808,2.2975103855133057,0.33186599612236023,-0.00038498034700751305,0.0032861875370144844,-35.3632613,149.1652385,190028.5,-5.5,-7.5,98.0,-1.5,-16.5,-1010.5,336.0,5.0,6.0,RTL,12750.0
16:08:58,0.031302849762141705,0.00253993715159595,2.2959377765655518,1.2140327095985413,-0.0023017432540655136,-0.002714765490964055,-35.363260749999995,149.1652393,187993.5,-15.0,-15.0,99.0,2.0,30.0,-1072.0,1220.0,3.0,0.5,RTL,12750.0
16:08:59,0.026297095231711864,0.0049744328716769814,2.2940317392349243,1.1781347393989563,0.006031428813003004,0.0024040393182076514,-35.36326105,149.16523917499998,186730.25,-14.0,-14.0,99.0,3.0,22.0,-1025.25,1184.0,11.0,5.0,RTL,141622.0
16:09:00,0.006340914056636393,0.007738550426438451,2.2931050062179565,0.5202393531799316,0.000990025931969285,0.002372222952544689,-35.36326185,149.16523855,185963.5,-11.0,-11.5,96.0,3.0,-12.5,-1024.5,525.0,6.5,5.5,RTL,141622.0
16:09:02,-0.024136915802955627,0.007745431968942285,2.2926090955734253,0.38325415551662445,-0.0009341177064925432,0.0016651013866066933,-35.3632647,149.16523555,183898.0,12.0,6.0,96.0,4.0,-22.0,-1039.0,388.0,4.0,4.5,RTL,141622.0
16:09:04,0.009032722911797464,-0.0027482882142066956,2.2924548387527466,1.5436670780181885,0.000924627180211246,0.0031864666379988194,-35.36326445,149.16523535,181868.5,29.0,18.5,102.5,-2.5,57.0,-959.5,1549.0,5.5,6.0,RTL,141622.0
16:09:05,0.01654231478460133,-0.0011727125456673093,2.291207492351532,1.2091514319181442,0.004953561816364527,0.0029024137766100466,-35.363263125,149.1652366,180591.0,15.5,10.5,94.5,-2.5,39.0,-1004.75,1214.5,10.0,6.0,RTL,81392.0
16:09:06,0.019061907194554806,0.0005385625263443217,2.2905694246292114,0.8952465951442719,0.00392857170663774,0.002417874289676547,-35.3632627,149.1652372,179823.5,11.0,7.0,98.5,-1.5,13.5,-965.5,899.5,9.0,5.5,RTL,81392.0
16:09:08,0.013396847527474165,0.0012631500139832497,2.2901787757873535,-0.42257310450077057,0.0007498397026211023,-0.00041013932786881924,-35.36326205,149.1652381,177785.5,3.0,0.0,98.0,-0.5,-52.5,-976.0,-418.0,5.5,2.5,RTL,81392.0
16:09:10,-0.006780290277674794,0.004576088860630989,2.2890411615371704,-0.32791188126429915,-0.0004005804657936096,-0.0009277182398363948,-35.36326255,149.1652375,175753.5,0.5,-0.5,100.5,2.5,-53.5,-989.0,-324.0,5.0,2.0,RTL,81392.0
16:09:11,-0.01722911582328379,0.003145892289467156,2.2889739274978638,-0.9816242903470993,-0.003834610106423497,-0.004754105873871595,-35.363263175,149.16523675,174502.5,7.75,4.5,100.75,2.5,-72.25,-988.0,-976.75,1.75,-1.25,RTL,37173.0
16:09:12,-0.030854232609272003,0.0033655271399766207,2.288709878921509,-1.1888515949249268,-0.00509491958655417,-0.007708084071055055,-35.363263599999996,149.16523619999998,173738.5,10.0,7.5,100.5,3.5,-76.5,-979.0,-1184.0,1.0,-3.5,RTL,37173.0
16:09:14,-0.03587646223604679,0.0013672688219230622,2.2890013456344604,-1.0396690666675568,-0.01038541505113244,0.0037464096676558256,-35.3632649,149.1652348,171710.0,26.0,19.5,103.5,0.0,-72.5,-969.5,-1035.5,-4.0,7.0,RTL,37173.0
16:09:16,-0.02188429143279791,6.96481074555777e-05,2.2879416942596436,-1.438081681728363,0.0018395914230495691,-0.00028272869531065226,-35.363263849999996,149.165236,169659.0,23.5,17.0,102.5,-2.0,-73.0,-953.0,-1433.5,7.0,3.0,RTL,37173.0
16:09:17,-0.01656314078718424,0.0032755947904661298,2.287330985069275,-1.2798289060592651,-0.0005097598186694086,-0.00039884133730083704,-35.363263450000005,149.16523667500002,168379.5,14.25,9.5,99.5,0.0,-68.75,-1021.75,-1276.5,5.0,2.75,RTL,137629.0
16:09:18,-0.019925138913094997,0.0033148895017802715,2.2871519327163696,-1.0888680517673492,-0.0034316672245040536,0.0033771214075386524,-35.3632635,149.1652368,167608.5,14.5,8.0,99.0,-0.5,-65.5,-1033.5,-1085.5,2.0,6.5,RTL,137629.0
16:09:20,-0.00013745948672294617,0.00035754896452999674,2.2869354486465454,-0.7265907227993011,-0.00408686138689518,-0.00720303482376039,-35.363262649999996,149.1652375,165563.5,9.5,3.0,102.5,-1.0,-68.0,-967.5,-724.0,1.5,-3.0,RTL,137629.0
16:09:22,0.021144178695976734,0.0027488116174936295,2.287345051765442,0.3334437683224678,0.006667171139270067,0.004164524842053652,-35.36326185,149.1652383,163499.0,0.0,-2.0,98.5,3.5,-23.0,-1028.0,335.5,12.0,7.5,RTL,137629.0
16:09:23,-0.016269021085463464,0.006084930268116295,2.2864489555358887,-0.3497192127397284,-0.004445251193828881,-0.0075157866813242435,-35.36326305,149.16523715,162228.75,3.0,0.5,97.0,3.25,-55.75,-982.75,-347.75,1.75,-3.5,RTL,191044.0
16:09:24,-0.03691108711063862,0.00455752550624311,2.287291646003723,-1.2747647166252136,-0.006883104797452688,-0.000263032503426075,-35.36326375,149.1652364,161459.5,11.0,5.5,97.5,2.0,-72.0,-1008.5,-1272.0,-1.0,3.5,RTL,191044.0
16:09:26,-0.024126228876411915,-0.0017218523425981402,2.286953568458557,-1.318335771560669,-0.009712887462228537,-0.003230975358746946,-35.36326365,149.16523610000002,159419.5,17.5,11.0,94.0,0.0,-65.0,-1013.5,-1315.5,-3.0,0.5,RTL,191044.0
16:09:28,0.007697991037275642,-0.0031658501829952,2.285927653312683,-0.889560341835022,0.0011481295805424452,0.002943636500276625,-35.36326115,149.1652385,157396.5,-1.5,-2.0,100.5,-2.0,-6.0,-1053.0,-884.5,7.5,6.5,RTL,191044.0
16:09:29,0.011004968284396455,0.000743116412195377,2.286283850669861,-0.03898051008582115,0.006217624410055578,0.0012521370081230998,-35.363260350000004,149.165239625,156141.75,-12.75,-11.75,100.75,-1.0,28.25,-993.25,-33.25,11.75,4.75,RTL,247760.0
16:09:30,0.007678843103349209,0.0030080724973231554,2.28706693649292,0.23152869194746017,0.005312660709023476,0.003349708393216133,-35.3632603,149.1652399,155377.5,-18.5,-16.5,104.0,0.0,47.5,-1017.0,237.0,10.5,6.5,RTL,247760.0
16:09:32,0.000395707247662358,0.006099144462496042,2.286219596862793,1.2803152799606323,-0.006206943653523922,-0.0012954124249517918,-35.36326205,149.16523819999998,153344.0,-10.0,-11.0,102.0,2.5,46.0,-1033.0,1284.0,0.0,2.0,RTL,247760.0
16:09:34,-0.009403827755401531,0.002926983404904604,2.286048730214437,0.05656263759980599,0.002316601729641358,0.001004071906208992,-35.36326343333334,149.16523643333335,151318.33333333334,9.0,5.333333333333333,102.66666666666667,4.666666666666667,-47.666666666666664,-962.6666666666666,58.0,8.333333333333334,5.0,RTL,247760.0
16:09:35,-0.045646759370962776,0.002423349767923355,2.286637862523397,-1.2900138298670452,-0.0025128840934485197,-0.00345540310566624,-35.363264433333335,149.16523513333334,150050.0,16.666666666666668,13.666666666666666,102.33333333333333,2.6666666666666665,-79.33333333333333,-966.6666666666666,-1287.0,3.3333333333333335,0.3333333333333333,RTL,38399.0
16:09:36,-0.055038850754499435,0.0016516060568392277,2.2866060733795166,-1.3424474398295085,-0.0035148166740934053,0.0006527030685295662,-35.36326496666667,149.16523446666667,149264.0,22.333333333333332,19.0,100.33333333333333,0.6666666666666666,-48.0,-1012.3333333333334,-1338.3333333333333,2.0,4.333333333333333,RTL,38399.0
16:09:38,-0.02719087029496829,-0.0053824322919050855,2.2861745357513428,-1.1529713074366252,-0.0028410952848692736,0.0003352333636333545,-35.363263800000006,149.16523523333333,147211.0,24.666666666666668,21.666666666666668,98.0,-4.666666666666667,-16.333333333333332,-984.6666666666666,-1148.3333333333333,2.6666666666666665,4.0,RTL,38399.0
16:09:40,0.002658938018915554,-0.003628216761474808,2.2865591843922934,-1.2508111000061035,-0.0003797841879228751,0.0012241158013542492,-35.36326116666667,149.16523826666668,145173.66666666666,0.3333333333333333,2.0,99.0,-3.3333333333333335,-36.666666666666664,-1019.6666666666666,-1247.0,5.333333333333333,5.0,RTL,38399.0
16:09:41,0.014972374774515629,-0.0032063428855811558,2.287020762761434,-1.1796441475550334,0.0018989760428667068,4.620291292667389e-06,-35.363259633333335,149.16524013333333,143908.0,-15.0,-12.333333333333334,96.66666666666667,-4.0,-31.333333333333332,-1021.6666666666666,-1175.6666666666667,7.666666666666667,3.3333333333333335,RTL,18164.0
16:09:42,0.015435301388303438,-0.0006931444513611495,2.2866592407226562,-1.2191155751546223,0.0015660055602590244,0.009071714555223783,-35.363259066666664,149.16524086666666,143147.66666666666,-25.0,-20.0,102.33333333333333,-1.0,-29.666666666666668,-989.0,-1214.3333333333333,7.333333333333333,12.333333333333334,RTL,18164.0
16:09:44,-0.010736105963587761,0.005093885585665703,2.286911964416504,-0.8154365917046865,0.0007659749438365301,-0.002988282668714722,-35.36326033333333,149.1652399666667,141093.66666666666,-25.0,-22.0,97.66666666666667,2.6666666666666665,-16.0,-1015.0,-809.3333333333334,6.333333333333333,0.6666666666666666,RTL,18164.0
16:09:46,-0.04694703718026479,0.0052930633537471294,2.2867815494537354,-0.5016922950744629,-0.0009674743438760439,-0.0030624165665358305,-35.36326293333334,149.16523703333334,139044.0,-4.666666666666667,-5.333333333333333,98.33333333333333,4.333333333333333,12.666666666666666,-1004.3333333333334,-495.6666666666667,4.666666666666667,1.0,RTL,18164.0
16:09:47,-0.04707692563533783,0.0014025237178429961,2.286418914794922,0.1541831245024999,-0.0015170324283341567,0.00040340377017855644,-35.36326423333333,149.16523533333336,137783.66666666666,11.666666666666666,8.333333333333334,101.66666666666667,1.0,44.0,-961.3333333333334,160.0,4.0,4.333333333333333,RTL,1468.0
16:09:48,-0.032628679648041725,-0.0005489552762204161,2.2863756815592446,0.3801577240228653,-0.0019826539792120457,0.0023571417356530824,-35.3632644,149.16523499999997,137016.66666666666,17.0,14.0,99.0,0.3333333333333333,57.0,-1000.3333333333334,385.3333333333333,3.6666666666666665,6.0,RTL,1468.0
16:09:50,0.010015671141445637,-0.006384567202379306,2.2878150145212808,1.2539666493733723,-0.0014183541449407737,-0.00791530318868657,-35.36326306666667,149.16523603333334,134987.66666666666,15.666666666666666,14.333333333333334,100.66666666666667,-5.0,74.0,-1041.3333333333333,1258.0,4.666666666666667,-4.0,RTL,1468.0
16:09:52,0.04118715847531954,-0.002623806552340587,2.2863264878590903,1.3292885224024455,0.0049561201594769955,0.00019870131897429624,-35.36326053333334,149.16523883333335,132966.66666666666,-9.333333333333334,-4.0,102.0,-0.6666666666666666,49.666666666666664,-972.0,1332.3333333333333,10.333333333333334,3.6666666666666665,RTL,1468.0
16:09:53,0.03054198995232582,0.0018757571621487539,2.2870901425679526,1.3579554160435994,0.0015202714130282402,0.00021837659490605196,-35.363260700000005,149.1652390666667,131679.0,-15.666666666666666,-10.0,102.0,0.0,41.0,-1001.3333333333334,1361.0,7.0,4.0,RTL,180389.0
16:09:54,0.02043076790869236,0.0021310001611709595,2.2868834336598716,1.3247926632563274,0.0017744190990924835,0.0011347758118063211,-35.36326106666667,149.16523873333333,130909.0,-14.333333333333334,-10.0,102.33333333333333,1.0,44.666666666666664,-1008.6666666666666,1327.6666666666667,7.333333333333333,4.333333333333333,RTL,180389.0
16:09:56,0.009983217033247152,0.002752493368461728,2.2866686979929605,1.1159590880076091,-6.291627263029416e-05,-6.448399896423022e-05,-35.36326246666666,149.16523729999997,128853.33333333333,-1.6666666666666667,-0.3333333333333333,99.33333333333333,2.6666666666666665,23.0,-1007.0,1118.6666666666667,5.333333333333333,3.3333333333333335,RTL,180389.0
16:09:58,0.0008892666082829237,-0.00034062675937699777,2.28710945447286,0.4006267786026001,-0.001957124254355828,-0.0045721631807585554,-35.36326346666667,149.16523603333331,126818.0,10.333333333333334,9.0,102.0,0.0,-22.666666666666668,-969.6666666666666,402.3333333333333,3.6666666666666665,-0.3333333333333333,RTL,180389.0
16:09:59,0.01382241336007913,-0.003847825340926647,2.287820816040039,0.48710450530052185,-0.0030625384921828904,0.000309507983426253,-35.363262999999996,149.1652363333333,125552.0,12.666666666666666,10.0,99.66666666666667,-4.0,-11.0,-978.0,488.3333333333333,2.3333333333333335,3.6666666666666665,RTL,153713.0
16:10:00,0.03480355006953081,-0.006071656942367554,2.2868345578511557,0.6813311874866486,-0.0004966973016659418,-0.0026522944681346416,-35.36326196666666,149.16523736666667,124778.33333333333,6.666666666666667,5.666666666666667,101.66666666666667,-4.0,-0.6666666666666666,-1010.6666666666666,683.0,5.0,1.3333333333333333,RTL,153713.0
16:10:02,0.06114429607987404,-0.005625337362289429,2.2873658339182534,-0.07060798009236653,0.002490843956669172,0.005530323988447587,-35.36325843333333,149.1652411,122747.0,-25.333333333333332,-19.0,99.33333333333333,-2.3333333333333335,-37.666666666666664,-983.3333333333334,-68.0,7.333333333333333,9.0,RTL,153713.0
16:10:04,0.017798818958302338,0.006141507377227147,2.2877250512441,-1.0995680689811707,0.0006040347119172415,-0.0014562449262787898,-35.3632586,149.1652416,120713.33333333333,-42.0,-32.666666666666664,99.0,4.333333333333333,-81.0,-962.0,-1095.3333333333333,6.333333333333333,2.0,RTL,153713.0
16:10:05,-0.023727945052087307,0.007781851726273696,2.2866509755452475,-1.2788076798121135,-0.004615410541494687,0.0030113902563850083,-35.3632608,149.1652394,119429.66666666667,-27.333333333333332,-23.0,100.33333333333333,7.0,-71.33333333333333,-1011.6666666666666,-1273.3333333333333,1.3333333333333333,7.0,RTL,17452.0
16:10:06,-0.044821105897426605,0.0073620920690397424,2.2877700328826904,-1.227643092473348,-0.0016490425914525986,0.0012281386492153008,-35.3632623,149.1652377,118658.33333333333,-14.666666666666666,-12.333333333333334,100.66666666666667,8.0,-41.666666666666664,-980.3333333333334,-1221.0,3.6666666666666665,4.666666666666667,RTL,17452.0
16:10:08,-0.05774141972263654,-0.001816180592868477,2.2886443932851157,-0.956452210744222,-0.005287824664264917,-0.0005076107724259297,-35.36326496666666,149.16523426666666,116619.0,21.333333333333332,18.0,99.66666666666667,0.0,-16.333333333333332,-984.3333333333334,-950.0,0.3333333333333333,3.3333333333333335,RTL,17452.0
16:10:10,-0.03716121738155683,-0.0030225079196194806,2.2893338203430176,-1.2849703232447307,0.0041594284897049265,-0.004444626780847709,-35.36326403333333,149.1652349,114572.66666666667,20.333333333333332,21.333333333333332,101.33333333333333,-1.3333333333333333,-23.333333333333332,-987.6666666666666,-1279.0,10.0,-0.3333333333333333,RTL,17452.0
16:10:11,-0.02820940564076106,-0.002825447435801228,2.2874311606089273,-0.4946747322877248,0.000897871640821298,-0.009083757099385062,-35.36326356666667,149.1652355,113305.0,17.0,18.333333333333332,101.0,-1.3333333333333333,14.333333333333334,-1000.3333333333334,-488.0,6.0,-5.0,RTL,79969.0
16:10:12,-0.00945909327128902,-0.0034651740764578185,2.2885289986928306,0.5827452540397644,-0.0009449346301456293,-0.006842498667538166,-35.363263100000005,149.1652361,112528.66666666667,12.666666666666666,14.333333333333334,99.0,-3.0,64.0,-1003.6666666666666,588.3333333333334,4.333333333333333,-2.6666666666666665,RTL,79969.0
16:10:14,0.007320832305898269,-0.004195888914788763,2.288557767868042,0.5598723590373993,0.0005102199502289295,0.0021415776573121548,-35.36326126666666,149.1652381,110475.66666666667,-3.0,0.0,101.33333333333333,-3.0,66.0,-988.3333333333334,566.0,6.0,6.0,RTL,79969.0
16:10:16,-0.0014551843438918393,0.0013214974787842948,2.2883659998575845,-0.5003440529108047,0.010510770604014397,-0.0011163211117188137,-35.3632604,149.16523926666665,108423.0,-17.0,-10.666666666666666,96.33333333333333,1.0,11.666666666666666,-987.0,-493.6666666666667,15.666666666666666,2.6666666666666665,RTL,79969.0
16:10:17,-0.036411537478367485,0.007752241877218087,2.2878616650899253,-0.42515350381533307,0.001036358376344045,0.0021250606514513493,-35.3632621,149.1652379,107135.66666666667,-12.666666666666666,-7.666666666666667,98.0,5.333333333333333,10.0,-972.3333333333334,-418.6666666666667,6.333333333333333,6.0,RTL,42253.0
16:10:18,-0.05562652771671613,0.006176942028105259,2.288297653198242,-1.1210596958796184,-0.007486689059684674,0.0071263631495336694,-35.363263466666666,149.16523646666664,106361.0,-0.3333333333333333,0.0,96.33333333333333,2.6666666666666665,-29.333333333333332,-990.0,-1115.3333333333333,-1.6666666666666667,10.666666666666666,RTL,42253.0
16:10:20,-0.033309584483504295,-0.0019561779918149114,2.2887964248657227,-0.46677030622959137,-0.0019348041775325935,0.0007571950554847717,-35.363264066666666,149.16523543333332,104352.66666666667,19.333333333333332,14.333333333333334,99.66666666666667,-2.6666666666666665,20.0,-975.6666666666666,-460.6666666666667,3.3333333333333335,4.333333333333333,RTL,42253.0
16:10:22,0.02019450565179189,-0.00526088352004687,2.289562225341797,0.7708629568417867,0.0020711679632465043,0.005300816458960374,-35.363261466666664,149.16523793333334,102319.66666666667,1.0,2.0,96.0,-4.0,67.66666666666667,-1023.0,776.3333333333334,7.666666666666667,9.0,RTL,42253.0
16:10:23,0.031103122358520825,-0.0030808993615210056,2.28857421875,1.2897942860921223,0.0035046867560595274,-0.0004323107811311881,-35.363260133333334,149.16523936666667,101047.0,-13.666666666666666,-9.333333333333334,101.33333333333333,-2.3333333333333335,78.33333333333333,-1002.6666666666666,1295.3333333333333,9.0,3.3333333333333335,RTL,160886.0
16:10:24,0.030757841964562733,4.7581478914556406e-05,2.288606802622477,1.32827893892924,0.006612839798132579,0.0030343839898705482,-35.36326,149.16523966666668,100285.66666666667,-20.666666666666668,-14.333333333333334,98.66666666666667,0.6666666666666666,73.0,-1017.0,1333.6666666666667,11.666666666666666,6.666666666666667,RTL,160886.0
16:10:26,0.02070775938530763,-0.00022053212160244584,2.2882603804270425,1.4002360502878826,-0.0025014211423695087,0.0037918048910796642,-35.36326093333333,149.1652387,98258.0,-15.0,-11.0,100.0,0.3333333333333333,52.666666666666664,-1009.6666666666666,1404.6666666666667,3.0,7.0,RTL,160886.0
16:10:28,0.0012565105183360477,-0.0019972794301187,2.2882086435953775,0.10625785340865453,0.002195604300747315,-0.0013654110953211784,-35.36326066666666,149.1652388,96198.0,-16.0,-11.0,98.33333333333333,0.0,53.666666666666664,-950.0,113.33333333333333,7.333333333333333,2.0,RTL,160886.0
16:10:29,-0.005559914163313806,-0.0011287452070973814,2.2891104221343994,-0.6946964164574941,0.002981272991746664,0.0030787562330563865,-35.3632605,149.16523886666664,94933.0,-16.666666666666668,-10.666666666666666,102.66666666666667,0.0,9.333333333333334,-1003.3333333333334,-687.3333333333334,8.0,6.666666666666667,RTL,163217.0
16:10:30,-0.00877090667684873,0.00116134873436143,2.288489818572998,-0.7474744220574697,0.003576162736862898,0.00018580521767338118,-35.363260733333334,149.1652388,94165.33333333333,-17.0,-10.333333333333334,101.33333333333333,1.0,-1.3333333333333333,-991.6666666666666,-740.0,8.333333333333334,4.333333333333333,RTL,163217.0
16:10:32,-0.03520273293058077,0.002708416742583116,2.2890803019205728,-0.8281066020329794,-0.0033787513772646585,0.0029003110248595476,-35.363262633333335,149.1652369,92105.33333333333,-2.3333333333333335,0.0,98.0,3.0,-13.333333333333334,-1003.3333333333334,-821.0,2.0,6.333333333333333,RTL,163217.0
16:10:34,-0.05272331337134043,0.001501803402788937,2.2894845008850098,-1.1397860050201416,-0.0013166723462442558,-0.0011476222425699234,-35.36326423333333,149.1652351,90061.0,15.666666666666666,15.333333333333334,99.33333333333333,1.3333333333333333,-31.666666666666668,-1009.0,-1133.3333333333333,4.0,2.6666666666666665,RTL,163217.0
16:10:35,-0.05906161293387413,0.0033492070312301316,2.2887726624806723,-1.0054266055425007,0.004023175376156966,0.004123321734368801,-35.363265133333336,149.16523416666666,88798.0,23.0,23.0,98.66666666666667,2.3333333333333335,-17.666666666666668,-1002.0,-999.3333333333334,9.333333333333334,7.666666666666667,RTL,5459.0
16:10:36,-0.0731383537252744,0.004244818662603696,2.28849991162618,-0.6508326331774393,-0.0010924992772440116,0.009572941189010939,-35.36326606666667,149.1652332333333,88035.66666666667,30.0,28.333333333333332,99.0,2.0,4.0,-1033.0,-644.6666666666666,4.0,13.333333333333334,RTL,5459.0
16:10:38,-0.03858236223459244,-0.005426523430893819,2.2899189790089927,0.23248674037555853,-0.006025071799134214,-0.004980879137292504,-35.36326603333333,149.16523300000003,86009.66666666667,45.333333333333336,38.666666666666664,99.33333333333333,-4.0,52.666666666666664,-993.3333333333334,237.33333333333334,0.0,-1.0,RTL,5459.0
16:10:40,-0.012192255506912867,-0.00485131594662865,2.289578596750895,-1.4008249441782634,-0.0025342557734499374,0.003685243815804521,-35.3632629,149.1652362,83961.66666666667,18.0,19.666666666666668,101.0,-2.6666666666666665,-55.0,-1011.0,-1397.6666666666667,2.3333333333333335,7.0,RTL,5459.0
16:10:41,-0.017417108329633873,-0.0027984188248713813,2.2899606227874756,-1.2509554624557495,0.002267395301411549,-0.0029694302938878536,-35.363262166666665,149.16523713333333,82683.33333333333,7.0,10.0,101.0,-3.0,-31.666666666666668,-991.0,-1247.0,6.666666666666667,1.0,RTL,277908.0
16:10:42,-0.01607476392139991,-0.0011169063315416377,2.2885069847106934,-0.9007955392201742,0.0012082926308115323,-0.004566821890572707,-35.36326186666667,149.16523756666666,81913.0,1.6666666666666667,4.666666666666667,100.66666666666667,-3.3333333333333335,-6.333333333333333,-983.0,-896.3333333333334,6.0,-0.6666666666666666,RTL,277908.0
16:10:44,-0.006511816289275885,-0.0011880367334621649,2.289473215738932,-1.425010323524475,-0.004767033892373244,-0.0016164553817361593,-35.36326103333334,149.16523866666668,79853.66666666667,-7.666666666666667,-5.0,96.33333333333333,-0.6666666666666666,-59.666666666666664,-983.3333333333334,-1422.3333333333333,0.6666666666666666,2.0,RTL,277908.0
16:10:46,0.015202198177576065,-0.0011496756148214142,2.2896880308787027,-1.1379884481430054,0.0005876361392438412,-0.006690271819631259,-35.3632602,149.1652395,77827.33333333333,-18.0,-13.666666666666666,97.66666666666667,0.3333333333333333,-64.33333333333333,-1031.0,-1136.3333333333333,5.666666666666667,-2.6666666666666665,RTL,277908.0
16:10:47,0.0019728924380615354,0.00013875105529829548,2.2899628480275473,-0.9957310756047567,-0.00039372445705036324,-0.001703957561403513,-35.3632606,149.165239,76561.33333333333,-17.333333333333332,-12.333333333333334,102.0,0.6666666666666666,-75.33333333333333,-956.0,-993.3333333333334,4.666666666666667,1.6666666666666667,RTL,98241.0
16:10:48,0.0012185520802934964,-0.00012926298950333148,2.289778550465902,-1.0894856254259746,0.0006943917833268642,-0.00611500736946861,-35.3632608,149.1652387,75784.66666666667,-15.0,-9.666666666666666,98.33333333333333,1.3333333333333333,-75.0,-974.0,-1087.3333333333333,5.333333333333333,-2.6666666666666665,RTL,98241.0
16:10:50,-0.0191934530933698,-4.358202083191524e-05,2.289571841557821,-1.4243425925572712,-0.00252020126208663,-0.0036206780932843685,-35.3632617,149.16523763333333,73743.0,-6.666666666666667,-2.0,100.33333333333333,0.6666666666666666,-61.333333333333336,-1007.3333333333334,-1420.3333333333333,3.0,0.0,RTL,98241.0
16:10:52,-0.020573620374004047,-0.0001671803523398315,2.2885449727376304,-0.3685803997019927,-0.0013544301812847455,0.006841102537388603,-35.3632622,149.16523716666669,71621.33333333333,-1.3333333333333333,1.0,100.33333333333333,1.6666666666666667,16.333333333333332,-989.0,-362.3333333333333,3.6666666666666665,10.333333333333334,RTL,98241.0
16:10:53,-0.022319449111819267,-0.0014077723608352244,2.290130376815796,-0.10916971663633983,-0.00275271269492805,0.002583766666551431,-35.36326236666667,149.16523686666667,70357.33333333333,-0.3333333333333333,1.6666666666666667,100.0,-1.3333333333333333,41.666666666666664,-985.6666666666666,-103.33333333333333,2.3333333333333335,6.0,RTL,109094.0
16:10:54,-0.010695704724639654,-0.003700939239934087,2.2900753021240234,0.44380273421605426,0.0003217955430348714,-0.010818669882913431,-35.3632622,149.16523703333334,69589.33333333333,0.0,1.6666666666666667,103.66666666666667,-2.6666666666666665,65.66666666666667,-977.6666666666666,449.3333333333333,5.0,-7.0,RTL,109094.0
16:10:56,0.024312445893883705,-0.0048331692814826965,2.2901496092478433,0.5486834744612376,0.0024302713572978973,-0.0008354990277439356,-35.36326016666667,149.1652392,67541.66666666667,-13.666666666666666,-8.666666666666666,100.0,-4.666666666666667,65.33333333333333,-1009.3333333333334,554.3333333333334,7.333333333333333,2.3333333333333335,RTL,109094.0
16:10:58,0.028580153981844585,-0.0013873337011318654,2.2903260389963784,-0.16563694179058075,0.003542262905587753,-0.0014304638995478551,-35.36325846666667,149.16524136666666,65494.0,-33.333333333333336,-26.666666666666668,100.0,-1.6666666666666667,41.0,-1004.3333333333334,-158.66666666666666,8.0,1.6666666666666667,RTL,109094.0
16:10:59,0.020624275940159958,0.0007522836967837065,2.2889501253763833,-1.3750163316726685,0.008308792021125555,-0.013103989573816458,-35.3632583,149.1652417,64229.666666666664,-37.666666666666664,-31.0,97.66666666666667,0.3333333333333333,-54.666666666666664,-1023.3333333333334,-1368.6666666666667,13.333333333333334,-9.0,RTL,42801.0
16:11:00,0.01376479270402342,0.004245084011927247,2.290046215057373,-1.2106585105260212,0.007328698877245188,-0.0038146382042517266,-35.36325863333334,149.16524146666666,63464.333333333336,-40.666666666666664,-32.666666666666664,101.33333333333333,5.0,-50.666666666666664,-1025.3333333333333,-1204.0,12.0,-0.6666666666666666,RTL,42801.0
16:11:02,-0.034769799560308456,0.004327742382884026,2.289821147918701,-0.23385756524900594,-0.0024396401519576707,0.002041805535554886,-35.36326176666667,149.165238,61415.666666666664,-18.0,-15.0,101.66666666666667,2.6666666666666665,28.0,-973.6666666666666,-225.33333333333334,2.3333333333333335,5.0,RTL,42801.0
16:11:04,-0.030637933562199276,0.0005356551555451006,2.290581305821737,-0.6747946341832479,-0.0032872410180668035,0.008139562249804536,-35.363263,149.1652365,59365.666666666664,2.0,2.0,101.0,0.6666666666666666,3.0,-999.6666666666666,-667.0,1.6666666666666667,11.333333333333334,RTL,42801.0
16:11:05,-0.026723897084593773,-0.0010455232307625313,2.2903732458750405,-1.308901071548462,-0.004255520645529032,0.007532295460502307,-35.363262866666666,149.16523656666664,58090.666666666664,6.0,6.0,99.33333333333333,-1.3333333333333333,-44.666666666666664,-993.6666666666666,-1302.3333333333333,0.3333333333333333,10.333333333333334,RTL,31958.0
16:11:06,-0.022360067814588547,-0.001175539296430846,2.2899410724639893,-0.8936506708463033,0.004280067514628172,-0.009550448507070541,-35.36326263333333,149.1652368,57332.666666666664,4.666666666666667,5.0,99.0,-1.6666666666666667,-11.0,-991.3333333333334,-886.3333333333334,8.666666666666666,-5.666666666666667,RTL,31958.0
16:11:08,-0.016128564874331158,-0.0001225640686849753,2.2901668548583984,0.20955918480952582,0.004550228361040354,-0.0018102913939704497,-35.3632623,149.1652372,55296.0,0.0,1.0,102.0,-0.6666666666666666,46.333333333333336,-974.6666666666666,217.33333333333334,9.333333333333334,1.6666666666666667,RTL,31958.0
16:11:10,-0.031660656134287514,0.0024888810391227403,2.2893360455830893,-1.2833476861317952,-0.003218902430186669,-0.0016383569842825334,-35.3632627,149.16523696666667,53248.333333333336,3.3333333333333335,4.333333333333333,100.0,2.6666666666666665,-40.333333333333336,-1007.3333333333334,-1276.3333333333333,2.0,1.6666666666666667,RTL,31958.0
16:11:11,-0.05507818733652433,0.005574887618422508,2.289665778477987,-1.2589996258417766,0.0010383047629147768,-0.01035288923109571,-35.36326423333333,149.1652354,51983.666666666664,11.0,11.666666666666666,99.33333333333333,5.666666666666667,-48.0,-1028.0,-1252.6666666666667,5.666666666666667,-6.666666666666667,RTL,241189.0
16:11:12,-0.07326713452736537,0.00455617206171155,2.290769179662069,-0.9305308858553568,-0.0026640909103055796,-0.0006237209308892488,-35.36326536666667,149.1652341,51224.0,20.666666666666668,19.0,100.33333333333333,2.6666666666666665,-17.0,-994.3333333333334,-923.6666666666666,2.0,2.6666666666666665,RTL,241189.0
