time_stamp,RTL_ALT,lat,lon,relative_alt,vx,vy,vz,MODE,roll,pitch,yaw,rollspeed,pitchspeed,yawspeed,xacc,yacc,zacc,xgyro,ygyro,zgyro
21:14:57,1500.0,-35.3632621,149.1652375,46.0,-1.0,0.0,-1.0,STABILIZE,-0.0015164341020863503,0.0009693305473774672,0.026578068267554045,0.00023001206864137203,0.0003458030114416033,0.0019642069819383323,0.0,1.5,-1000.0,0.0,0.0,0.0
21:14:59,1500.0,-35.363262175,149.1652375,61.75,-1.0,0.0,-2.0,STABILIZE,-0.0012802155106328428,0.001012162130791694,0.026058153249323368,0.00029324238130357116,0.00025450951943639666,0.0019074620504397899,0.0,1.2,-1000.0,0.0,0.4,0.8
21:15:06,1500.0,-35.3632622,149.1652375,60.166666666666664,-1.0,1.3333333333333333,0.0,STABILIZE,-0.001014660217333585,0.0009858316276222467,0.024116325378417968,0.00031773044029250743,0.00028606547275558116,0.0016032293438911437,0.0,1.1666666666666667,-1000.0,0.3333333333333333,0.16666666666666666,0.16666666666666666
21:15:11,1500.0,-35.3632622,149.1652375,33.6,-1.0,0.6,0.2,STABILIZE,-0.0012498061172664166,0.0009931727312505246,0.023027092218399048,0.0035463976091705263,0.0002985278144478798,0.0014427472138777374,0.0,3.4,-997.0,4.0,0.4,1.0
21:15:13,1500.0,-35.36326218333334,149.1652375,15.333333333333334,-0.8333333333333334,0.0,0.0,AUTO,-0.0011088357811483245,0.0010201929253526032,0.02275866021712621,0.0002666647390772899,0.0002368308681373795,0.0014286525547504425,0.0,1.1666666666666667,-1000.0,0.5,0.3333333333333333,0.5
21:15:15,1500.0,-35.36326209999999,149.16523745,18.833333333333332,0.0,-0.16666666666666666,-1.1666666666666667,AUTO,-0.000865747919306159,0.0013746656865502398,0.02242099866271019,0.0002747071460665514,0.0002800567405453573,0.001402401636975507,0.0,1.6666666666666667,-999.8333333333334,0.8333333333333334,0.5,0.8333333333333334
21:15:16,1500.0,-35.3632621,149.16523746000001,164.2,0.0,0.0,-44.6,AUTO,0.0010246061079669743,0.0007461564615368843,0.0219952754676342,0.0004969050176441669,-0.0010589482844807208,0.0009075226087588816,0.0,0.4,-1090.6,1.0,-0.4,0.4
21:15:20,1500.0,-35.36326186,149.16523838,2290.2,3.4,22.8,-150.0,AUTO,0.04380594901740551,-0.004928189609199762,0.016152768023312093,0.029698464274406432,-0.00032566459849476815,-0.009777802182361484,0.2,-3.4,-1002.8,30.2,0.6,-10.2
21:15:21,1500.0,-35.363261050000006,149.16524375,4145.5,2.5,46.5,-149.0,AUTO,-0.02295187022536993,0.019909463822841644,-0.061803918331861496,-0.059418369084596634,-0.016526924446225166,-0.052898017689585686,4.5,-10.0,-1009.5,-58.5,-15.0,-52.5
21:15:24,1500.0,-35.36326198333334,149.1652356,9562.5,-6.833333333333333,-15.333333333333334,-152.5,AUTO,0.04246010320882002,0.001290395448449999,-0.08466327314575513,-0.0033815428614616394,-0.006007109807493786,0.010058364016003907,-1.8333333333333333,5.0,-999.0,-2.5,-5.166666666666667,9.666666666666666
21:15:32,1500.0,-35.3632618,149.1652364,22262.0,-2.0,3.5,-153.0,AUTO,0.0014824778772890568,0.0030974384862929583,-0.22426003217697144,0.0009735649218782783,0.000816929095890373,-0.019841467030346394,0.0,0.0,-1000.0,2.0,1.5,-19.5
21:15:44,1500.0,-35.363263100000005,149.165235925,40123.75,-26.75,-28.75,-92.0,BRAKE,-0.034317498677410185,0.024597613242804073,0.20178575813770294,0.06063889525830746,-0.12119845021516085,0.23347190534695983,2.2,5.6,-924.6,11.4,-59.4,280.4
21:15:46,1500.0,-35.36326426666667,149.16523341666667,40861.333333333336,13.333333333333334,15.666666666666666,-16.0,ALT_HOLD,0.029658233126004536,-0.025001163866060477,0.22080876678228378,-0.002827708919843038,0.03573464509099722,-0.029841964443524677,-1.3333333333333333,-1.6666666666666667,-977.5,-0.8333333333333334,36.166666666666664,-29.0
21:15:48,1500.0,-35.36326184285715,149.16523762857145,40206.28571428572,5.0,7.142857142857143,116.28571428571429,AUTO,-0.009349959237234933,0.014529760727392775,0.17389971017837524,-0.05218471799577985,-0.009659451698618276,-0.023783891580283774,1.5714285714285714,-5.285714285714286,-894.0,-51.0,-8.142857142857142,-23.0
21:16:08,1500.0,-35.3632535,149.1652515,49971.0,94.0,166.0,0.0,BRAKE,0.04242224246263504,-0.166244775056839,0.9909631013870239,0.23043280839920044,-0.046648766845464706,0.6591483950614929,-30.0,0.0,-1014.0,233.0,-45.0,660.0
21:16:10,1500.0,-35.3632416,149.1652764,50019.666666666664,36.666666666666664,92.66666666666667,2.0,BRAKE,0.02575646589199702,0.03006934995452563,1.025684118270874,0.5380620335539182,-0.05078797539075216,-0.015319591077665487,-16.333333333333332,17.333333333333332,-1001.6666666666666,540.6666666666666,-49.333333333333336,-14.0
21:16:12,1500.0,-35.363237857142856,149.16528484285715,49982.71428571428,10.285714285714286,36.285714285714285,-0.42857142857142855,ALT_HOLD,0.01160630930514474,0.007453620367284332,1.0239630596978324,-0.01666815791811262,0.0005008032063155302,-0.010062457860580512,-8.428571428571429,-6.285714285714286,-999.2857142857143,-16.0,1.2857142857142858,-8.571428571428571
21:16:15,1500.0,-35.363233775,149.16529035,47336.75,3.5,1.75,181.75,AUTO,0.02952449698932469,-0.0007494147139368579,1.0119635462760925,0.3775216042995453,-0.001763647742336616,0.0054668133379891515,-3.6,-41.8,-997.0,-88.8,0.8,7.0
21:16:18,1500.0,-35.36322655,149.16530145000002,44242.5,55.5,97.0,1.5,AUTO,0.012900606263428926,-0.11077987775206566,1.0323862433433533,-0.3713308498263359,-0.04880644008517265,0.012144556734710932,-22.0,-43.0,-1017.0,-372.0,-47.0,12.5
21:16:20,1500.0,-35.36320845555556,149.16533627777778,44290.666666666664,161.55555555555554,249.66666666666666,-9.777777777777779,AUTO,0.03359431980384721,-0.17912969324323866,1.022663288646274,-0.06065715870095624,-0.021868293432311878,-0.0053192384592774845,-61.55555555555556,-40.22222222222222,-1010.2222222222222,-59.55555555555556,-20.11111111111111,-4.333333333333333
21:16:23,1500.0,-35.36314424,149.16545764,44702.4,318.6,509.4,-25.6,AUTO,0.07257334142923355,-0.1931627333164215,1.0142414808273315,0.005721724685281515,0.016915358230471612,-0.003900396823883057,-113.2,-65.0,-998.0,7.0,18.4,-2.8
21:16:25,1500.0,-35.363086239999994,149.16556975999998,45203.4,359.0,577.4,-29.2,AUTO,0.08176410794258118,-0.15355989038944245,1.0139714002609252,-0.0018830333836376667,0.031092630792409183,-0.0025911953300237654,-131.4,-73.2,-990.2,-0.4,32.4,-1.8
21:16:32,1500.0,-35.3629392,149.1658586,46301.0,84.0,163.0,12.0,BRAKE,0.030977485701441765,0.0917443335056305,1.0360844135284424,0.5687820911407471,-0.16054411232471466,-0.03597186133265495,-38.0,17.0,-1007.0,574.0,-158.0,-34.0
21:16:34,1500.0,-35.36293262,149.16587356000002,46227.0,55.6,95.2,-0.2,BRAKE,0.008207677770406008,0.010648898407816887,1.0362951278686523,-0.039864635467529295,-0.021093520661816002,-0.0009064531186595559,-27.0,-12.2,-1010.4,-37.2,-19.0,0.4
21:16:37,1500.0,-35.36291878,149.16589752,43566.2,35.6,33.0,184.2,AUTO,-0.0064416135661304,-0.003752257954329252,1.0333059549331665,-1.3202587425708772,0.002337995287962258,-0.012461367156356573,-9.4,-65.2,-990.4,-1319.8,3.8,-11.4
21:16:39,1500.0,-35.3629161875,149.16590711249998,40890.0,40.125,30.75,55.75,AUTO,-0.011358846037182957,-0.040030714590102434,1.0309096574783325,0.4429549276828766,-0.05883977934718132,-0.0096009363187477,-8.625,-5.875,-1087.75,441.625,-56.375,-8.5
21:16:41,1500.0,-35.36290281666667,149.16593205,40651.666666666664,147.16666666666666,171.0,-16.833333333333332,BRAKE,0.016061410851155717,-0.16563615202903748,1.009878396987915,0.07608602692683537,-0.04169568846312662,-0.00625593572234114,-43.0,-29.166666666666668,-1018.3333333333334,76.16666666666667,-39.333333333333336,-5.666666666666667
21:16:43,1500.0,-35.362879119999995,149.165974,41138.2,118.4,145.8,-24.4,BRAKE,0.03575500585138798,0.1367036759853363,1.0159608840942382,0.2328158394433558,-0.011600324511528015,0.0069843460340052845,-37.6,-24.6,-986.2,232.2,-9.4,7.2
21:16:44,1500.0,-35.3628719,149.165989475,41245.0,42.75,26.0,-1.0,BRAKE,-0.019238126929849386,0.020866877166554332,1.0127938389778137,-0.2887822985649109,-0.03138814214617014,0.01481241441797465,-10.5,-26.75,-1003.5,-290.5,-29.0,15.25
21:16:46,1500.0,-35.36286836000001,149.16599316,41280.2,30.0,0.6,-1.2,ALT_HOLD,0.0006731209898134694,-0.00030455578817054627,1.014182686805725,0.11831504814326763,-0.002803946053609252,0.002977756503969431,-6.8,5.4,-991.0,118.0,-0.6,3.4
21:16:48,1500.0,-35.3628648,149.165993975,40246.75,12.5,-3.5,154.5,AUTO,0.00847779045579955,-0.0017793136939872056,1.0134347975254059,1.095924623310566,0.002052201743936166,-0.0011556826066225767,-2.25,85.5,-938.5,1101.0,3.75,-0.25
21:16:50,1500.0,-35.3628627,149.165996,38308.333333333336,22.0,25.833333333333332,37.5,AUTO,-0.00842357070844931,-0.0520078552265962,1.0134428938229878,-0.6201034163435301,-0.03399481469144424,-0.005738256576781471,-7.5,-22.5,-1076.0,-619.0,-31.0,-4.333333333333333
21:16:52,1500.0,-35.36285298333333,149.16601336666668,38253.666666666664,95.5,138.0,-16.833333333333332,AUTO,0.022081708380331595,-0.1308346651494503,1.009312351544698,-0.03832982977231344,-0.04339487850666046,0.001294642958479623,-32.666666666666664,-24.333333333333332,-1017.3333333333334,-39.0,-40.666666666666664,2.3333333333333335
21:16:54,1500.0,-35.36281565,149.1660814,39087.0,225.0,366.5,-47.5,AUTO,0.06392080709338188,-0.1951974406838417,1.0017990469932556,0.0030478890985250473,-0.018585299607366323,0.008993358351290226,-84.5,-46.5,-1012.5,2.0,-15.5,10.0
21:16:56,1500.0,-35.3627652,149.1661771,40336.5,302.5,481.0,-67.5,AUTO,0.09800747409462929,-0.14523839205503464,0.8295929729938507,0.032487682066857815,-0.06127484608441591,-0.20245875418186188,-94.5,-77.5,-978.0,31.5,-58.5,-200.5
21:16:58,1500.0,-35.36271848333333,149.16626465000002,40841.5,357.8333333333333,582.3333333333334,-26.333333333333332,AUTO,0.1722205008069674,-0.11708707859118779,0.5392172932624817,-0.015697571448981762,0.09022968324522178,-0.08788657188415527,-78.33333333333333,-124.16666666666667,-1018.1666666666666,-15.666666666666666,92.33333333333333,-86.5
21:17:05,1500.0,-35.362566799999996,149.16656475000002,44045.0,355.0,575.5,-59.0,AUTO,0.1328696310520172,-0.10462671518325806,0.6922641098499298,0.027227359358221292,0.0032782023772597313,0.03406764939427376,-93.66666666666667,-113.66666666666667,-986.6666666666666,16.666666666666668,7.333333333333333,30.666666666666668
21:17:07,1500.0,-35.362513075,149.16666836249996,45033.875,354.375,583.75,-62.5,AUTO,0.12004497274756432,-0.0967873646877706,0.7471885159611702,-0.007855308474972844,0.04780025401851162,0.01981143347802572,-108.125,-113.125,-1012.5,-7.0,49.75,20.5
21:17:09,1500.0,-35.36244861666667,149.16679638333332,47210.666666666664,282.6666666666667,477.3333333333333,-134.83333333333334,AUTO,0.07096534594893456,0.004140889466119309,0.8050584395726522,-0.010740704485215247,0.018094522257645924,0.05184387043118477,-91.33333333333333,-88.33333333333333,-1013.6666666666666,-9.5,20.166666666666668,52.5
21:17:11,1500.0,-35.3624089,149.16688458333334,49583.666666666664,156.33333333333334,306.3333333333333,-63.833333333333336,BRAKE,0.05643187820290526,0.1007894491776824,1.2077461679776509,0.16042739897966385,0.18580344567696253,0.03248954987308631,-72.83333333333333,-34.666666666666664,-951.8333333333334,161.66666666666666,187.33333333333334,34.0
21:17:13,1500.0,-35.36239388,149.16691834,49962.8,53.2,62.0,1.8,BRAKE,0.01919169994071126,0.02571447050431743,1.168278956413269,0.36089148819446565,-0.0961419552564621,0.0010680364212021232,-18.2,-3.0,-1007.0,360.4,-93.4,2.4
21:17:14,1500.0,-35.36238804,149.16693003999998,50035.8,29.6,48.2,-3.6,ALT_HOLD,0.01667886637151241,-0.006089508580043912,1.1466781616210937,-0.0928928554058075,-0.006947340071201324,-0.017749653570353983,-13.2,-7.2,-993.0,-91.0,-5.0,-15.4
21:17:16,1500.0,-35.3623835,149.16693971666666,48933.333333333336,26.833333333333332,39.666666666666664,148.5,AUTO,0.010612251392255226,-0.0013122685874501865,1.125062068303426,0.13106040159861246,0.016451010247692466,-0.017191514372825623,-10.333333333333334,-20.0,-915.1666666666666,129.5,18.833333333333332,-15.166666666666666
21:17:21,1500.0,-35.362380599999995,149.1669352166667,48073.833333333336,-22.0,-39.166666666666664,-79.66666666666667,AUTO,0.0037061502710760883,0.005909591059510906,0.44857327702144784,-0.014088240762551626,-0.0008965923528497418,-0.7822257777055105,-0.5,8.666666666666666,-1006.5,-13.0,1.1666666666666667,-779.8333333333334
21:17:23,1500.0,-35.36238243333333,149.16692593333332,49687.166666666664,-40.5,-37.833333333333336,-60.333333333333336,AUTO,-0.03866221383213997,-0.0004106482471494625,-1.066751629114151,-0.08064560823064919,0.0073790378325308366,-0.7156077822049459,-11.333333333333334,3.1666666666666665,-971.5,-78.66666666666667,10.0,-712.8333333333334
21:17:25,1500.0,-35.3623948,149.1669109142857,50185.857142857145,-125.0,-96.71428571428571,9.428571428571429,AUTO,0.00850268845845546,-0.12076892810208457,-2.2632112332752774,0.012038013764790126,-0.06225561137710299,-0.24350267914789064,-33.714285714285715,-18.428571428571427,-987.0,13.428571428571429,-59.0,-241.14285714285714
21:17:27,1500.0,-35.36243188333333,149.16686966666666,49954.333333333336,-269.3333333333333,-264.6666666666667,4.166666666666667,BRAKE,0.05304147799809774,-0.17720024287700653,-2.3264565070470176,0.028550100823243458,-0.014280780218541622,0.0063094028737396,-74.33333333333333,-47.833333333333336,-1006.5,30.0,-11.5,8.5
21:17:29,1500.0,-35.36248140000001,149.16680863333332,50097.666666666664,-177.33333333333334,-189.0,-7.333333333333333,BRAKE,0.039889241413523756,0.17816390097141266,-2.305126945177714,-0.9179978022972742,-0.014492166539033255,0.02393877909829219,-51.666666666666664,-79.16666666666667,-985.1666666666666,-916.8333333333334,-11.5,26.166666666666668
21:17:34,1500.0,-35.36250455,149.1667818375,48941.5,-26.25,-9.625,130.0,AUTO,0.01891522656660527,-0.0031624373514205217,-2.3157366514205933,0.8329500611871481,0.003596137830754742,-0.005235658201854676,-8.75,36.5,-902.125,834.625,6.125,-2.5
21:17:39,1500.0,-35.3625098,149.16678180000002,45784.0,-15.0,-17.0,84.5,AUTO,0.01895955903455615,-0.029605109244585037,-2.320060968399048,-0.35299669206142426,-0.05125592276453972,0.012932035140693188,-4.0,-46.5,-1166.0,-356.0,-48.0,15.5
21:17:41,1500.0,-35.362526380000006,149.16676223999997,45231.0,-147.2,-143.6,-0.8,AUTO,0.0251515693962574,-0.14979105293750763,-2.3444698810577393,-0.03545691799372434,-0.038946143724024294,-0.0018088843440636992,-39.90909090909091,-24.90909090909091,-1016.3636363636364,30.90909090909091,-37.18181818181818,-2.4545454545454546
21:17:43,1500.0,-35.3625881,149.16669013333333,45373.333333333336,-357.3333333333333,-366.0,-8.833333333333334,AUTO,0.06672159271935622,-0.20838674157857895,-2.3533540964126587,-0.006201628595590591,-0.003898920491337776,0.0020427201331282654,-101.33333333333333,-55.666666666666664,-1003.0,-4.166666666666667,-1.1666666666666667,5.0
21:17:48,1500.0,-35.3627647,149.1664725,46167.0,-107.0,-133.0,13.0,BRAKE,0.037987060844898224,0.08954930305480957,-2.3264498710632324,0.4820200204849243,-0.16880974173545837,-0.045423515141010284,-44.0,-1.5,-1048.0,86.5,-186.0,-49.5
21:17:50,1500.0,-35.362775039999995,149.16645878,46070.4,-56.2,-78.8,1.6,ALT_HOLD,0.017826730012893678,0.012624670937657356,-2.330004596710205,0.11207279562950134,-0.0064537579659372565,-0.010958035197108983,-21.4,-2.6,-1008.8,116.0,-3.6,-7.6
21:17:52,1500.0,-35.3627861625,149.1664474,45190.5,-45.5,-39.25,121.5,AUTO,0.006208299775607884,-0.005642303440254182,-2.3333592414855957,-0.07759402319788933,-0.0002319219202036038,0.0006312811456155032,-14.0,-19.0,-900.75,-76.125,2.5,3.5
21:18:01,1500.0,-35.362930057142854,149.16627988571432,42272.42857142857,-444.14285714285717,-448.85714285714283,-34.857142857142854,AUTO,0.05838533118367195,-0.17627366738659994,-2.3653153351375034,0.0035087508149445057,0.014323280126388584,-0.005235632914783699,-122.28571428571429,-64.71428571428571,-994.8571428571429,7.857142857142857,16.857142857142858,-1.4285714285714286
21:18:03,1500.0,-35.36302755714286,149.1661592428571,43144.42857142857,-489.0,-480.2857142857143,-33.714285714285715,AUTO,0.06473625132015773,-0.136735876756055,-2.357858725956508,-0.00377844919317535,0.00942111447719591,0.002305613996993218,-133.28571428571428,-71.28571428571429,-979.2857142857143,0.42857142857142855,12.0,5.857142857142857
21:18:05,1500.0,-35.363118633333336,149.16604783333332,43838.833333333336,-475.5,-462.8333333333333,-40.0,BRAKE,0.06835548082987468,-0.03972034528851509,-2.354928175608317,0.024682868039235473,0.25749064500754076,-0.00673617337209483,-140.5,-74.83333333333333,-1024.5,28.833333333333332,260.1666666666667,-3.0
21:18:07,1500.0,-35.36317631428572,149.16597767142858,44297.28571428572,-139.42857142857142,-147.42857142857142,9.857142857142858,BRAKE,0.04606778464013977,0.1325251217931509,-2.3362081732068742,0.5077123897416251,-0.1818562357553414,-0.02276655376356627,-43.57142857142857,-6.142857142857143,-1028.5714285714287,512.2857142857143,-178.14285714285714,-18.714285714285715
21:18:12,1500.0,-35.363194175000004,149.16595279999999,44275.0,-51.25,-37.5,-1.0,ALT_HOLD,-0.0044519846414914355,0.019228167831897736,-2.3403661847114563,0.49470899254083633,0.004091184178832918,-0.0005649611121043563,-13.5,10.5,-1002.0,499.25,6.75,3.25
21:18:14,1500.0,-35.3631984,149.1659474,44139.0,-39.0,-24.0,70.0,ALT_HOLD,0.000557231658603996,-0.006285256706178188,-2.3395698070526123,0.967788577079773,0.00019275187514722347,-0.002547166310250759,-7.0,62.0,-804.0,978.0,3.0,1.0
21:18:16,1500.0,-35.363205507692314,149.1659408076923,42103.153846153844,-45.46153846153846,-41.92307692307692,61.38461538461539,AUTO,0.02559372238241709,-0.04799998657276424,-2.3486012862278867,0.4764131410405613,-0.035517048860828467,-0.005332623823330953,-16.846153846153847,4.538461538461538,-1049.6923076923076,479.0,-31.846153846153847,-1.4615384615384615
21:18:18,1500.0,-35.36323256,149.16591568,41788.4,-177.0,-218.2,-16.8,AUTO,0.06887952983379364,-0.1806904196739197,-2.367929220199585,-0.027268829941749572,-0.022170445695519448,0.005927672237157821,-58.6,-31.8,-1015.8,-21.8,-18.8,9.6
21:18:19,1500.0,-35.3632563,149.1658863,42033.0,-265.0,-315.0,-26.0,AUTO,0.06035897135734558,-0.19007527828216553,-2.3673548698425293,-0.12224576622247696,-0.023612085729837418,0.009261906147003174,-74.0,-52.0,-1006.0,-116.0,-20.0,13.0
21:18:21,1500.0,-35.363294,149.16583691428573,42616.28571428572,-226.14285714285714,-265.57142857142856,-35.285714285714285,BRAKE,0.0465874725154468,0.1199402857039656,-2.346477746963501,-0.18845912760921887,0.18832274632794516,-0.013245284690388612,-74.85714285714286,-36.42857142857143,-995.5714285714286,-181.28571428571428,191.42857142857142,-9.0
21:18:22,1500.0,-35.363315175,149.165807625,42802.25,-33.25,-73.75,1.75,ALT_HOLD,0.025806234683841467,0.02502196840941906,-2.3434998393058777,0.34355680644512177,-0.03057552408427,-0.014272716944105923,-15.75,3.5,-1005.0,350.0,-26.75,-10.0
21:18:24,1500.0,-35.363320800000004,149.16579903333334,42213.666666666664,-30.666666666666668,-46.5,109.33333333333333,AUTO,0.01931487248900036,-0.006820854963734746,-2.3454109827677407,0.9829831536238393,-0.0021646240493282676,-0.003023657016456127,-10.833333333333334,11.666666666666666,-883.6666666666666,986.5,0.8333333333333334,1.1666666666666667
21:18:26,1500.0,-35.3633267,149.16579133333332,39666.833333333336,-26.333333333333332,-32.0,70.16666666666667,AUTO,-0.0004353783539651583,-0.02353733651883279,-2.3466399113337197,-0.8368293074890971,-0.06567313397924106,-0.0019576229387894273,-11.333333333333334,-44.333333333333336,-1096.1666666666667,-831.6666666666666,-61.666666666666664,1.6666666666666667
21:18:28,1500.0,-35.36334505,149.16577365,39378.5,-136.0,-162.0,-21.0,AUTO,0.046391209587454796,-0.1596292033791542,-2.3665043115615845,0.0907832533121109,-0.06401316449046135,-0.008666408015415072,-36.5,-18.5,-1020.5,98.0,-60.0,-5.0
21:18:30,1500.0,-35.36338685,149.16572035000002,40054.0,-309.5,-325.5,-47.0,AUTO,0.03704488091170788,-0.19894807040691376,-2.366068482398987,-0.002491861116141081,-0.029689614661037922,-0.0007203116547316313,-88.0,-47.5,-1011.5,4.0,-26.0,3.0
21:18:35,1500.0,-35.36355963999999,149.16551013999998,41960.8,-502.4,-488.6,-67.6,AUTO,0.11467729061841965,-0.06649877354502678,-2.833943271636963,-0.039309086836874486,-0.01831953600049019,0.042684872448444364,-89.6,-133.2,-1012.8,-32.6,-14.6,45.8
21:18:37,1500.0,-35.36364172857143,149.1654065571429,43184.71428571428,-488.57142857142856,-476.42857142857144,-56.0,AUTO,0.09987458054508482,-0.10191655158996582,-2.7594285692487444,-0.005438511692253607,0.004622843449137041,0.04258355285440173,-107.42857142857143,-111.85714285714286,-989.7142857142857,0.7142857142857143,7.857142857142857,46.0
21:18:39,1500.0,-35.363733585714286,149.1652948,44461.57142857143,-485.85714285714283,-465.2857142857143,-59.714285714285715,AUTO,0.09337298572063446,-0.10094563769442695,-2.675113780157907,0.00739365816116333,0.008114718100322145,0.03917809522577694,-115.28571428571429,-102.0,-990.1428571428571,13.142857142857142,11.428571428571429,42.57142857142857
21:18:41,1500.0,-35.363818816666665,149.1651917,45871.166666666664,-464.0,-443.3333333333333,-84.5,AUTO,0.07155595161020756,-0.06275258896251519,-2.611180384953817,-0.023648267068589728,0.05779255802432696,0.02399096420655648,-110.66666666666667,-99.5,-1022.1666666666666,-17.666666666666668,60.833333333333336,27.5
21:18:43,1500.0,-35.363889439999994,149.16510582,48098.8,-353.8,-343.8,-130.2,BRAKE,0.07311328351497651,0.03792188866063952,-2.4667806148529055,0.03870993265882135,0.18484444841742514,0.301951789110899,-99.6,-63.2,-1003.0,44.2,188.2,305.4
21:18:47,1500.0,-35.3639255,149.1650557,49574.0,-69.0,-72.0,8.0,BRAKE,-0.00852848682552576,0.09584147483110428,-2.1278512477874756,0.5198360681533813,-0.15225961804389954,-0.03845316916704178,-27.0,33.0,-1012.0,528.0,-148.0,-34.0
21:19:03,1500.0,-35.36396492,149.16501657999999,49976.6,-6.4,-3.0,2.8,AUTO,-0.0025648430455476046,0.0005733970552682877,-2.222894382476807,-0.08156229257583618,0.01112119434401393,-0.004037300078198314,0.0,-7.0,-992.4,-76.6,14.4,-0.4
21:19:05,1500.0,-35.36396462857143,149.16501618571428,49956.142857142855,-3.142857142857143,6.428571428571429,-0.8571428571428571,AUTO,-0.005599209598066019,-0.0013647703121283225,-2.2296817983899797,0.06660978496074677,-0.009374231000297837,-0.0022098232958731906,0.7142857142857143,-1.7142857142857142,-1000.5714285714286,70.85714285714286,-5.714285714285714,1.4285714285714286
21:19:07,1500.0,-35.36396522857143,149.16501739999998,49964.28571428572,-1.2857142857142858,0.2857142857142857,0.0,AUTO,0.008623071813157626,-0.003967338075329151,-2.2370846271514893,0.07353774351733071,-0.00027692687165524276,-0.004236290663746851,-1.5714285714285714,3.4285714285714284,-1001.1428571428571,78.28571428571429,3.0,-0.42857142857142855
21:19:10,1500.0,-35.363966375000004,149.1650184625,49970.125,10.125,-9.625,0.0,BRAKE,0.012919508357299492,-0.001504231506260112,-2.2437599301338196,-0.10564076155424118,0.0010666406014934182,-0.0032550089235883206,-0.375,-6.5,-997.625,-100.875,4.375,0.25
