time_stamp,RTL_ALT,MODE,roll,pitch,yaw,rollspeed,pitchspeed,yawspeed,lat,lon,relative_alt,vx,vy,vz,xacc,yacc,zacc,xgyro,ygyro,zgyro
11:23:15,1500.0,STABILIZE,-0.0012316517531871796,0.0009609003318473697,0.02195034548640251,0.0002209455706179142,0.00020823883824050426,0.001654940191656351,-35.3632622,149.1652375,0.0,-1.0,0.5,1.0,0.0,1.0,-1000.0,0.5,0.0,1.0
11:23:21,64357.5,AUTO,-0.0005647829530062154,0.0010067274561151862,0.020938105881214142,0.00024768715957179666,0.0002789580903481692,0.0014320637565106153,-35.3632622,149.1652375,0.0,-1.0,2.0,1.0,0.0,1.0,-1000.0,0.5,0.0,0.5
11:23:23,127215.0,AUTO,-0.00036890596675220877,0.0012617514003068209,0.020508764311671257,0.0003461320884525776,0.0002458397066220641,0.001353327534161508,-35.3632621,149.16523745,0.0,0.0,0.0,1.0,0.0,1.0,-1000.0,1.0,0.0,1.0
11:23:24,176190.0,AUTO,-0.00012372171659080777,0.0015450464270543307,0.020252995658665895,0.00033094924583565444,0.0003083718183916062,0.0013568596332333982,-35.3632621,149.1652374,0.0,0.0,0.0,0.75,0.0,1.5,-1000.0,0.5,0.75,0.5
11:23:25,176190.0,AUTO,0.001833859052567277,0.0009474506587139331,0.020140020176768303,0.002032174787018448,0.002290537697263062,0.0018742252141237259,-35.3632621,149.1652374,89.5,0.0,0.0,-34.5,0.0,1.0,-1064.5,2.0,2.0,1.0
11:23:27,176182.5,AUTO,0.04775580205023289,-0.00598862674087286,0.005522033199667931,0.02488921512849629,0.0006153900176286697,-0.011366852675564587,-35.363261800000004,149.16523865,2321.5,4.5,25.5,-147.5,0.0,-4.5,-1001.0,25.0,1.0,-11.5
11:23:29,176175.0,AUTO,-0.05559664033353329,0.0016717873513698578,-0.08770022541284561,0.000328604131937027,-0.013050841982476413,-0.0191957401111722,-35.36326095,149.1652458,5374.5,-1.5,1.0,-149.0,1.5,-1.5,-1001.5,1.0,-12.0,-18.5
11:23:30,78641.0,AUTO,-0.03443609015084803,-0.005286358471494168,-0.0953087117522955,0.06090017966926098,0.007343759396462701,-0.0017212821112480015,-35.363261125,149.16524305000002,6911.75,-2.5,-50.25,-149.25,-5.5,9.5,-1001.75,61.0,7.75,-1.5
11:23:31,78641.0,AUTO,0.029609259916469455,0.005371505510993302,-0.09436806291341782,0.06438844837248325,0.009401353541761637,0.0032072257017716765,-35.3632616,149.16523715,8465.0,-7.0,-43.5,-152.0,-4.5,9.5,-1003.0,64.5,9.5,2.0
11:23:33,43930.5,AUTO,-0.005899641662836075,-0.004851727047935128,-0.0915861651301384,-0.02636962733231485,0.008243946824222803,-0.026326271705329418,-35.363262500000005,149.16523575000002,11565.0,3.5,13.5,-150.0,1.0,-2.0,-1002.0,-26.0,8.5,-26.5
11:23:35,9220.0,AUTO,0.00676917505916208,0.00659429794177413,-0.1450541689991951,0.01113040535710752,0.003451128548476845,-0.015505430288612843,-35.3632616,149.16523575,14678.0,1.5,-3.5,-152.0,-1.5,0.0,-1000.0,11.0,4.0,-15.0
11:23:36,271341.0,AUTO,0.009892771253362298,0.0063534684013575315,-0.15830383822321892,-0.0021252347505651414,-0.001610807070392184,-0.011513349367305636,-35.3632615,149.16523535,16234.75,-2.0,2.0,-152.0,0.0,0.0,-999.75,-1.25,-0.25,-11.25
11:23:37,271341.0,AUTO,-0.022632932756096125,0.008857209235429764,-0.16457072645425797,-0.0286604855209589,0.03813234099652618,0.0682060532271862,-35.3632616,149.1652353,17788.0,-5.5,-4.0,-149.5,-0.5,1.0,-989.5,-27.5,39.0,68.0
11:23:39,143901.5,AUTO,0.05443289317190647,-0.03266041073948145,0.05258923023939133,0.01074264757335186,0.002528667449951172,-0.02565716439858079,-35.3632643,149.16523095000002,20319.0,-8.5,3.5,-87.0,1.0,2.0,-966.0,11.5,3.0,-25.5
11:23:41,16462.0,AUTO,-0.004703071434050798,0.011795671191066504,0.03819143585860729,-0.013538704719394445,0.01003257546108216,3.875026595778763e-05,-35.363262399999996,149.16523705,21523.0,13.5,33.0,-35.0,0.0,-7.5,-976.0,-12.5,10.5,0.0
11:23:42,88169.0,AUTO,-0.01914266776293516,0.016411223681643605,0.03541163541376591,0.05656695831567049,0.00501731235999614,-0.0030128406651783735,-35.36326137499999,149.165239625,21750.0,3.75,13.0,-7.25,0.25,-1.75,-960.75,57.25,6.25,-2.5
11:23:43,88169.0,AUTO,-0.004188552498817444,-0.015945302788168192,0.032137961126863956,0.07396188378334045,-0.07138015516102314,-0.005214908625930548,-35.36326115,149.1652396,21647.0,3.0,-6.0,15.5,-2.0,-1.5,-990.0,74.5,-70.0,-5.5
11:23:45,179427.0,AUTO,0.069239791482687,-0.1184200644493103,0.17859997600317,0.24154173396527767,-0.02920461166650057,0.299851693212986,-35.363251899999995,149.16524285,21504.5,121.5,63.0,-1.0,-21.0,-9.5,-1009.0,242.5,-27.5,299.5
11:23:47,270685.0,AUTO,0.0344969192519784,-0.1887454241514206,0.5450632870197296,0.16544146463274956,-0.008561918744817376,-0.04651004495099187,-35.363213099999996,149.1652685,21497.5,321.5,175.5,-1.5,-74.5,-37.5,-1005.5,165.5,-7.0,-46.0
11:23:48,200790.0,AUTO,0.04322510212659836,-0.20555302500724792,0.5292456150054932,-0.00863525876775384,-0.02384989056736231,-0.004169683757936582,-35.363180475,149.16529054999998,21502.5,420.0,223.75,-0.75,-94.75,-57.25,-1000.0,-7.5,-22.75,-3.75
11:23:49,200790.0,AUTO,0.0548348780721426,-0.2012266367673874,0.5261775553226471,0.00043648178689181805,0.030801608227193356,-0.00861731800250709,-35.3631387,149.16531855,21518.5,509.0,268.5,-4.0,-111.0,-71.5,-1001.5,1.5,31.0,-8.0
11:23:51,155491.5,AUTO,0.07314407825469971,-0.15267245471477509,0.5197579562664032,0.013129176601069048,0.02713992726057768,-0.0014889130543451756,-35.3630382,149.16538565000002,21674.5,595.0,317.0,-8.5,-133.0,-67.5,-986.0,13.5,27.5,-1.5
11:23:53,110193.0,AUTO,0.07589878886938095,-0.13024145364761353,0.5171513557434082,0.012204496189951897,-0.06164968013763428,0.013166734017431736,-35.3629505,149.1654444,21802.0,597.0,319.0,-3.0,-135.0,-77.0,-970.0,12.0,-60.0,13.0
11:23:54,193564.0,AUTO,0.07967593893408775,-0.13590191304683685,0.5149931609630585,0.0049163775984197855,0.010701546329073608,0.0032820890774019063,-35.362884300000005,149.165488525,21797.25,603.5,324.25,-0.25,-135.5,-79.25,-993.5,5.5,11.25,3.0
11:23:55,193564.0,AUTO,0.08005642890930176,-0.13086827844381332,0.5152816772460938,0.026718009263277054,-0.014033395797014236,-0.006665893160970882,-35.3628434,149.16551570000001,21810.5,604.5,326.5,-2.5,-137.5,-73.5,-987.5,27.0,-12.5,-6.0
11:23:57,244859.5,AUTO,0.08364777639508247,-0.12700481712818146,0.5120798349380493,-0.003132677637040615,-0.007366078440099955,-0.005027845618315041,-35.3627343,149.16558809999998,21885.5,601.5,328.5,-4.0,-139.0,-73.5,-986.0,-2.5,-6.5,-4.5
11:23:59,296155.0,AUTO,0.08375878632068634,-0.13106364011764526,0.509562760591507,0.004600327694788575,0.03254899103194475,0.00045652431435883045,-35.36262615,149.16565989999998,21951.0,595.0,328.5,-1.0,-129.0,-76.5,-991.0,5.5,33.0,0.5
11:24:00,127203.0,AUTO,0.08313238807022572,-0.12721024081110954,0.5078124105930328,-0.00017370059504173696,-0.004290559096261859,-0.0005526286404347047,-35.362558674999995,149.165704925,21989.5,594.5,327.5,-2.0,-129.5,-84.0,-983.75,0.5,-3.25,-0.25
11:24:01,127203.0,AUTO,0.08912944421172142,-0.12170792371034622,0.5064724981784821,-0.005384386226069182,0.05735691078007221,-0.0017749450053088367,-35.362518249999994,149.16573185,22013.0,593.0,325.0,-2.5,-130.0,-77.5,-996.5,-4.5,58.0,-1.5
11:24:03,92275.0,AUTO,0.07741187140345573,-0.017691925168037415,0.5087611079216003,-0.029344649985432625,0.045085374265909195,-0.00184443942271173,-35.362418399999996,149.16579905,22174.5,496.0,272.5,-4.5,-114.0,-76.5,-987.5,-28.0,45.5,-1.5
11:24:05,57347.0,AUTO,0.05599440075457096,0.04994569718837738,0.5088881552219391,0.06643421947956085,-0.001207456924021244,0.02438373421318829,-35.36234585,149.16584825,22154.5,297.5,167.0,4.5,-72.5,-60.0,-1005.5,66.5,-0.5,24.5
11:24:06,144423.0,AUTO,0.027042204746976495,0.07464846037328243,0.5076797008514404,0.07761181145906448,0.02892380580306053,0.0005778219783678651,-35.362319275,149.165867175,22123.0,179.75,100.5,1.0,-42.0,-29.75,-1008.75,78.5,29.25,1.0
11:24:07,144423.0,AUTO,0.00344353134278208,0.07882628962397575,0.5061275959014893,-0.06299957633018494,-0.036559988744556904,-0.00928255938924849,-35.3623094,149.1658745,22118.5,110.5,58.5,0.5,-21.5,-0.5,-1008.0,-61.5,-35.0,-8.5
11:24:09,136932.0,AUTO,-0.023473498411476612,0.03111999575048685,0.5075985789299011,-0.47832736372947693,-0.02352993655949831,-0.004519444133620709,-35.36230115,149.1658814,22118.0,14.0,-7.5,0.0,-0.5,-21.0,-998.0,-477.5,-21.5,-3.5
11:24:11,129441.0,RTL,-0.0030336662312038243,-0.011900830315425992,0.5063462257385254,-0.3388574868440628,-0.04036940447986126,-0.0018658793342183344,-35.362301450000004,149.16588009999998,22133.5,9.5,-18.5,0.0,-1.5,-14.5,-995.0,-338.5,-38.5,-1.5
11:24:12,241432.0,RTL,0.007984560215845704,0.003854383856378263,0.5044708251953125,-0.08053164649754763,0.01011393427324947,-0.00028182525420561433,-35.362300274999996,149.16587909999998,22159.5,12.25,-2.75,-9.0,-3.25,-2.75,-1025.75,-80.0,10.75,0.5
11:24:13,241432.0,RTL,0.009401696501299739,0.006888051284477115,0.5035302340984344,-0.24249763041734695,-0.0003475027624517679,0.0033146151108667254,-35.36229955,149.16587875,22308.0,4.5,-0.5,-35.0,-2.5,-11.0,-1047.0,-242.0,0.5,3.0
11:24:15,192412.0,RTL,0.007810728158801794,0.002986874897032976,0.5036049485206604,-0.0005103949515614659,-0.0015290026494767517,0.001833953894674778,-35.3622992,149.165878,23987.0,-5.0,3.5,-127.5,0.0,0.5,-1044.5,0.0,-0.5,2.0
11:24:17,143392.0,RTL,0.037161617539823055,0.014786030631512403,0.47417573630809784,-0.13782039284706116,0.06448354385793209,-0.09993963688611984,-35.362300149999996,149.16588124999998,26971.5,-22.0,55.5,-145.5,4.5,-10.5,-992.5,-136.5,65.5,-99.0
11:24:18,261468.0,RTL,-0.05984384100884199,0.004451895947568119,0.41380807012319565,0.02376893861219287,-0.007536700199125335,-0.0225778438616544,-35.36230125,149.16588475000003,28876.25,-1.75,-5.0,-150.0,-0.75,-0.25,-1002.5,24.25,-6.25,-21.25
11:24:19,261468.0,RTL,-0.026184306479990482,0.003134430735372007,0.4014829248189926,0.05996866710484028,0.004932555602863431,-0.007318757474422455,-35.3623006,149.16588265000001,30040.0,11.0,-37.5,-150.0,-4.0,7.5,-1001.0,60.5,5.5,-6.0
11:24:21,198774.0,RTL,0.019504976458847523,-0.002918934857007116,0.41955457627773285,-0.023274733684957027,0.012127972207963467,-0.007772752549499273,-35.362299050000004,149.16587570000002,33154.5,-2.0,-2.5,-151.0,-1.0,1.5,-999.0,-21.5,13.0,-6.0
11:24:23,136080.0,RTL,0.005336328176781535,0.008063692133873701,0.3790995627641678,0.0017525628209114075,0.0033693009754642844,-0.019715312868356705,-35.36229845,149.16587575,36271.5,-3.0,4.0,-152.0,0.0,0.0,-1000.0,2.5,4.5,-18.0
11:24:24,151297.0,RTL,0.005173955694772303,0.008570900652557611,0.35347823053598404,-0.0003995513543486595,-0.0006643024826189503,-0.018489236012101173,-35.362298375,149.16587615,38217.0,-6.5,4.25,-152.0,0.0,0.0,-1000.0,0.5,0.25,-17.25
11:24:25,151297.0,RTL,0.003910844447091222,0.008026116527616978,0.33775170147418976,-0.0006694096955470741,-0.00016979739302769303,-0.021576113998889923,-35.36229845,149.16587644999998,39387.0,-8.0,5.0,-152.0,0.5,-0.5,-1000.0,0.0,1.0,-20.5
11:24:27,165903.5,RTL,0.0016798303695395589,0.0052490439265966415,0.2933470606803894,0.0013334587565623224,0.0002538666594773531,-0.0221308758482337,-35.362299050000004,149.1658771,42506.5,-7.0,3.0,-153.0,0.0,0.0,-1000.0,2.0,1.5,-20.5
11:24:29,180510.0,RTL,0.0020059592789039016,0.005187302827835083,0.2467149719595909,-0.0007456345483660698,0.0016605459386482835,-0.022366761229932308,-35.362299449999995,149.16587744999998,45633.0,-5.0,2.0,-153.0,0.0,0.0,-1000.0,0.5,2.5,-21.0
11:24:30,61309.0,RTL,0.0034787688637152314,0.0062202984699979424,0.22411493584513664,0.0037173577584326267,0.003431870834901929,-0.003979445202276111,-35.362299575,149.165877575,47581.0,-4.5,2.25,-152.75,0.0,0.0,-999.5,4.75,4.5,-3.0
11:24:31,61309.0,RTL,0.005441055400297046,0.007385179633274674,0.23185499757528305,-0.0015987383085303009,-0.0005566664040088654,0.02291634865105152,-35.362299750000005,149.1658777,48747.0,-6.0,3.5,-152.0,0.0,0.0,-999.5,0.0,1.0,24.0
11:24:33,73411.5,RTL,8.766260430093098e-05,0.0034312104107812047,0.28552044928073883,0.0005767209222540259,-0.0005304142832756042,0.026048991829156876,-35.36230035,149.1658783,51849.0,-4.5,3.0,-152.0,0.0,0.0,-1000.0,1.5,0.5,26.5
11:24:35,85514.0,RTL,0.001830595952924341,0.0031286199809983373,0.32550282776355743,0.0006273481994867325,0.0003373112413100898,0.018245910294353962,-35.3623004,149.1658783,54954.5,-1.0,1.0,-153.0,0.0,0.0,-1000.0,2.0,1.5,19.0
11:24:36,164423.0,RTL,0.002840623608790338,0.003909509629011154,0.34466350823640823,0.002082568156765774,0.0005824423860758543,0.014197243843227625,-35.36230025,149.165878275,56895.75,-1.0,0.25,-153.0,0.0,0.0,-1000.0,3.0,1.75,15.25
11:24:37,164423.0,RTL,0.003558413591235876,0.0041467982809990644,0.3546595126390457,0.0010277006076648831,0.0013977212947793305,0.013704721350222826,-35.3623002,149.1658782,58062.0,-1.0,1.0,-152.5,0.0,0.0,-999.5,2.5,2.5,14.5
11:24:39,166889.0,RTL,0.0024417296517640352,0.004298783838748932,0.37692874670028687,-0.00045195489656180143,0.0006818025722168386,0.009779619984328747,-35.3623,149.1658781,61162.5,-2.0,1.0,-152.0,0.0,0.0,-999.5,0.5,1.5,11.0
11:24:41,169355.0,RTL,0.002356746466830373,0.003734658472239971,0.3932933956384659,0.0025240310351364315,0.0012380986590869725,0.008367289323359728,-35.3622999,149.1658781,64267.0,-2.0,1.0,-152.0,0.0,0.0,-1000.0,4.0,2.5,9.5
11:24:42,33217.0,RTL,0.0025760807329788804,0.0035378201282583177,0.4016067534685135,0.0008462799596600235,4.8844609409570694e-05,0.006619068910367787,-35.3622999,149.1658781,66209.5,-2.0,1.0,-152.0,0.0,0.0,-1000.25,2.0,1.5,7.5
11:24:43,33217.0,RTL,0.002500105183571577,0.003638529684394598,0.4064154326915741,0.0016132761957123876,0.0017978355754166842,0.007655896944925189,-35.3622999,149.1658781,67375.0,-2.0,1.0,-152.0,0.0,0.0,-999.5,3.0,3.5,8.5
11:24:45,106141.0,RTL,0.0022132982267066836,0.003910143161192536,0.4180275797843933,0.0015607097302563488,0.0026259964797645807,0.0073228387627750635,-35.3622999,149.1658781,70479.5,-2.0,1.0,-152.0,0.0,0.0,-999.5,3.0,4.0,8.5
11:24:47,179065.0,RTL,0.002168737119063735,0.0035984680289402604,0.4279060661792755,-0.0001840287004597485,-0.0006389296613633633,0.0058010059874504805,-35.3622998,149.1658781,73592.0,-2.0,0.0,-152.0,0.0,0.0,-1000.0,1.5,1.0,7.0
11:24:48,20887.0,RTL,0.0019490168779157102,0.003853244532365352,0.4335828945040703,0.0008788686827756464,0.0008561423746868968,0.006000566529110074,-35.3622998,149.1658781,75525.5,-2.0,0.0,-152.0,0.0,0.0,-1000.5,2.25,2.25,7.0
11:24:49,20887.0,RTL,0.0021582976914942265,0.0038712798850610852,0.43729768693447113,0.0005612167879007757,0.00040624738903716207,0.006019490770995617,-35.3622998,149.1658781,76697.5,-2.0,0.0,-152.0,0.0,0.0,-999.5,2.0,2.0,7.0
11:24:51,149717.5,RTL,0.0014958673855289817,0.0036575873382389545,0.44477252662181854,0.0015007336623966694,0.0013415284338407218,0.003841856843791902,-35.3622998,149.1658781,79803.0,-2.0,0.0,-152.0,0.0,0.0,-1000.0,3.0,3.5,5.0
11:24:53,278548.0,RTL,0.002027836162596941,0.0035215007374063134,0.4512731283903122,0.0008519418770447373,0.001819005818106234,0.005109516205266118,-35.3622998,149.1658781,82908.0,-2.0,0.0,-152.0,0.0,0.0,-999.5,2.0,3.5,6.5
11:24:54,200744.0,RTL,0.001953442522790283,0.0035976909566670656,0.4550112560391426,-3.215804463252425e-05,0.0003884960024151951,0.0036790923913940787,-35.3622998,149.1658781,84851.25,-2.0,0.0,-152.0,0.0,0.0,-999.75,1.75,2.0,4.75
11:24:55,200744.0,RTL,0.0017922641709446907,0.003492021351121366,0.45688143372535706,0.0012955155689269304,0.00033266888931393623,0.003829713794402778,-35.3622998,149.1658781,86018.5,-2.0,0.0,-152.0,0.0,0.0,-999.5,2.5,2.0,5.0
11:24:57,142021.5,RTL,0.0018639624468050897,0.0033393658231943846,0.46197856962680817,9.512552060186863e-05,-0.00010436744196340442,0.0030528464121744037,-35.3622998,149.1658781,89121.0,-2.0,0.0,-152.0,0.0,0.0,-1000.0,1.5,1.5,4.5
11:24:59,83299.0,RTL,0.0019356041448190808,0.0035478228237479925,0.4664028584957123,0.0020037988433614373,0.0019854234997183084,0.004145963583141565,-35.3622998,149.1658781,92225.5,-2.0,0.0,-152.0,0.0,0.0,-999.5,3.5,3.5,5.0
11:25:00,257694.0,RTL,0.0019620231760200113,0.0037427968345582485,0.4688451513648033,0.0004720513825304806,-0.000495684304041788,0.002795407926896587,-35.3622998,149.1658781,94167.75,-2.0,0.0,-152.0,0.0,0.0,-1000.0,2.25,1.25,4.25
11:25:01,257694.0,RTL,0.002124886028468609,0.0033772099995985627,0.4701158106327057,0.00040188361890614033,0.0010418934980407357,0.003051226958632469,-35.3622998,149.1658781,95332.5,-2.0,0.0,-152.0,0.0,0.0,-999.5,2.0,2.5,4.0
11:25:03,268591.0,RTL,0.0015326420543715358,0.0031021073227748275,0.4735659807920456,0.00039581849705427885,0.001705477712675929,0.002141772478353232,-35.3622998,149.1658781,98441.5,-2.0,0.0,-152.0,0.0,0.0,-999.5,2.0,3.5,3.5
11:25:05,279488.0,RTL,0.0017040966777130961,0.0036947393091395497,0.47702643275260925,0.0005725616356357932,0.0011105842422693968,0.0011962889111600816,-35.3622998,149.1658781,101547.0,-2.0,0.0,-152.0,0.0,0.0,-999.5,2.0,2.5,2.5
11:25:06,49422.0,RTL,0.001686664647422731,0.0032608805340714753,0.478589303791523,-0.0006996924639679492,0.0006051543168723583,0.0021742178360000253,-35.3622998,149.1658781,103489.75,-2.0,0.0,-152.0,0.0,0.0,-999.25,0.75,2.5,3.5
11:25:07,49422.0,RTL,0.0011127626057714224,0.0037827915512025356,0.47971363365650177,0.0002859722590073943,0.0021490860963240266,0.0011012383038178086,-35.3622998,149.1658781,104657.5,-2.0,0.0,-152.0,0.0,0.0,-1000.0,2.0,4.0,2.5
11:25:09,49422.0,RTL,0.00168637465685606,0.0033689974807202816,0.4817458540201187,0.0009771519107744098,0.0010309838689863682,0.0021735389018431306,-35.3622998,149.1658782,107759.5,-2.0,0.0,-152.0,0.0,0.0,-1000.0,2.5,2.5,3.5
11:25:10,171147.0,RTL,0.002095799252856523,0.003081989649217576,0.482942596077919,-0.0009500595042482018,-0.0003749696770682931,0.0006270156882237643,-35.3622998,149.1658782,109707.5,-2.0,0.0,-152.0,0.0,0.0,-1000.0,0.5,1.5,2.0
11:25:11,171147.0,RTL,0.001768938614986837,0.0034108591498807073,0.4834744334220886,0.00136603630380705,0.0004801314207725227,0.000652312533929944,-35.3622998,149.1658782,110878.0,-2.0,0.0,-152.0,0.0,0.0,-1000.5,3.0,2.0,2.5
11:25:13,115133.0,RTL,0.0017373572918586433,0.0036071192007511854,0.48501139879226685,-0.0001448028488084674,0.0011047349544242024,0.002347505767829716,-35.3622998,149.1658782,113978.0,-2.0,0.0,-152.0,0.0,0.0,-1000.5,1.5,3.0,4.0
11:25:15,115133.0,RTL,0.0015716484631411731,0.003097270615398884,0.48647458851337433,0.00017654697876423597,3.830727655440569e-05,0.0024544951738789678,-35.3622998,149.1658782,117084.5,-2.0,0.0,-152.0,0.0,0.0,-999.5,2.0,2.0,4.0
11:25:16,120747.0,RTL,0.0014850667503196746,0.0031528847757726908,0.4873196706175804,0.0010668000613804907,0.00027325929841026664,0.00182182906428352,-35.3622999,149.1658782,119032.0,-1.0,0.0,-152.0,0.0,0.0,-1000.0,3.0,2.0,3.25
11:25:17,120747.0,RTL,0.0015190706471912563,0.003335852758027613,0.4877030849456787,-0.0014019989175722003,0.0007989759324118495,0.0008636056445538998,-35.3622998,149.1658782,120198.0,-1.0,0.0,-152.0,0.0,0.0,-999.5,0.0,3.0,2.5
11:25:19,170051.0,RTL,0.0010996474302373827,0.0038956700591370463,0.48893608152866364,-0.00015941308811306953,0.002529008546844125,0.001022344222292304,-35.3622998,149.1658782,123308.5,-1.0,0.0,-152.0,0.0,0.0,-999.5,1.5,4.5,2.0
11:25:21,170051.0,RTL,0.001436488120816648,0.003589570871554315,0.49025481939315796,0.0003277496434748173,-0.00119693111628294,0.0010210482869297266,-35.3622998,149.1658782,126411.0,-2.0,0.0,-152.0,0.0,0.0,-1000.0,2.0,1.0,2.5
11:25:22,231337.0,RTL,0.0021014328813180327,0.0029773482820019126,0.4908819943666458,-0.0006302607653196901,0.0006820437265560031,-0.0006127608648966998,-35.3622998,149.1658782,128352.25,-2.0,0.0,-152.0,0.0,0.0,-1000.0,1.5,2.75,1.0
11:25:23,231337.0,RTL,0.0017482372932136059,0.0032960731768980622,0.49114231765270233,-6.467592902481556e-05,-5.4047792218625546e-05,0.0002541745197959244,-35.3622998,149.1658782,129517.0,-2.0,0.0,-152.0,0.0,0.0,-1000.0,1.5,2.5,2.0
11:25:25,40962.0,RTL,0.0015859497943893075,0.003329992643557489,0.4919740855693817,0.0019210140453651547,0.0007466195966117084,0.0019182079704478383,-35.3622998,149.1658782,132626.5,-2.0,0.0,-152.0,0.0,0.0,-1000.0,3.5,3.0,3.5
11:25:27,40962.0,RTL,0.0014730606926605105,0.003434286918491125,0.49218012392520905,-0.0013461248017847538,-0.00011660868767648935,-0.00017876556375995278,-35.3622998,149.1658782,135733.0,-2.0,0.0,-152.0,0.0,0.0,-1000.0,1.0,2.0,1.5
11:25:28,9420.0,RTL,0.0015004556917119771,0.0029260192532092333,0.492700457572937,0.000763683405239135,0.0010710634232964367,0.0012959886225871742,-35.3622999,149.1658782,137672.0,-1.25,0.0,-152.0,0.0,0.0,-999.75,2.5,3.0,3.0
11:25:29,9420.0,RTL,0.0015913845272734761,0.0032135125948116183,0.49273429811000824,0.0001670479541644454,0.0009862873703241348,0.0008634717669337988,-35.3622999,149.1658782,138837.0,-1.0,0.0,-152.0,0.0,0.0,-1000.0,2.0,3.0,2.5
11:25:31,258241.0,RTL,0.0012470149085856974,0.0033392399782314897,0.49309928715229034,0.0012694851029664278,-0.0002213803236372769,-0.0002580725122243166,-35.3622998,149.1658782,141951.0,-1.0,0.0,-152.0,0.0,0.0,-999.5,3.5,2.0,1.5
11:25:33,258241.0,RTL,0.002284108428284526,0.003109807032160461,0.49373169243335724,-0.0020996000966988504,-0.0009102063486352563,0.0013195500941947103,-35.3622998,149.1658782,145054.0,-2.0,0.0,-152.0,0.0,0.0,-1000.0,0.0,1.0,3.0
11:25:34,188284.0,RTL,0.0017401384538970888,0.0034235420171171427,0.49386799335479736,0.00041770184179767966,0.0012034215033054352,0.0010106756817549467,-35.3622998,149.1658782,146994.75,-2.0,0.0,-152.0,0.0,0.0,-1000.0,2.75,3.5,2.75
11:25:35,188284.0,RTL,0.0015820106491446495,0.0034289631294086576,0.4940371662378311,0.0009961684700101614,0.00011968298349529505,0.0003744346322491765,-35.3622998,149.1658782,148159.5,-2.0,0.0,-152.0,0.0,0.0,-999.5,3.0,2.5,2.0
11:25:37,66619.0,RTL,0.0015294987824745476,0.003746027476154268,0.49493975937366486,-0.00040411297231912613,-0.00039330526487901807,0.002396748634055257,-35.3622998,149.1658782,151275.0,-2.0,0.0,-152.0,0.0,0.0,-1000.0,1.5,1.5,4.0
11:25:39,66619.0,RTL,0.0016815756680443883,0.0033669263357296586,0.49497203528881073,0.0005964536685496569,0.0001046340330503881,0.001288392348214984,-35.3622998,149.1658782,154383.0,-2.0,0.0,-152.0,0.0,0.0,-1000.0,2.5,2.5,3.0
11:25:40,215382.0,RTL,0.0015607020759489387,0.003314689267426729,0.4951138570904732,0.0008234746055677533,-0.00031364327878691256,0.0009825195011217147,-35.3622998,149.1658782,156322.75,-2.0,0.0,-152.0,0.0,0.0,-1000.25,3.0,1.5,2.75
11:25:41,215382.0,RTL,0.0013617699733003974,0.0035607152385637164,0.49516771733760834,7.9105026088655e-05,0.0016701833810657263,0.000713711604475975,-35.3622998,149.1658782,157488.0,-2.0,0.0,-152.0,0.0,0.0,-999.5,2.0,4.0,2.5
11:25:43,273246.0,RTL,0.0013204793795011938,0.002978736301884055,0.495424285531044,0.002035596175119281,3.813114017248154e-05,0.0008077174425125122,-35.3622999,149.1658782,160594.0,-1.0,0.0,-152.0,0.0,0.0,-1000.0,4.0,2.0,3.0
11:25:45,273246.0,RTL,0.001857337192632258,0.0030565783381462097,0.49559885263442993,-0.0010811664396896958,0.0003443250898271799,-0.0007933644810691476,-35.3622999,149.1658782,163704.0,-1.0,0.0,-152.0,0.0,0.0,-1000.0,1.5,2.5,1.5
11:25:46,27781.0,RTL,0.0018637414323166013,0.0034390437649562955,0.4954816475510597,0.00013508601114153862,0.0005438270454760641,0.000713455694494769,-35.3622999,149.1658782,165641.25,-1.0,0.0,-152.0,0.0,0.0,-1000.0,2.5,2.75,2.25
11:25:47,27781.0,RTL,0.001898155955132097,0.003625818295404315,0.49563322961330414,-1.4262157492339611e-05,-0.0004555413033813238,0.0010468107648193836,-35.3622999,149.1658782,166806.0,-2.0,0.0,-152.0,0.0,0.0,-1000.0,2.5,2.0,3.0
11:25:49,101252.0,RTL,0.0016135312616825104,0.003311982029117644,0.49569477140903473,-0.0004316541599109769,-0.0013828979572281241,0.0018642351496964693,-35.3622999,149.1658782,169913.0,-2.0,0.0,-152.0,0.0,0.0,-1000.0,1.5,1.0,4.0
11:25:51,101252.0,RTL,0.0017026981804519892,0.0033547795610502362,0.4955739974975586,0.0004668378969654441,-1.79596827365458e-05,0.0005413178587332368,-35.3622999,149.1658782,173023.5,-2.0,0.0,-152.0,0.0,0.0,-999.5,3.0,2.0,2.5
11:25:52,15753.0,RTL,0.0015386116283480078,0.0033745099208317697,0.49569886177778244,0.0005237244185991585,0.00011778576299548149,0.0015979735180735588,-35.3622999,149.1658782,174964.75,-2.0,0.0,-152.0,0.0,0.0,-999.75,3.0,2.5,3.75
11:25:53,15753.0,RTL,0.0014715883298777044,0.00355893571395427,0.4961622953414917,0.00039020320400595665,0.001385413226671517,0.0031102244975045323,-35.3622999,149.1658782,176129.5,-2.0,0.0,-152.0,0.0,0.0,-999.5,3.0,3.5,5.0
11:25:55,68915.0,RTL,0.0008280180627480149,0.00280274439137429,0.49630308151245117,-0.00046718615340068936,-0.001137652900069952,-0.0014109924086369574,-35.3622999,149.1658782,179243.5,-1.5,0.0,-152.0,0.0,0.0,-1000.0,2.0,1.0,0.5
11:25:57,68915.0,RTL,0.002069690963253379,0.0029914440819993615,0.49624550342559814,-7.018726319074631e-05,0.00043101212941110134,0.002222566748969257,-35.3622999,149.1658782,182350.0,-1.0,0.0,-152.0,0.0,0.0,-1000.0,2.5,3.0,4.0
11:25:58,63073.0,RTL,0.001700925116892904,0.00317937828367576,0.49650462716817856,-0.00031830271473154426,0.0006286413408815861,0.0004283023008611053,-35.3622999,149.165878125,184291.75,-1.0,0.0,-152.0,0.0,0.0,-1000.0,1.75,3.25,2.5
11:25:59,63073.0,RTL,0.0014234164264053106,0.003410882316529751,0.4962368458509445,-0.0004208553582429886,-0.0002383014652878046,0.0011078646639361978,-35.3622999,149.1658781,185457.0,-1.0,0.0,-152.0,0.0,0.0,-1000.0,2.0,2.0,3.5
11:26:01,188374.0,RTL,0.0017223366885446012,0.0032482449896633625,0.4963825196027756,0.0009038080461323261,0.0012102583423256874,-0.00038828892866149545,-35.3622999,149.1658781,188563.0,-2.0,0.0,-152.0,0.0,0.0,-1000.0,3.0,4.0,2.0
11:26:03,188374.0,RTL,0.001595547015313059,0.003404745366424322,0.49629130959510803,-0.0007474988815374672,-0.0014119995757937431,0.0018280070507898927,-35.3622999,149.1658781,191674.5,-2.0,0.0,-152.0,0.0,0.0,-1000.0,1.5,1.0,3.5
11:26:04,62339.0,RTL,0.0009061203891178593,0.0036548629868775606,0.4962998405098915,-0.0008825734257698059,0.00125502934679389,0.0011296275188215077,-35.3622999,149.165878175,193612.25,-2.0,0.0,-152.0,0.0,0.0,-999.75,2.0,3.75,3.5
11:26:05,62339.0,RTL,0.0010899713379330933,0.0036745606921613216,0.49623604118824005,0.0015682900557294488,-0.0011763042421080172,0.0001651449711062014,-35.3622999,149.1658782,194780.5,-2.0,0.0,-152.0,0.0,0.0,-1000.5,4.0,1.5,2.0
11:26:07,172795.0,RTL,0.0015701201045885682,0.0025314221857115626,0.49608661234378815,0.0008390714647248387,-0.002080396516248584,0.001416264334693551,-35.3622999,149.1658782,197883.0,-2.0,0.0,-152.0,0.0,0.0,-999.5,3.5,0.0,3.5
11:26:09,172795.0,RTL,0.0016286084428429604,0.0033128487411886454,0.4965631067752838,-0.003874545800499618,0.0005503366701304913,0.0004864387447014451,-35.3622999,149.1658782,200989.5,-1.0,0.0,-152.0,0.0,0.0,-999.5,0.0,3.0,3.0
11:26:10,278627.0,RTL,0.0016660094552207738,0.0030806149006821215,0.49699822068214417,0.00032950338209047914,-0.0005069726030342281,0.0012137258891016245,-35.3622999,149.1658782,202932.5,-1.0,0.0,-152.0,0.0,0.0,-1000.0,2.75,2.25,3.25
11:26:11,278627.0,RTL,0.0016951547586359084,0.0031066436786204576,0.49685871601104736,-0.0007861339254304767,0.0004346307832747698,0.0007123469840735197,-35.3622999,149.1658782,204099.5,-1.0,0.0,-152.0,0.0,0.0,-1000.0,1.5,3.0,2.5
11:26:13,6979.0,RTL,0.0018156977603212,0.0037114100996404886,0.49684053659439087,0.00029000587528571486,-0.0001309781800955534,0.0011881412356160581,-35.3622999,149.1658782,207206.0,-2.0,0.0,-152.0,0.0,0.0,-999.5,3.0,2.5,4.0
11:26:15,6979.0,RTL,0.0015000940184108913,0.0032393281580880284,0.49677932262420654,0.0016453441930934787,-0.00026522891130298376,0.0007409584941342473,-35.3622999,149.1658782,210320.0,-2.0,0.0,-152.0,0.0,0.0,-1001.0,4.5,2.5,3.5
11:26:16,237516.0,RTL,0.0009877039556158707,0.0036802261602133512,0.4965294748544693,0.0016711365897208452,0.0006177054601721466,1.4989462215453386e-05,-35.3622999,149.1658782,212253.0,-2.0,0.0,-152.0,0.0,0.0,-1000.5,4.25,3.75,2.5
11:26:17,237516.0,RTL,0.001163010485470295,0.00343395525123924,0.496645450592041,-0.0014680749736726284,-0.0007720260182395577,-0.000310354633256793,-35.3622999,149.1658782,213422.0,-2.0,0.0,-152.0,0.0,0.0,-1000.0,1.5,2.0,2.5
11:26:19,52776.0,RTL,0.0019806325435638428,0.00245933816768229,0.49671295285224915,0.0005784049280919135,0.000712753739207983,0.001272676745429635,-35.3622999,149.1658782,216532.0,-1.5,0.0,-152.0,0.0,0.0,-1000.0,3.5,3.5,3.5
11:26:21,52776.0,RTL,0.0015624966472387314,0.0032381489872932434,0.4966280460357666,0.0003774593351408839,-0.00040305033326148987,0.00012188334949314594,-35.3622999,149.1658782,219638.0,-1.0,0.0,-152.0,0.0,0.0,-1000.5,3.5,2.5,2.5
11:26:22,289415.0,RTL,0.0017219356377609074,0.00314738234737888,0.496403269469738,0.0005869989399798214,0.00044485804392024875,0.0006909376825205982,-35.3622999,149.1658782,221580.75,-1.0,0.0,-152.0,0.0,0.0,-1000.0,3.25,3.25,3.25
11:26:23,289415.0,RTL,0.0017392424051649868,0.0030855339718982577,0.4964968115091324,-0.0016948861302807927,-0.00018721376545727253,0.00047053268644958735,-35.3622999,149.1658782,222749.0,-1.0,0.0,-152.0,0.0,0.0,-999.5,2.0,3.0,2.5
11:26:25,113503.0,RTL,0.0018818281823769212,0.0035584878642112017,0.49649642407894135,0.00035800354089587927,-0.0006434132810682058,0.00030687067192047834,-35.3622999,149.1658782,225852.5,-2.0,0.0,-152.0,0.0,0.0,-1000.0,3.5,2.0,2.5
11:26:27,113503.0,RTL,0.0012205453822389245,0.00359692785423249,0.4971141070127487,-0.0002627300564199686,0.0008116377284750342,-0.00039372488390654325,-35.3622999,149.1658782,228958.0,-2.0,0.0,-152.0,0.0,0.0,-1000.0,2.5,4.0,2.0
11:26:28,6333.0,RTL,0.0011885109852300957,0.0035628838813863695,0.49701063334941864,0.000569424475543201,0.00010749406646937132,0.0005792852025479078,-35.3622999,149.1658782,230902.25,-2.0,0.0,-152.0,0.0,0.0,-999.75,3.5,3.0,3.25
11:26:29,6333.0,RTL,0.0012956576538272202,0.00320725014898926,0.4969538748264313,0.001103877555578947,-0.0010356393177062273,0.000479638809338212,-35.3622999,149.1658782,232068.5,-2.0,0.0,-152.0,0.0,0.0,-1000.5,4.0,2.0,3.5
11:26:31,260345.0,RTL,0.0016912203864194453,0.0028611841844394803,0.4969111829996109,-0.0013180144596844912,0.0001790318638086319,-0.0008206234779208899,-35.3622999,149.1658782,235174.0,-2.0,0.0,-152.0,0.0,0.0,-1000.0,1.5,3.5,2.0
11:26:33,260345.0,RTL,0.0015629494446329772,0.003189445356838405,0.49667561054229736,-0.00010233826469630003,0.00019807182252407074,0.0001313464599661529,-35.3622999,149.1658782,238289.0,-1.0,0.0,-152.0,0.0,0.0,-1000.5,2.5,3.5,2.5
11:26:34,20708.0,RTL,0.0016209697059821337,0.003142391098663211,0.49668506532907486,0.00017876195488497615,-3.44511354342103e-05,4.797586007043719e-05,-35.3622999,149.1658782,240224.25,-1.0,0.0,-152.0,0.0,0.0,-999.75,3.0,3.0,2.5
11:26:35,20708.0,RTL,0.00169894949067384,0.0032295887358486652,0.4967474788427353,2.1600048057734966e-05,0.000312304706312716,-0.00015758746303617954,-35.3622999,149.1658782,241395.5,-1.0,0.0,-152.0,0.0,0.0,-1000.5,3.0,3.0,2.5
11:26:37,288007.0,RTL,0.0015529032098129392,0.0037505539366975427,0.49651405215263367,-0.0024708129931241274,-0.0003506032517179847,-0.000654843170195818,-35.3622999,149.1658782,244495.0,-2.0,0.0,-152.0,0.0,0.0,-999.5,1.0,2.5,2.0
11:26:39,288007.0,RTL,0.0013796149869449437,0.0034135945606976748,0.49651381373405457,0.002330277464352548,0.0005763261578977108,0.00210827705450356,-35.3622999,149.1658782,247608.0,-2.0,0.0,-152.0,0.0,0.0,-1000.0,5.5,3.5,4.5
11:26:40,154372.0,RTL,0.0019443720229901373,0.0029123389977030456,0.4963124096393585,0.0005078017129562795,-0.0005730252014473081,0.00024163146736100316,-35.3622999,149.1658782,249549.75,-2.0,0.0,-152.0,0.0,0.0,-999.75,4.0,2.75,3.0
11:26:41,154372.0,RTL,0.002080452279187739,0.0031876189168542624,0.49641527235507965,-0.001278355368413031,0.00020410236902534962,-0.0004430072149261832,-35.3622999,149.1658782,250714.5,-2.0,0.0,-152.0,0.0,0.0,-1000.0,2.0,3.0,2.5
11:26:43,754.0,RTL,0.0014902417315170169,0.002654404379427433,0.49709509313106537,0.001153168617747724,-0.00042412395123392344,0.0002749684499576688,-35.3622999,149.1658782,253824.5,-2.0,0.0,-152.0,0.0,0.0,-1000.5,4.0,3.0,3.5
11:26:45,754.0,RTL,0.0017210919759236276,0.0032568423775956035,0.49703168869018555,0.0011036916403099895,0.001147054834291339,0.00018818071112036705,-35.3622999,149.1658782,256929.5,-1.0,0.0,-152.0,0.0,0.0,-1000.0,4.0,4.5,3.0
11:26:46,35214.0,RTL,0.0015876528050284833,0.0031827649800106883,0.4967438206076622,0.0009055936243385077,0.0003325987490825355,0.0017517535598017275,-35.3622999,149.1658782,258868.75,-1.0,0.0,-152.0,0.0,0.0,-999.75,4.0,3.25,4.5
11:26:47,35214.0,RTL,0.001704038179013878,0.003006119281053543,0.49676869809627533,0.001356951193884015,0.0011732588754966855,0.0007889673579484224,-35.3622999,149.1658782,260034.0,-1.0,0.0,-152.0,0.0,0.0,-1000.0,4.5,4.0,3.5
11:26:49,64639.0,RTL,0.0017336037126369774,0.0035453224554657936,0.49667514860630035,-0.0006006860639899969,6.56970078125596e-05,0.0004500412615016103,-35.3622999,149.1658782,263140.0,-2.0,0.0,-152.0,0.0,0.0,-1000.0,2.5,3.5,3.5
11:26:51,64639.0,RTL,0.0008470699831377715,0.003725222544744611,0.4968720078468323,-0.0011425571865402162,-0.00038050429429858923,-6.453716196119785e-06,-35.3622999,149.1658782,266250.0,-2.0,0.0,-152.0,0.0,0.0,-999.5,2.0,2.5,2.5
11:26:52,17508.0,RTL,0.0012271847517695278,0.003341668867506087,0.4967552125453949,0.0020559796830639243,-0.0002578652638476342,0.0009940093732438982,-35.3622999,149.1658782,268192.0,-2.0,0.0,-152.0,0.0,0.0,-999.75,5.5,3.5,4.25
11:26:53,17508.0,RTL,0.0013772528618574142,0.0033429895993322134,0.49651867151260376,0.0013223063433542848,0.0013678038958460093,-0.0004510683356784284,-35.3622999,149.1658782,269356.5,-2.0,0.0,-152.0,0.0,0.0,-999.5,4.5,5.0,2.5
11:26:55,288521.0,RTL,0.0016028048121370375,0.0027819471433758736,0.4964706003665924,-0.0006576655432581902,-0.0002610067604109645,0.0002719326876103878,-35.3622999,149.1658782,272472.5,-1.5,0.0,-152.0,0.0,0.0,-1000.0,2.5,3.0,3.0
11:26:57,288521.0,RTL,0.0016988725983537734,0.003162901964969933,0.496767520904541,0.0003315644571557641,0.0008417596109211445,-0.00020695023704320192,-35.3622999,149.1658782,275579.5,-1.0,0.0,-152.0,0.0,0.0,-1000.0,3.5,4.0,3.0
11:26:58,18085.0,RTL,0.0015939747099764645,0.0032682133023627102,0.49733392149209976,0.0005853043985553086,-0.0012474367977119982,0.0005636148853227496,-35.3622999,149.1658782,277520.0,-1.0,0.0,-152.0,0.0,0.0,-1000.0,4.0,2.0,3.5
11:26:59,18085.0,RTL,0.001739408471621573,0.002967484062537551,0.4972195476293564,0.0013811135431751609,0.0006059643346816301,0.001850881497375667,-35.3622999,149.1658782,278685.0,-1.0,0.0,-152.0,0.0,0.0,-1000.0,4.5,4.0,4.5
11:27:01,177272.0,RTL,0.001923436764627695,0.00363987497985363,0.4968252331018448,0.0020168498158454895,0.00028074311558157206,0.0005807653069496155,-35.3622999,149.1658782,281791.0,-2.0,0.0,-152.0,0.0,0.0,-1000.5,5.0,3.5,3.5
11:27:03,177272.0,RTL,0.0015847530448809266,0.0033605387434363365,0.4969417303800583,-0.00018834718503057957,-0.0006170644192025065,0.0011513216886669397,-35.3622999,149.1658782,284902.0,-2.0,0.0,-152.0,0.0,0.0,-1000.0,3.5,3.0,4.0
11:27:04,133921.0,RTL,0.0009047038038261235,0.0036710624117404222,0.4966830015182495,0.0004483548691496253,0.0011263369233347476,0.0017112147761508822,-35.3622999,149.1658782,286840.0,-2.0,0.0,-152.0,0.0,0.0,-999.5,3.75,4.75,4.75
11:27:05,133921.0,RTL,0.0011145950993523002,0.003514980082400143,0.49694855511188507,0.0020902585238218307,0.00022549135610461235,0.0005681541515514255,-35.3622999,149.1658782,288008.0,-2.0,0.0,-152.0,0.0,0.0,-1000.0,5.5,3.5,3.5
11:27:07,186425.0,RTL,0.0019456282025203109,0.0023784147342666984,0.49658071994781494,0.0008464353159070015,-0.001017485512420535,0.0011161050060763955,-35.3622999,149.1658782,291270.0,-1.5,0.0,-152.0,0.0,0.0,-1000.5,4.5,3.0,4.0
11:27:09,186425.0,RTL,0.0016003464697860181,0.003246017498895526,0.49636201560497284,-0.0007608181331306696,9.094527922570705e-05,-0.0005551633657887578,-35.3622999,149.1658782,294378.5,-1.0,0.0,-152.0,0.0,0.0,-1000.0,2.5,4.0,2.5
11:27:10,228959.0,RTL,0.0016865381330717355,0.0030839137034490705,0.4966140389442444,0.00024385529104620218,5.617935676127672e-05,0.0007686404278501868,-35.3622999,149.1658782,296317.25,-1.0,0.0,-152.0,0.0,0.0,-1000.0,3.75,3.75,4.0
11:27:11,228959.0,RTL,0.0017458368674851954,0.003322125878185034,0.49667488038539886,9.643309749662876e-05,-0.00032375333830714226,-0.0008511682972311974,-35.3622999,149.1658782,297484.0,-1.0,0.0,-152.0,0.0,0.0,-1000.0,3.5,3.5,2.0
11:27:13,119147.0,RTL,0.0019016471924260259,0.0035656008403748274,0.4965740293264389,-0.0007589290617033839,-0.0008537927642464638,0.0015955009730532765,-35.3622999,149.1658782,300589.0,-2.0,0.0,-152.0,0.0,0.0,-999.5,2.5,3.0,5.0
11:27:15,119147.0,RTL,0.0017293450655415654,0.003171760472469032,0.4972621500492096,0.00011772266589105129,-0.0009402292780578136,0.00143646530341357,-35.3622999,149.1658782,303696.5,-2.0,0.0,-152.0,0.0,0.0,-1000.0,3.5,2.5,4.5
11:27:16,149323.0,RTL,0.0009044330508913845,0.003694238781463355,0.49701397120952606,-0.0005552618531510234,0.0005037630908191204,-0.00036578369326889515,-35.3622999,149.1658782,305640.0,-2.0,0.0,-152.0,0.0,0.0,-999.75,3.25,4.0,2.75
11:27:17,149323.0,RTL,0.0010324267786927521,0.0033667777897790074,0.497054785490036,0.0016336761182174087,-0.0006524263881146908,0.0002435748465359211,-35.3622999,149.1658782,306807.0,-2.0,0.0,-152.0,0.0,0.0,-1000.5,5.0,3.0,3.0
11:27:19,210054.0,RTL,0.0018669965211302042,0.002409399952739477,0.4970756620168686,0.000254523241892457,0.0003934295382350683,0.0007419043686240911,-35.3622999,149.1658782,309912.5,-1.0,0.0,-152.0,0.0,0.0,-1000.0,3.5,4.0,4.0
11:27:21,210054.0,RTL,0.0014851751814906795,0.003163640620186925,0.4967307249704997,0.0006467493561406931,-2.9399835815032322e-05,0.00019220542162656784,-35.3622999,149.1658782,312832.6666666667,-1.0,0.0,-152.0,0.0,0.0,-1000.3333333333334,4.333333333333333,4.0,3.6666666666666665
11:27:22,243365.0,RTL,0.0012714341573882848,0.0028900213656015694,0.4968723803758621,0.00024018267868086696,2.5290704797953367e-05,0.0004681380814872682,-35.3622999,149.1658782,314959.75,-1.0,0.0,-152.0,0.0,0.0,-999.75,3.75,3.75,3.75
11:27:23,243365.0,RTL,0.0007482925429940224,0.002166560268960893,0.49686969816684723,-0.0002940702252089977,-0.00023655500262975693,-0.00014225707855075598,-35.3622999,149.1658782,316132.0,-1.0,0.0,-152.0,0.0,0.0,-1000.0,3.0,3.5,3.5
11:27:25,50788.0,RTL,0.0005821132896623263,0.002768722828477621,0.49674443403879803,-0.0005803294479846954,0.00013325115044911703,0.00025997838626305264,-35.3623,149.1658782,319043.6666666667,0.0,0.0,-152.0,0.0,0.0,-999.6666666666666,3.0,3.6666666666666665,4.0
11:27:27,50788.0,RTL,0.0006091869436204433,0.002315712859854102,0.49675919612248737,-0.00016135233454406261,0.00033216667361557484,0.0012367138794312875,-35.3623,149.1658782,322151.0,0.0,0.0,-152.0,0.0,0.0,-999.6666666666666,3.6666666666666665,4.0,5.0
11:27:28,201623.0,RTL,0.0004436951324654122,0.0025248859698573747,0.4965580801169078,-0.0012378878891468048,-0.00017634142811099687,-0.00040078279562294483,-35.3623,149.1658782,324092.0,0.0,0.0,-152.0,0.0,0.0,-1000.0,3.0,3.3333333333333335,3.0
11:27:29,201623.0,RTL,0.00042676468729041517,0.0024516318614284196,0.4964224497477214,0.0003220432748397191,-0.00039140484295785427,-0.0004002039010326068,-35.3623,149.1658782,325256.3333333333,0.0,0.0,-152.0,0.0,0.0,-999.6666666666666,4.333333333333333,3.6666666666666665,3.3333333333333335
11:27:31,35151.0,RTL,0.0009597766329534352,0.0014813392190262675,0.49755150079727173,2.9660373305281002e-05,-0.00035545943925778073,0.00022608934280773005,-35.362300033333334,149.1658782,328366.6666666667,0.0,0.0,-152.0,0.0,0.0,-1000.0,3.6666666666666665,3.3333333333333335,3.6666666666666665
11:27:33,35151.0,RTL,-0.00037370181720082957,0.001914256679204603,0.49707841873168945,-0.0010090080710748832,-8.82496436436971e-05,-0.0008915941386173168,-35.3623001,149.1658782,331469.6666666667,0.0,0.0,-152.0,0.0,0.0,-1000.3333333333334,2.6666666666666665,3.6666666666666665,2.6666666666666665
11:27:34,209805.0,RTL,-0.0002601179100262622,0.002024206410472592,0.49697499473889667,1.0420878728230795e-05,-2.8875423595309258e-05,-0.0006746551177153984,-35.3623001,149.1658782,333409.3333333333,0.0,0.0,-152.0,0.0,0.0,-999.6666666666666,3.6666666666666665,3.6666666666666665,3.0
11:27:35,209805.0,RTL,-7.598429692734499e-05,0.0020802574387441077,0.49697980284690857,0.0008301167593648037,0.0012531049239138763,0.0006928984075784683,-35.3623001,149.1658783,334575.3333333333,0.0,0.0,-152.0,0.0,0.0,-999.6666666666666,4.333333333333333,5.0,4.333333333333333
11:27:37,57311.0,RTL,7.210702453145738e-05,0.0017090709103892248,0.496988445520401,0.0005717440508306026,-0.0007102500336865584,-0.000776761444285512,-35.3623001,149.1658783,337688.3333333333,0.0,0.0,-152.0,0.0,0.0,-1000.6666666666666,4.0,3.0,2.6666666666666665
11:27:39,57311.0,RTL,8.407073376777892e-05,0.0015584776410833001,0.49671680728594464,-0.0002072630450129509,0.0004859059117734432,0.0009653334661076466,-35.3623001,149.1658783,340793.0,0.0,0.0,-152.0,0.0,0.0,-1000.0,3.3333333333333335,4.0,4.333333333333333
11:27:40,65717.0,RTL,0.00014821558822101602,0.0014629557263106108,0.4967481295267741,0.0005283599408964316,-0.0005027537699788809,-9.059789590537548e-05,-35.3623001,149.1658783,342734.6666666667,0.0,0.0,-152.0,0.0,0.0,-1000.0,4.0,3.0,3.3333333333333335
11:27:41,65717.0,RTL,0.0005650596382717291,0.000932416005525738,0.49659255146980286,0.0008292739124347767,-0.0006701160843173662,0.0019577951170504093,-35.3623001,149.1658782,343898.6666666667,0.6666666666666666,0.0,-152.0,0.0,0.0,-999.6666666666666,4.666666666666667,3.0,5.666666666666667
11:27:43,122578.0,RTL,-0.000515054794959724,0.0019084784823159378,0.4966566363970439,0.0006628166108081738,0.0009899623692035675,0.001162885610635082,-35.3623002,149.1658782,347011.3333333333,1.0,0.0,-152.0,0.0,0.0,-999.6666666666666,4.333333333333333,4.333333333333333,4.666666666666667
11:27:45,122578.0,RTL,-0.0003607177738255511,0.0015160460025072098,0.4965930183728536,-0.0001916967642803987,-0.0005464029187957445,5.050639932354291e-06,-35.3623002,149.1658783,350120.3333333333,1.0,0.0,-152.0,0.0,0.0,-999.6666666666666,3.3333333333333335,3.0,3.6666666666666665
11:27:46,51755.0,RTL,-0.00043813248339574784,0.0014184272925679882,0.49711225430170697,0.00045881420373916626,-9.729511414964993e-05,0.0015143766067922115,-35.3623002,149.1658783,352058.6666666667,1.0,0.0,-152.0,0.0,0.0,-1000.0,4.0,3.6666666666666665,5.0
11:27:47,51755.0,RTL,-0.00017517737554347454,0.0014593909727409482,0.49726203083992004,-4.551404466231664e-05,-5.284192351003488e-05,-0.0002250402079274257,-35.3623002,149.1658783,353223.6666666667,1.0,0.0,-152.0,0.0,0.0,-1000.0,3.3333333333333335,3.3333333333333335,3.0
11:27:49,42471.0,RTL,-3.759015574663257e-05,0.0014631338029478986,0.4970496396223704,-1.12004733333985e-05,-0.0005042826912055413,-0.00012157120121022065,-35.3623002,149.1658783,356330.0,1.0,0.0,-152.0,0.0,0.0,-1000.0,3.3333333333333335,3.3333333333333335,3.6666666666666665
11:27:51,42471.0,RTL,-0.00019137493897384653,0.0013322948555772502,0.4968791902065277,0.00021701989074548086,-0.0005127519834786654,-0.00023315303648511568,-35.3623002,149.1658783,359439.6666666667,1.0,0.0,-152.0,0.0,0.0,-1000.0,3.6666666666666665,3.0,3.3333333333333335
11:27:52,257509.0,RTL,0.00011730054393410683,0.0011843238802005847,0.49690298239390057,-0.0022386059475441775,-5.4760913675030075e-05,0.0009662799226740996,-35.3623002,149.16587826666668,361378.0,1.0,0.0,-152.0,0.0,0.0,-1000.0,1.3333333333333333,3.3333333333333335,4.666666666666667
11:27:53,257509.0,RTL,-0.0005728321072335044,0.0015503222045178215,0.4969200889269511,0.00035290854672590893,-4.748037705818812e-05,-0.00013823853805661201,-35.3623002,149.1658783,362546.0,1.0,0.0,-152.0,0.0,0.0,-1000.0,4.0,3.6666666666666665,3.3333333333333335
11:27:55,126354.0,RTL,-0.0002735772674592833,0.001317086551959316,0.49678531289100647,-0.0010050965162614982,-0.00014510580028096834,-0.0006240802661826214,-35.3623002,149.1658783,365648.6666666667,1.0,0.0,-152.0,0.0,0.0,-999.6666666666666,2.3333333333333335,3.3333333333333335,3.0
11:27:57,126354.0,RTL,-0.0006137867264139155,0.0007286024823163947,0.4967907965183258,0.00040580596153934795,-8.191222635408242e-05,-0.0008306863407293955,-35.3623002,149.1658783,368767.6666666667,1.0,0.0,-152.0,0.0,0.0,-999.6666666666666,4.0,3.6666666666666665,2.6666666666666665
11:27:58,13750.0,RTL,-0.0002332066990978395,0.001229211959677438,0.49678118030230206,-0.0003897012211382389,-0.0003690260152022044,-3.721611574292183e-05,-35.3623002,149.1658783,370701.3333333333,1.0,0.0,-152.0,0.0,0.0,-1000.0,3.0,3.3333333333333335,3.3333333333333335
11:27:59,13750.0,RTL,-0.0003732078572890411,0.0010458934896936019,0.49685200055440265,-0.001096464383105437,-0.00046405335888266563,-0.0003586688544601202,-35.3623002,149.1658783,371869.3333333333,1.0,0.0,-152.0,0.0,0.0,-999.6666666666666,2.3333333333333335,3.0,3.0
11:28:01,171593.0,RTL,-0.00022355724164905647,0.0011461151686186593,0.49652258555094403,-0.0003585465407619874,-0.0007371359970420599,-0.00013172393664717674,-35.3623002,149.1658783,374973.3333333333,1.0,0.0,-152.0,0.0,0.0,-1000.0,3.0,2.6666666666666665,3.3333333333333335
11:28:03,171593.0,RTL,-0.00038584294573714334,0.0014463401942824323,0.49742268522580463,6.603426299989223e-05,0.00028219236992299557,-0.00021362056334813437,-35.3623002,149.1658783,378088.0,1.0,0.0,-152.0,0.0,0.0,-999.3333333333334,3.6666666666666665,3.6666666666666665,3.6666666666666665
11:28:04,25494.0,RTL,-8.285668930814911e-05,0.0013383927289396524,0.49748292565345764,-0.0011781503756841023,-0.0014542678836733103,0.001221061994632085,-35.3623002,149.1658783,380031.0,1.0,0.0,-152.0,0.0,0.0,-1000.0,2.3333333333333335,1.6666666666666667,5.0
11:28:05,25494.0,RTL,-0.00025913027639035136,0.0014080197627966602,0.4973654548327128,-0.0007221090296904246,-8.19105189293623e-05,-0.0007391147470722595,-35.3623002,149.1658783,381198.3333333333,1.0,0.0,-152.0,0.0,0.0,-1000.0,2.3333333333333335,3.0,3.0
11:28:07,218386.0,RTL,-0.00028918240665613365,0.0011169639959310491,0.4971372087796529,0.00017889511461059252,-0.0004610476704935233,-0.0005004239113380512,-35.3623002,149.1658783,384302.0,1.0,0.0,-152.0,0.0,0.0,-999.6666666666666,3.3333333333333335,3.0,3.0
11:28:09,218386.0,RTL,-0.00046377449568050605,0.0009437445163105925,0.4970337748527527,0.0008252597569177548,0.00029584757673243683,0.0010286543207863967,-35.3623002,149.1658783,387406.6666666667,1.6666666666666667,0.0,-152.0,0.0,0.0,-999.6666666666666,4.0,4.0,4.333333333333333
11:28:10,94473.0,RTL,-0.00030542070938584703,0.0010418387052292626,0.4970431129137675,-0.00018542236648499966,-0.00023886770941317081,-0.0012714155794431765,-35.3623002,149.1658783,389348.6666666667,2.0,0.0,-152.0,0.0,0.0,-999.6666666666666,3.3333333333333335,3.0,2.3333333333333335
11:28:11,94473.0,RTL,-0.0004270364297553897,0.0010946025140583515,0.49670780698458356,0.0004283951905866464,-0.0004898644207666317,9.707602051397164e-05,-35.3623002,149.1658783,390512.3333333333,1.3333333333333333,0.0,-152.0,0.0,0.0,-1000.0,3.6666666666666665,2.6666666666666665,3.6666666666666665
11:28:13,171255.0,RTL,-0.00035049766302108765,0.000981370685622096,0.4967966477076213,-0.002435235888697207,-0.001029245477790634,-0.001116971019655466,-35.3623002,149.1658783,393622.6666666667,1.3333333333333333,0.0,-152.0,0.0,0.0,-1000.0,0.6666666666666666,2.3333333333333335,2.6666666666666665
11:28:15,171255.0,RTL,-0.0003793777820343773,0.001027952724446853,0.4967420995235443,-0.00035211234353482723,-0.000710139594351252,-0.0011896447589000065,-35.3623002,149.1658783,396728.6666666667,1.6666666666666667,0.0,-152.0,0.0,0.0,-1000.3333333333334,2.6666666666666665,2.6666666666666665,2.3333333333333335
11:28:16,72222.0,RTL,-0.00031516528300320107,0.0010882422405605514,0.4968324999014537,-8.5514426852266e-05,0.00012584527333577475,0.0004072312731295824,-35.3623002,149.1658783,398676.6666666667,1.0,0.0,-152.0,0.0,0.0,-1000.0,3.0,3.3333333333333335,3.6666666666666665
11:28:17,72222.0,RTL,-0.00031972821307135746,0.0010056420772646864,0.4966867168744405,0.000921068557848533,-0.001304012956097722,1.9723083823919296e-06,-35.3623002,149.1658783,399844.0,1.0,0.0,-152.0,0.0,0.0,-1000.3333333333334,4.0,1.6666666666666667,3.6666666666666665
11:28:19,147729.0,RTL,-0.00020309011839951077,0.0010912211146205664,0.49740299582481384,-0.0013669286078462999,-0.00016530517799158892,-0.0019478600782652695,-35.3623002,149.1658782,402950.0,2.0,0.0,-152.0,0.0,0.0,-1000.0,2.0,3.3333333333333335,1.3333333333333333
11:28:21,147729.0,RTL,-0.0007638649937386314,0.0014484322164207697,0.4973191519578298,-0.0010198069115479786,-0.00047357077710330486,-0.001220169011503458,-35.3623002,149.1658782,406048.6666666667,1.6666666666666667,0.0,-152.0,0.0,0.0,-1000.3333333333334,2.3333333333333335,2.6666666666666665,2.0
11:28:22,25302.0,RTL,-0.0006423897187535962,0.0012132163004328806,0.49733609954516095,-0.001477324132186671,-0.0005632125151654085,-0.0016867305772999923,-35.3623002,149.1658783,407998.6666666667,1.0,0.0,-152.0,0.0,0.0,-1000.0,1.6666666666666667,3.0,2.0
11:28:23,25302.0,RTL,-0.0005803297002178928,0.0010916752895961206,0.4972180624802907,0.000565453510110577,-0.0006594744045287371,0.001099914622803529,-35.3623002,149.1658783,409163.0,1.0,0.0,-152.0,0.0,0.0,-1000.0,4.0,2.6666666666666665,5.0
11:28:25,228263.0,RTL,-0.00013046912742235386,0.0007423481632334491,0.4971073667208354,-0.0010568855796009302,-0.00016982100593547025,-0.001762601003671686,-35.3623002,149.1658783,412269.0,2.0,0.0,-152.0,0.0,0.0,-999.6666666666666,2.0,3.0,1.6666666666666667
11:28:27,228263.0,RTL,-0.0002568046390175975,0.0011401780260105927,0.49717352787653607,0.0008851677024116119,-0.0016200724833955367,0.000765278081720074,-35.3623002,149.1658783,415378.6666666667,1.6666666666666667,0.0,-152.0,0.0,0.0,-1000.3333333333334,3.6666666666666665,1.6666666666666667,4.0
11:28:28,250361.0,RTL,0.00026001087583911914,0.0006992868341815969,0.4967767496903737,0.0001780749298632145,-0.0005495256433884302,-0.0004739492821196715,-35.3623002,149.1658782,417317.0,1.6666666666666667,0.0,-152.0,0.0,0.0,-1000.0,3.3333333333333335,2.6666666666666665,2.6666666666666665
11:28:29,250361.0,RTL,-0.00010841167143856485,0.0007975760769719878,0.49683557947476703,-0.00024261240226527056,-1.3056754445036253e-05,-0.0008683217456564307,-35.3623002,149.1658782,418482.0,2.0,0.0,-152.0,0.0,0.0,-999.6666666666666,2.3333333333333335,2.6666666666666665,2.6666666666666665
11:28:31,229518.0,RTL,-0.0004941977676935494,0.001747311985430618,0.49690348903338116,8.983219352861245e-05,-0.0016665245251109202,0.00019442569464445114,-35.3623002,149.1658782,421587.0,1.0,0.0,-152.0,0.0,0.0,-1000.3333333333334,3.0,1.3333333333333333,3.3333333333333335
11:28:33,229518.0,RTL,-0.000417774843905742,0.0011411630160485704,0.4968164761861165,0.00018524122424423695,9.732553735375404e-05,-0.0005344760526592532,-35.3623002,149.1658782,424694.3333333333,1.0,0.0,-152.0,0.0,0.0,-999.6666666666666,3.0,3.0,2.6666666666666665
11:28:34,44147.0,RTL,-0.0005522208909193674,0.0009659687057137489,0.49668096502621967,-0.000721451515952746,-0.0007877846558888754,-0.00019027704062561193,-35.3623002,149.1658782,426637.0,1.6666666666666667,0.0,-152.0,0.0,0.0,-1000.0,2.3333333333333335,2.0,3.0
11:28:35,44147.0,RTL,-0.0005651668761856854,0.0011312137357890606,0.497607817252477,0.0005114433200409015,-0.0006964726683994135,0.00030608482969303924,-35.36230026666667,149.1658782,427804.0,2.0,0.0,-152.0,0.0,0.0,-1000.0,3.3333333333333335,2.6666666666666665,3.6666666666666665
11:28:37,210312.0,RTL,-0.0003171616214482735,0.0010244285222142935,0.4974907139937083,-0.0011477433145046234,-0.00028438144363462925,-0.0006487896510710319,-35.3623003,149.1658782,430910.0,2.0,0.0,-152.0,0.0,0.0,-1000.0,1.6666666666666667,2.6666666666666665,2.3333333333333335
11:28:39,210312.0,RTL,-0.000493645299381266,0.001076063218836983,0.4971536695957184,-0.0006700093702723583,-0.0003109972458332777,-0.0007350055190424124,-35.3623003,149.1658782,434024.0,1.6666666666666667,0.0,-152.0,0.0,0.0,-1000.0,2.3333333333333335,2.6666666666666665,2.6666666666666665
11:28:40,291514.0,RTL,0.00038110572495497763,0.0006173000438138843,0.4971190293629964,0.0006519845531632503,-0.001242740700642268,-8.40170153727134e-05,-35.3623003,149.1658782,435957.6666666667,1.6666666666666667,0.0,-152.0,0.0,0.0,-1000.0,3.3333333333333335,1.6666666666666667,3.0
11:28:41,291514.0,RTL,0.0002840125428823133,0.0007605756206127504,0.4971413811047872,-0.0009962774347513914,3.697761955360571e-05,-0.0014501643211891253,-35.3623003,149.1658782,437127.6666666667,2.0,0.0,-152.0,0.0,0.0,-1000.0,2.0,2.6666666666666665,1.3333333333333333
11:28:43,31027.0,RTL,-0.0008076055673882365,0.0013684910566856463,0.497053583463033,-5.392551732559999e-05,-0.00044903034965197247,-2.4990644305944443e-05,-35.3623003,149.1658782,440237.3333333333,2.0,0.0,-152.0,0.0,0.0,-1000.0,3.0,2.6666666666666665,3.3333333333333335
11:28:45,31027.0,RTL,-0.0006519176919634143,0.0010508004343137145,0.496719628572464,0.0006309856350223223,-0.0007254390511661768,-0.0004005920297155778,-35.3623003,149.1658783,443343.0,1.0,0.0,-152.0,0.0,0.0,-1000.0,3.3333333333333335,2.0,3.0
11:28:46,194718.0,RTL,-0.000483570989066114,0.0009880199407537777,0.4968846042950948,-0.0007161143391082684,-0.0008593020805468162,-0.0008435764660437902,-35.3623003,149.1658783,445286.6666666667,1.6666666666666667,0.0,-152.0,0.0,0.0,-1000.3333333333334,2.0,2.0,2.3333333333333335
11:28:47,194718.0,RTL,-0.00010143119288841262,0.000906327273696661,0.4969435433546702,-0.0005873377279688915,-0.0013489133367935817,0.0003448937398691972,-35.3623003,149.1658783,446452.6666666667,1.3333333333333333,0.0,-152.0,0.0,0.0,-1000.0,2.3333333333333335,1.6666666666666667,3.0
11:28:49,298672.0,RTL,0.00028887137887068093,0.0006960893127446374,0.49680174390474957,-0.00010985981983443101,-0.0005971256177872419,-0.0011125406405578058,-35.3623003,149.16587823333333,449558.3333333333,1.3333333333333333,0.0,-152.0,0.0,0.0,-999.6666666666666,3.0,2.0,2.0
11:28:51,298672.0,RTL,-0.0004373283979172508,0.0012253383174538612,0.49716954429944354,-0.0009966886136680841,0.0009907524411876996,0.0007294368309279283,-35.3623003,149.1658782,452661.0,2.0,0.0,-152.0,0.0,0.0,-999.3333333333334,1.6666666666666667,3.6666666666666665,3.6666666666666665
11:28:52,166986.0,RTL,-0.0006404122880970439,0.0013561426118637125,0.497294823328654,-0.0008960197446867824,-0.0001567610694716374,-0.0017644154916827877,-35.3623003,149.1658782,454602.3333333333,1.3333333333333333,0.0,-152.0,0.0,0.0,-999.3333333333334,1.6666666666666667,2.3333333333333335,1.0
11:28:53,166986.0,RTL,-0.0004953816533088684,0.0010573413067807753,0.4972623884677887,-0.0009719248240192732,-0.0011752028949558735,-0.001597613717118899,-35.3623003,149.1658782,455767.0,1.0,0.0,-152.0,0.0,0.0,-999.6666666666666,2.0,2.0,1.6666666666666667
11:28:55,159660.0,RTL,-0.0004682777701721837,0.0010742193941647808,0.4971429606278737,0.00023145228624343872,-0.00018501755160590014,-0.00013350509107112885,-35.3623003,149.1658782,458879.0,2.0,0.0,-152.0,0.0,0.0,-999.6666666666666,2.6666666666666665,2.6666666666666665,3.0
11:28:57,159660.0,RTL,-0.00017922570646078384,0.001017926474257062,0.4971592426300049,-0.0005598845115552346,0.000413200119510293,-0.0009194809632996718,-35.3623003,149.1658782,461984.0,2.0,0.0,-152.0,0.0,0.0,-999.6666666666666,2.0,3.0,2.3333333333333335
11:28:58,176597.0,RTL,-0.000378674129024148,0.0009465382900089025,0.49712056914965314,-0.0003053667799880107,-0.0005750642934193214,-0.0012095050575832527,-35.3623003,149.1658782,463925.0,1.3333333333333333,0.0,-152.0,0.0,0.0,-999.6666666666666,2.3333333333333335,2.0,1.6666666666666667
11:28:59,176597.0,RTL,-9.841148857958615e-05,0.0008238953693459431,0.4971303840478261,-0.0016568963571141164,-0.000693111370007197,-0.001167835434898734,-35.3623003,149.1658782,465090.0,2.0,0.0,-152.0,0.0,0.0,-1000.0,1.3333333333333333,2.0,2.0
11:29:01,140038.0,RTL,-0.00014757405733689666,0.000988802406936884,0.4971119463443756,-0.0014571664699663718,-0.00037232825222114724,-0.0010579744509110849,-35.3623003,149.1658782,468205.0,2.0,0.0,-152.0,0.0,0.0,-999.6666666666666,1.0,2.6666666666666665,2.0
11:29:03,140038.0,RTL,-0.000598365111121287,0.0011809334779779117,0.4967578649520874,-0.00041177876604100067,-0.0011276592655728261,-0.0016465149431799848,-35.3623003,149.1658782,471314.6666666667,2.0,0.0,-152.0,0.0,0.0,-1000.0,2.3333333333333335,1.6666666666666667,1.3333333333333333
11:29:04,61162.0,RTL,-0.000337109318934381,0.0009973261621780694,0.49657735228538513,0.0005252219270914793,-0.0006153170640269915,-0.00014583316321174303,-35.3623003,149.1658782,473253.0,2.0,0.0,-152.0,0.0,0.0,-1000.0,2.6666666666666665,2.0,3.0
11:29:05,61162.0,RTL,-0.0003324479572863008,0.0010668858497714002,0.49686487515767414,3.9934879168868065e-05,-0.00038016408992310363,0.000269476401930054,-35.3623003,149.1658782,474418.0,2.0,0.0,-152.0,0.0,0.0,-1000.0,2.6666666666666665,2.3333333333333335,3.0
11:29:07,212381.0,RTL,-0.0005254819989204407,0.0011658849349866311,0.49711955587069195,-0.0015442637571444113,1.435750164091587e-05,-0.0004984186186144749,-35.3623003,149.1658782,477523.6666666667,1.6666666666666667,0.0,-152.0,0.0,0.0,-1000.3333333333334,1.0,2.6666666666666665,2.3333333333333335
11:29:09,212381.0,RTL,-0.0007362307514995337,0.00017650044901529327,0.4974023699760437,0.0003484573680907488,0.0004155367302397887,4.659763847788175e-05,-35.3623003,149.1658782,480633.0,2.0,0.0,-152.0,0.0,0.0,-999.6666666666666,2.6666666666666665,3.0,3.0
11:29:10,208770.0,RTL,-0.0002516055695499138,0.0009641457387867073,0.4972392717997233,0.0013053352013230324,0.0004880911825845639,-0.0008398447340975205,-35.3623003,149.1658782,482571.0,2.0,0.0,-152.0,0.0,0.0,-1000.0,3.6666666666666665,3.0,2.0
11:29:11,208770.0,RTL,0.0004971330927219242,0.0014709620736539364,0.49716294805208844,0.0009243416910370191,-0.0005319846095517278,7.75630275408427e-05,-35.3623003,149.1658782,483738.6666666667,2.0,0.0,-152.0,0.0,0.0,-1000.0,3.6666666666666665,2.0,3.0
11:29:13,65906.0,RTL,-2.9199756681919098e-05,0.001319926076879104,0.4971358875433604,0.00010704214219003916,-0.0004065571508059899,-0.0006446698680520058,-35.3623003,149.1658782,486842.0,1.0,0.0,-152.0,0.0,0.0,-1000.3333333333334,2.3333333333333335,2.0,2.0
11:29:15,65906.0,RTL,-0.0006043612762975196,0.001358393191670378,0.4971715410550435,0.0004215370863676071,-0.0006330688484013081,0.0006365578932066759,-35.3623003,149.1658782,489960.0,1.0,0.0,-152.0,0.0,0.0,-999.3333333333334,2.6666666666666665,1.6666666666666667,3.3333333333333335
11:29:16,117080.0,RTL,-0.0005838696573240062,0.0007554670446552336,0.4969881474971771,0.0005243596776078144,0.00027525564655661583,-0.0020262818628301225,-35.3623003,149.1658782,491894.0,1.6666666666666667,0.0,-152.0,0.0,0.0,-1000.3333333333334,3.0,2.3333333333333335,1.0
11:29:17,117080.0,RTL,-0.0004644816896567742,0.0011058319360017776,0.4968389968077342,-0.001044227819268902,-0.0009227516905715069,-0.0008408847885827223,-35.3623003,149.1658782,493059.0,2.0,0.0,-152.0,0.0,0.0,-1000.0,1.0,1.3333333333333333,2.0
11:29:19,259206.0,RTL,-0.00041580932641712326,0.0009418365856011709,0.4967207709948222,-0.0005784305976703763,-0.0012864723103120923,-0.0005920925177633762,-35.3623003,149.1658782,496164.6666666667,2.0,0.0,-152.0,0.0,0.0,-1000.0,1.3333333333333333,1.3333333333333333,2.0
11:29:21,259206.0,RTL,-0.000486102799186483,0.0006582872592844069,0.49673759937286377,0.0003078870940953493,0.0001020249134550492,0.00012644178544481596,-35.3623003,149.1658782,499280.0,2.0,0.0,-152.0,0.0,0.0,-1000.0,2.3333333333333335,2.6666666666666665,2.6666666666666665
11:29:22,7565.0,RTL,0.0007536043024932345,0.0014140237277994554,0.49681835373242694,0.00019515775299320617,-0.0007752666715532541,-0.0007784562185406685,-35.3623003,149.1658782,501222.0,2.0,0.0,-152.0,0.0,0.0,-999.6666666666666,2.3333333333333335,1.6666666666666667,1.6666666666666667
11:29:23,7565.0,RTL,0.0006217092256216953,0.0012871259823441505,0.4970794717470805,-0.000872842773484687,-0.00035859419343372184,7.820556250711282e-05,-35.3623003,149.1658782,502390.6666666667,1.0,0.0,-152.0,0.0,0.0,-1000.3333333333334,1.0,1.6666666666666667,3.0
