time_stamp,MODE,lat,lon,relative_alt,roll,pitch,yaw,rollspeed,pitchspeed,yawspeed,xacc,yacc,zacc,xgyro,ygyro,zgyro,vx,vy,vz,RTL_ALT
11:23:03.264,STABILIZE,-35.3632621,149.1652374,0,0.0006733397603966296,0.0015928179491311312,0.027724893763661385,0.0002537730324547738,0.00028199024382047355,0.002281633671373129,0,1,-1000,0,0,0,-1,2,0,1500.0
11:23:03.465,STABILIZE,-35.3632621,149.1652374,0,0.0006733397603966296,0.0015928179491311312,0.027724893763661385,0.0002537730324547738,0.00028199024382047355,0.002281633671373129,0,1,-1000,0,0,0,-1,2,0,1500.0
11:23:03.666,STABILIZE,-35.3632621,149.1652374,0,0.0006733397603966296,0.0015928179491311312,0.027724893763661385,0.0002537730324547738,0.00028199024382047355,0.002281633671373129,0,1,-1000,0,0,0,-1,2,0,1500.0
11:23:03.867,STABILIZE,-35.3632621,149.1652374,0,0.0006733397603966296,0.0015928179491311312,0.027724893763661385,0.0002537730324547738,0.00028199024382047355,0.002281633671373129,0,1,-1000,0,0,0,-1,2,0,1500.0
11:23:04.067,STABILIZE,-35.3632621,149.1652374,0,0.0006733397603966296,0.0015928179491311312,0.027724893763661385,0.0002537730324547738,0.00028199024382047355,0.002281633671373129,0,1,-1000,0,0,0,-1,2,0,1500.0
11:23:04.268,STABILIZE,-35.3632621,149.1652374,0,0.0004710624343715608,0.00156502821482718,0.0269351527094841,0.00025296720559708774,0.00024159124586731195,0.0022275405935943127,0,1,-1000,0,0,0,-1,2,0,1500.0
11:23:04.469,STABILIZE,-35.3632621,149.1652374,0,0.0004710624343715608,0.00156502821482718,0.0269351527094841,0.00025296720559708774,0.00024159124586731195,0.0022275405935943127,0,1,-1000,0,0,0,-1,2,0,1500.0
11:23:04.669,STABILIZE,-35.3632621,149.1652374,0,0.0004710624343715608,0.00156502821482718,0.0269351527094841,0.00025296720559708774,0.00024159124586731195,0.0022275405935943127,0,1,-1000,0,0,0,-1,2,0,1500.0
11:23:04.870,STABILIZE,-35.3632621,149.1652374,0,0.0004710624343715608,0.00156502821482718,0.0269351527094841,0.00025296720559708774,0.00024159124586731195,0.0022275405935943127,0,1,-1000,0,0,0,-1,2,0,1500.0
11:23:05.071,STABILIZE,-35.3632621,149.1652374,0,0.0004710624343715608,0.00156502821482718,0.0269351527094841,0.00025296720559708774,0.00024159124586731195,0.0022275405935943127,0,1,-1000,0,0,0,-1,2,0,1500.0
11:23:05.272,STABILIZE,-35.3632621,149.1652374,0,0.0004710624343715608,0.00156502821482718,0.0269351527094841,0.00025296720559708774,0.00024159124586731195,0.0022275405935943127,0,1,-1000,0,0,0,-1,2,0,1500.0
11:23:05.473,STABILIZE,-35.3632621,149.1652374,0,0.0004710624343715608,0.00156502821482718,0.0269351527094841,0.00025296720559708774,0.00024159124586731195,0.0022275405935943127,0,1,-1000,0,0,0,-1,2,0,1500.0
11:23:05.673,STABILIZE,-35.3632621,149.1652374,0,0.0004710624343715608,0.00156502821482718,0.0269351527094841,0.00025296720559708774,0.00024159124586731195,0.0022275405935943127,0,1,-1000,0,0,0,-1,2,0,1500.0
11:23:05.874,STABILIZE,-35.3632621,149.1652374,0,0.0004710624343715608,0.00156502821482718,0.0269351527094841,0.00025296720559708774,0.00024159124586731195,0.0022275405935943127,0,1,-1000,0,0,0,-1,2,0,1500.0
11:23:06.075,STABILIZE,-35.3632621,149.1652374,0,0.0004710624343715608,0.00156502821482718,0.0269351527094841,0.00025296720559708774,0.00024159124586731195,0.0022275405935943127,0,1,-1000,0,0,0,-1,2,0,1500.0
11:23:06.276,STABILIZE,-35.3632622,149.1652375,0,0.00014465568528976291,0.0011725162621587515,0.02569499984383583,0.0002529290795791894,0.000348184461472556,0.002203730633482337,0,1,-1000,0,0,0,-1,1,-1,1500.0
11:23:06.477,STABILIZE,-35.3632622,149.1652375,0,0.00014465568528976291,0.0011725162621587515,0.02569499984383583,0.0002529290795791894,0.000348184461472556,0.002203730633482337,0,1,-1000,0,0,0,-1,1,-1,1500.0
11:23:06.678,STABILIZE,-35.3632622,149.1652375,0,0.00014465568528976291,0.0011725162621587515,0.02569499984383583,0.0002529290795791894,0.000348184461472556,0.002203730633482337,0,1,-1000,0,0,0,-1,1,-1,1500.0
11:23:06.879,STABILIZE,-35.3632622,149.1652375,0,0.00014465568528976291,0.0011725162621587515,0.02569499984383583,0.0002529290795791894,0.000348184461472556,0.002203730633482337,0,1,-1000,0,0,0,-1,1,-1,1500.0
11:23:07.080,STABILIZE,-35.3632622,149.1652375,0,-1.3663349818671122e-05,0.0010619998211041093,0.025257548317313194,0.00030212290585041046,0.00032003785599954426,0.0021380793768912554,0,1,-1000,0,0,0,-1,1,-1,1500.0
11:23:07.281,STABILIZE,-35.3632622,149.1652375,0,-7.703841401962563e-05,0.001035496941767633,0.02512124925851822,0.0003676528576761484,0.0003387897741049528,0.0019517752807587385,0,1,-1000,0,0,0,-1,2,-1,1500.0
11:23:07.482,STABILIZE,-35.3632622,149.1652375,0,-7.703841401962563e-05,0.001035496941767633,0.02512124925851822,0.0003676528576761484,0.0003387897741049528,0.0019517752807587385,0,1,-1000,0,0,0,-1,2,-1,1500.0
11:23:07.684,STABILIZE,-35.3632622,149.1652375,0,-7.703841401962563e-05,0.001035496941767633,0.02512124925851822,0.0003676528576761484,0.0003387897741049528,0.0019517752807587385,0,1,-1000,0,0,0,-1,2,-1,1500.0
11:23:07.885,STABILIZE,-35.3632622,149.1652375,0,-7.703841401962563e-05,0.001035496941767633,0.02512124925851822,0.0003676528576761484,0.0003387897741049528,0.0019517752807587385,0,1,-1000,0,0,0,-1,2,-1,1500.0
11:23:08.086,STABILIZE,-35.3632622,149.1652375,0,-7.703841401962563e-05,0.001035496941767633,0.02512124925851822,0.0003676528576761484,0.0003387897741049528,0.0019517752807587385,0,1,-1000,0,0,0,-1,2,-1,1500.0
11:23:08.288,STABILIZE,-35.3632622,149.1652375,0,-0.00012350809993222356,0.0009710626909509301,0.024598201736807823,0.00020672561367973685,0.00019264881848357618,0.0018874986562877893,0,1,-1000,0,0,0,-1,2,-1,1500.0
11:23:08.489,STABILIZE,-35.3632621,149.1652375,0,-0.0001491885050199926,0.0009659564821049571,0.02447013184428215,0.00013529474381357431,0.00031124221277423203,0.001943487673997879,0,1,-1000,0,0,0,-1,1,-2,1500.0
11:23:08.690,STABILIZE,-35.3632621,149.1652375,0,-0.0001491885050199926,0.0009659564821049571,0.02447013184428215,0.00013529474381357431,0.00031124221277423203,0.001943487673997879,0,1,-1000,0,0,0,-1,1,-2,1500.0
11:23:08.892,STABILIZE,-35.3632621,149.1652375,0,-0.0001491885050199926,0.0009659564821049571,0.02447013184428215,0.00013529474381357431,0.00031124221277423203,0.001943487673997879,0,1,-1000,0,0,0,-1,1,-2,1500.0
11:23:09.093,STABILIZE,-35.3632621,149.1652375,0,-0.00017366468091495335,0.000962709600571543,0.024264678359031677,0.00022078381152823567,0.00021522410679608583,0.0017463654512539506,0,1,-1000,0,0,0,-1,1,-2,1500.0
11:23:09.294,STABILIZE,-35.3632621,149.1652375,0,-0.00018765899585559964,0.0009579097968526185,0.024137774482369423,0.00026274018455296755,0.00021095501142553985,0.0019308176124468446,0,1,-1000,0,0,0,-1,1,-2,1500.0
11:23:09.495,STABILIZE,-35.3632621,149.1652375,0,-0.00018765899585559964,0.0009579097968526185,0.024137774482369423,0.00026274018455296755,0.00021095501142553985,0.0019308176124468446,0,1,-1000,0,0,0,-1,1,-2,1500.0
11:23:09.696,STABILIZE,-35.3632621,149.1652375,0,-0.00018765899585559964,0.0009579097968526185,0.024137774482369423,0.00026274018455296755,0.00021095501142553985,0.0019308176124468446,0,1,-1000,0,0,0,-1,1,-2,1500.0
11:23:09.898,STABILIZE,-35.3632621,149.1652375,0,-0.00018765899585559964,0.0009579097968526185,0.024137774482369423,0.00026274018455296755,0.00021095501142553985,0.0019308176124468446,0,1,-1000,0,0,0,-1,1,-2,1500.0
11:23:10.099,STABILIZE,-35.3632621,149.1652375,0,-0.00027583722840063274,0.0009534440468996763,0.023819634690880775,0.000262382032815367,0.00019107726984657347,0.001807513297535479,0,1,-1000,0,0,0,-1,1,-1,1500.0
11:23:10.300,STABILIZE,-35.3632621,149.1652375,0,-0.00027583722840063274,0.0009534440468996763,0.023819634690880775,0.000262382032815367,0.00019107726984657347,0.001807513297535479,0,1,-1000,0,0,0,-1,1,0,1500.0
11:23:10.502,STABILIZE,-35.3632621,149.1652375,0,-0.00034624800900928676,0.0009385404409840703,0.02361549809575081,0.00021040247520431876,0.0002456206129863858,0.0018399138934910297,0,1,-1000,0,1,0,-1,1,0,1500.0
11:23:10.703,STABILIZE,-35.3632621,149.1652375,0,-0.00037472203257493675,0.000936445314437151,0.023513972759246826,0.00017121131531894207,0.0002859289525076747,0.0017317142337560654,0,1,-1000,1,0,0,-1,1,0,1500.0
11:23:10.906,STABILIZE,-35.3632621,149.1652375,0,-0.00037472203257493675,0.000936445314437151,0.023513972759246826,0.00017121131531894207,0.0002859289525076747,0.0017317142337560654,0,1,-1000,1,0,0,-1,1,0,1500.0
11:23:11.108,STABILIZE,-35.3632621,149.1652375,0,-0.00037472203257493675,0.000936445314437151,0.023513972759246826,0.00017121131531894207,0.0002859289525076747,0.0017317142337560654,0,1,-1000,0,0,0,-1,1,0,1500.0
11:23:11.309,STABILIZE,-35.3632621,149.1652375,0,-0.00037472203257493675,0.000936445314437151,0.023513972759246826,0.00017121131531894207,0.0002859289525076747,0.0017317142337560654,0,1,-1000,0,0,0,-1,1,0,1500.0
11:23:11.510,STABILIZE,-35.3632621,149.1652375,0,-0.00037472203257493675,0.000936445314437151,0.023513972759246826,0.00017121131531894207,0.0002859289525076747,0.0017317142337560654,0,1,-1000,0,0,0,-1,1,0,1500.0
11:23:11.712,STABILIZE,-35.3632621,149.1652375,0,-0.00037472203257493675,0.000936445314437151,0.023513972759246826,0.00017121131531894207,0.0002859289525076747,0.0017317142337560654,0,1,-1000,0,0,0,-1,1,0,1500.0
11:23:11.914,STABILIZE,-35.3632621,149.1652375,0,-0.00037472203257493675,0.000936445314437151,0.023513972759246826,0.00017121131531894207,0.0002859289525076747,0.0017317142337560654,0,1,-1000,0,0,0,-1,1,0,1500.0
11:23:12.116,STABILIZE,-35.3632621,149.1652376,0,-0.00028180083609186113,0.0009444948518648744,0.023005861788988113,0.00029435643227770925,0.00029922829708084464,0.0018495653057470918,0,1,-1000,0,1,0,-1,3,2,1500.0
11:23:12.317,STABILIZE,-35.3632622,149.1652376,0,-0.00028180083609186113,0.0009444948518648744,0.023005861788988113,0.00029435643227770925,0.00029922829708084464,0.0018495653057470918,0,1,-1000,0,1,0,-1,3,2,1500.0
11:23:12.518,STABILIZE,-35.3632621,149.1652376,0,-0.0005059101968072355,0.0009483583853580058,0.022819139063358307,0.00022394588449969888,0.0002870392636395991,0.001730476040393114,0,1,-1000,0,0,0,-1,3,2,1500.0
11:23:12.720,STABILIZE,-35.3632621,149.1652376,0,-0.0005059101968072355,0.0009483583853580058,0.022819139063358307,0.00022394588449969888,0.0002870392636395991,0.001730476040393114,0,1,-1000,0,0,0,-1,3,2,1500.0
11:23:12.921,STABILIZE,-35.3632621,149.1652376,0,-0.0005059101968072355,0.0009483583853580058,0.022819139063358307,0.00022394588449969888,0.0002870392636395991,0.001730476040393114,0,1,-1000,0,0,0,-1,3,2,1500.0
11:23:13.123,STABILIZE,-35.3632621,149.1652376,0,-0.0006814847583882511,0.0009580501937307417,0.02265464887022972,0.0003179864725098014,0.0003296371432952583,0.0017221951857209206,0,1,-1000,0,0,0,-1,3,2,1500.0
11:23:13.325,STABILIZE,-35.3632621,149.1652376,0,-0.0006814847583882511,0.0009580501937307417,0.02265464887022972,0.0003179864725098014,0.0003296371432952583,0.0017221951857209206,0,1,-1000,0,0,0,-1,3,2,1500.0
11:23:13.527,STABILIZE,-35.3632621,149.1652376,0,-0.0006814847583882511,0.0009580501937307417,0.02265464887022972,0.0003179864725098014,0.0003296371432952583,0.0017221951857209206,0,1,-1000,0,0,0,-1,3,2,1500.0
11:23:13.728,STABILIZE,-35.3632621,149.1652376,0,-0.0006814847583882511,0.0009580501937307417,0.02265464887022972,0.0003179864725098014,0.0003296371432952583,0.0017221951857209206,0,1,-1000,0,0,0,-1,3,2,1500.0
11:23:13.929,STABILIZE,-35.3632621,149.1652376,0,-0.0006814847583882511,0.0009580501937307417,0.02265464887022972,0.0003179864725098014,0.0003296371432952583,0.0017221951857209206,0,1,-1000,0,0,0,-1,3,2,1500.0
11:23:14.131,STABILIZE,-35.3632622,149.1652376,0,-0.0009610004490241408,0.000959317316301167,0.02237914875149727,0.0003563724458217621,0.00033816619543358684,0.00168408895842731,0,1,-1000,0,0,0,-1,1,1,1500.0
11:23:14.332,STABILIZE,-35.3632622,149.1652376,0,-0.0009610004490241408,0.000959317316301167,0.02237914875149727,0.0003563724458217621,0.00033816619543358684,0.00168408895842731,0,1,-1000,0,0,0,-1,1,1,1500.0
11:23:14.533,STABILIZE,-35.3632622,149.1652375,0,-0.0009610004490241408,0.000959317316301167,0.02237914875149727,0.0003563724458217621,0.00033816619543358684,0.00168408895842731,0,1,-1000,0,1,1,-1,1,1,1500.0
11:23:14.735,STABILIZE,-35.3632622,149.1652375,0,-0.0011205911869183183,0.0009662567754276097,0.022192254662513733,0.0002700070617720485,0.00018627045210450888,0.001608190592378378,0,1,-1000,0,1,1,-1,1,1,1500.0
11:23:14.936,STABILIZE,-35.3632622,149.1652375,0,-0.0011205911869183183,0.0009662567754276097,0.022192254662513733,0.0002700070617720485,0.00018627045210450888,0.001608190592378378,0,1,-1000,0,1,1,-1,1,1,1500.0
11:23:15.138,STABILIZE,-35.3632622,149.1652375,0,-0.001161736436188221,0.0009664034587331116,0.02212999016046524,0.00011614710092544556,0.0002314443700015545,0.0016365594929084182,0,2,-1000,0,0,0,-1,1,1,1500.0
11:23:15.339,STABILIZE,-35.3632622,149.1652375,0,-0.001161736436188221,0.0009664034587331116,0.02212999016046524,0.00011614710092544556,0.0002314443700015545,0.0016365594929084182,0,1,-1000,1,0,1,-1,1,1,1500.0
11:23:15.540,STABILIZE,-35.3632622,149.1652375,0,-0.001161736436188221,0.0009664034587331116,0.02212999016046524,0.00011614710092544556,0.0002314443700015545,0.0016365594929084182,0,1,-1000,1,0,1,-1,1,1,1500.0
11:23:15.742,STABILIZE,-35.3632622,149.1652375,0,-0.001161736436188221,0.0009664034587331116,0.02212999016046524,0.00011614710092544556,0.0002314443700015545,0.0016365594929084182,0,1,-1000,1,0,1,-1,1,1,1500.0
11:23:15.944,STABILIZE,-35.3632622,149.1652375,0,-0.001161736436188221,0.0009664034587331116,0.02212999016046524,0.00011614710092544556,0.0002314443700015545,0.0016365594929084182,0,1,-1000,1,0,1,-1,1,1,1500.0
11:23:16.145,STABILIZE,-35.3632622,149.1652375,0,-0.0012316517531871796,0.0009609003318473697,0.02195034548640251,0.0002209455706179142,0.00020823883824050426,0.001654940191656351,0,1,-1000,0,0,1,-1,0,1,1500.0
11:23:16.347,STABILIZE,-35.3632622,149.1652375,0,-0.0012316517531871796,0.0009609003318473697,0.02195034548640251,0.0002209455706179142,0.00020823883824050426,0.001654940191656351,0,1,-1000,0,0,1,-1,0,1,1500.0
11:23:16.548,STABILIZE,-35.3632622,149.1652375,0,-0.0012555673019960523,0.0009649296989664435,0.021888375282287598,0.0001631558407098055,0.0001921572256833315,0.001576068578287959,0,1,-1000,0,1,0,-1,0,0,1500.0
11:23:16.749,STABILIZE,-35.3632622,149.1652375,0,-0.0012555673019960523,0.0009649296989664435,0.021888375282287598,0.0001631558407098055,0.0001921572256833315,0.001576068578287959,0,1,-1000,0,0,0,-1,0,0,1500.0
11:23:16.950,STABILIZE,-35.3632622,149.1652375,0,-0.0012555673019960523,0.0009649296989664435,0.021888375282287598,0.0001631558407098055,0.0001921572256833315,0.001576068578287959,0,1,-1000,0,0,0,-1,0,0,1500.0
11:23:17.153,STABILIZE,-35.3632622,149.1652375,0,-0.0012554775457829237,0.000969355518463999,0.021793702617287636,0.00028751755598932505,0.000278090825304389,0.0016000819159671664,0,2,-1000,0,1,0,-1,0,0,1500.0
11:23:17.355,STABILIZE,-35.3632622,149.1652375,0,-0.0012554775457829237,0.000969355518463999,0.021793702617287636,0.00028751755598932505,0.000278090825304389,0.0016000819159671664,0,2,-1000,0,1,0,-1,0,0,1500.0
11:23:17.562,STABILIZE,-35.3632622,149.1652375,0,-0.0012554775457829237,0.000969355518463999,0.021793702617287636,0.00028751755598932505,0.000278090825304389,0.0016000819159671664,0,2,-1000,0,1,0,-1,0,0,1500.0
11:23:17.763,STABILIZE,-35.3632622,149.1652375,0,-0.0012554775457829237,0.000969355518463999,0.021793702617287636,0.00028751755598932505,0.000278090825304389,0.0016000819159671664,0,2,-1000,0,1,0,-1,0,0,1500.0
11:23:17.965,STABILIZE,-35.3632622,149.1652375,0,-0.001250993344001472,0.0009876452386379242,0.02163509465754032,0.00042487087193876505,0.0002406544517725706,0.0015376859810203314,0,2,-1000,0,1,0,-1,0,0,1500.0
11:23:18.166,STABILIZE,-35.3632622,149.1652375,0,-0.001250993344001472,0.0009876452386379242,0.02163509465754032,0.00042487087193876505,0.0002406544517725706,0.0015376859810203314,0,2,-1000,0,1,0,-1,0,0,1500.0
11:23:18.367,STABILIZE,-35.3632622,149.1652375,0,-0.001250993344001472,0.0009876452386379242,0.02163509465754032,0.00042487087193876505,0.0002406544517725706,0.0015376859810203314,0,2,-1000,0,1,0,-1,0,0,1500.0
11:23:18.569,STABILIZE,-35.3632622,149.1652375,0,-0.0010802812175825238,0.000989363412372768,0.021555189043283463,0.00010191765613853931,0.00024858099641278386,0.0015243429224938154,0,2,-1000,0,0,0,-1,0,-1,1500.0
11:23:18.770,STABILIZE,-35.3632622,149.1652375,0,-0.001035247347317636,0.0009847234468907118,0.021519143134355545,0.00019929802510887384,0.0002466716105118394,0.0015617975732311606,0,1,-1000,1,0,0,-1,0,-1,1500.0
11:23:18.972,STABILIZE,-35.3632622,149.1652375,0,-0.0009765616850927472,0.0009839804843068123,0.021484537050127983,0.0003707612631842494,0.0002167146885767579,0.0014989417977631092,0,1,-1000,0,1,1,-1,0,-1,1500.0
11:23:19.173,STABILIZE,-35.3632622,149.1652375,0,-0.0009765616850927472,0.0009839804843068123,0.021484537050127983,0.0003707612631842494,0.0002167146885767579,0.0014989417977631092,0,1,-1000,0,1,1,-1,0,-1,1500.0
11:23:19.375,STABILIZE,-35.3632622,149.1652375,0,-0.0009765616850927472,0.0009839804843068123,0.021484537050127983,0.0003707612631842494,0.0002167146885767579,0.0014989417977631092,0,1,-1000,0,1,1,-1,0,-1,1500.0
11:23:19.577,STABILIZE,-35.3632622,149.1652375,0,-0.0009765616850927472,0.0009839804843068123,0.021484537050127983,0.0003707612631842494,0.0002167146885767579,0.0014989417977631092,0,1,-1000,0,1,1,-1,0,-1,1500.0
11:23:19.778,STABILIZE,-35.3632622,149.1652375,0,-0.0009765616850927472,0.0009839804843068123,0.021484537050127983,0.0003707612631842494,0.0002167146885767579,0.0014989417977631092,0,1,-1000,0,1,1,-1,0,-1,1500.0
11:23:19.980,STABILIZE,-35.3632622,149.1652375,0,-0.0009765616850927472,0.0009839804843068123,0.021484537050127983,0.0003707612631842494,0.0002167146885767579,0.0014989417977631092,0,1,-1000,0,1,1,-1,0,-1,1500.0
11:23:20.181,STABILIZE,-35.3632622,149.1652375,0,-0.0009765616850927472,0.0009839804843068123,0.021484537050127983,0.0003707612631842494,0.0002167146885767579,0.0014989417977631092,0,1,-1000,0,1,1,-1,0,-1,1500.0
11:23:20.383,STABILIZE,-35.3632622,149.1652375,0,-0.0007664563599973917,0.0010033983271569014,0.021245397627353668,0.0003677927888929844,0.00021123664919286966,0.001447770744562149,0,1,-1000,1,1,0,-1,0,-1,1500.0
11:23:20.584,STABILIZE,-35.3632622,149.1652375,0,-0.0007664563599973917,0.0010033983271569014,0.021245397627353668,0.0003677927888929844,0.00021123664919286966,0.001447770744562149,0,1,-1000,0,0,0,-1,0,-1,1500.0
11:23:20.785,STABILIZE,-35.3632622,149.1652375,0,-0.0007664563599973917,0.0010033983271569014,0.021245397627353668,0.0003677927888929844,0.00021123664919286966,0.001447770744562149,0,1,-1000,0,0,0,-1,1,-1,1500.0
11:23:20.986,STABILIZE,-35.3632622,149.1652375,0,-0.0007094217580743134,0.0010091813746839762,0.02107061818242073,0.0002895137295126915,0.0002913263742811978,0.0013833660632371902,0,1,-1000,0,1,1,-1,1,0,1500.0
11:23:21.188,STABILIZE,-35.3632622,149.1652375,0,-0.0007094217580743134,0.0010091813746839762,0.02107061818242073,0.0002895137295126915,0.0002913263742811978,0.0013833660632371902,0,1,-1000,0,1,1,-1,1,0,1500.0
11:23:21.389,STABILIZE,-35.3632622,149.1652375,0,-0.0007077944464981556,0.0010157375363633037,0.021021386608481407,0.00019297440303489566,0.0002614065306261182,0.0014466759748756886,0,1,-1000,1,0,0,-1,1,0,1500.0
11:23:21.593,AUTO,-35.3632622,149.1652375,0,-0.0007077944464981556,0.0010157375363633037,0.021021386608481407,0.00019297440303489566,0.0002614065306261182,0.0014466759748756886,0,1,-1000,1,0,0,-1,1,0,1500.0
11:23:21.801,AUTO,-35.3632622,149.1652375,0,-0.0007077944464981556,0.0010157375363633037,0.021021386608481407,0.00019297440303489566,0.0002614065306261182,0.0014466759748756886,0,1,-1000,1,0,0,-1,1,0,127215.0
11:23:22.002,AUTO,-35.3632622,149.1652375,0,-0.0004217714595142752,0.0009977173758670688,0.020854825153946877,0.00030239991610869765,0.00029650965007022023,0.0014174515381455421,0,1,-1000,0,0,1,-1,3,2,127215.0
11:23:22.204,AUTO,-35.3632622,149.1652375,0,-0.00047014106530696154,0.001005819533020258,0.020810885354876518,0.0002816984197124839,0.00021740089869126678,0.0015893352683633566,0,1,-1000,0,0,1,-1,2,2,127215.0
11:23:22.405,AUTO,-35.3632622,149.1652375,0,-0.00047014106530696154,0.001005819533020258,0.020810885354876518,0.0002816984197124839,0.00021740089869126678,0.0015893352683633566,0,1,-1000,0,0,1,-1,2,2,127215.0
11:23:22.607,AUTO,-35.3632621,149.1652375,0,-0.0005143857561051846,0.0010206379229202867,0.020752135664224625,0.0002555861137807369,0.0002023379784077406,0.0014081934932619333,0,1,-1000,1,0,1,0,2,2,127215.0
11:23:22.808,AUTO,-35.3632621,149.1652375,0,-0.0005244063795544207,0.0010564911644905806,0.020682794973254204,0.0003205257817171514,0.0001393220736645162,0.0013249675976112485,0,1,-1000,0,0,1,0,1,1,127215.0
11:23:23.010,AUTO,-35.3632621,149.1652375,0,-0.0005040721734985709,0.0011042990954592824,0.02063118852674961,0.00022775307297706604,0.0002404823899269104,0.001474833581596613,0,1,-1000,0,1,0,0,0,1,127215.0
11:23:23.212,AUTO,-35.3632621,149.1652375,0,-0.0004603141569532454,0.0011634115362539887,0.020587589591741562,0.00031730596674606204,0.00034513860009610653,0.0013580198865383863,0,1,-1000,1,0,1,0,0,1,127215.0
11:23:23.414,AUTO,-35.3632621,149.1652375,0,-0.0004603141569532454,0.0011634115362539887,0.020587589591741562,0.00031730596674606204,0.00034513860009610653,0.0013580198865383863,0,1,-1000,1,0,1,0,0,1,127215.0
11:23:23.615,AUTO,-35.3632621,149.1652375,0,-0.0004603141569532454,0.0011634115362539887,0.020587589591741562,0.00031730596674606204,0.00034513860009610653,0.0013580198865383863,0,1,-1000,1,0,1,0,0,1,127215.0
11:23:23.817,AUTO,-35.3632621,149.1652375,0,-0.0004603141569532454,0.0011634115362539887,0.020587589591741562,0.00031730596674606204,0.00034513860009610653,0.0013580198865383863,0,1,-1000,1,0,1,0,0,1,127215.0
11:23:24.018,AUTO,-35.3632621,149.1652374,0,-0.00027749777655117214,0.001360091264359653,0.020429939031600952,0.00037495821015909314,0.0001465408131480217,0.0013486351817846298,0,1,-1000,1,0,1,0,0,1,127215.0
11:23:24.219,AUTO,-35.3632621,149.1652374,0,-0.0002125237660948187,0.0014320372138172388,0.020351143553853035,0.0002972511574625969,0.0003231838345527649,0.0013731385115534067,0,1,-1000,1,0,1,0,0,1,127215.0
11:23:24.421,AUTO,-35.3632621,149.1652374,0,-0.0002125237660948187,0.0014320372138172388,0.020351143553853035,0.0002972511574625969,0.0003231838345527649,0.0013731385115534067,0,1,-1000,1,0,1,0,0,1,127215.0
11:23:24.623,AUTO,-35.3632621,149.1652374,0,-0.00015459519636351615,0.001508721150457859,0.020281681790947914,0.0003422966110520065,0.0003079087473452091,0.0013977389317005873,0,2,-1000,0,1,0,0,0,1,176190.0
11:23:24.824,AUTO,-35.3632621,149.1652374,0,-9.927828068612143e-05,0.0015837744576856494,0.02022591233253479,0.00034164905082434416,0.00029973522759974003,0.0013587127905339003,0,1,-1000,1,1,1,0,0,1,176190.0
11:23:25.026,AUTO,-35.3632621,149.1652374,0,-2.8489623218774796e-05,0.0016556528862565756,0.020153244957327843,0.0003426001640036702,0.0003026594640687108,0.0012978482991456985,0,2,-1000,0,1,0,0,0,0,176190.0
11:23:25.227,AUTO,-35.3632621,149.1652374,0,4.182553675491363e-05,0.001724760513752699,0.020070787519216537,0.0002644004998728633,0.0002935125958174467,0.0013257772661745548,0,2,-1000,0,0,0,0,0,0,176190.0
11:23:25.428,AUTO,-35.3632621,149.1652374,0,4.182553675491363e-05,0.001724760513752699,0.020070787519216537,0.0002644004998728633,0.0002935125958174467,0.0013257772661745548,0,2,-1000,0,0,0,0,0,0,176190.0
11:23:25.630,AUTO,-35.3632621,149.1652374,0,4.182553675491363e-05,0.001724760513752699,0.020070787519216537,0.0002644004998728633,0.0002935125958174467,0.0013257772661745548,0,2,-1000,0,0,0,0,0,0,176190.0
11:23:25.831,AUTO,-35.3632621,149.1652374,0,4.182553675491363e-05,0.001724760513752699,0.020070787519216537,0.0002644004998728633,0.0002935125958174467,0.0013257772661745548,0,2,-1000,0,0,0,0,0,0,176190.0
11:23:26.032,AUTO,-35.3632621,149.1652374,179,0.0036258925683796406,0.00017014080367516726,0.02020925283432007,0.003799949074164033,0.004287562798708677,0.002422673162072897,0,0,-1129,4,4,2,0,0,-69,176190.0
11:23:26.234,AUTO,-35.3632621,149.1652375,391,0.002228677971288562,0.001100684399716556,0.020225733518600464,-0.011970793828368187,0.002176446607336402,0.0001508341811131686,0,0,-1109,-11,2,0,0,0,-98,176190.0
11:23:26.436,AUTO,-35.3632621,149.1652375,391,0.002228677971288562,0.001100684399716556,0.020225733518600464,-0.011970793828368187,0.002176446607336402,0.0001508341811131686,0,0,-1109,-11,2,0,0,0,-98,176190.0
11:23:26.637,AUTO,-35.3632621,149.1652375,669,0.0016652235062792897,0.0016823450569063425,0.020092574879527092,0.0018262998200953007,0.0004490973660722375,8.886198338586837e-05,0,0,-1089,2,1,0,0,0,-122,176190.0
11:23:26.839,AUTO,-35.3632621,149.1652375,1005,0.00973065011203289,0.000990715459920466,0.019555747509002686,0.04706078767776489,-0.0057320864871144295,0.0006986424559727311,0,0,-1044,47,-5,0,0,1,-137,176190.0
11:23:27.041,AUTO,-35.363262,149.1652375,1370,0.021532339975237846,-0.0007094897446222603,0.019403506070375443,0.04684494063258171,-0.0071446867659688,0.0016681717243045568,0,0,-1018,47,-6,1,0,4,-144,176190.0
11:23:27.243,AUTO,-35.363262,149.1652377,1747,0.033128779381513596,-0.002591388300061226,0.019471315667033195,0.04574231058359146,-0.007710047997534275,0.0024596021976321936,0,0,-1008,46,-7,2,1,10,-147,176190.0
11:23:27.445,AUTO,-35.363262,149.1652377,1747,0.033128779381513596,-0.002591388300061226,0.019471315667033195,0.04574231058359146,-0.007710047997534275,0.0024596021976321936,0,0,-1008,46,-7,2,1,10,-147,176190.0
11:23:27.646,AUTO,-35.363262,149.1652377,1747,0.033128779381513596,-0.002591388300061226,0.019471315667033195,0.04574231058359146,-0.007710047997534275,0.0024596021976321936,0,0,-1008,46,-7,2,1,10,-147,176175.0
11:23:27.848,AUTO,-35.363262,149.1652377,1747,0.033128779381513596,-0.002591388300061226,0.019471315667033195,0.04574231058359146,-0.007710047997534275,0.0024596021976321936,0,0,-1008,46,-7,2,1,10,-147,176175.0
11:23:28.050,AUTO,-35.3632616,149.1652396,2896,0.06238282471895218,-0.009385865181684494,-0.008427249267697334,0.004036119673401117,0.008940828032791615,-0.025193307548761368,0,-9,-994,4,9,-25,8,41,-148,176175.0
11:23:28.251,AUTO,-35.3632614,149.1652408,3276,0.04616006836295128,0.009693650528788567,-0.02898084558546543,-0.12150177359580994,0.10552555322647095,-0.10555241256952286,3,-12,-990,-121,106,-105,10,51,-145,176175.0
11:23:28.453,AUTO,-35.3632612,149.1652423,3652,0.0029318847227841616,0.023752763867378235,-0.04989350959658623,-0.19174309074878693,0.00891076773405075,-0.0738493874669075,2,-11,-996,-191,9,-73,7,54,-144,176175.0
11:23:28.655,AUTO,-35.3632612,149.1652423,3652,0.0029318847227841616,0.023752763867378235,-0.04989350959658623,-0.19174309074878693,0.00891076773405075,-0.0738493874669075,2,-11,-996,-191,9,-73,7,54,-144,176175.0
11:23:28.857,AUTO,-35.363261,149.1652436,4029,-0.024475058540701866,0.02043696865439415,-0.06407708674669266,-0.05958641320466995,-0.01781517080962658,-0.05703861266374588,4,-9,-1011,-58,-17,-57,3,47,-146,176175.0
11:23:29.059,AUTO,-35.3632609,149.1652448,4411,-0.033882614225149155,0.015393218025565147,-0.0751924067735672,-0.021325182169675827,-0.0135438097640872,-0.04892216622829437,5,-9,-1007,-20,-12,-49,0,37,-149,176175.0
11:23:29.261,AUTO,-35.3632609,149.1652457,4797,-0.041064586490392685,0.010676311329007149,-0.08387669175863266,-0.04382240027189255,-0.02325255237519741,-0.02880028635263443,4,-6,-1000,-43,-22,-28,-1,25,-149,176175.0
11:23:29.463,AUTO,-35.3632609,149.1652457,4797,-0.041064586490392685,0.010676311329007149,-0.08387669175863266,-0.04382240027189255,-0.02325255237519741,-0.02880028635263443,4,-6,-1000,-43,-22,-28,-1,25,-149,176175.0
11:23:29.665,AUTO,-35.3632609,149.1652457,4797,-0.041064586490392685,0.010676311329007149,-0.08387669175863266,-0.04382240027189255,-0.02325255237519741,-0.02880028635263443,4,-6,-1000,-43,-22,-28,-1,25,-149,176175.0
11:23:29.868,AUTO,-35.3632609,149.1652457,4797,-0.041064586490392685,0.010676311329007149,-0.08387669175863266,-0.04382240027189255,-0.02325255237519741,-0.02880028635263443,4,-6,-1000,-43,-22,-28,-1,25,-149,176175.0
11:23:30.070,AUTO,-35.363261,149.1652459,5952,-0.07012869417667389,-0.007332736626267433,-0.09152375906705856,0.0444796085357666,-0.002849131589755416,-0.009591193869709969,-1,3,-1003,45,-2,-9,-2,-23,-149,176175.0
11:23:30.272,AUTO,-35.363261,149.1652451,6337,-0.05714082345366478,-0.007704867050051689,-0.09397522360086441,0.05548761785030365,0.0004187938175164163,-0.004983253311365843,-3,6,-1001,56,1,-5,-2,-38,-149,176175.0
11:23:30.473,AUTO,-35.3632611,149.1652439,6719,-0.04267238825559616,-0.006891597993671894,-0.0951811671257019,0.060168005526065826,0.005563988350331783,-0.0021597901359200478,-4,5,-1001,60,6,-2,-2,-49,-149,176175.0
11:23:30.675,AUTO,-35.3632611,149.1652439,6719,-0.04267238825559616,-0.006891597993671894,-0.0951811671257019,0.060168005526065826,0.005563988350331783,-0.0021597901359200478,-4,5,-1001,60,6,-2,-2,-49,-149,78641.0
11:23:30.878,AUTO,-35.3632612,149.1652424,7103,-0.027041122317314148,-0.004759351257234812,-0.09592399001121521,0.06366071105003357,0.010613675229251385,-0.0007180178072303534,-7,14,-1002,64,11,0,-3,-56,-149,78641.0
11:23:31.081,AUTO,-35.3632612,149.1652408,7488,-0.010890026576817036,-0.0017896175850182772,-0.09615446627140045,0.06428438425064087,0.01277858018875122,0.0009759328095242381,-8,13,-1003,64,13,1,-3,-58,-150,78641.0
11:23:31.283,AUTO,-35.3632613,149.1652392,7880,0.005603366997092962,0.0015649872366338968,-0.09583089500665665,0.0670369490981102,0.013666355982422829,0.0023292547557502985,-6,10,-1004,67,14,1,-5,-57,-151,78641.0
11:23:31.492,AUTO,-35.3632613,149.1652392,7880,0.005603366997092962,0.0015649872366338968,-0.09583089500665665,0.0670369490981102,0.013666355982422829,0.0023292547557502985,-6,10,-1004,67,14,1,-5,-57,-151,78641.0
11:23:31.694,AUTO,-35.3632613,149.1652392,7880,0.005603366997092962,0.0015649872366338968,-0.09583089500665665,0.0670369490981102,0.013666355982422829,0.0023292547557502985,-6,10,-1004,67,14,1,-5,-57,-151,78641.0
11:23:31.895,AUTO,-35.3632613,149.1652392,7880,0.005603366997092962,0.0015649872366338968,-0.09583089500665665,0.0670369490981102,0.013666355982422829,0.0023292547557502985,-6,10,-1004,67,14,1,-5,-57,-151,78641.0
11:23:32.097,AUTO,-35.3632619,149.1652351,9050,0.05361515283584595,0.009178023785352707,-0.09290523082017899,0.06173994764685631,0.005136351101100445,0.004085196647793055,-3,9,-1002,62,5,3,-9,-30,-153,78641.0
11:23:32.298,AUTO,-35.3632621,149.1652344,9444,0.06792305409908295,0.00926119089126587,-0.09111437201499939,0.04164276644587517,-0.01004115492105484,0.022018074989318848,-2,6,-999,42,-9,21,-10,-14,-153,78641.0
11:23:32.500,AUTO,-35.3632623,149.1652342,9834,0.06475279480218887,-0.0029369108378887177,-0.08099804818630219,-0.06239697337150574,-0.052237410098314285,0.04289088398218155,0,2,-991,-61,-51,42,-9,2,-151,78641.0
11:23:32.702,AUTO,-35.3632623,149.1652342,9834,0.06475279480218887,-0.0029369108378887177,-0.08099804818630219,-0.06239697337150574,-0.052237410098314285,0.04289088398218155,0,2,-991,-61,-51,42,-9,2,-151,78641.0
11:23:32.906,AUTO,-35.3632625,149.1652344,10221,0.042355600744485855,-0.010286915116012096,-0.07523910701274872,-0.10060863196849823,-0.008917040191590786,0.013072427362203598,2,0,-995,-100,-8,12,-6,14,-149,78641.0
11:23:33.109,AUTO,-35.3632626,149.1652347,10603,0.01955425553023815,-0.009930475614964962,-0.07528885453939438,-0.08009564131498337,0.0069097066298127174,-0.0084902448579669,2,-2,-1000,-79,7,-8,-1,20,-149,78641.0
11:23:33.311,AUTO,-35.3632626,149.1652352,10986,0.003009377047419548,-0.007726280950009823,-0.07969225943088531,-0.05695851519703865,0.009635900147259235,-0.021847765892744064,2,-2,-1002,-56,10,-22,1,20,-149,78641.0
11:23:33.512,AUTO,-35.3632626,149.1652352,10986,0.003009377047419548,-0.007726280950009823,-0.07969225943088531,-0.05695851519703865,0.009635900147259235,-0.021847765892744064,2,-2,-1002,-56,10,-22,1,20,-149,78641.0
11:23:33.714,AUTO,-35.3632626,149.1652352,10986,0.003009377047419548,-0.007726280950009823,-0.07969225943088531,-0.05695851519703865,0.009635900147259235,-0.021847765892744064,2,-2,-1002,-56,10,-22,1,20,-149,9220.0
11:23:33.916,AUTO,-35.3632626,149.1652352,10986,0.003009377047419548,-0.007726280950009823,-0.07969225943088531,-0.05695851519703865,0.009635900147259235,-0.021847765892744064,2,-2,-1002,-56,10,-22,1,20,-149,9220.0
11:23:34.118,AUTO,-35.3632624,149.1652363,12144,-0.014808660373091698,-0.0019771731458604336,-0.10348007082939148,0.004219260532408953,0.006851993501186371,-0.030804777517914772,0,-2,-1002,4,7,-31,6,7,-151,9220.0
11:23:34.319,AUTO,-35.3632622,149.1652364,12536,-0.013156740926206112,-0.0004452797002159059,-0.11195936053991318,0.010070945136249065,0.007773058954626322,-0.03246213495731354,0,-1,-1001,10,8,-32,6,2,-152,9220.0
11:23:34.521,AUTO,-35.3632621,149.1652364,12926,-0.009875846095383167,0.0013104734243825078,-0.119924396276474,0.015688665211200714,0.006422518752515316,-0.02706933207809925,-1,-1,-1000,16,6,-27,6,-1,-152,9220.0
11:23:34.723,AUTO,-35.3632619,149.1652364,13316,-0.005605524405837059,0.002935490570962429,-0.1271728277206421,0.02057330682873726,0.006985383573919535,-0.025712229311466217,-1,0,-1001,20,7,-25,5,-4,-152,9220.0
11:23:34.924,AUTO,-35.3632619,149.1652364,13316,-0.005605524405837059,0.002935490570962429,-0.1271728277206421,0.02057330682873726,0.006985383573919535,-0.025712229311466217,-1,0,-1001,20,7,-25,5,-4,-152,9220.0
11:23:35.126,AUTO,-35.3632618,149.1652362,13705,-0.0008044972782954574,0.004539335612207651,-0.13348373770713806,0.019755180925130844,0.005219987593591213,-0.02022782526910305,-2,0,-1001,20,5,-20,4,-5,-152,9220.0
11:23:35.328,AUTO,-35.3632617,149.165236,14096,0.0032659645657986403,0.00584465591236949,-0.139041006565094,0.01623104140162468,0.005516429897397757,-0.01928146556019783,-2,0,-1000,16,6,-19,3,-5,-152,9220.0
11:23:35.531,AUTO,-35.3632617,149.165236,14096,0.0032659645657986403,0.00584465591236949,-0.139041006565094,0.01623104140162468,0.005516429897397757,-0.01928146556019783,-2,0,-1000,16,6,-19,3,-5,-152,9220.0
11:23:35.733,AUTO,-35.3632617,149.165236,14096,0.0032659645657986403,0.00584465591236949,-0.139041006565094,0.01623104140162468,0.005516429897397757,-0.01928146556019783,-2,0,-1000,16,6,-19,3,-5,-152,9220.0
11:23:35.935,AUTO,-35.3632617,149.165236,14096,0.0032659645657986403,0.00584465591236949,-0.139041006565094,0.01623104140162468,0.005516429897397757,-0.01928146556019783,-2,0,-1000,16,6,-19,3,-5,-152,9220.0
11:23:36.137,AUTO,-35.3632615,149.1652355,15260,0.01027238555252552,0.00734393997117877,-0.1510673314332962,0.006029769312590361,0.0013858271995559335,-0.011729395017027855,-1,0,-1000,6,2,-11,0,-2,-152,9220.0
11:23:36.339,AUTO,-35.3632615,149.1652354,15651,0.010863016359508038,0.006970168557018042,-0.15392844378948212,0.0020942892879247665,4.274427192285657e-05,-0.011061981320381165,0,0,-1000,2,1,-11,-1,0,-152,9220.0
11:23:36.540,AUTO,-35.3632615,149.1652353,16040,0.010505218990147114,0.006582263857126236,-0.15673275291919708,-0.004216741770505905,-0.0020573236979544163,-0.010257945396006107,0,0,-999,-3,-1,-10,-2,1,-152,9220.0
11:23:36.742,AUTO,-35.3632615,149.1652353,16429,0.009662162512540817,0.0061971889808773994,-0.1597069799900055,-0.0026260402519255877,-0.0028170133009552956,-0.011581900529563427,0,0,-1000,-1,-1,-11,-2,3,-152,271341.0
11:23:36.944,AUTO,-35.3632615,149.1652353,16429,0.009662162512540817,0.0061971889808773994,-0.1597069799900055,-0.0026260402519255877,-0.0028170133009552956,-0.011581900529563427,0,0,-1000,-1,-1,-11,-2,3,-152,271341.0
11:23:37.146,AUTO,-35.3632615,149.1652354,16819,0.008540687151253223,0.005664252210408449,-0.16284717619419098,-0.0037524462677538395,-0.0016116355545818806,-0.013151570223271847,0,0,-1000,-3,0,-13,-3,4,-152,271341.0
11:23:37.347,AUTO,-35.3632615,149.1652354,17212,0.0062187714502215385,0.005101938731968403,-0.16621646285057068,-0.027774857357144356,-0.0014424968976527452,-0.014178462326526642,0,0,-997,-27,0,-14,-3,5,-152,271341.0
11:23:37.549,AUTO,-35.3632615,149.1652354,17212,0.0062187714502215385,0.005101938731968403,-0.16621646285057068,-0.027774857357144356,-0.0014424968976527452,-0.014178462326526642,0,0,-997,-27,0,-14,-3,5,-152,271341.0
11:23:37.751,AUTO,-35.3632615,149.1652354,17212,0.0062187714502215385,0.005101938731968403,-0.16621646285057068,-0.027774857357144356,-0.0014424968976527452,-0.014178462326526642,0,0,-997,-27,0,-14,-3,5,-152,271341.0
11:23:37.952,AUTO,-35.3632615,149.1652354,17212,0.0062187714502215385,0.005101938731968403,-0.16621646285057068,-0.027774857357144356,-0.0014424968976527452,-0.014178462326526642,0,0,-997,-27,0,-14,-3,5,-152,271341.0
11:23:38.154,AUTO,-35.3632617,149.1652352,18364,-0.05148463696241379,0.012612479738891125,-0.16292499005794525,-0.029546113684773445,0.07770717889070511,0.15059056878089905,-1,2,-982,-28,78,150,-8,-13,-147,271341.0
11:23:38.355,AUTO,-35.3632619,149.1652346,18734,-0.05158739537000656,0.04106616973876953,-0.0904415026307106,-0.0068009900860488415,0.1005871519446373,0.41497939825057983,-1,3,-980,-6,101,414,-15,-24,-142,271341.0
11:23:38.557,AUTO,-35.3632623,149.1652337,19088,-0.03490421921014786,0.04661085829138756,0.008918505162000656,0.11502669751644135,-0.10263290256261826,0.3098711371421814,1,9,-955,116,-101,309,-26,-34,-133,271341.0
11:23:38.759,AUTO,-35.3632629,149.1652327,19420,0.0028401738964021206,0.007984760217368603,0.06044953316450119,0.14623580873012543,-0.16438576579093933,0.10770847648382187,2,10,-954,147,-163,107,-32,-36,-122,271341.0
11:23:38.961,AUTO,-35.3632636,149.1652317,19717,0.03486806899309158,-0.024211768060922623,0.07047249376773834,0.11080624908208847,-0.09266810864210129,-0.006933985743671656,2,10,-958,111,-91,-7,-29,-30,-111,271341.0
11:23:39.163,AUTO,-35.3632636,149.1652317,19717,0.03486806899309158,-0.024211768060922623,0.07047249376773834,0.11080624908208847,-0.09266810864210129,-0.006933985743671656,2,10,-958,111,-91,-7,-29,-30,-111,271341.0
11:23:39.365,AUTO,-35.3632641,149.1652309,19989,0.055149395018815994,-0.037201546132564545,0.06308092176914215,0.057765308767557144,-0.02619827538728714,-0.04222514480352402,1,8,-961,58,-25,-42,-21,-17,-100,271341.0
11:23:39.571,AUTO,-35.3632641,149.1652309,19989,0.055149395018815994,-0.037201546132564545,0.06308092176914215,0.057765308767557144,-0.02619827538728714,-0.04222514480352402,1,8,-961,58,-25,-42,-21,-17,-100,271341.0
11:23:39.773,AUTO,-35.3632641,149.1652309,19989,0.055149395018815994,-0.037201546132564545,0.06308092176914215,0.057765308767557144,-0.02619827538728714,-0.04222514480352402,1,8,-961,58,-25,-42,-21,-17,-100,16462.0
11:23:39.980,AUTO,-35.3632645,149.165231,20649,0.05371639132499695,-0.028119275346398354,0.0420975387096405,-0.036280013620853424,0.031255610287189484,-0.009089183993637562,1,-4,-971,-35,31,-9,4,24,-74,16462.0
11:23:40.181,AUTO,-35.3632645,149.165231,20649,0.05371639132499695,-0.028119275346398354,0.0420975387096405,-0.036280013620853424,0.031255610287189484,-0.009089183993637562,1,-4,-971,-35,31,-9,4,24,-74,16462.0
11:23:40.383,AUTO,-35.3632644,149.1652316,20830,0.0429617278277874,-0.0198057908564806,0.0408296212553978,-0.05088239908218384,0.034201912581920624,0.00012333114864304662,0,-7,-974,-50,35,0,10,33,-67,16462.0
11:23:40.585,AUTO,-35.3632642,149.1652325,20994,0.031559910625219345,-0.011500094085931778,0.040481701493263245,-0.040897805243730545,0.03050910122692585,0.002751358784735203,0,-8,-976,-39,31,2,14,39,-61,16462.0
11:23:40.787,AUTO,-35.3632638,149.1652336,21141,0.020646914839744568,-0.0036280695348978043,0.040095970034599304,-0.03940273076295853,0.03188111633062363,0.002797880209982395,1,-10,-976,-38,32,2,17,42,-55,16462.0
11:23:40.989,AUTO,-35.3632634,149.1652346,21273,0.010163417086005211,0.0034163803793489933,0.039622366428375244,-0.047666020691394806,0.026358578354120255,0.00242858799174428,1,-11,-978,-46,27,2,17,42,-49,16462.0
11:23:41.192,AUTO,-35.3632634,149.1652346,21273,0.010163417086005211,0.0034163803793489933,0.039622366428375244,-0.047666020691394806,0.026358578354120255,0.00242858799174428,1,-11,-978,-46,27,2,17,42,-49,16462.0
11:23:41.394,AUTO,-35.3632629,149.1652357,21391,0.001788746565580368,0.00866619125008583,0.03900054097175598,-0.0239217858761549,0.018689367920160294,0.0003554639988578856,0,-9,-977,-23,19,0,17,40,-44,16462.0
11:23:41.597,AUTO,-35.3632629,149.1652357,21391,0.001788746565580368,0.00866619125008583,0.03900054097175598,-0.0239217858761549,0.018689367920160294,0.0003554639988578856,0,-9,-977,-23,19,0,17,40,-44,16462.0
11:23:41.799,AUTO,-35.3632629,149.1652357,21391,0.001788746565580368,0.00866619125008583,0.03900054097175598,-0.0239217858761549,0.018689367920160294,0.0003554639988578856,0,-9,-977,-23,19,0,17,40,-44,16462.0
11:23:42.002,AUTO,-35.3632619,149.1652384,21655,-0.011194889433681965,0.014925151132047176,0.0373823307454586,-0.0031556235626339912,0.0013757830020040274,-0.00027796346694231033,0,-6,-975,-2,2,0,10,26,-26,16462.0
11:23:42.204,AUTO,-35.3632619,149.1652384,21655,-0.011194889433681965,0.014925151132047176,0.0373823307454586,-0.0031556235626339912,0.0013757830020040274,-0.00027796346694231033,0,-6,-975,-2,2,0,10,26,-26,16462.0
11:23:42.408,AUTO,-35.3632616,149.165239,21712,-0.012223328463733196,0.014404972083866596,0.03662565350532532,0.017376460134983063,-0.002106939209625125,-0.0012830056948587298,0,-5,-973,18,-1,-1,7,21,-20,16462.0
11:23:42.610,AUTO,-35.3632614,149.1652395,21752,-0.012986551970243454,0.013791374862194061,0.03604568913578987,-0.04982537031173706,-0.0034595842007547617,-0.0037703842390328646,0,-6,-970,-49,-2,-3,5,16,-13,16462.0
11:23:42.811,AUTO,-35.3632613,149.1652399,21772,-0.012552154250442982,0.012601876631379128,0.03527621924877167,0.01624150201678276,-0.005512724164873362,-0.0029410524293780327,0,0,-966,17,-4,-2,3,11,-5,88169.0
11:23:43.013,AUTO,-35.3632612,149.1652401,21764,-0.038808636367321014,0.024846671149134636,0.03369897976517677,0.2424752414226532,0.031148497015237808,-0.004056920297443867,1,4,-934,243,32,-4,0,4,9,88169.0
11:23:43.216,AUTO,-35.3632612,149.16524,21722,-0.03928915038704872,0.014161153696477413,0.0335131473839283,-0.5576303005218506,-0.08754602819681168,0.001986343413591385,0,-40,-955,-558,-86,1,-4,-6,20,88169.0
11:23:43.418,AUTO,-35.3632612,149.16524,21722,-0.03928915038704872,0.014161153696477413,0.0335131473839283,-0.5576303005218506,-0.08754602819681168,0.001986343413591385,0,-40,-955,-558,-86,1,-4,-6,20,88169.0
11:23:43.620,AUTO,-35.3632612,149.16524,21722,-0.03928915038704872,0.014161153696477413,0.0335131473839283,-0.5576303005218506,-0.08754602819681168,0.001986343413591385,0,-40,-955,-558,-86,1,-4,-6,20,88169.0
11:23:43.822,AUTO,-35.3632612,149.16524,21722,-0.03928915038704872,0.014161153696477413,0.0335131473839283,-0.5576303005218506,-0.08754602819681168,0.001986343413591385,0,-40,-955,-558,-86,1,-4,-6,20,88169.0
11:23:44.024,AUTO,-35.3632611,149.1652392,21572,0.030912045389413834,-0.0460517592728138,0.030762774869799614,0.7055540680885315,-0.055214282125234604,-0.01241616066545248,-4,37,-1025,707,-54,-12,10,-6,11,88169.0
11:23:44.226,AUTO,-35.3632608,149.165239,21542,0.042947567999362946,-0.058091212064027786,0.02876238338649273,0.6223806738853455,-0.042944468557834625,-0.0015263082459568977,-4,12,-1024,623,-41,-1,22,0,8,88169.0
11:23:44.427,AUTO,-35.3632608,149.165239,21542,0.042947567999362946,-0.058091212064027786,0.02876238338649273,0.6223806738853455,-0.042944468557834625,-0.0015263082459568977,-4,12,-1024,623,-41,-1,22,0,8,88169.0
11:23:44.628,AUTO,-35.3632601,149.165239,21523,0.04670201614499092,-0.06924561411142349,0.026967396959662437,-0.28070127964019775,-0.04368740692734718,0.0008243212942034006,-6,-32,-1014,-280,-42,0,36,8,2,88169.0
11:23:44.830,AUTO,-35.3632591,149.1652393,21513,0.04628106579184532,-0.07934380322694778,0.039420582354068756,-0.4187600016593933,-0.0418257936835289,0.11916258186101913,-9,-18,-1012,-417,-40,119,53,19,0,88169.0
11:23:45.032,AUTO,-35.3632577,149.1652398,21507,0.06262575834989548,-0.08974835276603699,0.07371161878108978,0.39214304089546204,-0.028462452813982964,0.15527506172657013,-14,12,-1017,393,-27,155,70,30,-1,88169.0
11:23:45.234,AUTO,-35.3632559,149.1652406,21505,0.07392178475856781,-0.10080721974372864,0.11180198192596436,0.43660902976989746,-0.03368403762578964,0.16414307057857513,-14,-8,-1011,437,-32,164,89,42,-1,88169.0
11:23:45.438,AUTO,-35.3632559,149.1652406,21505,0.07392178475856781,-0.10080721974372864,0.11180198192596436,0.43660902976989746,-0.03368403762578964,0.16414307057857513,-14,-8,-1011,437,-32,164,89,42,-1,88169.0
11:23:45.641,AUTO,-35.3632559,149.1652406,21505,0.07392178475856781,-0.10080721974372864,0.11180198192596436,0.43660902976989746,-0.03368403762578964,0.16414307057857513,-14,-8,-1011,437,-32,164,89,42,-1,88169.0
11:23:45.843,AUTO,-35.3632559,149.1652406,21505,0.07392178475856781,-0.10080721974372864,0.11180198192596436,0.43660902976989746,-0.03368403762578964,0.16414307057857513,-14,-8,-1011,437,-32,164,89,42,-1,270685.0
11:23:46.045,AUTO,-35.3632479,149.1652451,21504,0.06455779820680618,-0.13603290915489197,0.24539797008037567,0.04647443816065788,-0.024725185707211494,0.43556031584739685,-28,-11,-1007,48,-23,435,154,84,-1,270685.0
11:23:46.246,AUTO,-35.3632442,149.1652475,21504,0.05583789572119713,-0.1526453047990799,0.3885436952114105,0.5645390748977661,-0.026213837787508965,0.6254600286483765,-34,-7,-1006,565,-25,625,178,98,-1,270685.0
11:23:46.448,AUTO,-35.3632442,149.1652475,21504,0.05583789572119713,-0.1526453047990799,0.3885436952114105,0.5645390748977661,-0.026213837787508965,0.6254600286483765,-34,-7,-1006,565,-25,625,178,98,-1,270685.0
11:23:46.649,AUTO,-35.3632399,149.1652502,21502,0.03583448380231857,-0.16824616491794586,0.5234037637710571,0.037619706243276596,-0.04237527772784233,0.41390156745910645,-48,-41,-1005,38,-41,413,204,111,0,270685.0
11:23:46.851,AUTO,-35.3632352,149.1652534,21500,0.019838033244013786,-0.18263103067874908,0.5773857235908508,-0.42726728320121765,-0.039613593369722366,0.09849811345338821,-51,-39,-1005,-426,-38,98,230,127,0,270685.0
11:23:47.053,AUTO,-35.3632298,149.1652571,21496,0.022440172731876373,-0.18779516220092773,0.5784427523612976,0.1396869719028473,-0.010703613981604576,-0.06122221052646637,-61,-19,-1010,141,-9,-61,257,143,0,270685.0
11:23:47.255,AUTO,-35.3632238,149.1652612,21495,0.02945779077708721,-0.1854831427335739,0.5602450966835022,0.20624379813671112,-0.0025209044106304646,-0.08205130696296692,-73,-32,-1010,206,-1,-82,284,157,-1,270685.0
11:23:47.457,AUTO,-35.3632238,149.1652612,21495,0.02945779077708721,-0.1854831427335739,0.5602450966835022,0.20624379813671112,-0.0025209044106304646,-0.08205130696296692,-73,-32,-1010,206,-1,-82,284,157,-1,270685.0
11:23:47.670,AUTO,-35.3632238,149.1652612,21495,0.02945779077708721,-0.1854831427335739,0.5602450966835022,0.20624379813671112,-0.0025209044106304646,-0.08205130696296692,-73,-32,-1010,206,-1,-82,284,157,-1,270685.0
11:23:47.873,AUTO,-35.3632238,149.1652612,21495,0.02945779077708721,-0.1854831427335739,0.5602450966835022,0.20624379813671112,-0.0025209044106304646,-0.08205130696296692,-73,-32,-1010,206,-1,-82,284,157,-1,270685.0
11:23:48.076,AUTO,-35.3632024,149.1652758,21500,0.03953604772686958,-0.19200770556926727,0.529881477355957,0.124639131128788,-0.014602933079004288,-0.010968782939016819,-76,-43,-1001,125,-13,-10,359,194,-2,270685.0
11:23:48.277,AUTO,-35.3631942,149.1652813,21501,0.03762894123792648,-0.19684955477714539,0.5297690629959106,-0.05770377069711685,-0.016183892264962196,0.002452305518090725,-84,-55,-1000,-56,-15,2,384,206,-1,270685.0
11:23:48.480,AUTO,-35.3631854,149.1652873,21503,0.040126871317625046,-0.20198741555213928,0.5299422144889832,0.004838438704609871,-0.027875585481524467,-0.013948092237114906,-94,-59,-1000,6,-27,-13,408,218,-1,270685.0
11:23:48.683,AUTO,-35.3631854,149.1652873,21503,0.040126871317625046,-0.20198741555213928,0.5299422144889832,0.004838438704609871,-0.027875585481524467,-0.013948092237114906,-94,-59,-1000,6,-27,-13,408,218,-1,270685.0
11:23:48.885,AUTO,-35.3631761,149.1652935,21503,0.047015536576509476,-0.20808696746826172,0.529155969619751,0.060593776404857635,-0.026248687878251076,-0.0017273033736273646,-99,-54,-1001,61,-25,-1,432,229,-1,200790.0
11:23:49.087,AUTO,-35.3631662,149.1653001,21503,0.04812905937433243,-0.2152881622314453,0.5281152129173279,-0.04226947948336601,-0.025091396644711494,-0.003455644939094782,-102,-61,-999,-41,-24,-3,456,242,0,200790.0
11:23:49.289,AUTO,-35.3631558,149.1653071,21502,0.05254402756690979,-0.21480010449886322,0.5269190073013306,-0.0022669555619359016,0.042631201446056366,-0.012308302335441113,-101,-63,-999,-1,43,-12,482,254,0,200790.0
11:23:49.491,AUTO,-35.3631558,149.1653071,21502,0.05254402756690979,-0.21480010449886322,0.5269190073013306,-0.0022669555619359016,0.042631201446056366,-0.012308302335441113,-101,-63,-999,-1,43,-12,482,254,0,200790.0
11:23:49.693,AUTO,-35.3631558,149.1653071,21502,0.05254402756690979,-0.21480010449886322,0.5269190073013306,-0.0022669555619359016,0.042631201446056366,-0.012308302335441113,-101,-63,-999,-1,43,-12,482,254,0,200790.0
11:23:49.895,AUTO,-35.3631558,149.1653071,21502,0.05254402756690979,-0.21480010449886322,0.5269190073013306,-0.0022669555619359016,0.042631201446056366,-0.012308302335441113,-101,-63,-999,-1,43,-12,482,254,0,200790.0
11:23:50.097,AUTO,-35.3631216,149.16533,21535,0.05712572857737541,-0.18765316903591156,0.5254361033439636,0.0031399191357195377,0.018972015008330345,-0.004926333669573069,-121,-80,-1004,4,19,-4,536,283,-8,200790.0
11:23:50.299,AUTO,-35.3631095,149.1653381,21554,0.061721764504909515,-0.18153315782546997,0.5244156718254089,0.013118850998580456,0.037943415343761444,-0.0061028990894556046,-114,-51,-989,14,38,-6,550,291,-9,200790.0
11:23:50.502,AUTO,-35.3630969,149.1653465,21576,0.06758562475442886,-0.17388442158699036,0.5232211351394653,0.027724845334887505,0.016267774626612663,-0.00461982749402523,-127,-71,-995,28,16,-4,562,296,-10,200790.0
11:23:50.704,AUTO,-35.3630969,149.1653465,21576,0.06758562475442886,-0.17388442158699036,0.5232211351394653,0.027724845334887505,0.016267774626612663,-0.00461982749402523,-127,-71,-995,28,16,-4,562,296,-10,200790.0
11:23:50.906,AUTO,-35.3630841,149.1653549,21600,0.07130953669548035,-0.16972078382968903,0.5219733119010925,0.03862673044204712,0.009377916343510151,-0.006340889725834131,-132,-80,-989,39,10,-6,572,301,-11,200790.0
11:23:51.109,AUTO,-35.3630712,149.1653635,21624,0.07425891607999802,-0.16477635502815247,0.5206458568572998,0.00047557055950164795,0.019666535779833794,-0.002772035775706172,-143,-71,-994,1,20,-2,580,307,-10,200790.0
11:23:51.312,AUTO,-35.3630582,149.1653722,21645,0.07351773232221603,-0.16341310739517212,0.519955575466156,-0.00026297190925106406,0.02275705896317959,0.0006912614335305989,-138,-72,-986,0,23,0,588,312,-8,200790.0
11:23:51.515,AUTO,-35.3630582,149.1653722,21645,0.07351773232221603,-0.16341310739517212,0.519955575466156,-0.00026297190925106406,0.02275705896317959,0.0006912614335305989,-138,-72,-986,0,23,0,588,312,-8,200790.0
11:23:51.717,AUTO,-35.3630582,149.1653722,21645,0.07351773232221603,-0.16341310739517212,0.519955575466156,-0.00026297190925106406,0.02275705896317959,0.0006912614335305989,-138,-72,-986,0,23,0,588,312,-8,110193.0
11:23:51.919,AUTO,-35.3630582,149.1653722,21645,0.07351773232221603,-0.16341310739517212,0.519955575466156,-0.00026297190925106406,0.02275705896317959,0.0006912614335305989,-138,-72,-986,0,23,0,588,312,-8,110193.0
11:23:52.121,AUTO,-35.3630182,149.1653991,21704,0.07277042418718338,-0.14193180203437805,0.5195603370666504,0.02652132511138916,0.03152279555797577,-0.00366908754222095,-128,-63,-986,27,32,-3,602,322,-9,110193.0
11:23:52.323,AUTO,-35.3630047,149.1654082,21726,0.07258643209934235,-0.1345827281475067,0.5195674896240234,0.04000082239508629,0.019774429500102997,-0.002464058343321085,-117,-76,-974,40,20,-2,604,322,-9,110193.0
11:23:52.525,AUTO,-35.3629911,149.1654173,21747,0.07522594183683395,-0.12730050086975098,0.5186830163002014,-0.02002505213022232,0.04119356721639633,0.010134024545550346,-133,-78,-986,-19,42,10,604,322,-9,110193.0
11:23:52.727,AUTO,-35.3629775,149.1654264,21769,0.07863675057888031,-0.11540055274963379,0.5177677273750305,0.011793522164225578,0.0397539921104908,0.00503100361675024,-131,-86,-992,12,40,5,603,321,-9,110193.0
11:23:52.929,AUTO,-35.3629775,149.1654264,21769,0.07863675057888031,-0.11540055274963379,0.5177677273750305,0.011793522164225578,0.0397539921104908,0.00503100361675024,-131,-86,-992,12,40,5,603,321,-9,110193.0
11:23:53.132,AUTO,-35.3629639,149.1654355,21790,0.07801348716020584,-0.11867044866085052,0.5167906880378723,0.00525978859513998,-0.053282637149095535,0.0016591495368629694,-131,-67,-968,6,-52,1,599,320,-7,110193.0
11:23:53.334,AUTO,-35.3629505,149.1654444,21802,0.07589878886938095,-0.13024145364761353,0.5171513557434082,0.012204496189951897,-0.06164968013763428,0.013166734017431736,-135,-77,-970,12,-60,13,597,319,-3,110193.0
11:23:53.536,AUTO,-35.3629505,149.1654444,21802,0.07589878886938095,-0.13024145364761353,0.5171513557434082,0.012204496189951897,-0.06164968013763428,0.013166734017431736,-135,-77,-970,12,-60,13,597,319,-3,110193.0
11:23:53.738,AUTO,-35.3629505,149.1654444,21802,0.07589878886938095,-0.13024145364761353,0.5171513557434082,0.012204496189951897,-0.06164968013763428,0.013166734017431736,-135,-77,-970,12,-60,13,597,319,-3,110193.0
11:23:53.940,AUTO,-35.3629505,149.1654444,21802,0.07589878886938095,-0.13024145364761353,0.5171513557434082,0.012204496189951897,-0.06164968013763428,0.013166734017431736,-135,-77,-970,12,-60,13,597,319,-3,110193.0
11:23:54.143,AUTO,-35.3629047,149.165475,21797,0.07922790199518204,-0.13825033605098724,0.5150738954544067,0.01689605787396431,0.005566974636167288,0.0038915425539016724,-125,-91,-990,17,6,3,602,322,0,110193.0
11:23:54.345,AUTO,-35.3628912,149.165484,21796,0.08174508064985275,-0.13769957423210144,0.5147546529769897,0.0050958869978785515,-0.016014400869607925,0.00928643811494112,-149,-89,-995,5,-15,9,603,323,0,110193.0
11:23:54.546,AUTO,-35.3628912,149.165484,21796,0.08174508064985275,-0.13769957423210144,0.5147546529769897,0.0050958869978785515,-0.016014400869607925,0.00928643811494112,-149,-89,-995,5,-15,9,603,323,0,110193.0
11:23:54.748,AUTO,-35.3628775,149.165493,21797,0.07926037162542343,-0.13708579540252686,0.5147256255149841,-0.02788335084915161,0.025475336238741875,0.001500743324868381,-130,-65,-989,-26,26,1,604,325,0,193564.0
11:23:54.950,AUTO,-35.3628638,149.1655021,21799,0.07847040146589279,-0.13057194650173187,0.5154184699058533,0.025556916370987892,0.027778275310993195,-0.0015503676841035485,-138,-72,-1000,26,28,-1,605,327,-1,193564.0
11:23:55.152,AUTO,-35.3628502,149.1655112,21806,0.07763873785734177,-0.12945234775543213,0.5157433748245239,0.03956679254770279,-0.01815379410982132,-0.0007777461432851851,-132,-81,-989,40,-17,0,605,327,-3,193564.0
11:23:55.353,AUTO,-35.3628366,149.1655202,21815,0.08247411996126175,-0.13228420913219452,0.5148199796676636,0.013869225978851318,-0.009912997484207153,-0.012554040178656578,-143,-66,-986,14,-8,-12,604,326,-2,193564.0
11:23:55.556,AUTO,-35.3628366,149.1655202,21815,0.08247411996126175,-0.13228420913219452,0.5148199796676636,0.013869225978851318,-0.009912997484207153,-0.012554040178656578,-143,-66,-986,14,-8,-12,604,326,-2,193564.0
11:23:55.757,AUTO,-35.3628366,149.1655202,21815,0.08247411996126175,-0.13228420913219452,0.5148199796676636,0.013869225978851318,-0.009912997484207153,-0.012554040178656578,-143,-66,-986,14,-8,-12,604,326,-2,193564.0
11:23:55.959,AUTO,-35.3628366,149.1655202,21815,0.08247411996126175,-0.13228420913219452,0.5148199796676636,0.013869225978851318,-0.009912997484207153,-0.012554040178656578,-143,-66,-986,14,-8,-12,604,326,-2,193564.0
11:23:56.161,AUTO,-35.3627958,149.1655473,21842,0.08144067972898483,-0.1343216896057129,0.5135803818702698,-0.004973658360540867,-0.020723659545183182,-0.004059183411300182,-134,-74,-973,-4,-19,-3,603,327,-3,193564.0
11:23:56.363,AUTO,-35.3627822,149.1655563,21851,0.08188720047473907,-0.1350567638874054,0.5133516788482666,0.02748788334429264,0.012690381146967411,-0.009890218265354633,-138,-76,-988,28,13,-9,603,328,-2,193564.0
11:23:56.565,AUTO,-35.3627685,149.1655654,21859,0.08131995797157288,-0.13434086740016937,0.513647735118866,0.05492860823869705,0.003314744448289275,-0.014552143402397633,-131,-78,-983,55,4,-14,603,328,-2,193564.0
11:23:56.767,AUTO,-35.3627685,149.1655654,21859,0.08131995797157288,-0.13434086740016937,0.513647735118866,0.05492860823869705,0.003314744448289275,-0.014552143402397633,-131,-78,-983,55,4,-14,603,328,-2,193564.0
11:23:56.968,AUTO,-35.3627548,149.1655745,21868,0.08081062883138657,-0.12943801283836365,0.5134958624839783,-0.020826146006584167,0.024938050657510757,0.0018744936678558588,-137,-81,-993,-20,25,2,603,329,-3,193564.0
11:23:57.170,AUTO,-35.3627411,149.1655836,21879,0.08338337391614914,-0.12633217871189117,0.5125752091407776,-0.01018095575273037,0.007819467224180698,-0.007579565513879061,-140,-68,-989,-9,8,-7,602,329,-4,193564.0
11:23:57.373,AUTO,-35.3627275,149.1655926,21892,0.08391217887401581,-0.12767745554447174,0.511584460735321,0.003915600478649139,-0.022551624104380608,-0.0024761257227510214,-138,-79,-983,4,-21,-2,601,328,-4,193564.0
11:23:57.576,AUTO,-35.3627275,149.1655926,21892,0.08391217887401581,-0.12767745554447174,0.511584460735321,0.003915600478649139,-0.022551624104380608,-0.0024761257227510214,-138,-79,-983,4,-21,-2,601,328,-4,193564.0
11:23:57.778,AUTO,-35.3627275,149.1655926,21892,0.08391217887401581,-0.12767745554447174,0.511584460735321,0.003915600478649139,-0.022551624104380608,-0.0024761257227510214,-138,-79,-983,4,-21,-2,601,328,-4,296155.0
11:23:57.980,AUTO,-35.3627275,149.1655926,21892,0.08391217887401581,-0.12767745554447174,0.511584460735321,0.003915600478649139,-0.022551624104380608,-0.0024761257227510214,-138,-79,-983,4,-21,-2,601,328,-4,296155.0
11:23:58.182,AUTO,-35.3626867,149.1656196,21924,0.08151557296514511,-0.12690553069114685,0.511374294757843,-0.0279683955013752,-0.009042367339134216,-0.009030509740114212,-141,-66,-983,-27,-8,-8,596,328,-2,296155.0
11:23:58.384,AUTO,-35.3626733,149.1656286,21932,0.08377566933631897,-0.1294783651828766,0.5109249949455261,0.08615989983081818,0.0016122215893119574,-0.00555081944912672,-130,-89,-985,87,2,-5,596,327,-1,296155.0
11:23:58.585,AUTO,-35.3626598,149.1656375,21938,0.08581782877445221,-0.13039812445640564,0.5095624923706055,-0.023183777928352356,-0.008176248520612717,-0.0041010696440935135,-137,-72,-984,-22,-7,-3,595,328,-1,296155.0
11:23:58.787,AUTO,-35.3626598,149.1656375,21938,0.08581782877445221,-0.13039812445640564,0.5095624923706055,-0.023183777928352356,-0.008176248520612717,-0.0041010696440935135,-137,-72,-984,-22,-7,-3,595,328,-1,296155.0
11:23:58.990,AUTO,-35.3626464,149.1656464,21944,0.084218829870224,-0.13373522460460663,0.5093435049057007,-0.019545089453458786,-0.020644044503569603,0.0017568230396136642,-154,-80,-998,-18,-19,1,594,327,-2,296155.0
11:23:59.192,AUTO,-35.3626329,149.1656554,21948,0.08480420708656311,-0.13507895171642303,0.5093785524368286,-0.006230319384485483,0.047137290239334106,0.0016040944028645754,-124,-77,-989,-5,48,1,595,328,0,296155.0
11:23:59.395,AUTO,-35.3626194,149.1656644,21954,0.08271336555480957,-0.1270483285188675,0.5097469687461853,0.015430974774062634,0.017960691824555397,-0.0006910457741469145,-134,-76,-993,16,18,0,595,329,-2,296155.0
11:23:59.598,AUTO,-35.3626194,149.1656644,21954,0.08271336555480957,-0.1270483285188675,0.5097469687461853,0.015430974774062634,0.017960691824555397,-0.0006910457741469145,-134,-76,-993,16,18,0,595,329,-2,296155.0
11:23:59.801,AUTO,-35.3626194,149.1656644,21954,0.08271336555480957,-0.1270483285188675,0.5097469687461853,0.015430974774062634,0.017960691824555397,-0.0006910457741469145,-134,-76,-993,16,18,0,595,329,-2,296155.0
11:24:00.005,AUTO,-35.3626194,149.1656644,21954,0.08271336555480957,-0.1270483285188675,0.5097469687461853,0.015430974774062634,0.017960691824555397,-0.0006910457741469145,-134,-76,-993,16,18,0,595,329,-2,296155.0
