time_stamp,roll,pitch,yaw,rollspeed,pitchspeed,yawspeed,lat,lon,relative_alt,vx,vy,vz,MODE,RTL_ALT,xacc,yacc,zacc,xgyro,ygyro,zgyro
04:49:10,-0.0010912692523561418,0.0009360823896713555,0.024489671923220158,0.00020573753863573074,0.00024464138550683856,0.0017812171718105674,-35.3632621,149.1652375,0.0,-1.0,0.0,-0.5,STABILIZE,1500.0,0.0,1.0,-1000.0,0.0,0.0,0.0
04:49:14,-0.000961755053140223,0.0009555450524203479,0.023229636251926422,0.00020367151591926813,0.0001402858179062605,0.0016557389171794057,-35.3632622,149.1652375,0.0,-1.0,1.0,0.0,STABILIZE,1500.0,0.0,1.5,-1000.0,1.0,0.0,0.0
04:49:18,-0.0010781678138300776,0.000991273671388626,0.022285012528300285,0.00028299359837546945,0.00026106875156983733,0.0016880456823855639,-35.3632622,149.1652375,10.0,-1.0,1.0,0.0,AUTO,1500.0,0.0,1.0,-1000.0,0.0,0.0,0.0
04:49:20,-0.0007572148557907591,0.0012516786810010672,0.021931881085038185,0.0002526046203759809,0.0002903741163512071,0.001500163887006541,-35.3632621,149.1652375,11.666666666666666,0.0,0.0,0.0,AUTO,1500.0,0.0,1.3333333333333333,-1000.0,0.3333333333333333,0.6666666666666666,0.6666666666666666
04:49:21,-0.0002864102498278953,0.0015451467188540846,0.02164092054590583,0.0003225520340492949,0.0002686085499590263,0.0014392675657290965,-35.3632621,149.1652375,12.0,0.0,0.0,0.0,AUTO,25355.0,0.0,1.5,-1000.0,0.25,0.25,0.0
04:49:22,0.0010413165728095919,0.0011915329960174859,0.021387606859207153,-0.0027659146580845118,0.002416679897578433,0.0014100685948505998,-35.3632621,149.1652375,146.5,0.0,0.0,-41.5,AUTO,25355.0,0.0,1.0,-1061.0,-2.0,2.5,0.5
04:49:24,0.048265593126416206,-0.003810129128396511,0.0035633291117846966,-0.009393209591507912,0.031956147868186235,-0.04381880653090775,-35.36326175,149.16523899999999,2499.5,5.5,30.5,-147.5,AUTO,25355.0,1.0,-5.0,-997.5,-9.0,32.5,-44.0
04:49:26,-0.06022254377603531,0.010574509389698505,-0.08641449920833111,-0.015101546421647072,0.053099854034371674,-0.0788603350520134,-35.3632599,149.1652459,5551.0,8.5,-5.0,-149.0,AUTO,30958.5,-1.5,-2.0,-1000.5,-14.5,53.0,-79.0
04:49:28,0.016225304687395692,0.01051468774676323,-0.1333259791135788,0.027672091498970985,-0.059702931364881806,0.05311793275177479,-35.3632638,149.16523625000002,8619.5,-48.0,-43.5,-150.5,AUTO,36562.0,1.5,14.0,-1003.0,28.5,-59.0,52.5
04:49:30,0.04590465687215328,-0.06468425877392292,-0.022202479653060436,-0.0826635044068098,0.061434077098965645,-0.035674093291163445,-35.36326615,149.1652343,11724.0,49.0,36.0,-146.5,AUTO,36562.0,-3.5,-10.0,-994.0,-82.5,62.5,-36.0
04:49:31,-0.02542471227934584,0.01196890464052558,-0.10629776306450367,-0.06148940837010741,0.07274410221725702,-0.10873070731759071,-35.3632599,149.16523875000001,13232.25,75.0,35.25,-149.5,AUTO,199519.0,-10.0,-17.75,-1013.25,-60.5,73.0,-108.25
04:49:32,-0.05191306956112385,0.048293109983205795,-0.1847587153315544,0.0266378375235945,0.03112340997904539,-0.05209682695567608,-35.36325505,149.16523949999998,14791.0,25.5,-16.5,-153.0,AUTO,199519.0,-8.5,-3.5,-1004.0,26.5,31.0,-51.5
04:49:34,0.04567026346921921,0.026586059539113194,-0.1965552195906639,-0.020415280014276505,-0.11261371616274118,0.08034321130253375,-35.3632601,149.16523410000002,17895.0,-69.5,9.5,-150.0,AUTO,199519.0,11.0,10.0,-999.5,-19.5,-111.5,80.0
04:49:36,-0.0024057049304246902,-0.01496671448694542,0.018679477274417877,0.1119579803198576,0.043407038785517216,0.01024960121139884,-35.36326435,149.1652358,20587.0,22.0,-17.5,-87.0,AUTO,199519.0,-6.0,0.0,-944.0,112.5,43.5,10.0
04:49:37,0.04008514480665326,0.012070797965861857,0.011464926647022367,-0.02106634946539998,0.011859541642479599,-0.003220806334866211,-35.36326235,149.165234575,21261.25,17.0,6.75,-46.0,AUTO,113292.0,-2.75,-2.75,-971.75,-19.75,12.25,-2.75
04:49:38,0.009537648817058653,0.014708823058754206,0.008135885000228882,-0.07050458714365959,-0.0015636635944247246,-0.0027716297190636396,-35.363261300000005,149.1652363,21594.5,5.0,22.5,-22.5,AUTO,113292.0,1.0,-6.5,-977.0,-69.0,-0.5,-2.5
04:49:40,0.007529526017606258,0.04308028053492308,0.0022317334078252316,0.2009943574666977,0.03447784669697285,0.0010908020194619894,-35.36326225,149.165239,21525.5,-27.0,3.0,12.5,AUTO,113292.0,5.5,18.0,-1018.5,202.5,35.0,1.0
04:49:42,0.1307499222457409,-0.0054176729172468185,1.21102836728096,0.07104887068271637,0.022039490228053182,1.0829759538173676,-35.36327665,149.1652459,21505.5,-151.5,77.5,-9.0,AUTO,89199.5,14.0,-31.5,-1009.5,72.5,23.0,1082.5
04:49:44,0.03464055713266134,-0.19181478768587112,2.7933253049850464,0.12262745574116707,-0.009538592654280365,0.07378950715065002,-35.3633223,149.16527424999998,21745.0,-357.0,176.5,-18.5,AUTO,65107.0,-82.5,-36.0,-1009.0,123.0,-9.0,73.5
04:49:46,0.06446530297398567,-0.1861538216471672,2.7232561111450195,0.0171003577997908,0.02209829818457365,-0.02667926112189889,-35.3634044,149.1653233,22234.0,-542.0,259.5,-35.5,AUTO,65107.0,-123.5,-59.5,-1007.0,18.0,22.5,-26.5
04:49:47,0.07433319091796875,-0.1660221330821514,2.7208173274993896,0.009608522697817534,0.006207958562299609,0.014691609656438231,-35.36345585,149.16535345,22611.75,-593.75,282.5,-40.25,AUTO,19652.0,-120.5,-70.0,-985.75,10.25,6.75,14.25
04:49:48,0.07159218564629555,-0.14803531020879745,2.7297226190567017,-0.0053483552765101194,0.037569466046988964,0.002783676070976071,-35.3635107,149.16538515000002,23011.5,-617.5,291.0,-39.0,AUTO,19652.0,-138.5,-76.5,-986.0,-4.5,38.5,2.5
04:49:50,0.07576723769307137,-0.10319249331951141,2.7246978282928467,-0.0036309208953753114,0.035673558712005615,-0.008798858150839806,-35.36362185,149.16544965,23756.5,-604.0,288.5,-35.5,AUTO,19652.0,-126.0,-76.0,-988.0,-2.5,36.5,-8.0
04:49:52,0.076959528028965,3.868434578180313e-05,2.7232826948165894,-0.012138192600104958,0.04957653768360615,-0.004030733602121472,-35.363722249999995,149.1655087,24442.0,-482.5,226.5,-26.5,AUTO,60330.5,-102.0,-72.0,-985.5,-11.5,50.0,-4.5
04:49:54,0.04388497956097126,0.05999661609530449,2.72199547290802,0.0840008445084095,0.01393050467595458,-0.006755795795470476,-35.363791,149.1655477,24772.0,-276.0,124.5,-6.0,AUTO,101009.0,-57.5,-36.5,-991.5,85.0,14.5,-7.0
04:49:56,0.0059158033691346645,0.06853540427982807,2.718482494354248,-0.24537953734397888,-0.025993178598582745,0.008019423577934504,-35.3638232,149.1655646,24876.0,-84.0,42.5,-3.5,AUTO,101009.0,-17.5,-34.5,-1001.0,-245.5,-24.5,7.5
04:49:57,-0.00904472079128027,0.04875263758003712,2.7176812887191772,0.2223930060863495,-0.015786203206516802,-0.00136445346288383,-35.363828774999995,149.165566925,24898.75,-23.0,22.0,-1.0,AUTO,229235.0,-5.0,2.5,-1000.5,223.5,-14.25,-1.0
04:49:58,-0.018371284939348698,0.028972011990845203,2.718184471130371,0.2683071247301996,-0.025401132181286812,-0.007465931703336537,-35.36383035,149.16556695,24912.0,10.5,15.0,-0.5,AUTO,229235.0,1.0,1.5,-1001.0,268.5,-23.5,-7.0
04:50:00,-0.019010591320693493,-0.0005302079953253269,2.7174694538116455,-0.029813259840011597,-0.009419267997145653,-0.01851244829595089,-35.3638306,149.1655664,24917.0,13.0,25.0,0.0,RTL,229235.0,-2.0,5.0,-1001.0,-30.0,-8.0,-19.0
04:50:02,-0.0007314294634852558,0.010964618064463139,2.7114155292510986,-0.0891343243420124,-0.0037565291859209538,-0.0077385229524225,-35.363831149999996,149.16556830000002,25395.0,15.5,13.5,-65.0,RTL,142232.5,-1.0,-6.5,-1041.5,-90.5,-2.0,-8.5
04:50:04,0.015299059799872339,0.00404362814151682,2.7084081172943115,0.02883492736145854,-0.0073053352534770966,0.0018662234651856124,-35.36383085,149.1655688,27591.0,12.0,-1.5,-142.0,RTL,55230.0,0.0,0.5,-1023.0,27.5,-5.0,1.0
04:50:06,-0.04623962473124266,0.012246318510733545,2.647498607635498,-0.08429689472541213,-0.011023158207535744,-0.04002082534134388,-35.36383285,149.16556409999998,30616.0,-4.0,-23.0,-146.0,RTL,55230.0,2.5,-4.0,-1004.0,-85.0,-9.0,-40.0
04:50:07,-0.04423341155052185,-0.00012143868661951274,2.6223238706588745,0.06211859453469515,0.00021990900859236717,-0.00870049832155928,-35.363832075000005,149.165564925,32150.0,25.75,28.75,-148.25,RTL,62776.0,-3.25,8.75,-1001.25,60.5,1.75,-8.75
04:50:08,0.022986910887993872,0.005618640221655369,2.61845326423645,0.06827792897820473,0.005070415325462818,0.0080656279460527,-35.3638287,149.16556935,33689.5,34.5,28.0,-150.5,RTL,62776.0,-5.0,13.0,-1003.0,66.5,6.0,7.5
04:50:10,0.020742701832205057,-0.024606977007351816,2.6719882488250732,-0.04453785205259919,0.05604134686291218,-0.044553404208272696,-35.36382635,149.16557245,36794.5,-31.0,-11.0,-148.5,RTL,62776.0,-3.5,-3.0,-998.5,-45.0,57.0,-44.0
04:50:12,0.016328333411365747,0.02258855104446411,2.5846372842788696,0.013558932114392519,-0.005089444923214614,-0.011666019447147846,-35.3638294,149.16557455,39512.5,-8.0,-9.5,-151.5,RTL,62776.0,-1.5,0.0,-999.0,13.0,-3.0,-11.0
04:50:13,0.017163506243377924,0.010650269105099142,2.57759553194046,-0.005753107223426923,-0.01229831762611866,-0.004738836458272999,-35.363829100000004,149.16557419999998,41231.5,0.0,-23.5,-151.0,RTL,261868.0,2.25,0.0,-999.75,-5.75,-10.0,-4.5
04:50:14,0.010262075811624527,0.002398449811153114,2.57021427154541,-0.00914030778221786,-0.009415871929377317,-0.013263276778161526,-35.363828749999996,149.16557319999998,42399.5,0.0,-26.0,-151.0,RTL,261868.0,3.0,0.0,-1000.5,-9.0,-7.0,-13.0
04:50:16,0.00900212349370122,-0.002078833116684109,2.519677519798279,0.003253588132793084,0.0017664586775936186,-0.026693591848015785,-35.36382815,149.16557135,45518.0,-5.5,-13.5,-152.0,RTL,261868.0,0.0,0.0,-1000.0,3.5,3.5,-26.0
04:50:18,0.011684481054544449,0.0031405737390741706,2.4614734649658203,-0.002378891222178936,-0.0001464962842874229,-0.021867021918296814,-35.3638282,149.165571,48647.5,-7.0,-12.0,-152.0,RTL,182252.5,0.0,0.0,-999.5,-2.0,1.5,-21.0
04:50:20,0.00822335621342063,0.0034157928312197328,2.4150474071502686,0.001825914136134088,0.002546200528740883,-0.013882634229958057,-35.3638284,149.16557045000002,51756.5,-6.0,-11.0,-152.0,RTL,102637.0,0.0,0.0,-1000.0,2.0,3.5,-13.5
04:50:22,0.006586113013327122,0.002456473419442773,2.450326085090637,6.324471905827522e-05,-0.0028658234514296055,0.02981206215918064,-35.3638286,149.16556945000002,54868.0,-5.0,-12.5,-152.0,RTL,102637.0,0.0,0.0,-1000.5,0.5,-0.5,30.0
04:50:23,0.0053085131803527474,0.00013936707000539172,2.48240202665329,0.0021509265643544495,-0.0003659973299363628,0.025260319467633963,-35.3638286,149.1655689,56810.25,-4.0,-8.5,-152.0,RTL,40620.0,0.0,0.0,-1000.25,2.5,1.25,25.25
04:50:24,0.0060197277925908566,0.0001051210128935054,2.4981590509414673,0.004514732165262103,0.000725069607142359,0.02095392346382141,-35.3638286,149.1655689,57976.5,-4.0,-6.5,-152.0,RTL,40620.0,0.0,0.0,-1000.0,4.5,2.5,21.5
04:50:26,0.00688809365965426,0.0009422925941180438,2.532427430152893,0.0012268086429685354,0.002253038459457457,0.01787417847663164,-35.3638287,149.16556905,61079.5,-4.0,-4.0,-152.0,RTL,40620.0,0.0,0.0,-999.5,2.0,3.5,18.5
04:50:28,0.006540634203702211,0.0017060740501619875,2.5581490993499756,-0.0008069232571870089,-0.0001283408491872251,0.013954400084912777,-35.3638288,149.1655693,64183.0,-3.0,-5.0,-152.0,RTL,100833.5,0.0,0.0,-1000.5,0.5,1.0,14.5
04:50:30,0.006156543968245387,0.0017114296206273139,2.577601671218872,-0.003662055532913655,0.00034383893944323063,0.010972024872899055,-35.3638289,149.1655696,67287.0,-3.0,-5.0,-152.0,RTL,161047.0,0.0,0.0,-999.5,-2.0,1.5,11.0
04:50:32,0.0055206886027008295,0.0021048893686383963,2.5922802686691284,-0.0030845223227515817,0.000835718703456223,0.008132047019898891,-35.363829,149.1655696,70396.5,-2.0,-5.0,-152.0,RTL,161047.0,0.0,0.0,-999.0,-1.5,2.0,9.0
04:50:33,0.005297170137055218,0.0019210011814720929,2.600175142288208,0.0006314819620456547,-0.0003861565492115915,0.008542747586034238,-35.363829,149.1655696,72333.25,-1.25,-5.0,-152.0,RTL,13400.0,0.0,0.0,-1000.0,2.0,1.0,9.5
04:50:34,0.005205613560974598,0.0016326454351656139,2.6048275232315063,-0.0015707421698607504,-0.00017521955305710435,0.008600342087447643,-35.363829,149.1655696,73499.5,-1.0,-5.0,-152.0,RTL,13400.0,0.0,0.0,-999.5,0.0,1.0,9.5
04:50:36,0.005010614404454827,0.00204091495834291,2.6162219047546387,-0.004055829311255366,-0.0006591218407265842,0.005556235555559397,-35.363829,149.1655696,76614.5,-1.0,-4.0,-152.0,RTL,13400.0,0.0,0.0,-1000.0,-2.5,1.0,6.5
04:50:38,0.0047865069936960936,0.0017929523601196706,2.6255645751953125,-0.0015356651274487376,-5.9265876188874245e-05,0.0064160265028476715,-35.3638291,149.1655695,79712.0,-1.0,-4.0,-152.0,RTL,13400.0,0.0,0.0,-999.5,0.0,1.0,7.0
04:50:39,0.004671530099585652,0.002910204231739044,2.630744218826294,0.0015046198386698961,0.0006303561967797577,0.0060079279355704784,-35.3638291,149.16556955000001,81652.75,-0.25,-4.0,-152.0,RTL,21638.0,0.0,0.0,-1000.0,2.75,2.0,6.75
04:50:40,0.004883894929662347,0.0028621098026633263,2.633814573287964,0.0016333797830156982,0.0007448075921274722,0.005930023035034537,-35.3638292,149.1655696,82817.0,0.0,-4.0,-152.0,RTL,21638.0,0.0,0.0,-1000.0,3.0,2.0,7.0
04:50:42,0.0042140313889831305,0.0022067303070798516,2.6406893730163574,-0.001529949950054288,0.00024535058764740825,0.00429525226354599,-35.3638292,149.1655696,85931.0,0.0,-4.0,-152.0,RTL,21638.0,0.0,0.0,-1000.0,0.0,1.5,5.5
04:50:44,0.0035690387012436986,0.0018452785443514585,2.6466941833496094,-0.0027540652081370354,0.00019898719619959593,0.003706028452143073,-35.3638292,149.16556945000002,89039.5,0.0,-3.0,-152.0,RTL,18426.0,0.0,0.0,-999.5,-1.0,1.5,4.5
04:50:46,0.00429208273999393,0.0018190330010838807,2.6521469354629517,-0.0019772324012592435,0.0007225319859571755,0.003216426121070981,-35.3638292,149.1655695,92142.0,0.0,-3.0,-152.0,RTL,15214.0,0.0,0.0,-999.5,0.0,2.5,4.0
04:50:48,0.0036468164762482047,0.002934458199888468,2.6569464206695557,-0.004178404400590807,0.0003545515355654061,0.0009780895779840648,-35.3638292,149.1655695,95247.5,0.0,-3.0,-152.0,RTL,15214.0,0.0,0.0,-999.5,-2.0,2.0,2.0
04:50:49,0.003710120217874646,0.0023577521787956357,2.659737527370453,0.0008331184217240661,-0.00029485017876140773,0.004412805486936122,-35.3638292,149.165569425,97191.5,0.0,-3.0,-152.0,RTL,5074.0,0.0,0.0,-1000.0,2.25,1.5,5.75
04:50:50,0.0037267428124323487,0.002147935447283089,2.6611801385879517,-0.00028323358856141567,-0.0004021212225779891,0.0010533456224948168,-35.3638292,149.1655694,98357.0,0.0,-3.0,-152.0,RTL,5074.0,0.0,0.0,-1000.5,1.0,1.0,2.5
04:50:52,0.003641866729594767,0.002344611450098455,2.6655081510543823,0.0013835980789735913,0.0009575433796271682,0.0029389478731900454,-35.3638292,149.1655694,101619.0,0.0,-3.0,-152.0,RTL,5074.0,0.0,0.0,-999.5,3.0,2.5,4.5
04:50:54,0.0038214976666495204,0.00205617502797395,2.668766498565674,0.0029697578866034746,0.0009292406029999256,0.003203296917490661,-35.3638292,149.1655694,104728.5,0.0,-3.0,-152.0,RTL,5074.0,0.0,0.0,-1000.0,4.5,2.5,4.5
04:50:55,0.003727689851075411,0.002130850509274751,2.670405924320221,-0.0007243403233587742,0.0005176464328542352,0.0029361072229221463,-35.3638292,149.1655694,106666.75,0.0,-3.0,-152.0,RTL,156011.0,0.0,0.0,-999.5,1.0,2.0,4.0
04:50:56,0.003616464091464877,0.00231431913562119,2.67115581035614,0.0007728235796093941,0.0007614393252879381,0.00029526971047744155,-35.3638292,149.1655694,107835.0,0.0,-3.0,-152.0,RTL,156011.0,0.0,0.0,-1000.0,2.5,2.5,1.5
04:50:58,0.0034494572319090366,0.0020141618442721665,2.673675775527954,-0.0005462225526571274,0.0017813106533139944,0.0013555557234212756,-35.3638292,149.1655694,110937.0,0.0,-2.0,-152.0,RTL,156011.0,0.0,0.0,-999.5,1.0,3.5,2.5
04:51:00,0.0032239792635664344,0.0022545024985447526,2.675500988960266,-0.0025771704385988414,-9.517133003100753e-05,0.002426235587336123,-35.3638292,149.1655694,114044.0,0.0,-2.0,-152.0,RTL,209891.5,0.0,0.0,-999.0,-0.5,1.5,3.5
04:51:02,0.0032569275936111808,0.002260634209960699,2.6772834062576294,-0.0004123174003325403,0.0006009176722727716,0.0018812711932696402,-35.3638292,149.1655694,117153.0,0.0,-2.0,-152.0,RTL,263772.0,0.0,0.0,-1000.0,1.0,2.0,3.0
04:51:04,0.0031149593414738774,0.0022086896933615208,2.678783655166626,-0.0008931452175602317,0.0008504245197400451,0.0011835737386718392,-35.3638292,149.1655693,120260.5,0.0,-2.0,-152.0,RTL,263772.0,0.0,0.0,-999.5,0.5,3.0,3.0
04:51:05,0.0032294816337525845,0.0019861723703797907,2.679662346839905,0.00022527278633788228,0.0008489656029269099,0.0007412481063511223,-35.3638292,149.1655693,122207.25,0.0,-2.0,-152.0,RTL,21395.0,0.0,0.0,-999.75,1.75,2.5,2.25
04:51:06,0.003343085525557399,0.0023144736187532544,2.6800458431243896,0.0009748183656483889,0.0008557011606171727,0.0022667994489893317,-35.3638292,149.1655693,123376.0,0.0,-2.0,-152.0,RTL,21395.0,0.0,0.0,-999.5,3.0,2.5,4.0
04:51:08,0.00358573195990175,0.0025143849197775126,2.681986093521118,0.0021974912378937006,0.0019321892177686095,0.0019335774704813957,-35.3638292,149.1655693,126477.0,0.0,-2.0,-152.0,RTL,21395.0,0.0,0.0,-999.5,4.5,4.0,3.5
04:51:10,0.003364569856785238,0.002326322253793478,2.682934284210205,0.001241378835402429,0.0018460230203345418,0.001394149730913341,-35.3638292,149.1655693,129587.5,0.0,-2.0,-152.0,RTL,51607.0,0.0,0.0,-1000.0,3.0,3.5,2.5
04:51:12,0.003221307648345828,0.0022122138179838657,2.6838546991348267,0.00020890042651444674,0.0019431773107498884,0.002408017055131495,-35.3638292,149.1655693,132695.0,0.0,-2.0,-152.0,RTL,51607.0,0.0,0.0,-999.0,2.0,3.5,4.0
04:51:14,0.003142439993098378,0.0023076117504388094,2.6844403743743896,0.0013186512514948845,0.0007282149745151401,0.0008720735786482692,-35.3638292,149.1655693,135806.0,0.0,-2.0,-152.0,RTL,51607.0,0.0,0.0,-1000.0,3.0,2.5,2.5
04:51:15,0.0031061049667187035,0.002102312515489757,2.6846752762794495,0.0006995423464104533,-0.0005608247010968626,0.0014372456353157759,-35.3638292,149.1655693,137744.25,0.0,-2.0,-152.0,RTL,1863.0,0.0,0.0,-1000.0,2.5,1.25,3.0
04:51:16,0.00322006200440228,0.0019920009071938694,2.6850844621658325,0.0006487289210781455,0.0006909049116075039,0.0002990866778418422,-35.3638292,149.1655693,138911.0,0.0,-2.0,-152.0,RTL,1863.0,0.0,0.0,-999.5,2.5,2.0,2.0
04:51:18,0.0031271983170881867,0.0021592637058347464,2.685531735420227,-0.0012301672250032425,-0.0012748955050483346,-0.00010745692998170853,-35.3638292,149.1655693,142015.0,0.0,-2.0,-152.0,RTL,1863.0,0.0,0.0,-1000.0,0.5,1.0,1.5
04:51:20,0.0031722737476229668,0.00216475420165807,2.686051368713379,-0.0015053065726533532,-0.000707698636688292,-0.0005627886857837439,-35.3638292,149.1655693,145122.5,0.0,-2.0,-152.0,RTL,1863.0,0.0,0.0,-1000.0,1.0,1.0,1.5
04:51:21,0.0030867960886098444,0.0022238758392632008,2.686261475086212,-7.189277675934136e-05,0.00022770350915379822,0.0013401961186900735,-35.3638292,149.1655693,147065.25,0.0,-2.0,-152.0,RTL,44270.0,0.0,0.0,-1000.0,1.75,2.25,3.25
04:51:22,0.0034458227455615997,0.0023161054123193026,2.686378002166748,0.002745633712038398,-0.0001963739050552249,0.001380716566927731,-35.3638292,149.1655693,148233.0,0.0,-2.0,-152.0,RTL,44270.0,0.0,0.0,-1000.0,5.0,2.0,3.0
04:51:24,0.002965797088108957,0.0026412964798510075,2.6874195337295532,0.00048159819561988115,9.853008668869734e-05,0.001165910274721682,-35.3638292,149.1655693,151347.0,0.0,-2.0,-152.0,RTL,44270.0,0.0,0.0,-1000.0,2.5,2.0,2.5
04:51:26,0.002661213744431734,0.001988397620152682,2.687580704689026,-0.0007183261914178729,0.0012980581959709525,-0.000553007354028523,-35.3638292,149.1655693,154454.0,0.0,-2.0,-152.0,RTL,39335.5,0.0,0.0,-999.5,1.5,3.5,1.5
04:51:28,0.003150438191369176,0.002188113983720541,2.6879578828811646,0.0003780396655201912,-0.0006570324185304344,0.0009821993298828602,-35.3638292,149.1655693,157552.5,0.0,-2.0,-152.0,RTL,34401.0,0.0,0.0,-1000.0,2.0,1.5,2.5
04:51:30,0.0026102123083546758,0.0019995460752397776,2.687881350517273,0.003255296847783029,0.00039881898555904627,0.0016142778331413865,-35.3638292,149.16556924999998,160666.0,0.0,-1.0,-152.0,RTL,34401.0,0.0,0.0,-1000.0,5.5,2.5,3.5
04:51:31,0.0037851905217394233,0.0024076307890936732,2.6884576082229614,0.0009867915068753064,0.0015279155340977013,0.0006421160651370883,-35.3638292,149.1655693,162611.25,0.0,-1.5,-152.0,RTL,44106.0,0.0,0.0,-999.75,2.75,3.75,2.75
04:51:32,0.003537931712344289,0.0023374129086732864,2.688297748565674,0.0017963352147489786,-0.0010680734412744641,0.002205599914304912,-35.3638292,149.1655693,163778.0,0.0,-2.0,-152.0,RTL,44106.0,0.0,0.0,-1000.0,4.0,1.5,4.0
04:51:34,0.002906247624196112,0.002759096445515752,2.6884171962738037,-0.00263878091936931,-0.0003980358596891165,0.0010691005736589432,-35.3638293,149.1655693,166884.0,0.0,-2.0,-152.0,RTL,44106.0,0.0,0.0,-1000.0,0.5,1.5,2.5
04:51:36,0.0027308568824082613,0.0020983467111364007,2.688397765159607,-0.0012217973126098514,-0.0007578528020530939,0.0015063664177432656,-35.3638293,149.1655693,169986.5,1.0,-2.0,-152.0,RTL,112309.0,0.0,0.0,-1000.0,1.5,1.5,3.5
04:51:38,0.003136693499982357,0.0019448494422249496,2.688361644744873,0.0007327705388888717,0.0003543306374922395,0.0024198604514822364,-35.3638293,149.1655693,173093.0,0.0,-2.0,-152.0,RTL,180512.0,0.0,0.0,-999.0,3.0,2.5,4.0
04:51:40,0.00228936190251261,0.0022638392401859164,2.6890569925308228,-0.00044575927313417196,2.5106652174144983e-05,0.002449351246468723,-35.3638293,149.1655692,176203.0,0.0,-1.0,-152.0,RTL,180512.0,0.0,0.0,-1000.0,2.0,2.0,4.5
04:51:41,0.0033225377555936575,0.002156129659852013,2.6892938017845154,0.0010243618744425476,0.00038573163328692317,0.0010897898464463651,-35.3638293,149.1655693,178300.25,0.0,-1.0,-152.0,RTL,60646.0,0.0,0.0,-1000.0,3.25,2.75,3.0
04:51:42,0.0037665388081222773,0.0023171626962721348,2.689386248588562,0.002361970953643322,0.0012378889368847013,0.00196074100676924,-35.3638293,149.1655693,179465.0,0.0,-2.0,-152.0,RTL,60646.0,0.0,0.0,-1000.0,4.5,3.5,3.5
04:51:44,0.003175192978233099,0.0022666362347081304,2.6893826723098755,0.000838808249682188,-0.0002448424347676337,0.001580099924467504,-35.3638293,149.1655693,182576.0,0.0,-2.0,-152.0,RTL,60646.0,0.0,0.0,-1000.0,3.0,2.0,3.5
04:51:46,0.002647065673954785,0.002274947939440608,2.689289689064026,0.002263528644107282,0.0009166267700493336,0.0001634878572076559,-35.3638293,149.1655693,185680.5,0.0,-2.0,-152.0,RTL,60646.0,0.0,0.0,-1000.0,4.0,2.6666666666666665,3.0
04:51:47,0.0024185259826481342,0.0018445767054799944,2.6893410682678223,0.0006463911267928779,0.0005084428121335804,0.000981984252575785,-35.3638293,149.16556924999998,187619.5,0.0,-1.75,-152.0,RTL,23857.0,0.0,0.0,-1000.0,2.75,2.75,3.0
04:51:48,0.0024032089859247208,0.002115693874657154,2.689405679702759,0.0012866802280768752,0.0023558131651952863,0.0012303987750783563,-35.3638293,149.1655692,188785.0,0.0,-1.0,-152.0,RTL,23857.0,0.0,0.0,-999.5,3.5,4.5,3.5
04:51:50,0.003283690350751082,0.002382089616730809,2.6892743905385337,0.001303708724056681,-0.0003298714679355423,0.0014772454742342234,-35.3638293,149.1655692,191703.33333333334,1.0,-1.0,-152.0,RTL,23857.0,0.0,0.0,-1000.0,3.3333333333333335,2.0,3.3333333333333335
04:51:52,0.003308174666017294,0.0024311333739509187,2.689307371775309,-0.00025468932775159675,-0.0002859467640519142,0.0009884231258183718,-35.3638293,149.1655693,194807.66666666666,0.0,-2.0,-152.0,RTL,25613.5,0.0,0.0,-999.3333333333334,2.3333333333333335,2.3333333333333335,3.0
04:51:54,0.0025842562317848206,0.0020455815829336643,2.6892882585525513,0.0013953514862805605,-3.075256245210767e-05,0.0007983417017385364,-35.3638293,149.1655693,197913.33333333334,0.0,-2.0,-152.0,RTL,27370.0,0.0,0.0,-1000.3333333333334,2.3333333333333335,1.6666666666666667,3.0
04:51:56,0.0029848465540756783,0.0024207306560128927,2.6897223790486655,-0.0010570307883123557,0.0008442105414966742,0.0008353414013981819,-35.3638293,149.1655693,201028.66666666666,0.0,-2.0,-152.0,RTL,27370.0,0.0,0.0,-999.6666666666666,1.6666666666666667,3.3333333333333335,3.0
04:51:57,0.0031454506485412517,0.002236018112550179,2.6899361610412598,-0.0007907097072650989,-0.0002655688052376111,0.0014087584956238668,-35.3638293,149.1655693,202969.66666666666,0.0,-2.0,-152.0,RTL,25986.0,0.0,0.0,-999.6666666666666,1.6666666666666667,2.3333333333333335,3.6666666666666665
04:51:58,0.002467656508088112,0.0026359685386220613,2.689957777659098,-0.00015707205360134444,0.008451585890725255,-0.00011588578733305137,-35.3638293,149.1655693,204136.0,0.0,-2.0,-152.0,RTL,25986.0,0.0,0.0,-999.0,2.3333333333333335,11.0,2.0
04:52:00,-0.0023233675965457223,0.07676220685243607,2.690112352371216,-0.008205737918615341,0.03365866901973883,-0.000304816795202593,-35.3638259,149.16556723333335,207201.33333333334,58.333333333333336,-31.0,-146.66666666666666,RTL,25986.0,10.0,5.333333333333333,-995.3333333333334,-4.666666666666667,36.333333333333336,2.0
04:52:02,0.006968474946916103,0.17521377901236215,0.9992335637410482,0.08148164302110672,-0.1128340686360995,0.29909659425417584,-35.36380163333334,149.16555440000002,209715.0,247.66666666666666,-79.0,-71.0,RTL,25986.0,50.0,14.666666666666666,-936.0,83.66666666666667,-109.0,301.3333333333333
04:52:03,0.09059303750594457,0.14140007396539053,-3.037158648173014,0.003324636568625768,0.06966476887464523,0.030593691083292168,-35.3637693,149.16553843333335,210144.0,320.3333333333333,-161.0,2.3333333333333335,RTL,292390.0,81.33333333333333,2.0,-949.3333333333334,6.333333333333333,72.33333333333333,32.666666666666664
04:52:04,0.08101084331671397,0.19384834667046866,-3.0322562058766684,0.02579973389705022,0.0589402640859286,-0.02980339527130127,-35.36374593333333,149.16552283333334,210016.0,377.6666666666667,-215.66666666666666,25.0,RTL,292390.0,95.33333333333333,-5.0,-985.3333333333334,29.333333333333332,61.333333333333336,-26.666666666666668
04:52:06,0.0015228793490678072,0.20631171762943268,-3.1157400608062744,0.02180943762262662,-0.0031836330890655518,-0.03658178014059862,-35.36366086666666,149.16546633333334,209680.0,560.6666666666666,-280.3333333333333,-1.3333333333333333,RTL,292390.0,140.0,13.333333333333334,-1000.6666666666666,24.666666666666668,0.0,-33.0
04:52:08,-0.02644682303071022,0.15265451868375143,3.0917853514353433,0.00794458823899428,-0.026828012118736904,-0.029059486463665962,-35.36355296666667,149.1654036,209766.66666666666,620.0,-285.6666666666667,-7.0,RTL,196052.5,148.33333333333334,27.0,-988.3333333333334,11.0,-23.333333333333332,-26.0
04:52:10,-0.05123081306616465,0.10291700065135956,3.0281617641448975,-0.10380829373995464,-0.05119579844176769,-0.03474875415364901,-35.36344236666667,149.16534113333333,209813.66666666666,593.3333333333334,-277.3333333333333,-5.666666666666667,RTL,99715.0,145.33333333333334,31.666666666666668,-988.6666666666666,-100.66666666666667,-47.333333333333336,-31.333333333333332
04:52:12,-0.0618090791006883,0.005448805168271065,2.9885688622792563,0.6280761659145355,-0.04674408088127772,0.0253726610292991,-35.3633469,149.16528689999998,209823.33333333334,447.0,-209.66666666666666,0.6666666666666666,RTL,99715.0,109.33333333333333,71.66666666666667,-984.3333333333334,631.3333333333334,-43.0,28.0
04:52:13,-0.05733901262283325,-0.03098328287402789,2.964369455973307,-0.3069322506586711,-0.0019642322634657225,-0.03904145583510399,-35.36330423333333,149.16526296666666,209776.66666666666,313.3333333333333,-143.66666666666666,1.3333333333333333,RTL,102177.0,79.33333333333333,6.0,-1007.3333333333334,-304.3333333333333,1.3333333333333333,-35.666666666666664
04:52:14,-0.04096590727567673,-0.04495521758993467,2.9534252484639487,-0.04204582174619039,-0.0293087437748909,0.0018947741482406855,-35.3632858,149.1652533,209754.0,238.33333333333334,-110.66666666666667,1.0,RTL,102177.0,55.0,37.333333333333336,-994.0,-37.666666666666664,-25.666666666666668,5.0
04:52:16,5.774393988152345e-05,-0.03989056249459585,2.9288931687672934,0.45142317811648053,0.02591277410586675,-0.0028572135294477143,-35.36326103333334,149.16524043333334,209730.0,62.666666666666664,-40.333333333333336,-1.0,RTL,102177.0,13.666666666666666,21.0,-988.3333333333334,454.0,28.666666666666668,0.3333333333333333
04:52:18,0.010230099937568108,0.004980457092945774,2.9102973143259683,0.42143817983257276,0.029499443247914314,-0.009285807609558105,-35.3632584,149.1652374,209739.0,2.0,-11.333333333333334,-2.6666666666666665,RTL,42965.0,0.0,5.0,-1009.3333333333334,424.0,32.333333333333336,-5.666666666666667
04:52:20,-0.008134523949896296,0.001120244055831184,2.896496057510376,-0.4019749015569687,-0.003293994969377915,-0.004286652120451133,-35.36325936666666,149.16523626666665,209758.33333333334,2.0,-3.0,-0.3333333333333333,RTL,42965.0,0.3333333333333333,-19.666666666666668,-998.6666666666666,-398.0,0.6666666666666666,-0.6666666666666666
04:52:22,-0.00556958590944608,0.006925946256766717,2.885251760482788,-0.07686831553777058,0.001401382265612483,-0.004653150138134758,-35.363261,149.16523646666667,209758.66666666666,0.0,2.6666666666666665,0.0,RTL,42965.0,-1.0,16.0,-993.6666666666666,-72.33333333333333,4.333333333333333,-1.0
04:52:23,-0.005612677380365009,0.00709859374910593,2.8775665760040283,-0.20792328317960104,0.003931316391875346,-0.005185701263447602,-35.36326176666666,149.1652367,209763.66666666666,2.0,3.0,-0.6666666666666666,RTL,21401.0,-0.6666666666666666,-2.0,-997.0,-204.0,7.333333333333333,-2.0
04:52:24,0.0011734614769617717,0.008981272578239441,2.8737574418385825,-0.08921126027901967,0.006920728211601575,-0.0008850215623776118,-35.36326210000001,149.1652366666667,209702.0,4.0,4.333333333333333,24.0,RTL,21401.0,0.0,-21.666666666666668,-927.6666666666666,-86.66666666666667,10.666666666666666,2.0
04:52:26,0.010152769585450491,0.005611117308338483,2.8653811613718667,0.030596792697906494,0.006294348121931155,0.008494902479772767,-35.3632626,149.16523643333332,208037.66666666666,7.666666666666667,7.666666666666667,116.33333333333333,RTL,21401.0,-0.3333333333333333,-46.0,-980.6666666666666,32.0,10.333333333333334,11.0
04:52:28,-0.0038623063204189143,0.009578118100762367,2.8560651938120523,1.2347027858098347,0.00827890836323301,-0.003215246251784265,-35.3632629,149.16523643333335,205902.33333333334,5.666666666666667,4.333333333333333,97.0,RTL,12359.5,3.6666666666666665,66.33333333333333,-998.3333333333334,1238.6666666666667,12.0,0.0
04:52:30,-0.04491989190379778,0.005876536791523297,2.8508480389912925,0.7306698362032572,-0.005488211909929912,-0.0032713583980997405,-35.363263933333336,149.16523270000002,203858.66666666666,16.0,27.666666666666668,101.66666666666667,RTL,3318.0,-1.0,76.66666666666667,-993.6666666666666,734.3333333333334,-1.3333333333333333,0.0
04:52:32,0.0067164720967411995,-0.005078589854141076,2.845015366872152,-1.2657222747802734,-0.0010506884815792243,0.0041607296249518795,-35.3632624,149.16523700000002,201792.0,11.333333333333334,20.0,101.0,RTL,3318.0,-5.666666666666667,-53.0,-959.0,-1263.3333333333333,3.3333333333333335,7.0
04:52:33,0.057157875349124275,-0.0007568954994591574,2.842203378677368,1.2904441754023235,0.011680425144731998,-0.006700238833824794,-35.3632616,149.16524046666666,200494.0,0.0,-10.666666666666666,94.66666666666667,RTL,33694.0,-6.0,36.666666666666664,-1040.0,1292.0,15.666666666666666,-3.6666666666666665
04:52:34,0.06089087948203087,0.0013330600146825116,2.8392063776652017,1.3511656522750854,0.009386308491230011,0.0040388398338109255,-35.3632614,149.16524193333333,199740.66666666666,-4.0,-24.0,95.66666666666667,RTL,33694.0,-3.0,48.666666666666664,-969.3333333333334,1353.0,13.333333333333334,6.666666666666667
04:52:36,0.06023372337222099,0.0017452174797654152,2.8351286252339682,1.385972499847412,0.003081444650888443,-0.0032815057008216777,-35.36326086666667,149.16524436666666,197713.66666666666,-11.0,-51.0,98.0,RTL,33694.0,-2.3333333333333335,67.33333333333333,-1010.3333333333334,1390.0,7.0,-0.3333333333333333
04:52:38,0.03406469585994879,0.004887452038625876,2.830869277318319,-0.3424573342005412,0.008804051981618008,-0.007276336196810007,-35.3632606,149.16524556666667,195695.0,-16.666666666666668,-66.66666666666667,101.66666666666667,RTL,33694.0,-0.3333333333333333,17.333333333333332,-986.3333333333334,-335.6666666666667,13.0,-4.333333333333333
04:52:39,0.04851637904842695,0.0057325116358697414,2.828690687815348,-0.8303139805793762,0.0017026523128151894,-0.008274311587835351,-35.363260733333334,149.1652451,194429.33333333334,-16.0,-65.66666666666667,98.66666666666667,RTL,12661.0,1.6666666666666667,-69.0,-1008.0,-826.0,5.666666666666667,-5.0
04:52:40,0.033587021132310234,0.00728554589052995,2.8273983796437583,-0.8333194653193156,-0.0007916210840145747,-0.004345077555626631,-35.3632609,149.16524436666668,193679.33333333334,-15.666666666666666,-64.0,100.0,RTL,12661.0,2.0,-72.33333333333333,-969.6666666666666,-828.3333333333334,4.0,-1.6666666666666667
04:52:42,0.029274430125951767,0.0084603326395154,2.824248472849528,-0.5474612017472585,0.009032308434446653,-0.004416270802418391,-35.363261433333335,149.16524216666667,191618.33333333334,-10.333333333333334,-47.0,100.0,RTL,12661.0,5.0,-66.33333333333333,-1013.0,-541.6666666666666,13.333333333333334,-1.0
04:52:44,-0.00512163620442152,0.009186419347922007,2.822715441385905,1.310409148534139,0.0026638894341886044,-0.0015780994823823373,-35.3632627,149.16523746666667,189568.0,-1.0,-17.666666666666668,98.33333333333333,RTL,15814.0,5.333333333333333,47.666666666666664,-1006.6666666666666,1317.0,7.0,1.3333333333333333
04:52:46,-0.0335650984197855,0.005977151604990165,2.8203319708506265,0.023216336965560913,0.0013191359272847574,0.0020388319001843533,-35.36326326666667,149.1652347,187544.66666666666,8.0,12.0,104.66666666666667,RTL,15814.0,2.0,38.0,-964.0,32.333333333333336,6.0,5.0
04:52:48,-0.0001229915457467238,0.0012873662635684013,2.8177608648935952,-0.4364634354909261,-0.0047218344795207185,-0.011077044376482567,-35.3632632,149.16523436666668,185487.33333333334,12.0,27.333333333333332,102.0,RTL,15814.0,1.0,-56.0,-948.6666666666666,-431.6666666666667,0.0,-7.333333333333333
04:52:49,0.012692196294665337,0.0016478385077789426,2.8175623416900635,0.9844276309013367,0.004696079685042302,0.0019151601785173018,-35.36326303333333,149.16523486666668,184210.66666666666,10.333333333333334,24.666666666666668,100.66666666666667,RTL,3359.0,-0.6666666666666666,11.0,-983.0,988.6666666666666,9.666666666666666,5.0
04:52:50,0.005002531533439954,0.0017816662633170683,2.8160444100697837,1.3084252278010051,0.002391049483170112,-0.0016169502244641383,-35.363263,149.16523506666667,183432.0,8.666666666666666,21.0,97.33333333333333,RTL,3359.0,0.3333333333333333,46.333333333333336,-1004.6666666666666,1314.0,6.666666666666667,1.6666666666666667
04:52:52,-0.004439225187525153,0.0048658354207873344,2.814809481302897,1.1640390952428181,-0.0031193744701643786,-0.0006911742190519968,-35.36326343333334,149.16523396666665,181373.66666666666,11.0,26.666666666666668,99.0,RTL,3359.0,0.6666666666666666,32.333333333333336,-1026.6666666666667,1168.0,2.0,3.0
04:52:54,0.011627782446642717,-0.0007376353314612061,2.813337961832682,1.2779137293497722,0.004358173348009586,0.0010629577251772087,-35.36326283333333,149.16523576666668,179340.33333333334,10.333333333333334,21.333333333333332,96.66666666666667,RTL,45527.5,-2.0,74.0,-1039.0,1283.6666666666667,9.0,4.333333333333333
04:52:56,-0.02931452418367068,0.009203248657286167,2.8130880991617837,0.4855436657865842,0.0034387073634813228,0.0019051531174530585,-35.36326326666667,149.16523513333334,177310.66666666666,5.666666666666667,13.0,95.33333333333333,RTL,87696.0,2.6666666666666665,55.666666666666664,-976.0,492.0,8.333333333333334,5.333333333333333
04:52:58,-0.03302919367949168,1.8735823687165976e-05,2.812636375427246,-1.2275643746058147,-0.013184546492993832,-0.0001853238015125195,-35.36326366666667,149.1652333333333,175267.0,17.0,34.666666666666664,97.66666666666667,RTL,87696.0,-2.6666666666666665,-64.66666666666667,-1002.0,-1224.3333333333333,-7.333333333333333,2.6666666666666665
04:52:59,0.02715351991355419,-0.006741170616199573,2.8115909894307456,0.343523104985555,0.0004795968222121398,0.0004785383741060893,-35.36326256666667,149.16523603333334,173987.0,12.333333333333334,25.0,101.33333333333333,RTL,146462.0,-4.666666666666667,-13.666666666666666,-975.0,345.3333333333333,5.333333333333333,3.6666666666666665
04:53:00,0.05076571802298228,-0.005898360783855121,2.8112971782684326,1.2402264873186748,0.008589151315391064,-0.00030170660465955734,-35.3632618,149.16523833333335,173212.66666666666,4.0,8.333333333333334,99.33333333333333,RTL,146462.0,-5.333333333333333,46.0,-1056.3333333333333,1243.3333333333333,13.333333333333334,3.3333333333333335
04:53:02,0.05888516828417778,-0.0012568995492377628,2.8112035592397056,1.4133026997248332,0.00025441916659474373,0.0013651139258096616,-35.3632608,149.16524286666666,171220.33333333334,-9.666666666666666,-31.0,101.66666666666667,RTL,146462.0,-2.6666666666666665,76.33333333333333,-994.3333333333334,1418.0,5.333333333333333,4.666666666666667
04:53:04,0.014829003252089024,0.00618105661123991,2.810237089792887,-0.8737057447433472,0.0004266616888344288,-0.0028233698879679046,-35.363260966666665,149.1652437,169179.0,-14.666666666666666,-52.333333333333336,102.0,RTL,73508.5,-1.0,-16.0,-983.6666666666666,-866.6666666666666,5.666666666666667,0.6666666666666666
04:53:06,0.04457839330037435,0.0016842195764183998,2.809239466985067,-1.1641902327537537,0.0031601634497443833,-0.0012532368612786133,-35.36326069999999,149.16524446666668,167168.33333333334,-14.0,-54.0,104.66666666666667,RTL,555.0,0.6666666666666666,-76.0,-973.6666666666666,-1158.6666666666667,8.0,2.0
04:53:08,0.040470805019140244,0.007255653074632089,2.8087168534596763,0.19945431438585123,0.0010237184663613637,0.0074107575152690215,-35.36326086666667,149.1652434,165125.33333333334,-17.0,-55.666666666666664,106.0,RTL,555.0,4.666666666666667,-37.666666666666664,-996.0,204.33333333333334,6.333333333333333,10.333333333333334
04:53:09,-5.3058688839276634e-05,0.009521682125826677,2.808396577835083,1.0771666765213013,-0.0004954496398568153,0.01631920598447323,-35.3632618,149.16524006666666,163827.33333333334,-11.333333333333334,-39.666666666666664,100.66666666666667,RTL,67127.0,5.0,61.0,-1045.0,1086.3333333333333,4.666666666666667,19.0
04:53:10,-0.014207806748648485,0.0074357267779608565,2.8089409669240317,0.7665156126022339,-0.0026890613759557405,0.007111830947299798,-35.36326233333333,149.16523816666668,163065.33333333334,-5.0,-24.0,102.0,RTL,67127.0,2.3333333333333335,67.33333333333333,-1000.3333333333334,775.6666666666666,2.3333333333333335,10.0
04:53:12,0.001623659860342741,0.001563647606720527,2.8083413441975913,1.1527421077092488,-0.001141538843512535,0.0022450477505723634,-35.3632626,149.1652364,161028.0,3.0,1.0,102.33333333333333,RTL,67127.0,0.0,70.33333333333333,-1029.6666666666667,1161.3333333333333,4.0,5.666666666666667
04:53:14,-0.017106512561440468,0.0022909599356353283,2.8079261779785156,-1.4390528599421184,-0.00030912552028894424,-0.0026003042391190925,-35.3632625,149.16523676666665,158978.33333333334,3.6666666666666665,6.666666666666667,102.66666666666667,RTL,132911.0,-0.6666666666666666,-61.333333333333336,-978.3333333333334,-1431.0,5.0,1.0
04:53:16,-0.009259675163775682,0.00662175053730607,2.8076807657877603,-0.6383374730745951,0.0013843383640050888,-0.00041714201991756755,-35.3632628,149.16523636666668,156952.66666666666,4.0,7.0,103.0,RTL,132911.0,2.6666666666666665,-69.0,-981.6666666666666,-632.0,6.666666666666667,3.0
04:53:18,-0.01968706709643205,0.008692232891917229,2.807932138442993,0.9297890861829122,0.0043469141237437725,0.015219032376383742,-35.36326386666667,149.16523326666666,154919.33333333334,12.666666666666666,27.0,105.0,RTL,132911.0,4.333333333333333,14.0,-1003.6666666666666,935.0,10.333333333333334,18.666666666666668
04:53:19,-0.03738656764229139,0.008721079056461653,2.8074444929758706,1.1775552034378052,0.007732803778102,0.007979018846526742,-35.36326463333333,149.16523043333333,153536.66666666666,19.666666666666668,46.666666666666664,101.0,RTL,33640.0,6.0,17.666666666666668,-1016.6666666666666,1182.3333333333333,13.0,11.333333333333334
04:53:20,-0.04927689706285795,0.008481810179849466,2.807694753011068,0.8937408725420634,0.0031348620541393757,-0.0008406698082884153,-35.363265033333334,149.16522886666667,152780.0,24.0,59.666666666666664,103.66666666666667,RTL,33640.0,4.0,2.6666666666666665,-999.3333333333334,897.3333333333334,8.333333333333334,3.3333333333333335
04:53:22,-0.023551852131883304,-0.004194979943955938,2.8095645109812417,0.6618833939234415,-0.0036163266437749066,0.007713931767890851,-35.363264699999995,149.1652285,150734.33333333334,31.666666666666668,80.0,106.0,RTL,33640.0,-4.0,-7.333333333333333,-950.0,663.6666666666666,2.0,11.0
04:53:24,0.00653658031175534,-0.009239566822846731,2.809195597966512,-1.1845614910125732,-0.002601455897092819,0.004690567574774225,-35.363262733333336,149.16523433333336,148755.0,18.0,51.666666666666664,99.0,RTL,193058.0,-8.666666666666666,-70.33333333333333,-977.0,-1182.0,3.0,8.0
04:53:26,0.04413908223311106,-0.003931731761743625,2.808126370112101,-1.0845463275909424,0.007317254630227883,0.005165574140846729,-35.36326096666667,149.1652414,146596.66666666666,-4.0,-7.0,97.66666666666667,RTL,193058.0,-3.6666666666666665,-68.33333333333333,-1006.6666666666666,-1081.6666666666667,12.666666666666666,8.666666666666666
04:53:28,0.039357613772153854,0.006011362963666518,2.808273712793986,0.2898917496204376,-0.0027020362516244254,-0.007728599244728684,-35.363261200000004,149.1652424,144536.33333333334,-13.0,-38.0,94.0,RTL,193058.0,2.75,-34.5,-984.5,188.75,5.25,-3.75
04:53:29,-0.0062689948827028275,0.0091188441341122,2.807851473490397,0.6152801016966502,0.006163461754719417,0.003467160277068615,-35.363261900000005,149.1652402,143270.66666666666,-9.666666666666666,-32.666666666666664,95.33333333333333,RTL,108157.0,4.333333333333333,64.66666666666667,-975.0,621.3333333333334,11.333333333333334,6.666666666666667
04:53:30,-0.02719623160858949,0.00954826766004165,2.808638334274292,0.010252021253108978,-0.001022615780433019,0.01424536295235157,-35.36326243333333,149.16523836666667,142506.0,-4.0,-19.0,97.0,RTL,108157.0,4.666666666666667,31.0,-985.3333333333334,16.666666666666668,4.333333333333333,17.666666666666668
04:53:32,-0.042221558590730034,0.0005687215986351172,2.8088999589284263,0.20530174672603607,-0.008455194222430388,0.0006688622136910757,-35.36326316666666,149.16523423333334,140474.33333333334,7.0,14.666666666666666,98.66666666666667,RTL,108157.0,0.6666666666666666,47.666666666666664,-998.0,211.33333333333334,-2.3333333333333335,4.333333333333333
04:53:34,0.009874461218714714,-0.0010547009442234412,2.80899840593338,-0.1558196358382702,0.007689299061894417,0.004814442014321685,-35.36326255,149.165235125,138564.75,6.0,24.0,98.5,RTL,200215.0,1.75,-49.0,-993.5,-153.75,12.75,8.5
04:53:36,-0.017203287221491337,0.0029795029355833926,2.8096426328023276,0.7539583245913187,-0.00511385469386975,0.005804988710830609,-35.36326343333334,149.16523303333335,136392.33333333334,10.0,31.0,100.66666666666667,RTL,200215.0,0.0,-1.3333333333333333,-1006.0,755.0,0.6666666666666666,9.333333333333334
04:53:38,0.018409975804388523,-0.008528499631211162,2.8097541332244873,0.9551348239183426,0.0006602344801649451,-0.005945596727542579,-35.3632622,149.165236225,134470.0,7.75,22.75,97.5,RTL,200215.0,-8.25,69.25,-1020.5,959.5,6.0,-2.0
04:53:39,0.02120830522229274,-0.007789195670435826,2.8103413581848145,-1.4186921914418538,-0.014293872596075138,0.0006138900450120369,-35.363261,149.1652404666667,133077.66666666666,-3.6666666666666665,-5.666666666666667,97.66666666666667,RTL,40628.0,-6.333333333333333,-48.666666666666664,-1007.6666666666666,-1415.0,-8.333333333333334,4.333333333333333
04:53:40,0.045974613477786384,-0.008275139145553112,2.81005597114563,-1.3341091076533,-0.003120288485661149,-0.004490836290642619,-35.36326033333333,149.16524313333332,132334.33333333334,-9.333333333333334,-24.0,98.33333333333333,RTL,40628.0,-8.0,-39.0,-1019.0,-1330.0,2.3333333333333335,-0.6666666666666666
04:53:43,0.004736349452286959,0.013080058619379997,2.809705376625061,-1.4925111532211304,0.003336777677759528,0.0004972971510142088,-35.36326085,149.1652441,129139.0,-24.0,-65.5,101.0,RTL,40628.0,6.5,-73.0,-947.0,-1487.0,8.5,4.5
04:53:45,-0.02750205931564172,0.009041396901011467,2.8110570907592773,1.171057105064392,-0.004355469951406121,0.005690889743467172,-35.363263233333335,149.16523503333335,126969.33333333333,0.0,-5.666666666666667,98.66666666666667,RTL,37037.0,7.0,33.5,-988.0,1159.0,0.5,7.5
04:53:46,-0.028539305552840233,0.004502868357424934,2.811375935872396,0.6347445299228033,-0.003583512889842192,0.006342616785938541,-35.36326350000001,149.16523303333335,126218.0,8.0,17.666666666666668,100.0,RTL,33446.0,5.0,-3.25,-997.5,780.25,2.25,10.5
04:53:48,-0.00702676409855485,-0.0024938860054438314,2.812084118525187,1.0927287538846333,0.00023282738402485847,0.001936651145418485,-35.363263366666665,149.1652318333333,124174.33333333333,13.0,43.333333333333336,103.0,RTL,33446.0,-1.25,20.75,-992.5,977.5,4.5,8.0
04:53:50,0.013667867053300142,-0.008887959993444383,2.8114388585090637,0.782268337905407,-0.001245184219442308,-0.011026746709831059,-35.363262125,149.1652359,122261.0,7.0,24.5,101.75,RTL,33446.0,-9.25,77.0,-999.0,787.75,4.25,-6.5
04:53:51,0.03859201818704605,-0.010305121541023254,2.8118815422058105,-1.1374514698982239,0.005403005518019199,-0.0027557919966056943,-35.36326065,149.16524125,120983.5,-5.0,-7.0,102.0,RTL,39667.0,-9.0,-11.0,-948.0,-1131.5,11.0,1.0
04:53:53,0.032428307458758354,0.00912880850955844,2.8116513093312583,-1.3767146070798237,0.0051791138636569185,-0.006933766106764476,-35.3632604,149.16524496666668,118829.33333333333,-21.333333333333332,-55.333333333333336,103.66666666666667,RTL,39667.0,3.5,-75.0,-1012.0,-1331.0,9.0,0.5
04:53:55,-0.012663543224334717,0.00661515723913908,2.813769817352295,0.5475944578647614,-0.0052631141152232885,-0.010462634731084108,-35.363262,149.1652398,116887.5,-8.0,-36.0,104.5,RTL,62823.0,0.5,58.0,-997.5,555.5,0.0,-6.5
04:53:57,0.0289973309263587,-0.005513085052371025,2.8133221864700317,-0.9827520847320557,0.007930788910016418,-0.011775066144764423,-35.3632607,149.1652418,114813.5,-9.0,-28.5,98.0,RTL,85979.0,-3.0,-17.5,-1031.0,-974.5,13.5,-7.5
04:53:59,0.030581551603972912,0.004976177937351167,2.811892509460449,-0.7818062156438828,-0.009173355530947447,-0.012514210073277354,-35.363260749999995,149.1652425,112769.5,-17.0,-43.0,98.5,RTL,85979.0,3.0,-71.5,-936.0,-775.5,-3.0,-8.5
04:54:00,0.03760606609284878,0.006502455100417137,2.812880754470825,0.7743959240615368,0.002596661914139986,0.0034095164155587554,-35.36326115,149.165241625,112011.5,-14.5,-39.75,96.25,RTL,21285.0,1.75,0.5,-997.75,780.25,7.75,6.75
04:54:01,0.031308434903621674,0.002524019102565944,2.814144730567932,1.3805224299430847,0.0003380752168595791,-0.002729792147874832,-35.363261449999996,149.16524065,110753.5,-9.0,-31.0,96.5,RTL,21285.0,-0.5,64.0,-1000.0,1388.5,5.5,1.5
04:54:03,0.022165270522236824,0.004050183109939098,2.8122185468673706,1.3416391611099243,-0.0014852068852633238,-0.0004036584869027138,-35.363261550000004,149.1652397,108746.5,-9.0,-25.0,100.5,RTL,21285.0,5.5,67.5,-987.0,1350.5,4.5,3.5
04:54:05,-0.02429925254546106,0.000421114316850435,2.81458842754364,-1.5108656287193298,0.010519912466406822,-0.00874697556719184,-35.3632622,149.165237,106700.5,0.0,2.5,105.5,RTL,63791.0,-1.5,-76.0,-1014.0,-1502.5,15.5,-5.0
04:54:07,-0.04368916340172291,0.007308374159038067,2.8130217790603638,-1.0148048102855682,-0.0005292727146297693,0.005141886416822672,-35.3632631,149.16523389999998,104669.0,2.0,16.0,101.5,RTL,106297.0,5.5,-80.0,-1009.0,-1007.5,5.5,9.5
04:54:09,-0.036151133477687836,0.002528378798160702,2.8150124549865723,0.5939140617847443,-0.004751246306113899,-0.00468822568655014,-35.3632641,149.16523,102618.0,16.0,51.5,102.5,RTL,106297.0,3.0,-5.5,-1017.0,599.0,0.5,-1.0
04:54:10,-0.0344646954908967,-0.0002276858540426474,2.814304232597351,1.0757040828466415,0.0019327059853821993,-0.006563725881278515,-35.363264125,149.165229675,101851.0,19.0,59.5,101.0,RTL,286772.0,-0.25,42.75,-1034.75,1082.25,7.0,-2.5
04:54:11,-0.0413090568035841,-0.0028742222348228097,2.813515543937683,0.50832649320364,-0.0002466172445565462,-0.008303015725687146,-35.36326375,149.16523045,100578.5,18.0,59.5,99.5,RTL,286772.0,-2.0,54.0,-976.0,516.0,5.0,-4.0
04:54:13,-0.0014647302450612187,-0.007280410500243306,2.8141320943832397,0.784430980682373,0.002542864065617323,-0.008874962572008371,-35.363262500000005,149.16523445,98536.0,9.5,38.5,102.5,RTL,286772.0,-6.5,83.5,-978.0,791.0,8.0,-4.5
04:54:15,0.00628983520437032,-0.00018183841166319326,2.813585877418518,-1.3235100507736206,-0.003548751468770206,0.00908465776592493,-35.3632618,149.1652383,96479.0,-1.5,5.5,98.0,RTL,158928.5,-3.0,-69.5,-1004.0,-1319.0,1.0,13.0
04:54:17,0.009206042159348726,0.003424918744713068,2.8142406940460205,-1.006227970123291,-0.0021859384141862392,0.0012655856553465128,-35.3632618,149.16523915,94442.5,-4.0,-6.5,102.5,RTL,31085.0,2.0,-78.0,-970.5,-1002.0,3.0,5.5
04:54:19,-0.01475744042545557,0.0049552100244909525,2.8135156631469727,-0.5334117412567139,0.003444189904257655,-0.00021551467943936586,-35.3632626,149.165236,92297.0,0.0,5.0,95.5,RTL,31085.0,5.0,-65.0,-1026.0,-529.5,8.5,3.5
04:54:20,-0.013200921239331365,0.0044804399367421865,2.8145740628242493,0.6424120417796075,-0.0037475069984793663,-0.0034893802367150784,-35.36326305,149.1652345,91531.75,4.0,14.75,101.25,RTL,51809.0,2.75,-8.0,-980.5,645.25,1.5,0.25
04:54:21,-0.012012304738163948,0.0028506650123745203,2.814957618713379,0.5693212747573853,0.010137533536180854,0.023837877437472343,-35.3632634,149.1652331,90256.0,9.5,30.5,100.0,RTL,51809.0,0.5,-5.5,-1010.5,572.0,15.0,27.5
04:54:23,-0.020176099613308907,0.001059150934452191,2.814962148666382,1.4045585989952087,-0.0009064469486474991,0.004372771130874753,-35.3632635,149.16523174999998,88210.5,12.0,43.0,96.5,RTL,51809.0,0.0,52.0,-980.0,1408.0,4.0,8.0
04:54:25,-0.01578875444829464,-0.008650942705571651,2.815937876701355,-0.5189443193376064,-0.0032799497712403536,-0.021292155608534813,-35.363262750000004,149.1652336,86155.0,12.0,42.5,98.0,RTL,58321.0,-4.0,13.5,-1069.5,-514.0,2.0,-17.0
04:54:27,0.009076665621250868,-0.002499694935977459,2.8139023780822754,-1.3511950373649597,0.006386276101693511,-0.002395660150796175,-35.3632614,149.16523865,84125.0,-4.0,5.5,98.5,RTL,64833.0,-1.5,-48.0,-1014.0,-1347.5,11.0,1.0
04:54:29,-0.0017161977229989134,0.007030428620055318,2.8157378435134888,0.06831854581832886,0.003906360128894448,-0.00870428531197831,-35.363262500000005,149.165237,82079.5,-1.5,1.0,102.5,RTL,64833.0,2.5,-30.5,-1044.0,69.5,8.5,-4.5
04:54:30,-0.006271572114201263,0.005227972753345966,2.8151331543922424,1.251978561282158,-0.0035311480751261115,0.0034968703985214233,-35.3632628,149.165235925,81324.25,2.0,7.0,98.5,RTL,250165.0,1.75,47.25,-1004.5,1254.25,1.5,7.0
04:54:31,-0.02378873899579048,0.003493639058433473,2.815576434135437,0.9005423486232758,0.0024329600855708122,0.011410367675125599,-35.363262950000006,149.1652349,80077.5,6.0,19.0,105.5,RTL,250165.0,2.5,63.5,-980.5,904.5,7.0,14.5
04:54:33,-0.06321527436375618,0.002134987444151193,2.8165587186813354,-1.5472132563591003,-0.005074884393252432,-0.01230443175882101,-35.3632636,149.16523225,78049.0,12.5,38.0,107.0,RTL,250165.0,-0.5,-57.0,-913.5,-1545.0,0.0,-8.0
04:54:35,-0.006055902922526002,-0.00378501380328089,2.8149735927581787,-1.0937842726707458,-0.004482954973354936,-0.004245012998580933,-35.36326285,149.16523439999997,75977.5,12.0,36.0,98.5,RTL,190293.0,-2.0,-70.5,-1003.0,-1093.5,1.0,-0.5
04:54:37,0.014412629418075085,0.00023108438836061396,2.815821647644043,0.07421795837581158,-0.0029705120250582695,0.004091300535947084,-35.36326245,149.1652364,73929.0,4.0,16.5,101.5,RTL,130421.0,-2.0,-41.0,-990.0,73.0,2.0,7.5
04:54:39,0.01901889592409134,-0.00276207085698843,2.8155499696731567,1.0557127892971039,-0.0005940420087426901,0.0013354868860915303,-35.363261800000004,149.16523869999997,71887.5,-1.0,-2.5,100.0,RTL,130421.0,-4.5,83.5,-1022.5,1057.5,4.0,4.0
04:54:40,0.026006972882896662,-0.0034716398804448545,2.815617859363556,0.46984352357685566,0.0022327123442664742,-0.004547267686575651,-35.363261324999996,149.1652402,71142.75,-4.0,-11.5,100.25,RTL,134641.0,-4.25,63.5,-986.75,472.25,6.75,-1.0
04:54:41,0.026551503688097,-0.002986052888445556,2.815637469291687,-0.136968856677413,0.0015088964719325304,-0.007995926542207599,-35.3632607,149.1652422,69898.5,-11.5,-30.5,100.5,RTL,134641.0,-5.0,30.5,-1039.5,-133.5,6.0,-4.0
04:54:43,0.021035078912973404,-0.000734650508093182,2.815640449523926,-0.7266706824302673,-0.002581330481916666,-0.0007670093327760696,-35.3632603,149.16524395,67873.5,-19.0,-50.5,105.0,RTL,134641.0,-1.5,1.5,-1016.0,-722.0,2.0,3.0
04:54:45,0.04791522026062012,0.0032555513316765428,2.8157249689102173,-0.8812395632266998,-0.00470270193181932,-0.0002137497067451477,-35.36326015,149.16524445,65821.5,-23.0,-59.5,104.0,RTL,112878.0,4.0,-75.0,-968.0,-879.0,0.0,3.0
04:54:47,0.03569703921675682,0.00022372179955709726,2.81546413898468,1.1742690801620483,-0.00329621322453022,-0.0003157961182296276,-35.36326085,149.16524114999999,63785.5,-16.0,-40.0,103.0,RTL,91115.0,1.0,22.0,-1011.0,1177.5,1.5,2.5
04:54:49,0.01676589995622635,0.0025748135522007942,2.8144938945770264,1.5088520646095276,0.004608385963365436,0.00871011905837804,-35.363261249999994,149.16523899999999,61723.5,-13.5,-23.5,102.5,RTL,91115.0,3.5,62.0,-969.5,1514.0,9.0,12.0
04:54:50,0.00991624011658132,0.0034577364567667246,2.815293610095978,1.3492322862148285,-0.0013266989844851196,0.0008069741888903081,-35.363261675000004,149.165237825,60956.25,-9.75,-13.5,104.0,RTL,81718.0,4.5,50.25,-1013.75,1354.25,3.5,4.0
04:54:51,0.0039054981898516417,0.003789770882576704,2.8152740001678467,1.034424324830373,0.0019293362274765968,0.0031746658496558666,-35.36326226666666,149.16523600000002,59828.0,-3.6666666666666665,1.6666666666666667,101.66666666666667,RTL,81718.0,5.0,15.333333333333334,-1025.0,1038.0,6.0,6.333333333333333
04:54:53,0.009590295376256108,-0.00013301823128131218,2.8167924880981445,1.286693513393402,0.0010915407910943031,0.005467638839036226,-35.3632628,149.16523445,57559.5,6.0,25.0,108.0,RTL,81718.0,0.0,27.0,-985.5,1289.5,5.5,8.5
04:54:55,-0.027586478739976883,0.005634101573377848,2.8162832260131836,0.9639558494091034,0.006222478114068508,0.00200445344671607,-35.3632633,149.1652332,55534.0,7.0,28.5,105.5,RTL,81718.0,3.0,48.0,-1060.0,968.5,10.5,5.0
04:54:56,-0.03863359848037362,0.0050645117298699915,2.8154685497283936,1.037578895688057,-0.004288867290597409,0.0019501448841765523,-35.363263724999996,149.165231975,54773.0,10.5,34.75,105.5,RTL,87347.0,1.5,68.5,-1022.0,1042.25,0.5,5.25
04:54:57,-0.04290899634361267,-0.0029875878244638443,2.816604256629944,-0.0015337653458118439,-0.0038904219400137663,-0.004888755967840552,-35.36326365,149.16523180000002,53487.0,17.0,47.0,104.5,RTL,87347.0,-5.0,46.0,-1004.0,3.5,0.5,-1.0
04:54:59,0.0010288087651133537,-0.005374572239816189,2.8167601823806763,-0.9017733037471771,0.00806076661683619,-0.007172561599873006,-35.363261949999995,149.1652371,51427.0,4.5,19.5,106.5,RTL,87347.0,-4.5,-2.0,-976.0,-897.0,12.5,-4.0
04:55:01,0.04096294194459915,0.0015401313139591366,2.816413998603821,1.1195302307605743,0.003749158699065447,-0.0062838534358888865,-35.3632616,149.16523934999998,49360.5,-5.5,-9.0,106.5,RTL,153326.5,0.5,16.0,-944.0,1120.5,8.0,-3.0
04:55:03,0.037527624517679214,0.0014187738997861743,2.8167617321014404,1.4571819305419922,-0.0021719825454056263,-0.0038469372084364295,-35.363261550000004,149.16524005000002,47307.5,-6.0,-17.5,101.0,RTL,219306.0,0.0,62.0,-1035.5,1460.5,2.5,0.0
04:55:05,0.015222819056361914,0.002284940448589623,2.816369652748108,0.33739589154720306,0.001624635886400938,0.0020774862496182323,-35.3632614,149.16524045,45262.0,-8.0,-23.5,98.5,RTL,219306.0,0.0,59.333333333333336,-989.3333333333334,679.6666666666666,7.0,4.0
04:55:06,-0.0011440589441917837,0.0019113535818178207,2.816983997821808,-0.5671976283192635,0.0005021641263738275,-0.00268721638713032,-35.363261475,149.1652404,44493.25,-7.25,-24.0,99.25,RTL,22453.0,-1.25,14.75,-1003.0,-561.25,5.0,0.5
04:55:07,0.0016887320089153945,0.0024849288165569305,2.8169039487838745,-1.3089858889579773,-0.00041299895383417606,0.004092169227078557,-35.3632614,149.1652407,43210.5,-8.0,-24.0,101.0,RTL,22453.0,-0.5,-38.0,-1014.5,-1303.5,4.5,6.5
04:55:09,-0.03163926675915718,0.007107718847692013,2.816429853439331,-0.5969038158655167,0.002456226386129856,0.0070290196454152465,-35.363262250000005,149.16523775,41172.5,-4.5,-13.5,99.0,RTL,22453.0,2.0,8.0,-979.0,-590.5,6.5,10.0
04:55:11,-0.03259618952870369,0.001807039778213948,2.81486976146698,-0.41996006667613983,0.0006542167393490672,0.007561173406429589,-35.3632627,149.16523535,39141.5,3.0,12.0,100.0,RTL,154630.0,2.0,-1.0,-966.0,-413.5,4.5,10.5
04:55:13,-0.04636121354997158,0.0009269836637031403,2.8169002532958984,-0.6875132620334625,0.008592737838625908,-0.000278903404250741,-35.363263,149.1652336,37086.0,7.0,26.5,100.5,RTL,286807.0,-3.0,8.0,-1039.0,-682.0,12.5,3.0
04:55:15,-0.01761918026022613,-0.005427537951618433,2.816418409347534,-1.1838146150112152,-0.0059315774124115705,-0.003656937275081873,-35.36326245,149.16523475,35044.0,6.0,27.5,96.5,RTL,286807.0,-2.5,-51.0,-1034.5,-1182.0,-1.5,-0.5
04:55:16,0.036268028896301985,-0.008723854087293148,2.8173683881759644,0.3078749505802989,-0.0004969979054294527,0.004426037368830293,-35.363261825,149.16523667500002,34270.0,3.0,19.5,98.75,RTL,128813.0,-4.25,-17.5,-970.5,308.75,3.75,7.0
04:55:17,0.05352629907429218,-0.003982695518061519,2.8173346519470215,0.23008610308170319,0.011199566535651684,0.00045543513260781765,-35.3632609,149.1652398,32994.5,-7.0,-3.0,99.5,RTL,128813.0,-0.5,-36.0,-977.0,231.0,15.0,3.0
04:55:19,0.012460345984436572,0.00730051239952445,2.818097710609436,1.332286775112152,0.0021355566568672657,0.0029710931703448296,-35.3632619,149.16523855,30945.5,-8.0,-13.0,98.5,RTL,128813.0,3.0,38.0,-1047.0,1335.5,6.0,6.0
04:55:21,-0.03280435223132372,0.006249658297747374,2.81790292263031,1.2484473586082458,-0.003443577326834202,0.0022429563105106354,-35.3632633,149.16523385,28903.0,5.5,17.5,97.0,RTL,128813.0,3.5,59.5,-1059.5,1252.5,0.5,5.5
04:55:22,-0.04430809151381254,0.0032733370026107877,2.817785859107971,0.7056935951113701,-0.001108816999476403,0.002005420043133199,-35.363263550000006,149.16523265,28139.5,9.25,27.25,96.0,RTL,229071.0,1.5,64.5,-1012.75,710.0,3.0,5.0
04:55:23,-0.03375092335045338,-0.0015160618931986392,2.8180434703826904,0.20223040878772736,0.0016264196019619703,0.0014810150023549795,-35.36326335,149.1652326,26864.0,14.0,41.0,99.5,RTL,229071.0,-0.5,51.0,-963.5,206.5,5.5,4.5
04:55:25,-0.02328371722251177,0.00026541249826550484,2.8187068700790405,0.5425784289836884,0.00020012562163174152,-0.005535833537578583,-35.3632631,149.1652337,24817.0,10.0,33.5,91.5,RTL,229071.0,-2.0,65.0,-989.0,545.5,4.0,-2.0
04:55:27,0.009666573256254196,-0.0038858112723877034,2.8182440598805747,-0.7790389458338419,-0.0020906916664292416,0.003200890108322104,-35.36326233333333,149.1652364,23066.0,6.333333333333333,21.0,94.33333333333333,RTL,153317.5,-3.6666666666666665,-46.333333333333336,-1001.6666666666666,-778.3333333333334,2.3333333333333335,5.666666666666667
04:55:29,0.03141319751739502,-0.0009257194469682872,2.8185975551605225,-1.6403534412384033,-0.0028289249166846275,0.016765043139457703,-35.3632609,149.1652416,20783.0,-7.0,-17.0,97.0,RTL,77564.0,-1.0,-86.0,-898.0,-1639.0,1.0,19.0
04:55:31,-0.0006951812683837488,0.004494408145546913,2.817103862762451,-1.480417788028717,-0.010883867274969816,-0.01126581453718245,-35.36326135,149.16524099999998,19129.5,-10.0,-28.0,103.0,RTL,77564.0,1.0,-62.5,-1017.0,-1477.5,-6.5,-7.5
04:55:32,-0.006608517200220376,0.004396198550239205,2.817225456237793,-1.3973938524723053,-0.006026515795383602,-0.006647468428127468,-35.36326162500001,149.16523995,18105.5,-7.75,-22.75,99.5,RTL,32216.0,2.5,-77.75,-993.25,-1395.5,-1.5,-3.75
04:55:33,0.00031462195329368114,0.003996004234068096,2.8180220127105713,-0.8751138150691986,-0.0021256450563669205,-0.0021242541261017323,-35.36326185,149.1652387,17083.0,-5.0,-14.0,97.0,RTL,32216.0,3.5,-67.5,-1018.0,-873.5,2.5,1.0
04:55:35,-0.031033655628561974,0.00557462521828711,2.8171685934066772,-0.16135209798812866,-0.0021915517281740904,-0.003494874923489988,-35.36326285,149.16523435,15043.0,0.5,12.0,99.5,RTL,32216.0,7.0,-47.0,-958.5,-161.0,2.0,0.0
04:55:37,-0.07820664718747139,0.0032076044008135796,2.8191232681274414,0.16307565569877625,-0.012793043162673712,0.0002449696185067296,-35.3632642,149.1652287,13016.0,15.0,55.0,102.0,RTL,70170.5,2.0,48.5,-969.5,166.0,-8.0,3.0
