time_stamp,MODE,roll,pitch,yaw,rollspeed,pitchspeed,yawspeed,lat,lon,relative_alt,vx,vy,vz,xacc,yacc,zacc,xgyro,ygyro,zgyro,RTL_ALT
23:56:12,AUTO,-0.0006842402120431265,0.000984073771784703,0.021547941491007805,0.00030552489139760536,0.00023900936745728055,0.0015805058258896072,-35.3632622,149.1652375,1.3333333333333333,-1.0,1.6666666666666667,1.0,0.0,1.6666666666666667,-1000.0,0.3333333333333333,0.0,0.3333333333333333,1500.0
23:56:14,AUTO,-0.00047721609007567167,0.0013607457124938567,0.021064819147189457,0.0002039553364738822,0.00032422868146871525,0.0013935434787223737,-35.3632621,149.1652375,0.0,0.0,0.0,0.6666666666666666,0.0,1.3333333333333333,-1000.0,0.3333333333333333,0.3333333333333333,0.3333333333333333,1500.0
23:56:15,AUTO,0.00035530221399919054,0.0014147397984440129,0.020715517923235893,0.003646570762308935,-0.0029567362701830766,0.001500399278787275,-35.3632621,149.1652375,0.0,0.0,0.0,-1.0,0.0,0.6666666666666666,-1033.0,4.0,-2.6666666666666665,0.3333333333333333,113670.0
23:56:16,AUTO,0.002498155226930976,0.00030896856818192947,0.02060851827263832,-0.0006989599205553532,0.0026932849626367292,0.0012359844986349344,-35.3632621,149.1652375,225.66666666666666,0.0,0.0,-69.66666666666667,0.0,0.0,-1125.0,0.0,3.0,0.3333333333333333,113670.0
23:56:18,AUTO,0.053715155770381294,-0.0014919346819321315,-0.006202612382670243,-0.03432512997339169,0.03429507464170456,-0.04554079845547676,-35.363261599999994,149.1652398,2942.6666666666665,7.333333333333333,41.666666666666664,-146.66666666666666,2.0,-8.666666666666666,-994.3333333333334,-33.666666666666664,34.666666666666664,-45.666666666666664,113670.0
23:56:20,AUTO,-0.06677088762323062,-0.009294322691857815,-0.08838753650585811,0.019123279800017674,-0.012582806656913212,-0.002332016146586587,-35.363261066666674,149.16524586666665,6001.666666666667,-3.0,-22.0,-148.66666666666666,-0.6666666666666666,2.6666666666666665,-1002.3333333333334,19.666666666666668,-12.0,-2.3333333333333335,113670.0
23:56:21,AUTO,0.005430649189899365,-0.0009635139722377062,-0.09107336401939392,0.06526154776414235,0.013769487850368023,0.003455774082491795,-35.36326126666666,149.16523930000002,7935.0,-1.6666666666666667,-56.0,-151.0,-7.0,10.666666666666666,-1003.3333333333334,65.33333333333333,13.666666666666666,2.6666666666666665,209872.0
23:56:22,AUTO,0.05231518050034841,0.007727731329699357,-0.08856904755036037,0.04867780643204848,0.011162239282081524,0.001207556885977586,-35.363261566666665,149.16523543333332,9113.0,-5.0,-28.333333333333332,-153.0,-3.6666666666666665,7.0,-1001.0,49.0,11.333333333333334,0.3333333333333333,209872.0
23:56:24,AUTO,-0.012003932148218155,-0.004918106986830632,-0.10020228226979573,-0.002220978649954001,0.002015413367189467,-0.020813214282194775,-35.36326246666667,149.16523629999998,12212.666666666666,0.0,8.333333333333334,-151.33333333333334,1.0,-1.3333333333333333,-1001.3333333333334,-1.6666666666666667,2.6666666666666665,-20.666666666666668,209872.0
23:56:26,AUTO,0.007839801876495281,0.004850336195280154,-0.1451660692691803,0.005450916010886431,0.005002421171714862,-0.01724572479724884,-35.3632619,149.16523576666665,15329.333333333334,2.0,-2.6666666666666665,-152.66666666666666,-1.6666666666666667,0.0,-999.6666666666666,5.666666666666667,5.0,-17.0,18784.0
23:56:28,AUTO,0.005401774930457274,0.005138889575997989,-0.17515651881694794,-0.0015124724401781957,-0.0005408327172820767,-0.015512762280801931,-35.3632616,149.1652356333333,18448.0,-2.3333333333333335,5.333333333333333,-153.0,0.0,0.0,-1000.0,-0.6666666666666666,0.3333333333333333,-15.333333333333334,18784.0
23:56:30,AUTO,0.0020971591972435513,0.0035137967206537724,-0.21095263957977295,0.0007060057832859457,0.0005823401540207366,-0.02099691890180111,-35.3632617,149.16523633333335,21566.666666666668,-3.0,4.333333333333333,-153.0,0.0,0.0,-1000.0,1.0,1.3333333333333333,-21.0,18784.0
23:56:31,AUTO,0.0022395108826458454,0.002923377944777409,-0.23552592595418295,0.003354993804047505,0.000222340701535965,-0.01972900020579497,-35.3632618,149.1652366333333,23513.0,-2.6666666666666665,3.0,-153.0,0.0,0.0,-1000.3333333333334,3.6666666666666665,0.6666666666666666,-19.666666666666668,57697.0
23:56:32,AUTO,-0.0013302509032655507,0.003035633417312056,-0.25161628797650337,-0.010355638165492564,0.0019540464054443873,-0.013879188423743472,-35.363261824999995,149.1652367,24875.75,-2.25,2.0,-152.75,0.0,-0.25,-998.5,-9.75,2.25,-13.5,57697.0
23:56:34,AUTO,-0.0008881082758307457,0.012213405532141527,-0.19628497958183289,-0.06464103904242317,0.05709089462955793,0.19006406453748545,-35.36326233333333,149.1652366333333,27942.0,-4.666666666666667,4.666666666666667,-148.66666666666666,0.3333333333333333,-0.3333333333333333,-982.3333333333334,-63.333333333333336,57.666666666666664,189.33333333333334,57697.0
23:56:36,AUTO,0.03740957255164782,-0.04488132521510124,0.13504367570082346,-0.008464884012937546,0.01769118703668937,-0.031275382886330284,-35.36326546666667,149.16523363333332,30198.333333333332,1.0,-2.0,-70.0,0.0,0.0,-969.6666666666666,-7.333333333333333,18.333333333333332,-30.666666666666668,57697.0
23:56:37,AUTO,0.014475179836153984,-0.0016496561390037339,0.11525133500496547,-0.28070912261803943,0.031134340912103653,-0.009134564083069563,-35.36326366666667,149.1652355,30869.0,23.666666666666668,27.0,-38.333333333333336,-2.3333333333333335,-23.333333333333332,-984.6666666666666,-279.6666666666667,31.666666666666668,-8.666666666666666,60291.0
23:56:38,AUTO,0.0027325471552709737,0.013591192352275053,0.10895780970652898,0.24979102363189062,0.008916897078355154,-0.0050675199599936604,-35.363262133333336,149.16523756666666,31101.666666666668,18.0,23.333333333333332,-23.666666666666668,-1.3333333333333333,-0.3333333333333333,-972.0,250.33333333333334,9.666666666666666,-4.333333333333333,60291.0
23:56:40,AUTO,-0.015686264261603355,0.025546335925658543,0.0957064429918925,0.1051426852742831,0.0003745931317098439,-0.011230642596880594,-35.363262133333336,149.16523723333333,31043.333333333332,-25.333333333333332,-21.666666666666668,3.0,0.6666666666666666,2.6666666666666665,-1026.6666666666667,105.66666666666667,1.0,-10.666666666666666,60291.0
23:56:42,AUTO,-0.07172372316320737,0.005762414541095495,-0.7632330258687338,-0.17663502568999925,0.00599416842063268,-0.8098364869753519,-35.36327226666667,149.16522209999997,31307.333333333332,-94.0,-72.33333333333333,-32.333333333333336,-22.333333333333332,17.333333333333332,-1022.3333333333334,-174.66666666666666,6.666666666666667,-809.6666666666666,92096.0
23:56:44,AUTO,-0.0002611031911025445,-0.14975508550802866,-2.200714906056722,-0.011432022942850987,0.00450903441136082,-0.551226963599523,-35.36330126666667,149.1651861,32377.0,-234.33333333333334,-202.33333333333334,-79.0,-61.333333333333336,-28.666666666666668,-1026.6666666666667,-9.333333333333334,5.666666666666667,-551.3333333333334,92096.0
23:56:46,AUTO,0.16847519079844156,-0.21591750284036001,-2.7099122206370034,0.07246127786735694,-0.0029951033454077938,-0.07190066141386826,-35.36335476666667,149.16512613333336,34028.0,-369.3333333333333,-341.3333333333333,-32.333333333333336,-59.333333333333336,-76.0,-933.3333333333334,74.0,-2.0,-71.33333333333333,92096.0
23:56:47,AUTO,0.13126684973637262,-0.12083531667788823,-2.6932961146036782,-0.08728995298345883,0.10348718116680782,0.03434507983426253,-35.3634003,149.16506946666667,34274.333333333336,-438.0,-472.0,-29.0,-85.0,-115.33333333333333,-1048.3333333333333,-84.33333333333333,103.66666666666667,33.666666666666664,41993.0
23:56:48,AUTO,0.0985815500219663,-0.0769140397508939,-2.6629909674326577,-0.008669977231572071,-0.0035558256010214486,0.040266050646702446,-35.3634302,149.16503016666667,34674.0,-441.6666666666667,-476.6666666666667,-65.66666666666667,-97.66666666666667,-122.66666666666667,-1019.3333333333334,-6.0,-2.3333333333333335,39.666666666666664,41993.0
23:56:50,AUTO,0.09312754372755687,-0.09663987408081691,-2.592154105504354,-0.0020629737991839647,0.03440075616041819,0.01858663869400819,-35.36351043333334,149.16492613333335,35951.333333333336,-462.6666666666667,-475.0,-58.666666666666664,-106.33333333333333,-110.66666666666667,-1012.6666666666666,0.0,34.666666666666664,18.666666666666668,41993.0
23:56:52,AUTO,0.07571602364381154,-0.04785000905394554,-2.543360710144043,0.010481583885848522,0.0317514439423879,0.024234173198541004,-35.36359123333333,149.1648229,37549.333333333336,-430.3333333333333,-441.0,-96.0,-101.66666666666667,-98.33333333333333,-1016.0,12.666666666666666,32.0,24.0,41993.0
23:56:53,AUTO,0.060349086920420326,-0.006100718572270125,-2.518165906270345,-0.022342659533023834,0.028511405922472477,0.02330601153274377,-35.36363666666667,149.16476523333336,39020.0,-372.0,-383.3333333333333,-127.0,-88.0,-82.66666666666667,-1015.6666666666666,-19.333333333333332,29.0,23.0,27541.0
23:56:54,AUTO,0.04628769059975942,0.016418501269072294,-2.502823829650879,-0.028695750671128433,0.03632507100701332,0.020670306868851185,-35.36366040000001,149.16473493333334,40076.333333333336,-324.6666666666667,-337.3333333333333,-141.0,-82.0,-81.66666666666667,-1019.0,-25.666666666666668,36.666666666666664,20.333333333333332,27541.0
23:56:56,AUTO,0.022131960839033127,0.05032733455300331,-2.47497296333313,-0.015949339295427006,0.012891555554233491,0.012733469096322855,-35.36370666666667,149.16467586666667,43274.0,-183.0,-192.0,-157.0,-53.333333333333336,-43.333333333333336,-1002.3333333333334,-13.333333333333334,13.666666666666666,12.666666666666666,27541.0
23:56:58,AUTO,0.0020127974761029086,0.06206434965133667,-2.4338061014811196,-0.006178653333336115,-0.023786571497718494,0.04297074923912684,-35.36372876666667,149.16464703333335,46569.333333333336,-59.333333333333336,-64.33333333333333,-155.0,-15.333333333333334,-16.666666666666668,-996.3333333333334,-3.3333333333333335,-22.0,43.0,30211.0
23:57:00,AUTO,0.014593120974798998,0.040234692239513,-2.076416015625,-0.08700494716564815,0.15790740648905435,0.09011529386043549,-35.36373373333333,149.16463706666664,49337.333333333336,-5.666666666666667,-47.0,-64.66666666666667,-7.666666666666667,-8.0,-902.0,-84.33333333333333,158.66666666666666,90.0,30211.0
23:57:02,RTL,-0.010679256791869799,0.0020441111798087754,-2.103747288386027,-0.17647947371006012,-0.06468459218740463,-0.016460147065420944,-35.36373393333333,149.16463813333334,49502.333333333336,-0.3333333333333333,42.333333333333336,13.666666666666666,2.3333333333333335,-24.333333333333332,-998.0,-175.0,-62.666666666666664,-15.333333333333334,30211.0
23:57:03,RTL,-0.0052986739901825786,-0.0016010190981129806,-2.1365996996561685,-0.4474886159102122,0.028989793732762337,-0.023603726799289387,-35.36373456666667,149.16464173333333,49380.333333333336,-3.6666666666666665,11.0,-2.3333333333333335,0.6666666666666666,-8.0,-1033.3333333333333,-444.3333333333333,30.0,-22.666666666666668,236451.0
23:57:04,RTL,-0.010516690633570155,0.009294671006500721,-2.1504013538360596,0.11667851607004802,0.005886465505075951,-0.0208928349117438,-35.363734533333336,149.16464193333331,49464.666666666664,-2.3333333333333335,7.666666666666667,-28.333333333333332,2.0,-0.6666666666666666,-1047.3333333333333,118.66666666666667,6.666666666666667,-20.0,236451.0
23:57:06,RTL,-0.025515176355838776,0.0037563379543522992,-2.1838393211364746,-0.002267665850619475,-0.003394065424799919,-0.020426003262400627,-35.36373319999999,149.1646420666667,50874.0,-12.666666666666666,14.0,-116.66666666666667,1.3333333333333333,-1.3333333333333333,-1044.0,-0.3333333333333333,-1.6666666666666667,-19.666666666666668,236451.0
23:57:08,RTL,0.03627649197975794,-0.004217807824412982,-2.204062302907308,-0.004631641631325086,0.032511016043523945,-0.04726229954394512,-35.36373186666666,149.1646414,53765.0,8.0,-16.666666666666668,-152.0,1.3333333333333333,-4.666666666666667,-996.6666666666666,-3.3333333333333335,34.333333333333336,-46.333333333333336,140773.0
23:57:10,RTL,-0.05965294192234675,0.0018895280469829838,-2.2795515060424805,0.058738535890976586,0.0015667953994125128,-0.006296990827346842,-35.36373006666666,149.16463936666665,56799.333333333336,-36.0,32.333333333333336,-151.0,-3.6666666666666665,7.666666666666667,-1000.6666666666666,59.333333333333336,2.6666666666666665,-5.333333333333333,140773.0
23:57:12,RTL,0.03004593215882778,-0.027725429584582646,-2.228976090749105,0.02059288260837396,-0.027896078924338024,0.06261984755595525,-35.36373533333333,149.1646476,59892.333333333336,-14.0,15.0,-153.66666666666666,-2.3333333333333335,6.0,-1000.3333333333334,21.666666666666668,-26.333333333333332,62.666666666666664,140773.0
23:57:13,RTL,0.007240900168350588,0.006923441503507395,-2.24210794766744,-0.029306554545958836,0.031711023300886154,-0.0443610834578673,-35.36373663333333,149.16464653333333,61829.333333333336,-1.3333333333333333,-23.333333333333332,-151.33333333333334,-3.6666666666666665,-3.3333333333333335,-1000.6666666666666,-27.666666666666668,32.666666666666664,-43.0,88408.0
23:57:14,RTL,-0.008575948576132456,0.01987006391088168,-2.273587385813395,-0.00500264468913277,0.007853692630305886,-0.030916355550289154,-35.3637371,149.16464486666666,62990.666666666664,0.3333333333333333,-15.333333333333334,-152.33333333333334,-2.3333333333333335,-3.3333333333333335,-1001.0,-3.6666666666666665,8.666666666666666,-29.666666666666668,88408.0
23:57:16,RTL,-0.0005134993407409638,0.010449645730356375,-2.3019703229268393,-6.24321789170305e-05,-0.006767748699833949,-0.00745198115085562,-35.36373716666667,149.1646442,66100.66666666667,11.0,2.0,-153.0,1.0,0.0,-1000.0,1.0,-5.0,-6.0,88408.0
23:57:18,RTL,-0.004583913212021192,0.002845620270818472,-2.3377148310343423,0.0017670297141497333,0.0012573985926186044,-0.022381022572517395,-35.36373606666667,149.1646447,69206.0,7.0,-0.6666666666666666,-153.0,0.3333333333333333,0.0,-1000.0,2.6666666666666665,2.3333333333333335,-21.333333333333332,88408.0
23:57:19,RTL,-0.0028197395149618387,0.004761320383598407,-2.369807481765747,0.001895855840605994,0.0011017815365145605,-0.02259268673757712,-35.3637359,149.1646447,71151.33333333333,3.6666666666666665,-2.0,-153.0,0.0,0.0,-999.6666666666666,2.6666666666666665,2.0,-21.0,11238.0
23:57:20,RTL,-0.002330502417559425,0.005633066097895305,-2.3877793153127036,-0.000847185884291927,0.001852645034280916,-0.02209995562831561,-35.36373583333333,149.1646447,72318.66666666667,3.0,-2.3333333333333335,-153.0,0.0,0.0,-999.3333333333334,1.0,3.3333333333333335,-20.666666666666668,11238.0
23:57:22,RTL,-0.0027818017018338046,0.00640327592069904,-2.4324440956115723,0.0002954662583457927,0.0005315132827187578,-0.01993076503276825,-35.36373563333333,149.1646445,75434.66666666667,4.0,-2.0,-153.0,0.0,0.0,-1000.0,1.3333333333333333,1.6666666666666667,-18.666666666666668,11238.0
23:57:24,RTL,-0.003930718094731371,0.006717616381744544,-2.47627321879069,0.0010346932103857398,0.0002559763961471617,-0.020036568865180016,-35.36373536666667,149.1646443,78544.33333333333,4.0,-1.6666666666666667,-153.0,0.0,0.0,-1000.0,2.0,1.3333333333333333,-18.666666666666668,108046.0
23:57:26,RTL,-0.00386518162364761,0.006111109008391698,-2.519191106160482,0.003698069058979551,0.0007709248069052895,-0.020527621110280354,-35.36373506666666,149.1646442,81655.33333333333,3.3333333333333335,-1.0,-153.0,0.0,0.0,-1000.3333333333334,4.666666666666667,1.6666666666666667,-19.0,108046.0
23:57:28,RTL,-0.0018858277471736073,0.007692643441259861,-2.5542897383371987,0.0042160646213839454,0.004391449969261885,0.0033869085212548575,-35.3637349,149.1646442,84772.66666666667,3.3333333333333335,-1.0,-153.0,0.0,0.0,-999.0,5.333333333333333,5.666666666666667,4.666666666666667,108046.0
23:57:29,RTL,-0.002927041845396161,0.006589569617062807,-2.530791759490967,-0.0036271008818099895,-0.0033554747545470795,0.02229471194247405,-35.3637345,149.1646441,86863.33333333333,6.0,-2.0,-152.66666666666666,0.3333333333333333,0.0,-1000.3333333333334,-1.6666666666666667,-1.3333333333333333,23.0,15228.0
23:57:30,RTL,-0.004686919506639242,0.004906852108736833,-2.516106685002645,-0.0017224849822620552,-0.0015863933755705755,0.01895204931497574,-35.36373426666666,149.16464406666668,88026.33333333333,5.333333333333333,-2.0,-153.0,0.0,0.0,-1000.0,0.0,0.3333333333333333,19.666666666666668,15228.0
23:57:32,RTL,-0.003929304191842675,0.005798548770447572,-2.4850425720214844,0.0010362837541227539,0.0008043475293864807,0.014574547298252583,-35.3637342,149.164644,91129.0,1.6666666666666667,-1.0,-153.0,0.0,0.0,-999.6666666666666,2.3333333333333335,2.0,15.333333333333334,15228.0
23:57:34,RTL,-0.0029577535266677537,0.006165005266666412,-2.462022304534912,0.0010232921922579408,0.0005411744738618532,0.011478386508921782,-35.36373443333333,149.164644,94237.66666666667,1.0,-1.0,-153.0,-0.3333333333333333,0.0,-1000.3333333333334,2.3333333333333335,2.0,12.666666666666666,15228.0
23:57:35,RTL,-0.0025049520190805197,0.006964759435504675,-2.450602928797404,7.928620713452499e-05,0.0006423567344124118,0.010859791499873003,-35.36373463333334,149.164644,96177.33333333333,2.0,-1.0,-153.0,0.0,0.0,-999.6666666666666,2.0,2.3333333333333335,12.0,160260.0
23:57:36,RTL,-0.002626345958560705,0.006772921575854222,-2.444631894429525,-0.0020725305269782743,-0.0009178394684568048,0.008309081352005402,-35.3637347,149.164644,97341.66666666667,2.3333333333333335,-1.0,-153.0,0.0,0.0,-1000.0,0.0,0.6666666666666666,9.333333333333334,160260.0
23:57:38,RTL,-0.0034093495924025774,0.006420963288595279,-2.4307897090911865,-0.0015536254504695535,2.5016488507390022e-06,0.007999863786002,-35.3637348,149.164644,100454.66666666667,3.0,-0.6666666666666666,-153.0,0.0,0.0,-1000.3333333333334,0.6666666666666666,1.3333333333333333,9.0,160260.0
23:57:40,RTL,-0.003373489947989583,0.006073139142245054,-2.4183996518452964,0.0006055066672464212,0.0002015643985942006,0.005941937832782666,-35.3637348,149.164644,103552.0,3.0,-1.0,-153.0,0.0,0.0,-999.75,2.0,2.0,7.0,211766.0
23:57:41,RTL,-0.0034748727921396494,0.00629687790448467,-2.412033955256144,0.0004150920237104098,0.001380395726300776,0.005344815241793792,-35.3637348,149.164644,105500.0,3.0,-1.0,-153.0,0.0,0.0,-999.6666666666666,2.0,2.6666666666666665,6.333333333333333,211766.0
23:57:43,RTL,-0.004073518328368664,0.006297050276771188,-2.4033085107803345,0.00022576574701815844,-0.0008368441485799849,0.004941420862451196,-35.3637348,149.164644,108413.0,3.0,0.0,-153.0,0.0,0.0,-1000.0,2.0,1.0,6.0,211766.0
23:57:45,RTL,-0.003261737215022246,0.005516271572560072,-2.394524017969767,-0.000408473735054334,0.001003292699654897,0.0052203708328306675,-35.3637348,149.164644,111709.66666666667,2.3333333333333335,0.0,-153.0,0.0,0.0,-999.3333333333334,1.6666666666666667,2.6666666666666665,6.333333333333333,211766.0
23:57:46,RTL,-0.003737661289051175,0.005593855710079272,-2.391590674718221,-0.0008197999947393934,0.0005573017212251822,0.003349005749138693,-35.3637348,149.164644,112876.66666666667,2.0,-0.6666666666666666,-153.0,0.0,0.0,-1000.0,1.0,2.0,4.666666666666667,149970.0
23:57:48,RTL,-0.0037477402365766466,0.005988549906760454,-2.385419011116028,0.0004923615779262036,0.00041502402746118605,0.003610294923419133,-35.3637348,149.164644,115785.25,2.0,0.0,-153.0,0.0,0.0,-999.75,2.25,2.0,5.0,149970.0
23:57:50,RTL,-0.004237935412675142,0.006324286456219852,-2.3796659111976624,0.0011863703257404268,-0.00036407035076990724,0.004009281343314797,-35.3637348,149.1646439,118889.75,2.0,0.0,-152.75,0.0,0.0,-1000.0,2.75,1.5,5.5,58267.0
23:57:51,RTL,-0.00386453396640718,0.0060529643669724464,-2.376248002052307,0.000918808626011014,0.0001582688419148326,0.0030266696121543646,-35.3637348,149.1646439,120833.0,2.0,0.0,-152.5,0.0,0.0,-999.5,2.5,2.0,4.5,58267.0
23:57:53,RTL,-0.003929559917499621,0.006023976641396682,-2.371291478474935,0.0005897397253041466,0.0009486540220677853,0.003090626560151577,-35.3637348,149.1646439,124131.33333333333,2.0,0.0,-152.0,0.0,0.0,-999.6666666666666,2.3333333333333335,2.6666666666666665,4.666666666666667,58267.0
23:57:55,RTL,-0.003095039865002036,0.005929316161200404,-2.366731643676758,-0.002737846691161394,0.00014872365863993764,0.002089262707158923,-35.3637348,149.16464395,127046.5,2.0,0.0,-152.0,0.0,0.0,-999.5,-0.5,1.5,3.5,58267.0
23:57:56,RTL,-0.0035486212582327425,0.00593594613019377,-2.3653563857078552,0.0007194435747805983,0.0005373751919250935,0.002211443381384015,-35.3637348,149.164644,128219.5,2.0,0.0,-152.0,0.0,0.0,-1000.0,2.5,2.25,3.75,17229.0
23:57:57,RTL,-0.004020026186481118,0.005959257483482361,-2.363194227218628,-0.0006994580617174506,0.00031097966711968184,0.003258097800426185,-35.3637348,149.164644,130153.0,2.0,0.0,-152.0,0.0,0.0,-1000.0,1.0,2.0,5.0,17229.0
23:57:59,RTL,-0.004532992374151945,0.005932728992775083,-2.3601311445236206,0.0010552199091762304,0.00028967909747734666,0.002419642638415098,-35.3637348,149.1646439,133259.0,2.0,0.0,-152.0,0.0,0.0,-1000.0,3.0,2.0,4.0,17229.0
23:58:01,RTL,-0.0041987900622189045,0.0056990995071828365,-2.357498526573181,-4.049553535878658e-05,-0.00046330218901857734,0.0017589855124242604,-35.3637348,149.1646439,136373.0,1.0,0.0,-152.0,0.0,0.0,-1000.5,1.5,1.5,3.0,27454.0
23:58:03,RTL,-0.004161262884736061,0.005831172922626138,-2.355047106742859,-9.952415712177753e-05,-0.00017391412984579802,0.0020414983155205846,-35.3637348,149.1646439,139480.5,2.0,0.0,-152.0,0.0,0.0,-1000.0,1.5,1.5,3.5,37679.0
23:58:05,RTL,-0.0032947449944913387,0.005477743688970804,-2.3531100749969482,0.0013326394837349653,-0.0006444096216000617,0.002236018772237003,-35.3637348,149.1646439,142587.0,2.0,0.0,-152.0,0.0,0.0,-1000.5,3.0,1.5,4.0,37679.0
23:58:06,RTL,-0.0035615498200058937,0.00561544974334538,-2.352139115333557,-0.000816120533272624,0.0012288527505006641,0.00243317277636379,-35.3637348,149.164643975,143753.0,2.0,0.0,-152.0,0.0,0.0,-1000.0,1.25,3.0,4.0,50127.0
23:58:07,RTL,-0.003863296238705516,0.0060392506420612335,-2.3510247468948364,-0.0004091088194400072,0.001089282799512148,0.0006870972574688494,-35.3637348,149.164644,145693.0,2.0,0.0,-152.0,0.0,0.0,-999.5,2.0,2.5,2.0,50127.0
23:58:09,RTL,-0.0041471184231340885,0.006152105517685413,-2.349567174911499,2.9343413189053535e-05,-0.00047716376138851047,0.0014393863966688514,-35.3637348,149.1646439,148799.0,2.0,0.0,-152.0,0.0,0.0,-1000.0,2.0,1.0,3.0,50127.0
23:58:11,RTL,-0.004221656825393438,0.005981740076094866,-2.3476239442825317,-0.001116401283070445,-5.9580488596111536e-05,-0.0002471497282385826,-35.3637348,149.1646439,151905.5,2.0,0.0,-152.0,0.0,0.0,-1000.0,1.0,1.5,1.0,101084.0
23:58:13,RTL,-0.004107932792976499,0.005920147057622671,-2.3465421199798584,-0.0004664293956011534,0.0008817006601020694,0.00023797800531610847,-35.3637348,149.1646439,155012.0,2.0,0.0,-152.0,0.0,0.0,-1000.0,2.0,2.5,2.0,152041.0
23:58:15,RTL,-0.004068725043907762,0.0048963946755975485,-2.3455357551574707,0.00036941695725545287,-7.944792741909623e-05,0.0009302471298724413,-35.3637348,149.1646439,158122.0,2.0,0.0,-152.0,0.0,0.0,-1000.0,2.5,2.0,2.5,152041.0
23:58:16,RTL,-0.003806702618021518,0.005308121792040765,-2.345006823539734,0.0006440657016355544,0.0007401609909720719,0.001010333828162402,-35.3637348,149.164643975,159293.25,1.5,0.0,-152.0,0.0,0.0,-1000.0,2.75,2.5,2.25,275451.0
23:58:17,RTL,-0.004109581699594855,0.005862189223989844,-2.344618558883667,-2.7644855435937643e-05,0.0026155939558520913,0.00093893613666296,-35.3637348,149.164644,161384.0,1.0,0.0,-152.0,0.0,0.0,-1000.0,2.0,4.5,2.5,275451.0
23:58:19,RTL,-0.0042378902435302734,0.005806470522657037,-2.343844771385193,-0.0006964954663999379,0.0010846259538084269,0.0009965564822778106,-35.3637348,149.1646439,164490.5,2.0,0.0,-152.0,0.0,0.0,-999.0,1.5,3.0,3.0,275451.0
23:58:21,RTL,-0.004174351925030351,0.006071871379390359,-2.3432549238204956,0.0003182068467140198,-0.000141201657243073,0.0015340099344030023,-35.3637348,149.1646439,167598.0,2.0,0.0,-152.0,0.0,0.0,-1000.0,2.5,1.5,3.0,153741.5
23:58:23,RTL,-0.004062069114297628,0.0058861393481493,-2.3428449630737305,0.002349151181988418,0.0010824583005160093,0.002636308199726045,-35.3637348,149.1646439,170707.0,2.0,0.0,-152.0,0.0,0.0,-999.5,4.5,3.0,4.0,32032.0
23:58:25,RTL,-0.004071153700351715,0.0060305355582386255,-2.3421841859817505,0.0009922481840476394,0.0013246898306533694,0.0020878695650026202,-35.3637348,149.1646439,173817.5,2.0,0.0,-152.0,0.0,0.0,-999.5,3.0,3.0,4.0,32032.0
23:58:26,RTL,-0.004133333684876561,0.005926206591539085,-2.342122793197632,0.0005114807281643152,-0.0003834339149761945,0.0012337465304881334,-35.3637348,149.1646439,174986.75,2.0,0.0,-152.0,0.0,0.0,-1000.25,2.5,1.75,3.25,164973.0
23:58:27,RTL,-0.003537416225299239,0.005362899973988533,-2.3413456678390503,0.0018138826126232743,-0.0006090773385949433,0.0011626981431618333,-35.3637348,149.1646439,176920.0,2.0,0.0,-152.0,0.0,0.0,-1000.0,3.5,1.5,2.5,164973.0
23:58:29,RTL,-0.0038674945244565606,0.005945372395217419,-2.340681314468384,-0.0024000046541914344,0.0006273123435676098,-0.001584851648658514,-35.3637348,149.164644,180035.0,2.0,0.0,-152.0,0.0,0.0,-1000.0,0.5,2.5,0.5,164973.0
23:58:31,RTL,-0.004692604998126626,0.005922373849898577,-2.3405736684799194,-0.0007311438675969839,-0.0006821381393820047,0.001457288395613432,-35.3637348,149.1646439,183141.0,2.0,0.0,-152.0,0.0,0.0,-999.5,1.5,1.5,3.5,97480.5
23:58:33,RTL,-0.00423304783180356,0.005785381188616157,-2.3403459787368774,0.0011747812386602163,-0.00016982888337224722,0.0007682533469051123,-35.3637348,149.1646439,186249.0,1.0,0.0,-152.0,0.0,0.0,-1000.0,3.5,2.5,2.5,29988.0
23:58:35,RTL,-0.004181042546406388,0.005735504440963268,-2.3402374982833862,0.0021625508088618517,-4.1367486119270325e-05,0.001787472632713616,-35.3637348,149.1646439,189353.5,2.0,0.0,-152.0,0.0,0.0,-1000.0,4.5,2.0,4.0,29988.0
23:58:36,RTL,-0.0038428622065111995,0.006145216291770339,-2.340030550956726,0.001249567256309092,0.0013358875876292586,0.0012785833678208292,-35.3637348,149.1646439,190521.0,2.0,0.0,-152.0,0.0,0.0,-999.75,3.5,3.25,3.25,32016.0
23:58:37,RTL,-0.0040813023224473,0.006010356126353145,-2.3399688005447388,-0.0018347830628044903,-0.0014090017648413777,0.0013522144290618598,-35.3637348,149.1646439,192460.0,2.0,0.0,-152.0,0.0,0.0,-1000.0,0.5,1.0,3.5,32016.0
23:58:39,RTL,-0.004127867985516787,0.006060124607756734,-2.3399658203125,-0.0008612925885245204,-0.001084794639609754,0.0015865348977968097,-35.3637348,149.1646439,195567.0,2.0,0.0,-152.0,0.0,0.0,-1000.0,1.5,1.0,4.0,32016.0
23:58:41,RTL,-0.0037247268483042717,0.005903884535655379,-2.339804530143738,-0.0011382249649614096,0.0002608075737953186,-0.00019584409892559052,-35.3637348,149.1646439,198673.0,2.0,0.0,-152.0,0.0,0.0,-1000.5,1.0,2.5,1.5,32016.0
23:58:42,RTL,-0.0040709482273086905,0.005900592659600079,-2.339829742908478,0.0005284111248329282,-0.0003310290921945125,0.001457796257454902,-35.3637348,149.1646439,199841.75,2.0,0.0,-152.0,0.0,0.0,-1000.25,3.0,1.5,3.25,150429.0
23:58:43,RTL,-0.0046736751683056355,0.00652559963054955,-2.3389034271240234,0.0021048784255981445,-0.0007579682278446853,0.0009893246460705996,-35.3637348,149.1646439,201783.0,2.0,0.0,-152.0,0.0,0.0,-1000.5,5.0,1.5,3.0,150429.0
23:58:45,RTL,-0.004474892746657133,0.005739519838243723,-2.339158773422241,-0.0012297903886064887,0.0003239999059587717,-0.0011305271182209253,-35.3637348,149.1646439,204890.5,1.5,0.0,-152.0,0.0,0.0,-999.5,1.5,3.0,1.0,150429.0
23:58:47,RTL,-0.004210199462249875,0.005853335373103619,-2.3390400409698486,-0.0013115680776536465,0.0006052999524399638,0.0003430088981986046,-35.3637348,149.1646439,207997.5,2.0,0.0,-152.0,0.0,0.0,-999.5,1.0,3.0,2.5,77841.0
23:58:49,RTL,-0.004063008353114128,0.006133089540526271,-2.339070200920105,-0.0015999225433915854,-6.873393431305885e-06,-0.0002923539141193032,-35.3637348,149.1646439,211111.0,2.0,0.0,-152.0,0.0,0.0,-1000.0,1.0,2.0,2.0,5253.0
23:58:51,RTL,-0.004348778631538153,0.005953192478045821,-2.3389066457748413,-0.003588377498090267,-0.0005378087516874075,0.0005047159502282739,-35.3637348,149.1646439,214218.5,2.0,0.0,-152.0,0.0,0.0,-999.5,-0.5,1.5,2.5,5253.0
23:58:52,RTL,-0.004374202340841293,0.005980080226436257,-2.3390249609947205,0.000632662617135793,0.0002953295479528606,0.0016160146915353835,-35.3637348,149.1646439,215383.5,2.0,0.0,-152.0,0.0,0.0,-999.75,3.25,2.75,3.75,63167.0
23:58:53,RTL,-0.0036525112809613347,0.005460650194436312,-2.3390921354293823,-0.0006971645052544773,-0.0008967833127826452,0.0009831616189330816,-35.3637348,149.1646439,217324.5,2.0,0.0,-152.0,0.0,0.0,-1000.0,1.5,1.5,3.0,63167.0
23:58:55,RTL,-0.0044024118687957525,0.0068617272190749645,-2.3392142057418823,-0.0007143456023186445,0.010947869042865932,0.0004255319363437593,-35.3637348,149.164644,220430.5,2.0,0.0,-152.0,0.0,0.0,-999.0,2.0,13.5,2.5,63167.0
23:58:57,RTL,-0.01050035422667861,0.08373716846108437,-2.3390982151031494,-0.007543764542788267,0.02999350894242525,0.00010864948853850365,-35.3637316,149.1646477,223491.5,53.5,50.5,-146.0,12.0,6.0,-995.5,-4.0,32.5,2.5,84165.0
23:58:59,RTL,0.02336111292243004,0.16193879395723343,-1.900028944015503,0.10551444441080093,-0.12691844999790192,0.23300493508577347,-35.36371285,149.164674,225916.0,162.5,220.5,-63.0,55.0,15.0,-939.0,108.0,-123.5,235.5,105163.0
23:59:01,RTL,0.0769119734565417,0.19576959808667502,-1.7956960598627727,-0.16412886728843054,0.07231821368137996,-0.04196352589254578,-35.363672699999995,149.16472543333336,226118.33333333334,326.3333333333333,288.0,22.333333333333332,100.33333333333333,-11.0,-986.3333333333334,-161.0,75.33333333333333,-38.333333333333336,105163.0
23:59:02,RTL,0.03936912305653095,0.2299780435860157,-1.831877440214157,-0.031068651005625725,-0.013591315364465117,-0.03974675596691668,-35.36364065,149.164760625,225874.0,406.0,367.75,15.25,125.75,0.0,-1020.25,-28.0,-10.5,-36.25,39503.0
23:59:03,RTL,-0.0017246461648028344,0.20585361868143082,-1.8878924250602722,-0.010248551145195961,-0.014073963509872556,-0.0327105363830924,-35.36359255,149.16481745,225788.0,456.5,453.0,-3.0,141.5,10.5,-993.0,-7.0,-11.0,-29.5,39503.0
23:59:05,RTL,-0.028562620282173157,0.15161902457475662,-1.9644045233726501,-0.019521567039191723,-0.014476976357400417,-0.03894796967506409,-35.36350905,149.1649242,225880.0,476.5,488.5,-8.0,150.5,26.5,-977.0,-16.0,-10.5,-35.5,39503.0
23:59:07,RTL,-0.04203113354742527,0.1311747431755066,-2.0246728658676147,0.013035350944846869,-0.040584348142147064,-0.0172755247913301,-35.363424300000005,149.165033,225859.0,477.5,483.5,-7.0,152.0,41.0,-998.0,16.0,-37.0,-14.0,65040.5
23:59:09,RTL,-0.07142751663923264,0.03717738389968872,-2.0660730600357056,-0.21129485871642828,-0.04834448918700218,-0.07661144807934761,-35.3633458,149.1651321,225918.0,386.5,394.0,-2.0,126.0,20.0,-992.5,-208.0,-44.5,-73.0,90578.0
23:59:11,RTL,-0.05640611176689466,-0.027900102858742077,-2.087085008621216,0.7676191131273905,-0.02006267678613464,0.023185978333155315,-35.363297966666664,149.1651937,225859.33333333334,247.0,257.6666666666667,-1.3333333333333333,83.33333333333333,66.0,-1004.0,771.6666666666666,-17.0,25.666666666666668,90578.0
23:59:12,RTL,-0.06652398593723774,-0.04810862056910992,-2.0995967984199524,-0.3920614905655384,-0.02975137485191226,-0.0359287578612566,-35.36327805,149.16521842499998,225837.75,163.5,173.75,-2.5,57.5,0.5,-1014.75,-388.25,-26.0,-32.25,27982.0
23:59:13,RTL,-0.05949106812477112,-0.055549683049321175,-2.1137975454330444,-0.3642846755683422,0.032667080871760845,-0.02779183816164732,-35.363263399999994,149.1652348,225841.5,60.0,85.0,-1.5,25.5,-20.5,-995.0,-361.0,35.5,-24.0,27982.0
23:59:15,RTL,-0.03248433209955692,-0.023364095017313957,-2.135227680206299,-0.32771385088562965,0.02011201251298189,-0.005451019504107535,-35.3632573,149.16524185,225855.5,-20.0,12.5,-2.0,0.0,-2.0,-1002.0,-324.5,23.0,-2.0,27982.0
23:59:17,RTL,-0.008864663075655699,-0.0072050816379487514,-2.1487315893173218,-0.6346032321453094,-0.0107136070728302,-0.007990029640495777,-35.3632588,149.1652419,225861.5,-15.5,-0.5,-1.0,-3.5,-25.5,-1009.5,-631.5,-7.5,-4.5,27982.0
23:59:18,RTL,0.007083281467203051,-0.008513593929819763,-2.1520363688468933,0.30818217247724533,0.0024427318712696433,-0.01052414020523429,-35.363259725,149.1652419,225865.25,-12.75,-6.25,-2.0,-5.75,17.25,-1005.25,311.0,5.25,-7.25,66902.0
23:59:19,RTL,0.01747403061017394,-0.0015188725083135068,-2.157973051071167,-0.05069352686405182,0.006512286490760744,-0.009386787191033363,-35.363262,149.16524175,225866.0,-1.0,-16.0,-1.0,-6.5,17.0,-992.5,-47.0,9.0,-6.0,66902.0
23:59:21,RTL,0.02115238457918167,0.007500784937292337,-2.169051170349121,0.49697768688201904,0.005740713328123093,-0.00635852781124413,-35.3632642,149.1652407,225872.5,21.0,-23.5,0.0,0.0,28.5,-993.0,500.5,8.5,-3.0,66902.0
23:59:23,RTL,0.0025406023487448692,0.00807822379283607,-2.1795642375946045,1.4654923975467682,-0.005508156958967447,0.000354250892996788,-35.36326325,149.1652387,224942.0,20.5,-15.0,105.0,0.3333333333333333,36.666666666666664,-956.0,1012.3333333333334,0.6666666666666666,2.6666666666666665,66902.0
23:59:24,RTL,-0.018403910915367305,0.006289797252975404,-2.1816760301589966,0.1404260080307722,0.0014092577621340752,0.00818038685247302,-35.3632629,149.1652383,224070.25,14.0,-9.5,116.0,1.0,47.5,-994.75,146.25,4.5,10.75,72768.0
23:59:25,RTL,-0.017780589871108532,0.004472125554457307,-2.1866124868392944,-1.365793526172638,-0.001634189742617309,-0.008138473378494382,-35.36326255,149.1652381,222698.5,6.5,-4.5,103.0,0.5,-69.0,-1041.0,-1362.0,1.5,-5.0,72768.0
23:59:27,RTL,0.01946321316063404,0.005109210265800357,-2.1934587955474854,1.0154725313186646,0.0009654918685555458,-0.004191866610199213,-35.363262,149.1652375,220633.0,0.0,0.0,103.0,0.0,14.0,-948.5,1017.5,3.5,-1.0,72768.0
23:59:29,RTL,0.014520670287311077,-6.195778648058574e-06,-2.198082605997721,0.8293652435143789,-0.0029736447613686323,-0.006320289957026641,-35.36326296666667,149.16523826666665,218891.66666666666,5.333333333333333,-1.6666666666666667,95.66666666666667,-4.333333333333333,72.66666666666667,-1012.0,835.0,0.0,-3.0,39555.5
23:59:31,RTL,0.03160721901804209,0.004132750094868243,-2.2038931846618652,-1.3095229268074036,0.009269943693652749,-0.006389394169673324,-35.3632664,149.1652412,216555.0,33.0,-24.0,100.5,-1.5,-45.0,-1011.0,-1304.0,11.5,-3.0,6343.0
23:59:33,RTL,0.031029085939129192,0.012355178284148375,-2.207187016805013,0.2361550728480021,0.010856901916364828,0.007965942844748497,-35.363266066666675,149.16524026666664,214821.33333333334,40.0,-28.0,103.0,4.0,-19.333333333333332,-1016.3333333333334,241.0,13.333333333333334,10.666666666666666,6343.0
23:59:34,RTL,0.005526772583834827,0.015468984143808484,-2.209350109100342,0.8656619191169739,-2.563558518886566e-05,-0.0034531886340118945,-35.363264275,149.16523842499998,213764.0,32.5,-20.5,97.25,6.5,0.5,-1004.5,869.75,2.75,-0.5,27091.0
23:59:35,RTL,-0.011058531701564789,0.01059362618252635,-2.210914969444275,1.2730498313903809,-0.006562814116477966,0.0005503477295860648,-35.36326165,149.16523615,212474.0,9.0,-1.0,96.5,5.5,36.0,-1011.5,1278.0,-3.0,3.0,27091.0
23:59:37,RTL,0.008555696345865726,-0.0011373037996236235,-2.214910864830017,1.3016107082366943,-0.004459048854187131,-0.002762976218946278,-35.363260749999995,149.1652364,210440.0,-12.5,12.0,96.5,-0.5,66.5,-1022.5,1307.5,-1.5,0.5,27091.0
23:59:39,RTL,-0.0028176623163744807,-0.0007176379294833168,-2.217809557914734,-0.8117317259311676,0.005095991189591587,-0.0058854828821495175,-35.3632627,149.16523834999998,208426.0,-2.0,0.0,98.5,-1.5,4.0,-979.0,-804.5,7.5,-2.5,27091.0
23:59:40,RTL,-0.0015437761394423433,0.004146953520830721,-2.218234419822693,-0.8656793385744095,0.006297452433500439,0.003299111209344119,-35.363263325000005,149.165238725,207676.0,5.25,-6.25,103.75,-1.0,-13.5,-1018.5,-858.5,9.0,6.25,61424.0
23:59:41,RTL,-0.014549230225384235,0.009551005903631449,-2.220223069190979,-1.345926582813263,-0.002182887983508408,0.0017483074916526675,-35.36326325,149.1652381,206411.0,10.5,-8.0,101.5,2.0,-70.0,-1025.5,-1340.0,1.0,4.5,61424.0
23:59:43,RTL,-0.036387866362929344,0.006266344338655472,-2.2225496768951416,-1.0505710244178772,-0.006117264972999692,0.0016557977069169283,-35.363261949999995,149.16523675000002,204380.0,1.0,3.0,102.5,0.0,-26.5,-1006.0,-1043.5,-2.5,4.5,61424.0
23:59:45,RTL,0.024986599572002888,-0.00197625532746315,-2.223565459251404,0.2914796471595764,-0.007020903052762151,-0.002749069593846798,-35.363262500000005,149.1652378,202316.5,-0.5,4.0,103.5,-5.5,-20.0,-1030.5,295.5,-4.0,0.5,51952.0
23:59:47,RTL,0.06465495564043522,-0.001852183704613708,-2.2250657081604004,0.3797086104750633,0.002600295701995492,0.004376351600512862,-35.36326545,149.16524075,200717.0,18.0,-13.0,103.0,-4.0,-19.5,-935.0,384.0,5.5,7.0,42480.0
23:59:49,RTL,0.05906222574412823,0.007347575156018138,-2.226996660232544,0.9184646308422089,0.004196766763925552,0.005733295460231602,-35.36326725,149.16524175,198617.0,47.5,-35.5,98.0,1.0,33.0,-1067.0,925.0,7.0,8.5,42480.0
23:59:50,RTL,0.0422068415209651,0.009975520893931389,-2.227210819721222,1.4264163672924042,-0.00038564170245081186,6.059999577701092e-07,-35.3632668,149.1652411,197586.25,49.5,-35.5,101.5,1.75,58.75,-1006.75,1434.75,3.0,3.0,59160.0
23:59:51,RTL,0.013941522222012281,0.01169912051409483,-2.2272309064865112,0.8552657067775726,0.0041683444287627935,0.010145928710699081,-35.36326565,149.16523995,196549.5,44.0,-30.5,97.5,4.5,56.0,-1035.0,864.5,7.0,13.0,59160.0
23:59:53,RTL,-0.029646635055541992,0.008163533406332135,-2.2290635108947754,-0.28504544496536255,-0.0021410492481663823,0.0012055134866386652,-35.3632627,149.16523740000002,194493.0,18.0,-8.0,97.0,0.0,20.0,-1073.5,-275.0,1.0,4.5,59160.0
23:59:55,RTL,-0.023610934149473906,0.006852436577901244,-2.2284765243530273,-1.4717331528663635,0.014281675685197115,-0.0036267638206481934,-35.363261800000004,149.165237,192457.5,-0.5,2.0,94.0,2.5,-74.0,-970.0,-1463.0,17.0,0.0,55192.5
23:59:57,RTL,-0.07354501634836197,0.01392850186675787,-2.2312198877334595,-0.7939420342445374,-0.004959031706675887,-0.0025810678489506245,-35.3632584,149.16523339999998,190404.5,-24.0,19.5,95.0,8.5,-67.0,-1046.5,-787.0,-1.5,0.5,51225.0
23:59:59,RTL,-0.06577667966485023,0.004969866946339607,-2.230502724647522,0.5870594531297684,-0.006830424419604242,-0.012701134546659887,-35.36325565,149.16523125,188381.5,-58.5,48.5,94.5,1.5,15.0,-965.5,593.0,-3.5,-9.0,51225.0
00:00:00,RTL,-0.08097006194293499,0.0003420094435568899,-2.2291319370269775,-0.3292974028736353,-0.001378021901473403,-0.014097908162511885,-35.3632556,149.1652315,187366.0,-63.0,51.75,96.5,-6.0,30.0,-1014.5,-321.0,2.0,-9.75,128612.0
00:00:01,RTL,-0.05021232273429632,-0.004343615844845772,-2.2297568321228027,-0.9838613122701645,0.0024003806756809354,-0.0039840885438025,-35.36325735,149.16523335,186345.0,-59.5,48.0,99.5,-7.0,-3.5,-938.0,-976.5,5.5,-0.5,128612.0
00:00:03,RTL,-0.015501882415264845,0.004129270673729479,-2.2312145233154297,-1.4521636366844177,0.003605242818593979,0.0025751235662028193,-35.3632612,149.1652364,184283.0,-24.5,19.0,98.0,-2.5,-64.0,-929.5,-1447.5,7.0,5.5,128612.0
00:00:05,RTL,-0.026370206382125616,0.013329352252185345,-2.231428027153015,1.2273120284080505,0.004702091799117625,0.006655920296907425,-35.36326125,149.16523554999998,182254.5,-9.5,10.5,99.5,3.5,63.5,-1000.0,1232.5,8.0,9.5,104498.0
00:00:07,RTL,-0.03338209539651871,0.005541101563721895,-2.2315664291381836,1.1532945036888123,-0.008393030380830169,0.0044485891703516245,-35.363259400000004,149.1652342,180236.0,-23.5,25.5,99.5,0.0,71.5,-1022.5,1158.0,-4.5,7.5,80384.0
00:00:09,RTL,-0.04154468514025211,0.000993345252936706,-2.231550455093384,-0.7886574789881706,-0.004978748271241784,0.002186726196669042,-35.3632597,149.165235,178187.5,-29.0,26.5,101.5,-3.0,7.5,-1013.5,-784.0,-1.0,5.5,80384.0
00:00:10,RTL,-0.009424557531019673,-0.001201044196022849,-2.231263756752014,-1.152697131037712,0.00015147565864026546,0.004066544002853334,-35.363260749999995,149.165236275,177168.75,-22.0,19.5,99.0,-4.75,-58.25,-1019.75,-1151.0,3.75,7.25,7650.0
00:00:11,RTL,0.005681583657860756,-0.004858109168708324,-2.2314250469207764,-1.286570966243744,-0.0026878032367676497,0.0019901671912521124,-35.36326255,149.16523815,176161.0,-8.5,8.0,95.0,-8.0,-56.5,-1013.5,-1284.5,1.0,5.5,7650.0
00:00:13,RTL,0.045101553201675415,0.0015375905204564333,-2.2316800355911255,-1.236656665802002,0.006620330736041069,0.0010311369551345706,-35.3632669,149.16524205,174121.5,31.5,-26.0,96.0,-3.0,-59.0,-989.5,-1233.0,10.0,4.0,7650.0
00:00:15,RTL,0.05514764040708542,0.005004665115848184,-2.231244444847107,1.433172881603241,0.005246489658020437,0.00868060439825058,-35.3632679,149.16524235,172081.0,54.5,-39.5,104.5,-2.0,84.5,-910.5,1438.5,8.5,12.0,7952.0
00:00:19,RTL,-0.004456920898519456,0.005257655866444111,-2.2327091693878174,-0.9334502816200256,-0.006351316347718239,0.005018205381929874,-35.36326545,149.1652402,167974.0,41.0,-27.5,100.0,0.0,-12.0,-1002.0,-924.5,-2.0,8.5,8254.0
00:00:21,RTL,0.04410487972199917,-0.0005637322610709816,-2.232307553291321,-0.19106104969978333,-0.0024989135563373566,0.003450121614150703,-35.3632659,149.16524125,165928.5,37.5,-28.0,99.0,-2.0,-24.5,-1049.5,-185.0,1.5,6.5,8254.0
00:00:22,RTL,0.07209121435880661,0.0013106607875670306,-2.233383357524872,1.2320041954517365,0.007059237570501864,0.007272565504536033,-35.36326685,149.165242225,164926.5,43.5,-34.75,96.5,-0.75,34.75,-999.0,1239.75,10.5,10.5,10041.0
00:00:23,RTL,0.055644186213612556,0.006803149590268731,-2.2327429056167603,1.1710686385631561,0.0007010952103883028,0.0021713459864258766,-35.363267,149.1652421,163931.5,48.0,-39.5,99.5,1.5,25.5,-994.0,1179.5,4.5,6.0,10041.0
00:00:25,RTL,0.03249169047921896,0.010879651177674532,-2.2324329614639282,1.1855006217956543,0.009041433688253164,0.01027183118276298,-35.3632654,149.1652401,161885.0,39.5,-30.5,103.0,3.0,16.0,-955.0,1194.0,12.5,13.5,10041.0
00:00:27,RTL,-0.04267804231494665,0.010736091993749142,-2.2323808670043945,0.1911628544330597,-0.0020912785548716784,0.012543004006147385,-35.3632616,149.1652365,159826.0,11.5,-7.0,101.5,4.0,35.0,-1004.5,202.5,2.0,16.0,29759.5
00:00:29,RTL,-0.04556134343147278,0.002540412126109004,-2.2320770025253296,-0.4980706125497818,0.0028329985216259956,-0.0015208867844194174,-35.36325995,149.1652356,157795.5,-15.5,13.0,104.0,0.5,17.5,-1008.0,-485.5,6.5,2.5,49478.0
00:00:31,RTL,-0.04546522907912731,0.004133123904466629,-2.2325862646102905,-1.355735182762146,0.007361542899161577,-0.030126316472887993,-35.3632596,149.16523535,155744.5,-23.0,16.0,98.5,-1.5,-41.5,-991.0,-1345.0,11.0,-25.5,49478.0
00:00:32,RTL,-0.02925144275650382,0.00459201424382627,-2.232333540916443,-0.8424136564135551,0.002708998217713088,-0.013600468751974404,-35.36325945,149.16523515,154727.25,-27.5,18.75,98.25,2.0,-72.25,-974.0,-834.5,6.25,-8.75,89365.0
00:00:33,RTL,-0.034003703854978085,0.0062457334715873,-2.2335175275802612,-0.32014206051826477,-0.003700618864968419,-0.00022818578872829676,-35.3632588,149.16523445,153727.0,-30.5,21.0,103.5,3.0,-61.0,-963.0,-313.5,0.0,3.0,89365.0
00:00:35,RTL,-0.028011633083224297,0.001401969166181516,-2.23202121257782,0.15672466531395912,-0.004461360746063292,-0.0023008380085229874,-35.36325775,149.16523360000002,151699.0,-44.0,33.5,102.5,0.0,-35.5,-928.0,162.0,-0.5,1.5,89365.0
00:00:37,RTL,-0.018156807869672775,-0.0029369749827310443,-2.231663942337036,0.9214508086442947,-0.00032312609255313873,-0.010503121186047792,-35.3632592,149.1652353,149638.0,-36.0,25.0,103.0,-2.5,73.0,-901.5,929.0,4.0,-6.0,62960.0
00:00:39,RTL,-0.014396113343536854,0.001263744223251706,-2.2319775819778442,-0.5639914777129889,0.006483522243797779,0.00288738333620131,-35.36326155,149.16523725000002,147595.0,-13.5,6.0,97.0,-3.0,13.5,-1002.0,-555.0,10.0,6.5,36555.0
00:00:41,RTL,0.004565571405692026,0.004754579276777804,-2.2332924604415894,-0.37178417295217514,-0.0042536326218396425,-0.03567219153046608,-35.363262250000005,149.16523755,145560.0,-4.5,1.5,103.5,1.0,-59.0,-900.5,-367.0,0.0,-31.0,36555.0
00:00:42,RTL,-0.0011490410834085196,0.00812697852961719,-2.2315900921821594,0.933973103761673,0.0024604147183708847,-0.0008931884076446295,-35.36326175,149.1652368,144553.75,-4.25,2.0,103.25,2.0,7.25,-1019.5,939.0,5.75,3.0,107099.0
00:00:43,RTL,-0.012106351088732481,0.00835420610383153,-2.2320159673690796,1.245871365070343,-0.0022406213684007525,0.005615566857159138,-35.36326095,149.165236,143490.0,-10.0,8.0,104.5,3.0,41.5,-1070.0,1251.5,1.5,9.0,107099.0
00:00:45,RTL,-0.014119667001068592,0.0050026283133775,-2.2316304445266724,1.3773545622825623,0.0015000035054981709,0.00400041532702744,-35.3632595,149.16523475000002,141414.5,-23.5,20.5,106.0,1.0,50.0,-1033.5,1382.5,5.0,7.5,107099.0
00:00:47,RTL,-0.027826758101582527,-0.0033556156558915973,-2.2310638427734375,-0.45204879343509674,-0.00600359111558646,-0.00696789869107306,-35.363260350000004,149.16523605,139342.0,-22.5,19.0,103.0,-6.0,38.666666666666664,-981.0,-141.33333333333334,-0.6666666666666666,-3.0,132178.0
00:00:49,RTL,0.01443468313664198,-0.0025281763373641297,-2.2311166524887085,-0.9569276869297028,-0.0008442765101790428,0.004187803249806166,-35.36326435,149.16524015,137289.0,8.5,-10.5,97.0,-4.0,-12.0,-1039.0,-950.0,3.0,7.5,157257.0
00:00:51,RTL,0.008526799269020557,0.004620069521479309,-2.231528401374817,-1.1171926259994507,0.004084342275746167,-0.003973850980401039,-35.363265549999994,149.1652407,135251.5,28.5,-25.5,98.5,-1.5,-27.0,-990.0,-1110.0,7.0,-0.5,157257.0
00:00:52,RTL,0.01450419519096613,0.006073645083233714,-2.2312997579574585,-1.092293992638588,0.003524539992213249,-0.010029339231550694,-35.363265375,149.16524035,134232.0,29.25,-24.75,101.75,1.5,-72.75,-1005.0,-1086.75,6.75,-5.5,50076.0
00:00:53,RTL,0.02752495836466551,0.007039351621642709,-2.2310376167297363,0.6069201752543449,-0.003148422692902386,-0.005632334272377193,-35.363264799999996,149.16523975,133194.5,29.0,-23.0,106.0,1.5,-11.0,-1065.0,612.0,0.5,-1.5,50076.0
00:00:55,RTL,0.03752880357205868,0.0020875607151538134,-2.2311954498291016,1.127501517534256,0.0002265189541503787,0.0011528509203344584,-35.3632642,149.1652396,131149.5,21.5,-17.0,104.0,1.0,20.5,-1014.0,1133.0,3.5,4.5,50076.0
00:00:57,RTL,0.01128186471760273,0.0038452885346487164,-2.230847120285034,0.7572019412182271,-0.001482313615269959,0.006265631644055247,-35.363264,149.16523945,129119.5,21.0,-19.0,96.5,0.5,67.5,-971.0,766.0,2.5,9.5,31291.0
00:00:59,RTL,0.0015652586007490754,0.0007514079406973906,-2.2309998273849487,-1.066013216972351,-0.003695966093800962,0.002924302825704217,-35.36326445,149.16524005,127090.0,21.5,-19.5,97.0,-1.5,-19.5,-1002.5,-1056.0,0.0,6.5,12506.0
00:01:01,RTL,0.045892439782619476,0.005306791979819536,-2.231447458267212,1.0912581384181976,0.0034142305376008153,-0.001844568643718958,-35.36326495,149.16524045,125042.0,26.5,-26.0,100.0,4.0,2.0,-941.0,1098.5,6.5,1.5,12506.0
00:01:02,RTL,-0.011820808373158798,0.011327681597322226,-2.23130464553833,0.8176679313182831,0.003582651203032583,0.007253340212628245,-35.363263475000004,149.165238725,124013.25,24.5,-23.25,99.75,3.75,58.75,-1017.75,827.75,6.75,10.5,32808.0
00:01:03,RTL,-0.031861577183008194,0.007633794331923127,-2.231222152709961,0.4100586362183094,-0.012613005470484495,0.0013597081415355206,-35.3632621,149.16523725,122989.0,9.5,-7.5,99.5,1.0,38.5,-1030.0,421.0,-8.5,4.5,32808.0
00:01:05,RTL,-0.026589352637529373,0.004659850150346756,-2.2314049005508423,-0.19918812811374664,0.005583575926721096,0.0050064383540302515,-35.36326155,149.1652371,120951.5,-1.0,0.0,102.0,1.5,34.5,-963.0,-187.5,8.5,8.5,32808.0
00:01:07,RTL,-0.020217476710968185,0.003738229104783386,-2.23066508769989,0.0780375599861145,-0.008427189313806593,-0.009325059363618493,-35.36325995,149.1652355,118903.0,-17.5,14.0,90.5,-0.5,-27.0,-1012.5,85.5,-4.5,-5.0,35919.5
00:01:09,RTL,0.023631751537322998,-0.00285883666947484,-2.2309879064559937,1.1456208229064941,0.002471978892572224,-0.007458762964233756,-35.363262250000005,149.16523805,116882.0,-8.0,5.0,97.5,-5.5,74.5,-1026.0,1155.0,5.5,-3.5,39031.0
00:01:11,RTL,-0.003637203946709633,0.003592065302655101,-2.230811595916748,0.3470810651779175,0.005515942350029945,-0.005706830881536007,-35.3632639,149.1652394,115228.0,13.0,-13.0,105.0,-1.0,72.0,-838.0,358.0,8.0,-1.0,39031.0
00:01:12,RTL,-0.00459031667560339,0.005337107833474875,-2.2302740097045897,-1.36286199092865,-0.00013563542161136865,-0.0007405531592667103,-35.363264220000005,149.16523925999996,113950.4,17.4,-14.4,100.0,-0.2,-61.4,-981.8,-1353.4,2.8,3.0,120958.0
00:01:13,RTL,-0.003815498959738761,0.008801516611129045,-2.230746865272522,-1.0002893507480621,0.005853058653883636,-0.008678429527208209,-35.36326365,149.1652386,112784.0,15.0,-12.5,97.0,5.0,-77.0,-994.0,-992.0,9.0,-4.5,120958.0
00:01:15,RTL,-0.0716831237077713,0.010454987175762653,-2.2309184074401855,-1.393872618675232,0.001606203499250114,-0.013552265241742134,-35.36325975,149.1652348,110752.0,-11.0,10.0,100.5,3.5,-52.0,-983.0,-1384.5,4.5,-9.0,120958.0
00:01:17,RTL,-0.01981760747730732,0.0009782533161342144,-2.229057550430298,0.049023933708667755,-0.0035017109476029873,-0.010243618860840797,-35.3632582,149.1652339,109105.0,-36.0,30.0,104.0,0.0,-40.0,-863.0,55.0,0.0,-6.0,72450.0
00:01:19,RTL,0.003946470911614597,0.0007654761138837785,-2.2294613122940063,1.5245355367660522,0.004022209555841982,0.004822236718609929,-35.3632603,149.16523615,106681.5,-22.5,14.5,101.0,-2.0,72.0,-984.5,1533.0,7.0,8.0,23942.0
00:01:21,RTL,-0.0011833022290375084,-0.002740573836490512,-2.229754090309143,0.5790621936321259,0.0001148903975263238,-0.009819746017456055,-35.36326175,149.1652375,105138.0,-12.0,8.0,99.5,-4.5,63.5,-1023.5,588.0,3.0,-6.0,23942.0
00:01:22,RTL,0.015909047331660986,-0.0026995860505849125,-2.229910373687744,-1.2475489854812623,0.0002755974419414997,0.0006432934664189815,-35.36326386,149.16523949999998,103738.4,5.8,-6.4,100.4,-5.6,-60.0,-996.0,-1239.8,3.2,4.0,159668.0
00:01:23,RTL,0.03247792273759842,-0.0033095290418714285,-2.2283215522766113,-0.8612725138664246,-0.005398687440901995,-0.0012193010188639164,-35.363265,149.1652406,102975.0,16.0,-14.0,99.0,-5.0,-62.0,-996.0,-854.0,-1.0,2.0,159668.0
00:01:25,RTL,0.05987090617418289,0.0034261448308825493,-2.228909730911255,0.3053116202354431,0.0074552856385707855,-0.004966546781361103,-35.3632673,149.1652423,100964.0,43.0,-36.0,98.0,0.0,-35.0,-1070.0,313.0,10.0,-1.0,159668.0
00:01:27,RTL,0.0017270299916466076,0.013186609062055746,-2.228845198949178,1.2196338574091594,0.004000099065403144,0.013736615578333536,-35.36326486666667,149.16523956666666,98915.33333333333,38.666666666666664,-31.333333333333332,101.33333333333333,6.666666666666667,68.66666666666667,-970.6666666666666,1230.6666666666667,6.666666666666667,17.333333333333332,93454.0
00:01:29,RTL,-0.031149842776358128,0.010830943007022142,-2.2280505895614624,1.2752345204353333,-0.007170071825385094,0.007060844101943076,-35.36325995,149.16523510000002,96897.5,-5.5,6.0,103.5,6.0,20.5,-1005.5,1283.5,-3.5,10.5,27240.0
00:01:31,RTL,-0.04157428443431854,-0.0009390903724124655,-2.2274484634399414,1.0620298385620117,-0.007004240294918418,-0.014079490676522255,-35.36325785,149.1652337,94856.5,-35.0,30.0,102.0,-7.0,95.5,-972.0,1072.0,-3.5,-10.0,27240.0
00:01:32,RTL,0.0018290526350028813,-0.012485716957598925,-2.2272040247917175,-0.8733542114496231,-0.0031631392193958163,-0.00624872074695304,-35.363261099999995,149.165237475,93579.75,-23.75,19.25,101.75,-14.25,17.75,-1024.5,-862.75,0.0,-2.5,161062.0
00:01:33,RTL,0.045765386894345284,-0.012603232637047768,-2.227309823036194,-0.5982885658740997,0.003165662754327059,0.002268990152515471,-35.363264,149.16524045,92818.5,-3.5,-0.5,100.5,-12.0,25.5,-998.5,-587.0,6.5,5.0,161062.0
00:01:35,RTL,0.02640323620289564,0.005197205813601613,-2.2262686491012573,-1.186309039592743,0.006607770919799805,-0.0004235620144754648,-35.36326805,149.1652433,90793.0,49.5,-46.0,101.5,0.0,-23.5,-966.5,-1174.0,9.0,2.5,161062.0
00:01:37,RTL,-0.031888749450445175,0.013592310715466738,-2.2271400690078735,-0.5472672879695892,-0.0014476437354460359,0.017454519867897034,-35.3632647,149.16523955,88763.0,39.5,-34.5,106.5,7.5,0.5,-1008.5,-534.0,1.0,20.5,161062.0
00:01:38,RTL,-0.03693083953112364,0.007823670050129294,-2.226586699485779,-0.7245691120624542,-0.011968839680776,-0.009418003843165934,-35.3632613,149.1652366,87455.75,7.75,-6.25,100.75,5.25,-66.25,-1003.0,-715.25,-8.25,-5.5,25830.0
00:01:39,RTL,-0.03191249445080757,0.00365927058737725,-2.224940538406372,-0.8198128342628479,-0.006145472405478358,-0.009397110436111689,-35.363260350000004,149.165236,86691.0,-7.5,6.0,103.0,1.0,-77.5,-954.0,-810.0,-2.5,-5.5,25830.0
00:01:41,RTL,-0.03002007119357586,0.0034683565609157085,-2.225280523300171,-1.273874282836914,0.00200533214956522,-0.006196749163791537,-35.36326,149.1652359,84632.0,-20.5,13.0,100.0,0.5,-72.0,-1004.0,-1264.0,4.5,-2.0,25830.0
00:01:43,RTL,-0.027630524709820747,0.00654316833242774,-2.2265172004699707,1.1765022575855255,0.009541306411847472,0.0103692386765033,-35.3632593,149.16523495,82583.0,-25.5,17.0,99.5,1.0,58.0,-1057.5,1187.0,12.0,13.5,45481.0
00:01:45,RTL,-0.06860928982496262,0.004245483432896435,-2.225206971168518,-0.9881622195243835,-0.003339623799547553,0.004533144528977573,-35.36325825,149.165234,80558.0,-37.0,27.0,99.5,0.0,-5.0,-982.0,-977.0,-0.5,7.5,65132.0
00:01:47,RTL,-0.056352151557803154,0.0036396244540810585,-2.225662589073181,-1.2727625668048859,-0.0028662027907557786,-0.003967173746787012,-35.3632581,149.16523385,78494.0,-44.5,32.5,97.0,0.5,-70.0,-1080.5,-1265.0,0.5,-0.5,65132.0
00:01:48,RTL,-0.05982739105820656,0.00747042684815824,-2.225411593914032,-0.7843365482985973,0.0020492571347858757,-0.005866822553798556,-35.36325745,149.1652332,77226.0,-47.75,33.25,100.75,5.75,-73.5,-1007.25,-778.0,4.5,-2.0,32485.0
00:01:49,RTL,-0.06310982443392277,0.008496273774653673,-2.226364493370056,-0.36539052426815033,-0.0023660868173465133,-0.004566220799461007,-35.36325655,149.1652323,76456.5,-54.5,38.5,97.5,5.5,-62.5,-989.5,-360.0,0.5,-1.0,32485.0
00:01:51,RTL,-0.07313112169504166,0.0027962556341663003,-2.2241222858428955,1.1591467261314392,-0.007385632488876581,-0.004373728530481458,-35.36325375,149.16522995000003,74436.0,-79.0,59.5,101.0,-0.5,31.0,-970.5,1163.0,-4.0,-0.5,32485.0
00:01:53,RTL,-0.03314139228314161,-0.008417170261964202,-2.223787784576416,0.9343691468238831,-0.002803898765705526,-0.008154920767992735,-35.36325635,149.16523304999998,72412.0,-73.0,53.5,99.5,-10.5,86.0,-984.5,939.0,0.0,-4.0,33052.5
00:01:55,RTL,0.03031808603554964,-0.011300744488835335,-2.2227619886398315,-1.2759550213813782,0.0008204710902646184,-0.0019661999540403485,-35.36326325,149.16523934999998,70358.5,-18.0,10.0,100.0,-14.5,-19.0,-1015.0,-1271.5,3.0,1.5,33620.0
00:01:57,RTL,0.07432382926344872,0.005077563342638314,-2.2231510877609253,-1.0228281319141388,0.012703386601060629,-0.0027550599770620465,-35.3632699,149.16524445,68340.0,54.5,-46.5,98.5,-2.0,-61.5,-1045.0,-1018.5,14.5,0.5,33620.0
00:01:58,RTL,0.028825861867517233,0.016811932204291224,-2.222670316696167,-1.1032454743981361,0.0030004698201082647,-0.008558176923543215,-35.3632689,149.16524272499998,67089.5,65.75,-51.5,106.75,8.25,-77.75,-971.75,-1098.75,5.5,-5.0,100329.0
00:01:59,RTL,0.0002195318229496479,0.019535855390131474,-2.2223739624023438,-0.7391523569822311,0.0009529811795800924,-0.009407839272171259,-35.36326675,149.16524049999998,66301.0,56.5,-42.5,105.0,11.0,-81.5,-992.5,-735.0,3.5,-6.0,100329.0
00:02:01,RTL,-0.09186891466379166,0.013214080594480038,-2.2209036350250244,-1.347777247428894,-0.009902213234454393,-0.0038268763455562294,-35.363258900000005,149.16523389999998,64260.0,-8.0,10.0,102.0,11.5,-75.0,-1014.0,-1343.0,-7.0,-0.5,100329.0
00:02:03,RTL,-0.058275314047932625,0.0022726180613972247,-2.218352794647217,1.2875335812568665,-0.0037159037310630083,0.010536076966673136,-35.36325505000001,149.16523139999998,62226.5,-60.0,46.0,101.0,-1.5,55.5,-1036.5,1290.5,-1.0,14.0,106365.0
00:02:05,RTL,0.02709314040839672,-0.011813702993094921,-2.218574285507202,1.5009591579437256,-0.0015634821029379964,-0.009945288766175508,-35.36325925,149.16523610000002,60191.0,-46.0,31.5,105.5,-8.0,80.5,-983.5,1504.5,1.0,-6.5,112401.0
00:02:07,RTL,0.08914843946695328,-0.0045123721938580275,-2.2191641330718994,1.4394382238388062,0.012731896713376045,-0.0072063906118273735,-35.363265999999996,149.1652419,58137.0,15.0,-19.5,103.0,-6.5,66.5,-1035.0,1443.0,14.5,-3.5,112401.0
00:02:08,RTL,0.05136671103537083,0.004809339297935367,-2.2170713543891907,0.6994112133979797,0.012405068206135184,-0.0006469365325756371,-35.363267824999994,149.1652427,56871.5,45.5,-39.75,104.0,-2.75,60.5,-1018.75,705.5,14.5,2.5,193419.0
00:02:09,RTL,0.048665182664990425,0.005997479893267155,-2.216959595680237,0.9502262473106384,-0.00526494556106627,-0.0010278909467160702,-35.3632682,149.16524275,56122.0,54.5,-44.0,103.5,-0.5,73.5,-957.0,956.5,-2.5,2.0,193419.0
00:02:11,RTL,0.013515335507690907,0.007518700323998928,-2.217144012451172,-0.5341903120279312,0.0021012615179643035,0.006861699745059013,-35.36326725,149.16524195,54061.0,57.0,-44.5,105.0,3.5,12.5,-1036.5,-526.0,4.0,9.5,193419.0
00:02:13,RTL,-0.008216611109673977,0.010731542948633432,-2.2181038856506348,-0.5378270894289017,-0.0045264026848599315,-0.014420854393392801,-35.363263700000005,149.16523875000001,51983.0,29.5,-23.5,99.0,6.0,-63.0,-1039.0,-532.5,-2.0,-10.5,217869.0
00:02:15,RTL,0.0048848644364625216,0.0017235872219316661,-2.2174346446990967,1.3269429802894592,-0.011250223964452744,-0.004194522509351373,-35.36326115,149.16523684999999,49949.0,-1.0,1.0,101.5,0.5,40.0,-1043.0,1333.5,-8.5,-1.5,242319.0
00:02:17,RTL,0.01122194342315197,0.0012872357037849724,-2.2178033590316772,1.0840838849544525,0.00881916657090187,0.005650675855576992,-35.3632623,149.16523815,47892.0,0.0,-2.5,97.5,-1.5,77.5,-1005.0,1092.0,10.5,8.5,242319.0
00:02:18,RTL,0.004612932774762157,0.008428243803791702,-2.2181007266044617,1.0986830294132233,0.012184643652290106,0.004349904076661915,-35.363262575,149.16523805,46503.0,4.75,-7.5,95.75,2.25,62.75,-1025.25,1106.0,14.0,7.25,82944.0
00:02:19,RTL,-0.010958811268210411,0.014195749070495367,-2.2178895473480225,1.308141827583313,0.003472095704637468,0.0006688171997666359,-35.363261800000004,149.1652369,45741.5,1.5,-4.5,98.5,6.5,62.5,-998.5,1315.5,5.5,3.5,82944.0
00:02:21,RTL,-0.03798611834645271,0.006201422540470958,-2.216537356376648,1.4573020935058594,-0.007917388807982206,0.0010792691027745605,-35.363258349999995,149.16523365,43696.0,-28.0,25.5,98.5,-0.5,59.0,-1034.5,1463.5,-5.5,3.5,82944.0
00:02:23,RTL,-0.026820198632776737,-0.0003200799801561516,-2.2167285680770874,-0.45770761370658875,0.002765611046925187,-0.0021434458903968334,-35.3632599,149.1652358,41644.5,-26.5,20.0,97.5,-3.0,19.5,-1032.5,-449.5,4.5,0.5,82944.0
00:02:24,RTL,-0.020924981916323304,0.001418222629581578,-2.2169302701950073,-0.14712181454524398,0.0031144428648985922,-0.0017251477693207562,-35.363261,149.16523669999998,40391.75,-16.5,10.5,99.0,-3.5,35.25,-968.5,-139.75,5.0,1.0,34756.0
00:02:25,RTL,-0.0002472407650202513,0.002163376600947231,-2.216685175895691,0.6874927878379822,0.0005608333740383387,-0.002649499219842255,-35.363261699999995,149.16523725000002,39618.0,-10.5,6.0,99.5,-1.5,63.5,-1056.5,694.5,2.5,0.0,34756.0
00:02:27,RTL,-0.005883373087272048,0.0015014222008176148,-2.2164355516433716,-0.07408830896019936,7.061031647026539e-05,0.003732225624844432,-35.36326305,149.16523845,37582.0,5.5,-5.5,99.5,-2.5,38.5,-1014.5,-66.5,2.0,6.0,34756.0
00:02:29,RTL,0.018994086422026157,-0.0016810150700621307,-2.2153706550598145,-1.473629117012024,-0.0002714908914640546,0.0015531177632510662,-35.3632652,149.1652407,35556.5,20.0,-17.5,99.0,-1.5,-51.5,-964.5,-1467.5,2.5,4.5,108443.0
00:02:31,RTL,0.009269128553569317,0.011761164292693138,-2.217253565788269,-1.0509963929653168,0.005431262543424964,-0.0042017336236312985,-35.3632652,149.16524005,33530.0,30.5,-27.5,102.0,6.5,-88.5,-950.5,-1045.0,7.0,-1.5,108443.0
00:02:33,RTL,-0.00057029421441257,0.00612930185161531,-2.2139755487442017,0.7749961465597153,-0.005715029197745025,0.001483506290242076,-35.3632619,149.1652369,31479.5,4.5,-0.5,105.5,0.0,2.5,-1001.5,780.0,-3.5,4.0,108443.0
00:02:34,RTL,0.009533368865959346,0.00445204961579293,-2.217159330844879,1.4304293990135193,0.005598909687250853,0.0018041727889794856,-35.363261675000004,149.165237075,30212.25,-1.0,1.5,100.5,1.75,58.5,-1013.5,1437.25,7.75,4.25,102073.0
