time_stamp,MODE,lat,lon,relative_alt,roll,pitch,yaw,rollspeed,pitchspeed,yawspeed,xacc,yacc,zacc,xgyro,ygyro,zgyro,vx,vy,vz,RTL_ALT
02:22:12.307,STABILIZE,-35.3632621,149.1652374,0,0.00022202098625712097,0.0015982022741809487,0.027944691479206085,0.00036274990998208523,0.0003025703481398523,0.0023972548078745604,0,1,-1000,0,0,0,-1,1,1,1500.0
02:22:12.508,STABILIZE,-35.3632621,149.1652374,0,0.00015013202209956944,0.0016133246244862676,0.027254991233348846,0.00021775963250547647,0.0004059889179188758,0.0023476206697523594,0,1,-1000,0,0,0,-1,1,1,1500.0
02:22:12.709,STABILIZE,-35.3632621,149.1652374,0,0.00015013202209956944,0.0016133246244862676,0.027254991233348846,0.00021775963250547647,0.0004059889179188758,0.0023476206697523594,0,1,-1000,0,0,0,-1,1,1,1500.0
02:22:12.910,STABILIZE,-35.3632621,149.1652374,0,0.00015013202209956944,0.0016133246244862676,0.027254991233348846,0.00021775963250547647,0.0004059889179188758,0.0023476206697523594,0,1,-1000,0,0,0,-1,1,1,1500.0
02:22:13.111,STABILIZE,-35.3632621,149.1652375,0,0.00020866323029622436,0.0015466285403817892,0.026922987774014473,0.0002762084186542779,0.000158702430780977,0.002377518219873309,0,1,-1000,0,0,0,-2,2,1,1500.0
02:22:13.312,STABILIZE,-35.3632622,149.1652375,0,0.00013464759103953838,0.0014978251419961452,0.026773318648338318,0.00026816525496542454,0.00024057808332145214,0.002101719379425049,0,1,-1000,0,0,0,-2,2,1,1500.0
02:22:13.514,STABILIZE,-35.3632622,149.1652375,0,0.00013464759103953838,0.0014978251419961452,0.026773318648338318,0.00026816525496542454,0.00024057808332145214,0.002101719379425049,0,1,-1000,0,0,1,-2,2,1,1500.0
02:22:13.716,STABILIZE,-35.3632622,149.1652375,0,0.00013464759103953838,0.0014978251419961452,0.026773318648338318,0.00026816525496542454,0.00024057808332145214,0.002101719379425049,0,1,-1000,0,0,1,-2,2,1,1500.0
02:22:13.917,STABILIZE,-35.3632622,149.1652375,0,0.00013464759103953838,0.0014978251419961452,0.026773318648338318,0.00026816525496542454,0.00024057808332145214,0.002101719379425049,0,1,-1000,0,0,1,-2,2,1,1500.0
02:22:14.118,STABILIZE,-35.3632622,149.1652375,0,0.00013464759103953838,0.0014978251419961452,0.026773318648338318,0.00026816525496542454,0.00024057808332145214,0.002101719379425049,0,1,-1000,0,0,1,-2,2,1,1500.0
02:22:14.320,STABILIZE,-35.3632622,149.1652375,0,0.00013464759103953838,0.0014978251419961452,0.026773318648338318,0.00026816525496542454,0.00024057808332145214,0.002101719379425049,0,1,-1000,0,0,1,-2,2,1,1500.0
02:22:14.521,STABILIZE,-35.3632622,149.1652375,0,0.00013464759103953838,0.0014978251419961452,0.026773318648338318,0.00026816525496542454,0.00024057808332145214,0.002101719379425049,0,1,-1000,0,0,1,-2,2,1,1500.0
02:22:14.724,STABILIZE,-35.3632622,149.1652375,0,0.00013464759103953838,0.0014978251419961452,0.026773318648338318,0.00026816525496542454,0.00024057808332145214,0.002101719379425049,0,1,-1000,0,0,1,-2,2,1,1500.0
02:22:14.926,STABILIZE,-35.3632622,149.1652375,0,-0.00031589550781063735,0.0011977305402979255,0.02592620998620987,0.0002979759010486305,0.00017488596495240927,0.0019910535775125027,0,1,-1000,1,0,0,-1,1,1,1500.0
02:22:15.127,STABILIZE,-35.3632622,149.1652375,0,-0.00031589550781063735,0.0011977305402979255,0.02592620998620987,0.0002979759010486305,0.00017488596495240927,0.0019910535775125027,0,1,-1000,0,0,0,-1,1,1,1500.0
02:22:15.329,STABILIZE,-35.3632622,149.1652375,0,-0.0004471695574466139,0.0011135040549561381,0.025690238922834396,0.00011470960453152657,0.00016130867879837751,0.0021478086709976196,0,1,-1000,0,0,0,-1,1,1,1500.0
02:22:15.530,STABILIZE,-35.3632622,149.1652375,0,-0.0004471695574466139,0.0011135040549561381,0.025690238922834396,0.00011470960453152657,0.00016130867879837751,0.0021478086709976196,0,1,-1000,0,0,0,-1,1,1,1500.0
02:22:15.732,STABILIZE,-35.3632622,149.1652375,0,-0.0004471695574466139,0.0011135040549561381,0.025690238922834396,0.00011470960453152657,0.00016130867879837751,0.0021478086709976196,0,1,-1000,0,0,0,-1,1,1,1500.0
02:22:15.933,STABILIZE,-35.3632622,149.1652375,0,-0.0004471695574466139,0.0011135040549561381,0.025690238922834396,0.00011470960453152657,0.00016130867879837751,0.0021478086709976196,0,1,-1000,0,0,0,-1,1,1,1500.0
02:22:16.134,STABILIZE,-35.3632622,149.1652375,0,-0.0004471695574466139,0.0011135040549561381,0.025690238922834396,0.00011470960453152657,0.00016130867879837751,0.0021478086709976196,0,1,-1000,0,0,0,-1,1,1,1500.0
02:22:16.336,STABILIZE,-35.3632622,149.1652375,0,-0.0004471695574466139,0.0011135040549561381,0.025690238922834396,0.00011470960453152657,0.00016130867879837751,0.0021478086709976196,0,1,-1000,0,0,0,-1,1,1,1500.0
02:22:16.537,STABILIZE,-35.3632622,149.1652375,0,-0.0004471695574466139,0.0011135040549561381,0.025690238922834396,0.00011470960453152657,0.00016130867879837751,0.0021478086709976196,0,1,-1000,0,0,0,-1,1,1,1500.0
02:22:16.738,STABILIZE,-35.3632622,149.1652375,0,-0.0004471695574466139,0.0011135040549561381,0.025690238922834396,0.00011470960453152657,0.00016130867879837751,0.0021478086709976196,0,1,-1000,0,0,0,-1,1,1,1500.0
02:22:16.940,STABILIZE,-35.3632621,149.1652375,0,-0.000734040339011699,0.0009836690733209252,0.02506452240049839,6.209820276126266e-05,0.0002353853196837008,0.00196137186139822,0,1,-1000,0,0,0,-1,1,1,1500.0
02:22:17.141,STABILIZE,-35.3632621,149.1652375,0,-0.000734040339011699,0.0009836690733209252,0.02506452240049839,6.209820276126266e-05,0.0002353853196837008,0.00196137186139822,0,1,-1000,0,0,0,-1,1,1,1500.0
02:22:17.342,STABILIZE,-35.3632621,149.1652375,0,-0.0007837801822461188,0.0009729196317493916,0.024871082976460457,0.00017754774307832122,0.000263934867689386,0.0019514535088092089,0,1,-1000,0,0,0,-1,1,0,1500.0
02:22:17.543,STABILIZE,-35.3632621,149.1652375,0,-0.0007837801822461188,0.0009729196317493916,0.024871082976460457,0.00017754774307832122,0.000263934867689386,0.0019514535088092089,0,1,-1000,0,0,0,-1,1,0,1500.0
02:22:17.745,STABILIZE,-35.3632621,149.1652375,0,-0.0008116463432088494,0.0009515426936559379,0.02470613643527031,0.00023935839999467134,0.00027842962299473584,0.001940691377967596,0,1,-1000,0,0,0,-1,1,0,1500.0
02:22:17.946,STABILIZE,-35.3632621,149.1652375,0,-0.0008116463432088494,0.0009515426936559379,0.02470613643527031,0.00023935839999467134,0.00027842962299473584,0.001940691377967596,0,1,-1000,0,0,0,-1,1,0,1500.0
02:22:18.147,STABILIZE,-35.3632621,149.1652375,0,-0.0008116463432088494,0.0009515426936559379,0.02470613643527031,0.00023935839999467134,0.00027842962299473584,0.001940691377967596,0,1,-1000,0,0,0,-1,1,0,1500.0
02:22:18.348,STABILIZE,-35.3632621,149.1652375,0,-0.0008116463432088494,0.0009515426936559379,0.02470613643527031,0.00023935839999467134,0.00027842962299473584,0.001940691377967596,0,1,-1000,0,0,0,-1,1,0,1500.0
02:22:18.550,STABILIZE,-35.3632621,149.1652375,0,-0.0008535445085726678,0.0009373065549880266,0.024447698146104813,0.0002632115501910448,0.00020605942700058222,0.0018393464852124453,0,1,-1000,0,0,0,-1,1,0,1500.0
02:22:18.751,STABILIZE,-35.3632621,149.1652375,0,-0.0008535445085726678,0.0009373065549880266,0.024447698146104813,0.0002632115501910448,0.00020605942700058222,0.0018393464852124453,0,1,-1000,0,0,0,-1,1,0,1500.0
02:22:18.952,STABILIZE,-35.3632621,149.1652375,0,-0.0008535445085726678,0.0009373065549880266,0.024447698146104813,0.0002632115501910448,0.00020605942700058222,0.0018393464852124453,0,1,-1000,0,0,0,-1,1,0,1500.0
02:22:19.153,STABILIZE,-35.3632621,149.1652375,0,-0.0008826341363601387,0.0009246845729649067,0.02426902763545513,0.0002090143389068544,0.0002105028834193945,0.0018103818874806166,0,1,-1000,0,0,0,-1,1,0,1500.0
02:22:19.354,STABILIZE,-35.3632621,149.1652375,0,-0.0008930916083045304,0.000927269458770752,0.024200495332479477,0.00026261695893481374,0.0003583154175430536,0.0018303226679563522,0,1,-1000,0,0,0,-1,1,0,1500.0
02:22:19.556,STABILIZE,-35.3632621,149.1652375,0,-0.0008887462900020182,0.0009275083430111408,0.024111580103635788,0.0005191224627196789,0.0003102901973761618,0.0019042670028284192,0,1,-1000,0,1,0,-1,1,0,1500.0
02:22:19.757,STABILIZE,-35.3632621,149.1652375,0,-0.000891742529347539,0.0009354337817057967,0.024034148082137108,0.0003352902131155133,0.0003633993910625577,0.001750847790390253,0,1,-1000,0,0,0,-1,1,0,1500.0
02:22:19.958,STABILIZE,-35.3632621,149.1652375,0,-0.000891742529347539,0.0009354337817057967,0.024034148082137108,0.0003352902131155133,0.0003633993910625577,0.001750847790390253,0,1,-1000,0,0,0,-1,1,0,1500.0
02:22:20.159,STABILIZE,-35.3632621,149.1652375,0,-0.000891742529347539,0.0009354337817057967,0.024034148082137108,0.0003352902131155133,0.0003633993910625577,0.001750847790390253,0,1,-1000,0,0,0,-1,1,0,1500.0
02:22:20.361,STABILIZE,-35.3632621,149.1652375,0,-0.000891742529347539,0.0009354337817057967,0.024034148082137108,0.0003352902131155133,0.0003633993910625577,0.001750847790390253,0,1,-1000,0,0,0,-1,1,0,1500.0
02:22:20.562,STABILIZE,-35.3632621,149.1652375,0,-0.0006778305978514254,0.0009372850763611495,0.02379356324672699,0.00021727889543399215,0.0002466358710080385,0.0018012416549026966,0,1,-1000,0,0,1,-1,0,0,1500.0
02:22:20.763,STABILIZE,-35.3632621,149.1652375,0,-0.0006778305978514254,0.0009372850763611495,0.02379356324672699,0.00021727889543399215,0.0002466358710080385,0.0018012416549026966,0,1,-1000,0,0,1,-1,0,0,1500.0
02:22:20.964,STABILIZE,-35.3632621,149.1652375,0,-0.0006778305978514254,0.0009372850763611495,0.02379356324672699,0.00021727889543399215,0.0002466358710080385,0.0018012416549026966,0,1,-1000,0,0,1,-1,0,0,1500.0
02:22:21.165,STABILIZE,-35.3632621,149.1652375,0,-0.0006778305978514254,0.0009372850763611495,0.02379356324672699,0.00021727889543399215,0.0002466358710080385,0.0018012416549026966,0,1,-1000,0,0,1,-1,0,0,1500.0
02:22:21.368,STABILIZE,-35.3632621,149.1652375,0,-0.0006778305978514254,0.0009372850763611495,0.02379356324672699,0.00021727889543399215,0.0002466358710080385,0.0018012416549026966,0,1,-1000,0,0,1,-1,0,0,1500.0
02:22:21.569,STABILIZE,-35.3632621,149.1652375,0,-0.0006061229505576193,0.0009507774957455695,0.02345886081457138,0.0003334890934638679,0.000256432278547436,0.0018159837927669287,0,2,-1000,0,0,0,-1,1,0,1500.0
02:22:21.770,STABILIZE,-35.3632621,149.1652375,0,-0.0006061229505576193,0.0009507774957455695,0.02345886081457138,0.0003334890934638679,0.000256432278547436,0.0018159837927669287,0,1,-1000,0,0,0,-1,1,0,1500.0
02:22:21.972,STABILIZE,-35.3632621,149.1652375,0,-0.0006061229505576193,0.0009507774957455695,0.02345886081457138,0.0003334890934638679,0.000256432278547436,0.0018159837927669287,0,1,-1000,0,0,0,-1,1,0,1500.0
02:22:22.173,STABILIZE,-35.3632621,149.1652375,0,-0.0006061229505576193,0.0009507774957455695,0.02345886081457138,0.0003334890934638679,0.000256432278547436,0.0018159837927669287,0,1,-1000,0,0,0,-1,1,0,1500.0
02:22:22.374,STABILIZE,-35.3632621,149.1652375,0,-0.0006061229505576193,0.0009507774957455695,0.02345886081457138,0.0003334890934638679,0.000256432278547436,0.0018159837927669287,0,1,-1000,0,0,0,-1,1,0,1500.0
02:22:22.575,STABILIZE,-35.3632622,149.1652375,0,-0.0006086625508032739,0.0009571505361236632,0.02311776392161846,0.00022831023670732975,0.00020852062152698636,0.001712822588160634,0,2,-1000,0,0,0,-1,1,0,1500.0
02:22:22.777,STABILIZE,-35.3632622,149.1652375,0,-0.0006086625508032739,0.0009571505361236632,0.02311776392161846,0.00022831023670732975,0.00020852062152698636,0.001712822588160634,0,2,-1000,0,0,0,-1,1,0,1500.0
02:22:22.978,STABILIZE,-35.3632622,149.1652375,0,-0.0006086625508032739,0.0009571505361236632,0.02311776392161846,0.00022831023670732975,0.00020852062152698636,0.001712822588160634,0,2,-1000,0,0,0,-1,1,0,1500.0
02:22:23.179,STABILIZE,-35.3632622,149.1652375,0,-0.0006457831477746367,0.0009653583983890712,0.022946741431951523,0.00027334148762747645,0.0003184684319421649,0.0015711011365056038,0,2,-1000,0,0,0,-1,1,0,1500.0
02:22:23.380,STABILIZE,-35.3632622,149.1652375,0,-0.0006457831477746367,0.0009653583983890712,0.022946741431951523,0.00027334148762747645,0.0003184684319421649,0.0015711011365056038,0,2,-1000,0,0,0,-1,1,0,1500.0
02:22:23.581,STABILIZE,-35.3632622,149.1652375,0,-0.0006457831477746367,0.0009653583983890712,0.022946741431951523,0.00027334148762747645,0.0003184684319421649,0.0015711011365056038,0,1,-1000,0,1,1,-1,1,0,1500.0
02:22:23.782,STABILIZE,-35.3632622,149.1652375,0,-0.0005109271733090281,0.000968475709669292,0.02269972488284111,0.00029652233934029937,0.00032584095606580377,0.0015908649656921625,0,1,-1000,0,1,1,-1,0,-1,1500.0
02:22:23.984,STABILIZE,-35.3632622,149.1652375,0,-0.0005109271733090281,0.000968475709669292,0.02269972488284111,0.00029652233934029937,0.00032584095606580377,0.0015908649656921625,0,1,-1000,0,1,1,-1,0,-1,1500.0
02:22:24.185,STABILIZE,-35.3632622,149.1652375,0,-0.0005109271733090281,0.000968475709669292,0.02269972488284111,0.00029652233934029937,0.00032584095606580377,0.0015908649656921625,0,1,-1000,0,1,1,-1,0,-1,1500.0
02:22:24.386,STABILIZE,-35.3632622,149.1652375,0,-0.0005109271733090281,0.000968475709669292,0.02269972488284111,0.00029652233934029937,0.00032584095606580377,0.0015908649656921625,0,1,-1000,0,1,1,-1,0,-1,1500.0
02:22:24.587,STABILIZE,-35.3632622,149.1652375,0,-0.0005109271733090281,0.000968475709669292,0.02269972488284111,0.00029652233934029937,0.00032584095606580377,0.0015908649656921625,0,1,-1000,1,0,0,-1,0,-1,1500.0
02:22:24.788,STABILIZE,-35.3632622,149.1652375,0,-0.00046992371790111065,0.0009602004429325461,0.022406570613384247,0.0003472472890280187,0.00031447765650227666,0.0015147405210882425,0,1,-1000,1,0,0,-1,1,-1,1500.0
02:22:24.990,STABILIZE,-35.3632622,149.1652375,0,-0.00046992371790111065,0.0009602004429325461,0.022406570613384247,0.0003472472890280187,0.00031447765650227666,0.0015147405210882425,0,1,-1000,1,0,0,-1,1,-1,1500.0
02:22:25.191,STABILIZE,-35.3632622,149.1652375,0,-0.00046957354061305523,0.0009548977250233293,0.02233690768480301,0.0003395079402253032,0.000313794007524848,0.0015142566990107298,0,1,-1000,0,0,1,-1,1,0,1500.0
02:22:25.392,STABILIZE,-35.3632622,149.1652375,0,-0.00046957354061305523,0.0009548977250233293,0.02233690768480301,0.0003395079402253032,0.000313794007524848,0.0015142566990107298,0,1,-1000,1,0,0,-1,1,0,1500.0
02:22:25.593,STABILIZE,-35.3632622,149.1652375,0,-0.00047284772153943777,0.0009483156027272344,0.022176073864102364,0.00015358347445726395,0.00012982037151232362,0.001568386098369956,0,2,-1000,1,1,1,-1,1,0,1500.0
02:22:25.795,STABILIZE,-35.3632622,149.1652375,0,-0.00047284772153943777,0.0009483156027272344,0.022176073864102364,0.00015358347445726395,0.00012982037151232362,0.001568386098369956,0,2,-1000,0,0,0,-1,1,0,1500.0
02:22:25.997,STABILIZE,-35.3632622,149.1652375,0,-0.00047284772153943777,0.0009483156027272344,0.022176073864102364,0.00015358347445726395,0.00012982037151232362,0.001568386098369956,0,2,-1000,0,0,0,-1,1,0,1500.0
02:22:26.205,AUTO,-35.3632622,149.1652375,0,-0.00047284772153943777,0.0009483156027272344,0.022176073864102364,0.00015358347445726395,0.00012982037151232362,0.001568386098369956,0,2,-1000,0,0,0,-1,1,0,1500.0
02:22:26.406,AUTO,-35.3632622,149.1652375,0,-0.00047284772153943777,0.0009483156027272344,0.022176073864102364,0.00015358347445726395,0.00012982037151232362,0.001568386098369956,0,2,-1000,0,0,0,-1,1,0,1500.0
02:22:26.607,AUTO,-35.3632622,149.1652375,7,-0.0005301461787894368,0.0009725370327942073,0.02188901975750923,0.000346621498465538,0.00024945009499788284,0.0016311851795762777,0,1,-1000,1,1,0,-1,1,0,1500.0
02:22:26.809,AUTO,-35.3632622,149.1652375,7,-0.000550518452655524,0.0009863217128440738,0.02182617224752903,0.00029120140243321657,0.00026956270448863506,0.0015074263792484999,0,2,-1000,0,0,1,-1,1,0,1500.0
02:22:27.010,AUTO,-35.3632621,149.1652375,13,-0.00038789593963883817,0.0010081320069730282,0.021745361387729645,0.00024306023260578513,0.00023064023116603494,0.001492822077125311,0,2,-1000,1,0,1,0,0,-3,1500.0
02:22:27.276,AUTO,-35.3632621,149.1652375,17,-0.0003439535212237388,0.0010359371080994606,0.021678272634744644,0.00040335895027965307,0.00022049341350793839,0.001438336563296616,0,2,-1000,1,0,0,0,0,-2,1500.0
02:22:27.503,AUTO,-35.3632621,149.1652375,19,-0.00028337122057564557,0.0010818846058100462,0.02161061391234398,0.00038150156615301967,0.0002551606739871204,0.0014794475864619017,0,2,-1000,1,0,0,0,0,-2,1500.0
02:22:27.724,AUTO,-35.3632621,149.1652375,19,-0.00028337122057564557,0.0010818846058100462,0.02161061391234398,0.00038150156615301967,0.0002551606739871204,0.0014794475864619017,0,2,-1000,0,1,0,0,0,-2,1500.0
02:22:27.975,AUTO,-35.3632621,149.1652375,20,-0.00022798226564191282,0.0011359710479155183,0.021537205204367638,0.00028071325505152345,0.0003863938036374748,0.0014278045855462551,0,1,-1000,0,1,1,0,0,-2,1500.0
02:22:28.198,AUTO,-35.3632621,149.1652375,20,-0.00022798226564191282,0.0011359710479155183,0.021537205204367638,0.00028071325505152345,0.0003863938036374748,0.0014278045855462551,0,1,-1000,0,1,1,0,0,-2,1500.0
02:22:28.409,AUTO,-35.3632621,149.1652375,20,-0.00022798226564191282,0.0011359710479155183,0.021537205204367638,0.00028071325505152345,0.0003863938036374748,0.0014278045855462551,0,1,-1000,0,1,1,0,0,-2,1500.0
02:22:28.616,AUTO,-35.3632621,149.1652375,21,-3.766650115721859e-05,0.0013392181135714054,0.021318020299077034,0.0004004925722256303,0.00026349659310653806,0.001512945513240993,0,1,-1000,1,1,1,0,0,-1,1500.0
02:22:28.817,AUTO,-35.3632621,149.1652375,21,2.70787495537661e-05,0.0014108727918937802,0.021224243566393852,0.000378273194655776,0.00033900263952091336,0.001440049847587943,0,1,-1000,0,0,0,0,0,-1,1500.0
02:22:29.019,AUTO,-35.3632621,149.1652375,20,9.521663741907105e-05,0.0014878518413752317,0.021137898787856102,0.0002449786989018321,0.0002783120726235211,0.0015101809985935688,0,2,-1000,0,0,0,0,0,-1,61808.0
02:22:29.221,AUTO,-35.3632621,149.1652375,20,9.521663741907105e-05,0.0014878518413752317,0.021137898787856102,0.0002449786989018321,0.0002783120726235211,0.0015101809985935688,0,2,-1000,0,0,0,0,0,-1,61808.0
02:22:29.422,AUTO,-35.3632621,149.1652375,20,0.00016620042151771486,0.0015611157286912203,0.02104993909597397,0.0003084393101744354,0.0002781494986265898,0.0014307424426078796,0,1,-1000,0,0,1,0,0,-1,61808.0
02:22:29.624,AUTO,-35.3632621,149.1652375,20,0.00024022934667300433,0.001636744593270123,0.020951349288225174,0.0003578390460461378,0.0002809287398122251,0.001478963065892458,0,2,-1000,0,0,1,0,0,0,61808.0
02:22:29.826,AUTO,-35.3632621,149.1652375,19,0.0003176739264745265,0.001706634066067636,0.020855113863945007,0.0003178716287948191,0.0003235953045077622,0.0013526325346902013,0,1,-1000,0,1,0,0,1,0,61808.0
02:22:30.028,AUTO,-35.3632621,149.1652375,19,0.0003176739264745265,0.001706634066067636,0.020855113863945007,0.0003178716287948191,0.0003235953045077622,0.0013526325346902013,0,1,-1000,0,1,0,0,1,0,61808.0
02:22:30.229,AUTO,-35.3632621,149.1652375,19,0.0003176739264745265,0.001706634066067636,0.020855113863945007,0.0003178716287948191,0.0003235953045077622,0.0013526325346902013,0,1,-1000,0,1,0,0,1,0,61808.0
02:22:30.431,AUTO,-35.3632621,149.1652375,19,0.0003176739264745265,0.001706634066067636,0.020855113863945007,0.0003178716287948191,0.0003235953045077622,0.0013526325346902013,0,1,-1000,0,1,0,0,1,0,61808.0
02:22:30.633,AUTO,-35.3632621,149.1652375,290,0.0020671433303505182,0.0005948815960437059,0.02081906981766224,-0.005480132531374693,0.0037253538612276316,0.001128323026932776,0,0,-1122,-5,4,0,0,0,-85,61808.0
02:22:30.834,AUTO,-35.3632621,149.1652375,290,0.0020671433303505182,0.0005948815960437059,0.02081906981766224,-0.005480132531374693,0.0037253538612276316,0.001128323026932776,0,0,-1122,-5,4,0,0,0,-85,61808.0
02:22:31.035,AUTO,-35.3632621,149.1652375,537,0.0019092061556875706,0.0012802279088646173,0.020743748173117638,0.0007012879941612482,0.002342526102438569,0.0009534020209684968,0,0,-1102,1,3,0,0,0,-112,61808.0
02:22:31.237,AUTO,-35.3632621,149.1652375,844,0.005671365186572075,0.0013142675161361694,0.02058231830596924,0.04176894947886467,-0.003801679704338312,0.001273643458262086,0,0,-1065,42,-3,1,0,1,-132,61808.0
02:22:31.438,AUTO,-35.3632621,149.1652375,1195,0.017524251714348793,-0.00014261735486797988,0.020541932433843613,0.047878146171569824,-0.006631707306951284,0.0021392465569078922,0,0,-1027,48,-5,1,0,3,-142,61808.0
02:22:31.640,AUTO,-35.363262,149.1652375,1565,0.0292314812541008,-0.0019013903802260756,0.020665163174271584,0.04641539230942726,-0.007189963944256306,0.0028089885599911213,0,0,-1012,47,-6,2,1,8,-146,61808.0
02:22:31.842,AUTO,-35.363262,149.1652375,1565,0.0292314812541008,-0.0019013903802260756,0.020665163174271584,0.04641539230942726,-0.007189963944256306,0.0028089885599911213,0,0,-1012,47,-6,2,1,8,-146,61808.0
02:22:32.043,AUTO,-35.363262,149.1652378,1944,0.04042799770832062,-0.0038959281519055367,0.0208730548620224,0.04371292516589165,-0.008236697874963284,0.003239487297832966,0,-2,-1005,44,-7,2,2,15,-147,61808.0
02:22:32.245,AUTO,-35.363262,149.1652378,1944,0.04042799770832062,-0.0038959281519055367,0.0208730548620224,0.04371292516589165,-0.008236697874963284,0.003239487297832966,0,-2,-1005,44,-7,2,2,15,-147,61808.0
02:22:32.447,AUTO,-35.363262,149.1652378,1944,0.04042799770832062,-0.0038959281519055367,0.0208730548620224,0.04371292516589165,-0.008236697874963284,0.003239487297832966,0,-2,-1005,44,-7,2,2,15,-147,61808.0
02:22:32.648,AUTO,-35.3632615,149.1652402,3092,0.057700444012880325,-0.0017560749547556043,-0.016606532037258148,-0.07332822680473328,0.08559327572584152,-0.09937074035406113,1,-7,-990,-72,86,-99,9,49,-146,61808.0
02:22:32.850,AUTO,-35.3632613,149.1652416,3467,0.022968728095293045,0.021137533709406853,-0.04090540483593941,-0.1815933883190155,0.04989132657647133,-0.0870262160897255,3,-12,-994,-180,50,-87,8,56,-144,61808.0
02:22:33.052,AUTO,-35.3632613,149.1652416,3467,0.022968728095293045,0.021137533709406853,-0.04090540483593941,-0.1815933883190155,0.04989132657647133,-0.0870262160897255,3,-12,-994,-180,50,-87,8,56,-144,61808.0
02:22:33.254,AUTO,-35.3632611,149.1652431,3841,-0.013214007019996643,0.021220454946160316,-0.05638283118605614,-0.08706363290548325,-0.024944385513663292,-0.048886578530073166,5,-10,-1011,-86,-24,-49,5,52,-145,61808.0
02:22:33.456,AUTO,-35.363261,149.1652443,4220,-0.02562473900616169,0.011765826493501663,-0.06375885754823685,-0.02809782326221466,-0.03334556519985199,-0.030178559944033623,5,-11,-1008,-27,-32,-30,2,44,-147,61808.0
02:22:33.754,AUTO,-35.3632609,149.1652454,4603,-0.035728733986616135,0.005647029262036085,-0.07045560330152512,-0.05461886525154114,-0.01323735062032938,-0.03200536221265793,4,-6,-1002,-54,-12,-32,2,33,-148,61808.0
02:22:33.990,AUTO,-35.3632608,149.1652461,4987,-0.05488331988453865,0.0029968726448714733,-0.07813557982444763,-0.0887320339679718,-0.00400427496060729,-0.03423216938972473,3,-5,-999,-88,-3,-34,1,20,-148,61808.0
02:22:34.197,AUTO,-35.3632608,149.1652461,4987,-0.05488331988453865,0.0029968726448714733,-0.07813557982444763,-0.0887320339679718,-0.00400427496060729,-0.03423216938972473,3,-5,-999,-88,-3,-34,1,20,-148,61808.0
02:22:34.425,AUTO,-35.3632608,149.1652461,4987,-0.05488331988453865,0.0029968726448714733,-0.07813557982444763,-0.0887320339679718,-0.00400427496060729,-0.03423216938972473,3,-5,-999,-88,-3,-34,1,20,-148,61808.0
02:22:34.667,AUTO,-35.3632608,149.1652455,6135,-0.06556999683380127,-0.0001443379878764972,-0.09941070526838303,0.054157305508852005,-0.0009643647936172783,-0.016211077570915222,-2,4,-1001,54,0,-16,-3,-35,-148,61808.0
02:22:34.872,AUTO,-35.3632608,149.1652444,6517,-0.05135367810726166,0.00014219903096091002,-0.10293082892894745,0.05899270251393318,0.004119291435927153,-0.010327190160751343,-4,6,-1000,59,4,-11,-4,-48,-147,61808.0
02:22:35.073,AUTO,-35.3632608,149.1652444,6517,-0.05135367810726166,0.00014219903096091002,-0.10293082892894745,0.05899270251393318,0.004119291435927153,-0.010327190160751343,-4,6,-1000,59,4,-11,-4,-48,-147,61808.0
02:22:35.285,AUTO,-35.363261,149.1652429,6899,-0.03600841388106346,0.0017082029953598976,-0.10532959550619125,0.06340944766998291,0.0080715985968709,-0.006027538329362869,-4,7,-1001,63,8,-6,-6,-57,-148,61808.0
02:22:35.487,AUTO,-35.3632611,149.1652412,7288,-0.01938198134303093,0.004343269858509302,-0.10697592049837112,0.06660216301679611,0.011589649133384228,-0.003638177877292037,-7,14,-1002,67,12,-4,-9,-61,-148,236621.0
02:22:35.689,AUTO,-35.3632614,149.1652395,7673,-0.002545278752222657,0.007340370211750269,-0.10775431990623474,0.06841835379600525,0.01227395236492157,-0.0011963708093389869,-7,15,-1004,68,12,-1,-12,-61,-149,236621.0
02:22:35.891,AUTO,-35.3632617,149.1652379,8059,0.014582079835236073,0.010216407477855682,-0.10760121792554855,0.06907802820205688,0.010372156277298927,0.0012689532013610005,-5,14,-1004,69,10,0,-15,-56,-150,236621.0
02:22:36.093,AUTO,-35.3632617,149.1652379,8059,0.014582079835236073,0.010216407477855682,-0.10760121792554855,0.06907802820205688,0.010372156277298927,0.0012689532013610005,-5,14,-1004,69,10,0,-15,-56,-150,236621.0
02:22:36.295,AUTO,-35.3632617,149.1652379,8059,0.014582079835236073,0.010216407477855682,-0.10760121792554855,0.06907802820205688,0.010372156277298927,0.0012689532013610005,-5,14,-1004,69,10,0,-15,-56,-150,236621.0
02:22:36.498,AUTO,-35.3632617,149.1652379,8059,0.014582079835236073,0.010216407477855682,-0.10760121792554855,0.06907802820205688,0.010372156277298927,0.0012689532013610005,-5,14,-1004,69,10,0,-15,-56,-150,236621.0
02:22:36.701,AUTO,-35.3632629,149.1652342,9226,0.06345420330762863,0.013303294777870178,-0.10412635654211044,0.06233548745512962,-0.003052428364753723,0.004407358355820179,-1,9,-1002,62,-2,4,-21,-21,-152,236621.0
02:22:36.902,AUTO,-35.3632634,149.1652338,9619,0.07686076313257217,0.010422652587294579,-0.10126878321170807,0.026344764977693558,-0.03121640905737877,0.033432524651288986,3,6,-997,27,-30,33,-22,-3,-151,236621.0
02:22:37.104,AUTO,-35.3632639,149.1652339,10008,0.0710139274597168,-0.011577845551073551,-0.08441426604986191,-0.04461844265460968,-0.11371182650327682,0.10014961659908295,5,2,-995,-44,-113,100,-19,14,-149,236621.0
02:22:37.307,AUTO,-35.3632639,149.1652339,10008,0.0710139274597168,-0.011577845551073551,-0.08441426604986191,-0.04461844265460968,-0.11371182650327682,0.10014961659908295,5,2,-995,-44,-113,100,-19,14,-149,236621.0
02:22:37.508,AUTO,-35.3632642,149.1652343,10393,0.055766358971595764,-0.04604518041014671,-0.055038828402757645,-0.06847523897886276,-0.14074619114398956,0.14394649863243103,5,-1,-997,-67,-139,143,-9,28,-148,236621.0
02:22:37.710,AUTO,-35.3632642,149.1652351,10773,0.025966985151171684,-0.06183167174458504,-0.038679346442222595,-0.13867202401161194,0.01981460489332676,0.017563002184033394,3,-5,-996,-137,20,17,6,36,-146,236621.0
02:22:37.912,AUTO,-35.363264,149.165236,11150,-0.0056109740398824215,-0.04439597576856613,-0.04691949486732483,-0.10869745165109634,0.0926346704363823,-0.05821890011429787,0,-7,-1003,-108,93,-58,21,34,-146,236621.0
02:22:38.114,AUTO,-35.363264,149.165236,11150,-0.0056109740398824215,-0.04439597576856613,-0.04691949486732483,-0.10869745165109634,0.0926346704363823,-0.05821890011429787,0,-7,-1003,-108,93,-58,21,34,-146,236621.0
02:22:38.316,AUTO,-35.363264,149.165236,11150,-0.0056109740398824215,-0.04439597576856613,-0.04691949486732483,-0.10869745165109634,0.0926346704363823,-0.05821890011429787,0,-7,-1003,-108,93,-58,21,34,-146,236621.0
02:22:38.518,AUTO,-35.363264,149.165236,11150,-0.0056109740398824215,-0.04439597576856613,-0.04691949486732483,-0.10869745165109634,0.0926346704363823,-0.05821890011429787,0,-7,-1003,-108,93,-58,21,34,-146,236621.0
02:22:38.720,AUTO,-35.363262,149.1652377,12305,-0.034667909145355225,0.003919846378266811,-0.11200791597366333,0.008764447644352913,0.04067014902830124,-0.08273668587207794,-4,-6,-1005,9,41,-83,30,5,-150,236621.0
02:22:38.921,AUTO,-35.3632614,149.1652377,12694,-0.030554721131920815,0.011740412563085556,-0.1319088488817215,0.02579595148563385,0.028367672115564346,-0.06912251561880112,-6,-3,-1003,26,29,-69,26,-4,-151,236621.0
02:22:39.123,AUTO,-35.3632608,149.1652375,13083,-0.02273288369178772,0.016837768256664276,-0.14733852446079254,0.03829262778162956,0.017295649275183678,-0.051489658653736115,-4,-2,-1002,39,17,-51,21,-12,-151,236621.0
02:22:39.345,AUTO,-35.3632608,149.1652375,13083,-0.02273288369178772,0.016837768256664276,-0.14733852446079254,0.03829262778162956,0.017295649275183678,-0.051489658653736115,-4,-2,-1002,39,17,-51,21,-12,-151,236621.0
02:22:39.623,AUTO,-35.3632601,149.1652366,13866,-0.002186031546443701,0.023769399151206017,-0.1680261194705963,0.04657783731818199,0.011828438378870487,-0.030014127492904663,-5,1,-1001,47,12,-30,8,-17,-152,236621.0
02:22:39.890,AUTO,-35.3632599,149.1652361,14257,0.008068660274147987,0.02562413364648819,-0.1739039123058319,0.03452552109956741,0.001121415989473462,-0.015866931527853012,-3,2,-999,35,1,-16,2,-16,-152,236621.0
02:22:40.096,AUTO,-35.3632599,149.1652361,14257,0.008068660274147987,0.02562413364648819,-0.1739039123058319,0.03452552109956741,0.001121415989473462,-0.015866931527853012,-3,2,-999,35,1,-16,2,-16,-152,236621.0
02:22:40.307,AUTO,-35.3632599,149.1652361,14257,0.008068660274147987,0.02562413364648819,-0.1739039123058319,0.03452552109956741,0.001121415989473462,-0.015866931527853012,-3,2,-999,35,1,-16,2,-16,-152,236621.0
02:22:40.526,AUTO,-35.3632599,149.1652361,14257,0.008068660274147987,0.02562413364648819,-0.1739039123058319,0.03452552109956741,0.001121415989473462,-0.015866931527853012,-3,2,-999,35,1,-16,2,-16,-152,236621.0
02:22:40.728,AUTO,-35.3632601,149.1652352,15427,0.018069272860884666,0.017361680045723915,-0.17356504499912262,-0.0011018046643584967,-0.016507020220160484,0.008867214433848858,0,2,-999,0,-15,8,-11,-2,-151,236621.0
02:22:40.931,AUTO,-35.3632603,149.1652351,15816,0.01661069691181183,0.013281992636620998,-0.17127825319766998,-0.007595198228955269,-0.014654570259153843,0.005589547101408243,1,1,-999,-7,-13,5,-13,1,-150,236621.0
02:22:41.133,AUTO,-35.3632605,149.1652352,16208,0.013737817294895649,0.009752473793923855,-0.16970406472682953,-0.01239797193557024,-0.013292789459228516,0.004018621053546667,2,1,-999,-12,-12,3,-14,5,-150,43833.0
02:22:41.335,AUTO,-35.3632605,149.1652352,16208,0.013737817294895649,0.009752473793923855,-0.16970406472682953,-0.01239797193557024,-0.013292789459228516,0.004018621053546667,2,1,-999,-12,-12,3,-14,5,-150,43833.0
02:22:41.536,AUTO,-35.3632608,149.1652352,16597,0.01046422403305769,0.006371933966875076,-0.1688799411058426,-0.014251073822379112,-0.011797008104622364,-0.00016098367632366717,2,1,-1000,-13,-11,0,-14,7,-150,43833.0
02:22:41.738,AUTO,-35.3632611,149.1652354,16984,0.007485639303922653,0.003607433754950762,-0.16927547752857208,-0.009929361753165722,-0.00855714175850153,-0.005560874007642269,2,0,-1000,-9,-7,-5,-13,9,-150,43833.0
02:22:41.940,AUTO,-35.3632613,149.1652356,17372,0.004809636157006025,0.0014850151492282748,-0.17087876796722412,-0.008731727488338947,-0.008859311230480671,-0.008586217649281025,2,0,-1000,-7,-7,-8,-12,9,-150,43833.0
02:22:42.142,AUTO,-35.3632613,149.1652356,17372,0.004809636157006025,0.0014850151492282748,-0.17087876796722412,-0.008731727488338947,-0.008859311230480671,-0.008586217649281025,2,0,-1000,-7,-7,-8,-12,9,-150,43833.0
02:22:42.343,AUTO,-35.3632613,149.1652356,17372,0.004809636157006025,0.0014850151492282748,-0.17087876796722412,-0.008731727488338947,-0.008859311230480671,-0.008586217649281025,2,0,-1000,-7,-7,-8,-12,9,-150,43833.0
02:22:42.545,AUTO,-35.3632613,149.1652356,17372,0.004809636157006025,0.0014850151492282748,-0.17087876796722412,-0.008731727488338947,-0.008859311230480671,-0.008586217649281025,2,0,-1000,-7,-7,-8,-12,9,-150,43833.0
02:22:42.747,AUTO,-35.3632619,149.1652361,18532,-0.011218294501304626,-0.002565741306170821,-0.18167883157730103,-0.09553360193967819,-0.00034974218579009175,-0.022580845281481743,2,-1,-993,-94,0,-22,-8,6,-150,43833.0
02:22:42.949,AUTO,-35.363262,149.1652361,18916,-0.042755771428346634,-0.002565634436905384,-0.1879289746284485,-0.14348232746124268,9.590876288712025e-05,-0.026920078322291374,1,0,-995,-142,0,-27,-7,0,-148,43833.0
02:22:43.151,AUTO,-35.3632622,149.165236,19293,-0.06428369134664536,0.014485876075923443,-0.16221411526203156,-0.03954598680138588,0.1139165610074997,0.23687337338924408,-1,2,-977,-38,114,236,-10,-14,-143,43833.0
02:22:43.353,AUTO,-35.3632622,149.165236,19293,-0.06428369134664536,0.014485876075923443,-0.16221411526203156,-0.03954598680138588,0.1139165610074997,0.23687337338924408,-1,2,-977,-38,114,236,-10,-14,-143,43833.0
02:22:43.554,AUTO,-35.3632624,149.1652353,19655,-0.06522578746080399,0.05012119933962822,-0.06539604812860489,0.024766700342297554,0.07128192484378815,0.4568253755569458,0,6,-966,25,72,456,-19,-29,-137,43833.0
02:22:43.756,AUTO,-35.3632629,149.1652343,19992,-0.034085970371961594,0.036190927028656006,0.022468267008662224,0.15475600957870483,-0.15968813002109528,0.2468264251947403,1,9,-947,155,-158,246,-29,-39,-124,43833.0
02:22:43.958,AUTO,-35.3632636,149.1652331,20296,0.007350662257522345,-0.005731680896133184,0.05887680500745773,0.15276388823986053,-0.15267962217330933,0.0650903657078743,1,12,-950,153,-151,64,-32,-40,-111,43833.0
02:22:44.160,AUTO,-35.3632636,149.1652331,20296,0.007350662257522345,-0.005731680896133184,0.05887680500745773,0.15276388823986053,-0.15267962217330933,0.0650903657078743,1,12,-950,153,-151,64,-32,-40,-111,43833.0
02:22:44.362,AUTO,-35.3632636,149.1652331,20296,0.007350662257522345,-0.005731680896133184,0.05887680500745773,0.15276388823986053,-0.15267962217330933,0.0650903657078743,1,12,-950,153,-151,64,-32,-40,-111,43833.0
02:22:44.567,AUTO,-35.3632636,149.1652331,20296,0.007350662257522345,-0.005731680896133184,0.05887680500745773,0.15276388823986053,-0.15267962217330933,0.0650903657078743,1,12,-950,153,-151,64,-32,-40,-111,43833.0
02:22:44.769,AUTO,-35.363265,149.1652309,21033,0.06579536199569702,-0.040972255170345306,0.04228241741657257,0.008392006158828735,0.011646338738501072,-0.03199310973286629,0,3,-963,9,12,-32,-8,-3,-79,43833.0
02:22:44.970,AUTO,-35.363265,149.1652308,21227,0.06355055421590805,-0.035758599638938904,0.036237046122550964,-0.022552650421857834,0.026353446766734123,-0.016394764184951782,0,-1,-968,-21,27,-16,0,11,-70,43833.0
02:22:45.195,AUTO,-35.363265,149.1652312,21398,0.05463318154215813,-0.02713327296078205,0.033752914518117905,-0.03806111589074135,0.03736677020788193,-0.0041883960366249084,0,-4,-972,-37,38,-4,8,24,-62,43833.0
02:22:45.472,AUTO,-35.3632647,149.1652319,21551,0.04278305172920227,-0.017721980810165405,0.03291751816868782,-0.0434829443693161,0.03960222750902176,0.0008801410440355539,0,-7,-974,-42,40,0,14,33,-55,43833.0
02:22:45.713,AUTO,-35.3632643,149.1652329,21687,0.03045753575861454,-0.00878018420189619,0.03261425718665123,-0.05478077754378319,0.03419450297951698,0.002405588049441576,0,-10,-977,-54,35,2,17,39,-49,43833.0
02:22:45.956,AUTO,-35.3632639,149.1652339,21808,0.019312623888254166,-0.0006238452042452991,0.03206733614206314,-0.04717390984296799,0.031817954033613205,0.0031725475564599037,0,-10,-978,-46,32,2,19,41,-44,43833.0
02:22:46.167,AUTO,-35.3632639,149.1652339,21808,0.019312623888254166,-0.0006238452042452991,0.03206733614206314,-0.04717390984296799,0.031817954033613205,0.0031725475564599037,0,-10,-978,-46,32,2,19,41,-44,43833.0
02:22:46.372,AUTO,-35.3632639,149.1652339,21808,0.019312623888254166,-0.0006238452042452991,0.03206733614206314,-0.04717390984296799,0.031817954033613205,0.0031725475564599037,0,-10,-978,-46,32,2,19,41,-44,43833.0
02:22:46.581,AUTO,-35.3632639,149.1652339,21808,0.019312623888254166,-0.0006238452042452991,0.03206733614206314,-0.04717390984296799,0.031817954033613205,0.0031725475564599037,0,-10,-978,-46,32,2,19,41,-44,43833.0
02:22:46.785,AUTO,-35.3632625,149.165237,22087,-0.0047478764317929745,0.013531815260648727,0.0304407998919487,-0.047210484743118286,0.009723921306431293,0.0009153247810900211,0,-11,-977,-46,10,0,15,35,-27,43833.0
02:22:46.988,AUTO,-35.3632621,149.1652378,22150,-0.00955598521977663,0.014733540825545788,0.02968083694577217,-0.048352036625146866,0.004413129296153784,-0.0015559459570795298,0,-9,-975,-47,5,-1,13,30,-21,198686.0
02:22:47.189,AUTO,-35.3632618,149.1652386,22198,-0.010635944083333015,0.015301458537578583,0.02890407107770443,0.06753861159086227,0.0007873676950111985,-0.002753692213445902,0,-2,-974,68,1,-3,10,25,-15,198686.0
02:22:47.390,AUTO,-35.3632616,149.1652392,22228,-0.012041456997394562,0.015019064769148827,0.028204258531332016,-0.04376025125384331,-0.0004119221412111074,-0.0012810503831133246,0,-11,-969,-43,0,-1,7,20,-8,198686.0
02:22:47.592,AUTO,-35.3632616,149.1652392,22228,-0.012041456997394562,0.015019064769148827,0.028204258531332016,-0.04376025125384331,-0.0004119221412111074,-0.0012810503831133246,0,-11,-969,-43,0,-1,7,20,-8,198686.0
02:22:47.794,AUTO,-35.3632614,149.1652396,22238,-0.02341446280479431,0.01671634055674076,0.02732335589826107,-0.5166057348251343,0.10007937252521515,-0.008332774043083191,-2,-20,-951,-516,100,-8,4,15,0,198686.0
02:22:47.996,AUTO,-35.3632613,149.1652399,22213,-0.048142340034246445,0.029581936076283455,0.02609836496412754,0.35464975237846375,-0.01836090162396431,-0.00738479383289814,1,21,-969,356,-17,-7,0,5,15,198686.0
02:22:48.197,AUTO,-35.3632613,149.1652399,22213,-0.048142340034246445,0.029581936076283455,0.02609836496412754,0.35464975237846375,-0.01836090162396431,-0.00738479383289814,1,21,-969,356,-17,-7,0,5,15,198686.0
02:22:48.399,AUTO,-35.3632613,149.1652399,22213,-0.048142340034246445,0.029581936076283455,0.02609836496412754,0.35464975237846375,-0.01836090162396431,-0.00738479383289814,1,21,-969,356,-17,-7,0,5,15,198686.0
02:22:48.604,AUTO,-35.3632613,149.1652399,22213,-0.048142340034246445,0.029581936076283455,0.02609836496412754,0.35464975237846375,-0.01836090162396431,-0.00738479383289814,1,21,-969,356,-17,-7,0,5,15,198686.0
02:22:48.805,AUTO,-35.3632615,149.1652397,22053,0.03990119323134422,0.002254938008263707,0.02399631030857563,0.05673890933394432,-0.01682109944522381,-0.002191794104874134,0,-18,-1016,56,-15,-2,-8,0,16,198686.0
02:22:49.007,AUTO,-35.3632617,149.1652396,22015,0.05361614003777504,-0.0014001494273543358,0.023754656314849854,-0.5814974904060364,-0.01155929546803236,-0.00385561166331172,1,-31,-1027,-581,-10,-4,-8,10,10,198686.0
02:22:49.209,AUTO,-35.3632618,149.16524,21990,0.07061614096164703,-0.0032170936465263367,0.0233030803501606,-0.21445925533771515,-0.0007535188924521208,-0.003814445808529854,3,-3,-1024,-212,0,-3,-7,26,6,198686.0
02:22:49.411,AUTO,-35.3632619,149.1652408,21975,0.09539220482110977,-0.002936708740890026,0.024370864033699036,0.5337482690811157,0.010191759094595909,0.043859727680683136,5,30,-1009,535,11,43,-5,45,3,198686.0
02:22:49.613,AUTO,-35.363262,149.1652422,21964,0.11146069318056107,-0.008583986200392246,0.09282828122377396,0.5979193449020386,0.034076061099767685,0.4968232810497284,7,6,-1021,598,35,496,-3,66,2,198686.0
02:22:49.815,AUTO,-35.363262,149.1652422,21964,0.11146069318056107,-0.008583986200392246,0.09282828122377396,0.5979193449020386,0.034076061099767685,0.4968232810497284,7,6,-1021,598,35,496,-3,66,2,198686.0
02:22:50.043,AUTO,-35.363262,149.165244,21957,0.12103401869535446,-0.024338753893971443,0.24431514739990234,-0.008804984390735626,0.006161673925817013,0.6501182913780212,7,-35,-1002,-8,7,649,0,87,1,198686.0
02:22:50.334,AUTO,-35.363262,149.165244,21957,0.12103401869535446,-0.024338753893971443,0.24431514739990234,-0.008804984390735626,0.006161673925817013,0.6501182913780212,7,-35,-1002,-8,7,649,0,87,1,198686.0
02:22:50.570,AUTO,-35.363262,149.165244,21957,0.12103401869535446,-0.024338753893971443,0.24431514739990234,-0.008804984390735626,0.006161673925817013,0.6501182913780212,7,-35,-1002,-8,7,649,0,87,1,198686.0
02:22:50.813,AUTO,-35.363262,149.1652536,21939,0.12269028276205063,-0.08545942604541779,0.7066595554351807,-0.20371201634407043,-0.010211891494691372,0.5618463158607483,-2,-35,-996,-202,-9,561,2,166,1,198686.0
02:22:51.034,AUTO,-35.363262,149.1652583,21935,0.12194502353668213,-0.10557546466588974,0.8437135815620422,0.3506338894367218,-0.01239066943526268,0.5472737550735474,-12,-28,-1004,352,-11,547,3,194,0,198686.0
02:22:51.236,AUTO,-35.3632619,149.1652638,21930,0.12040706723928452,-0.12794946134090424,0.9776481986045837,0.36514002084732056,-0.022091664373874664,0.5467417240142822,-22,-46,-996,365,-21,546,5,222,2,198686.0
02:22:51.439,AUTO,-35.3632618,149.1652702,21919,0.10886930674314499,-0.1501503735780716,1.1119129657745361,-0.09750047326087952,-0.0315595418214798,0.5488657355308533,-28,-67,-1004,-97,-30,549,6,252,4,198686.0
02:22:51.641,AUTO,-35.3632617,149.1652774,21907,0.08530712127685547,-0.1678064912557602,1.2484556436538696,-0.3241047263145447,-0.011371753178536892,0.5461439490318298,-36,-70,-1003,-322,-10,545,6,284,4,101266.0
02:22:51.843,AUTO,-35.3632617,149.1652774,21907,0.08530712127685547,-0.1678064912557602,1.2484556436538696,-0.3241047263145447,-0.011371753178536892,0.5461439490318298,-36,-70,-1003,-322,-10,545,6,284,4,101266.0
02:22:52.045,AUTO,-35.3632616,149.1652856,21893,0.07249458134174347,-0.1741655319929123,1.3667224645614624,0.185394287109375,0.02156563103199005,0.4157620966434479,-52,-38,-1008,187,22,415,6,315,4,101266.0
02:22:52.247,AUTO,-35.3632616,149.1652856,21893,0.07249458134174347,-0.1741655319929123,1.3667224645614624,0.185394287109375,0.02156563103199005,0.4157620966434479,-52,-38,-1008,187,22,415,6,315,4,101266.0
02:22:52.450,AUTO,-35.3632616,149.1652856,21893,0.07249458134174347,-0.1741655319929123,1.3667224645614624,0.185394287109375,0.02156563103199005,0.4157620966434479,-52,-38,-1008,187,22,415,6,315,4,101266.0
02:22:52.652,AUTO,-35.3632616,149.1653151,21853,0.02764676883816719,-0.18543711304664612,1.6383808851242065,-0.11687313765287399,-0.008305354043841362,0.14623206853866577,-81,-50,-1001,-115,-7,146,7,397,3,101266.0
02:22:52.854,AUTO,-35.3632616,149.1653151,21853,0.02764676883816719,-0.18543711304664612,1.6383808851242065,-0.11687313765287399,-0.008305354043841362,0.14623206853866577,-81,-50,-1001,-115,-7,146,7,397,3,101266.0
02:22:53.055,AUTO,-35.3632616,149.1653265,21839,0.03042970970273018,-0.1859607994556427,1.6499279737472534,0.10987280309200287,-0.0017083860002458096,-0.025650668889284134,-88,-40,-1002,111,0,-25,8,423,4,101266.0
02:22:53.257,AUTO,-35.3632616,149.1653389,21825,0.03609718009829521,-0.1863606721162796,1.6367181539535522,-0.03409266844391823,-0.010785145685076714,-0.06648656725883484,-93,-51,-998,-33,-9,-66,9,449,3,101266.0
02:22:53.459,AUTO,-35.3632616,149.1653519,21810,0.039301104843616486,-0.17941688001155853,1.6200213432312012,-0.03891902044415474,0.06606895476579666,-0.06361548602581024,-99,-55,-1008,-37,66,-63,9,474,3,101266.0
02:22:53.661,AUTO,-35.3632615,149.1653655,21801,0.0450654961168766,-0.16869445145130157,1.6086593866348267,0.03352551907300949,0.03699827566742897,-0.03404637426137924,-102,-58,-1004,34,37,-34,10,494,0,101266.0
02:22:53.863,AUTO,-35.3632615,149.1653796,21796,0.050814978778362274,-0.16175225377082825,1.6038562059402466,0.00488449539989233,0.027898205444216728,-0.01574697345495224,-104,-72,-1004,5,28,-15,12,513,0,101266.0
02:22:54.065,AUTO,-35.3632615,149.1653796,21796,0.050814978778362274,-0.16175225377082825,1.6038562059402466,0.00488449539989233,0.027898205444216728,-0.01574697345495224,-104,-72,-1004,5,28,-15,12,513,0,101266.0
02:22:54.267,AUTO,-35.3632615,149.1653796,21796,0.050814978778362274,-0.16175225377082825,1.6038562059402466,0.00488449539989233,0.027898205444216728,-0.01574697345495224,-104,-72,-1004,5,28,-15,12,513,0,101266.0
02:22:54.469,AUTO,-35.3632615,149.1653796,21796,0.050814978778362274,-0.16175225377082825,1.6038562059402466,0.00488449539989233,0.027898205444216728,-0.01574697345495224,-104,-72,-1004,5,28,-15,12,513,0,101266.0
02:22:54.672,AUTO,-35.3632612,149.1654245,21791,0.06190819293260574,-0.1520199328660965,1.602374792098999,0.03428556025028229,-0.0005836277268826962,-0.0017314371652901173,-130,-68,-996,35,0,-1,10,554,0,101266.0
02:22:54.873,AUTO,-35.3632611,149.1654402,21788,0.06500294059515,-0.1517740786075592,1.6020808219909668,-0.025234762579202652,0.01880391500890255,0.004400233272463083,-110,-74,-991,-24,19,3,10,566,1,101266.0
02:22:55.081,AUTO,-35.3632611,149.1654402,21788,0.06500294059515,-0.1517740786075592,1.6020808219909668,-0.025234762579202652,0.01880391500890255,0.004400233272463083,-110,-74,-991,-24,19,3,10,566,1,101266.0
02:22:55.288,AUTO,-35.363261,149.1654562,21782,0.06584914028644562,-0.1448383927345276,1.601704478263855,-0.013314217329025269,0.02606557123363018,-0.0020457475911825895,-116,-76,-995,-12,26,-2,9,576,1,101266.0
02:22:55.531,AUTO,-35.363261,149.1654723,21777,0.06821442395448685,-0.14020852744579315,1.6007331609725952,0.058343466371297836,0.026662463322281837,-0.018202466890215874,-118,-63,-990,59,27,-18,7,585,1,101266.0
02:22:55.773,AUTO,-35.3632609,149.1654887,21771,0.0693633109331131,-0.13644938170909882,1.600379467010498,0.01143290102481842,0.02345305122435093,0.0014944667927920818,-121,-63,-991,12,24,1,7,592,1,101266.0
02:22:56.006,AUTO,-35.3632609,149.1655054,21765,0.06869091838598251,-0.13039959967136383,1.5998023748397827,-0.031663671135902405,0.009797674603760242,0.0007824435597285628,-103,-70,-987,-30,10,0,6,598,2,101266.0
02:22:56.246,AUTO,-35.3632609,149.1655054,21765,0.06869091838598251,-0.13039959967136383,1.5998023748397827,-0.031663671135902405,0.009797674603760242,0.0007824435597285628,-103,-70,-987,-30,10,0,6,598,2,101266.0
02:22:56.459,AUTO,-35.3632609,149.1655054,21765,0.06869091838598251,-0.13039959967136383,1.5998023748397827,-0.031663671135902405,0.009797674603760242,0.0007824435597285628,-103,-70,-987,-30,10,0,6,598,2,101266.0
02:22:56.661,AUTO,-35.3632608,149.1655555,21747,0.07123725861310959,-0.10936162620782852,1.5989075899124146,-0.007719763088971376,0.05598212778568268,-0.0017798769986256957,-120,-72,-991,-6,56,-1,4,604,2,101266.0
02:22:56.867,AUTO,-35.3632608,149.1655723,21742,0.07335460931062698,-0.10175488144159317,1.5982849597930908,0.019046373665332794,0.0018153032287955284,-0.0026162383146584034,-119,-70,-988,19,2,-2,4,602,2,32187.0
02:22:57.068,AUTO,-35.3632608,149.1655723,21742,0.07335460931062698,-0.10175488144159317,1.5982849597930908,0.019046373665332794,0.0018153032287955284,-0.0026162383146584034,-119,-70,-988,19,2,-2,4,602,2,32187.0
02:22:57.270,AUTO,-35.3632607,149.1655891,21736,0.07724402844905853,-0.10769869387149811,1.5974361896514893,0.0015475619584321976,-0.022460006177425385,-0.0014457032084465027,-124,-64,-978,2,-21,-1,3,600,4,32187.0
02:22:57.472,AUTO,-35.3632607,149.1656057,21724,0.07343655079603195,-0.11321211606264114,1.5969518423080444,-0.03411794453859329,0.022359028458595276,0.0032041158992797136,-117,-68,-979,-33,23,3,2,599,7,32187.0
02:22:57.674,AUTO,-35.3632607,149.1656227,21709,0.07199721038341522,-0.10027047246694565,1.5966401100158691,0.004053790122270584,0.05642325058579445,-0.007383329328149557,-108,-76,-994,5,57,-7,2,599,6,32187.0
02:22:57.876,AUTO,-35.3632607,149.1656393,21699,0.07360042631626129,-0.08283281326293945,1.596601128578186,0.013428354635834694,0.0479360930621624,0.0019155687186866999,-112,-74,-996,14,48,1,1,593,3,32187.0
02:22:58.078,AUTO,-35.3632607,149.1656393,21699,0.07360042631626129,-0.08283281326293945,1.596601128578186,0.013428354635834694,0.0479360930621624,0.0019155687186866999,-112,-74,-996,14,48,1,1,593,3,32187.0
02:22:58.280,AUTO,-35.3632607,149.1656393,21699,0.07360042631626129,-0.08283281326293945,1.596601128578186,0.013428354635834694,0.0479360930621624,0.0019155687186866999,-112,-74,-996,14,48,1,1,593,3,32187.0
02:22:58.481,AUTO,-35.3632607,149.1656393,21699,0.07360042631626129,-0.08283281326293945,1.596601128578186,0.013428354635834694,0.0479360930621624,0.0019155687186866999,-112,-74,-996,14,48,1,1,593,3,32187.0
02:22:58.683,AUTO,-35.3632607,149.1656871,21691,0.07245726883411407,-0.04972835257649422,1.5969260931015015,0.03406107425689697,0.026112612336874008,-0.0043414016254246235,-116,-81,-989,34,27,-4,1,560,2,32187.0
02:22:58.885,AUTO,-35.3632607,149.1657024,21688,0.07295139878988266,-0.03803510591387749,1.5964487791061401,-0.04276867210865021,0.052642934024333954,-0.00461527518928051,-102,-78,-992,-41,53,-4,0,546,3,32187.0
02:22:59.087,AUTO,-35.3632607,149.1657024,21688,0.07295139878988266,-0.03803510591387749,1.5964487791061401,-0.04276867210865021,0.052642934024333954,-0.00461527518928051,-102,-78,-992,-41,53,-4,0,546,3,32187.0
02:22:59.288,AUTO,-35.3632608,149.1657174,21684,0.07115138322114944,-0.023651156574487686,1.5958995819091797,0.02170105092227459,0.06440074741840363,-0.010431699454784393,-104,-69,-993,22,65,-10,0,529,3,32187.0
02:22:59.490,AUTO,-35.3632608,149.1657318,21680,0.0731063187122345,-0.008390125818550587,1.5955740213394165,0.08006560057401657,0.048349637538194656,-0.0026411041617393494,-100,-72,-995,81,49,-2,0,509,3,32187.0
02:22:59.692,AUTO,-35.3632608,149.1657456,21674,0.0690239742398262,0.00351540744304657,1.5957767963409424,-0.17235606908798218,0.054249510169029236,0.009802405722439289,-103,-76,-994,-171,55,9,0,487,4,32187.0
02:22:59.933,AUTO,-35.3632609,149.1657589,21666,0.059838537126779556,0.017373275011777878,1.5962923765182495,-0.217067688703537,0.04223015904426575,0.0022208516020327806,-104,-59,-999,-215,43,2,-2,463,5,32187.0
02:23:00.179,AUTO,-35.3632609,149.1657589,21666,0.059838537126779556,0.017373275011777878,1.5962923765182495,-0.217067688703537,0.04223015904426575,0.0022208516020327806,-104,-59,-999,-215,43,2,-2,463,5,32187.0
02:23:00.389,AUTO,-35.3632609,149.1657589,21666,0.059838537126779556,0.017373275011777878,1.5962923765182495,-0.217067688703537,0.04223015904426575,0.0022208516020327806,-104,-59,-999,-215,43,2,-2,463,5,32187.0
02:23:00.601,AUTO,-35.3632609,149.1657589,21666,0.059838537126779556,0.017373275011777878,1.5962923765182495,-0.217067688703537,0.04223015904426575,0.0022208516020327806,-104,-59,-999,-215,43,2,-2,463,5,32187.0
02:23:00.866,AUTO,-35.3632614,149.1658046,21575,0.05419675260782242,0.07143433392047882,1.5933572053909302,0.7304362654685974,0.06667262315750122,-0.025017907842993736,-70,-9,-1038,732,67,-24,-3,348,11,32187.0
02:23:01.068,AUTO,-35.3632614,149.1658046,21575,0.05419675260782242,0.07143433392047882,1.5933572053909302,0.7304362654685974,0.06667262315750122,-0.025017907842993736,-70,-9,-1038,732,67,-24,-3,348,11,32187.0
02:23:01.273,AUTO,-35.3632616,149.1658138,21556,0.050215933471918106,0.07627123594284058,1.5932996273040771,0.6215397715568542,-0.01538981031626463,0.006039713509380817,-65,-32,-1015,621,-14,6,-3,315,8,32187.0
02:23:01.475,AUTO,-35.3632619,149.1658222,21542,0.044058773666620255,0.0719539001584053,1.5921516418457031,0.07462335377931595,-0.006879031658172607,0.014086384326219559,-55,-57,-1009,74,-5,14,-1,284,6,32187.0
02:23:01.678,AUTO,-35.3632622,149.1658297,21528,0.0237295962870121,0.07350751012563705,1.5920894145965576,-0.5949529409408569,0.022962134331464767,0.030706992372870445,-50,-75,-1013,-595,24,31,-2,255,7,42611.0
02:23:01.880,AUTO,-35.3632626,149.1658365,21515,0.009174329228699207,0.07739335298538208,1.5914005041122437,-0.7185012102127075,0.016471583396196365,0.021305672824382782,-37,-67,-1018,-718,17,21,0,228,7,42611.0
02:23:02.083,AUTO,-35.3632626,149.1658365,21515,0.009174329228699207,0.07739335298538208,1.5914005041122437,-0.7185012102127075,0.016471583396196365,0.021305672824382782,-37,-67,-1018,-718,17,21,0,228,7,42611.0
02:23:02.285,AUTO,-35.3632626,149.1658365,21515,0.009174329228699207,0.07739335298538208,1.5914005041122437,-0.7185012102127075,0.016471583396196365,0.021305672824382782,-37,-67,-1018,-718,17,21,0,228,7,42611.0
02:23:02.489,AUTO,-35.3632626,149.1658365,21515,0.009174329228699207,0.07739335298538208,1.5914005041122437,-0.7185012102127075,0.016471583396196365,0.021305672824382782,-37,-67,-1018,-718,17,21,0,228,7,42611.0
02:23:02.692,AUTO,-35.3632636,149.1658522,21484,0.0029506010469049215,0.08919919282197952,1.5899018049240112,0.6191461086273193,-0.021741777658462524,-0.010985632427036762,-28,13,-1009,620,-20,-10,4,144,4,42611.0
02:23:02.893,AUTO,-35.363264,149.1658559,21477,0.0011282621417194605,0.08078985661268234,1.5890700817108154,0.4632294774055481,-0.03326154127717018,0.010007771663367748,-23,-11,-1007,463,-32,10,8,119,4,42611.0
02:23:03.095,AUTO,-35.363264,149.1658559,21477,0.0011282621417194605,0.08078985661268234,1.5890700817108154,0.4632294774055481,-0.03326154127717018,0.010007771663367748,-23,-11,-1007,463,-32,10,8,119,4,42611.0
02:23:03.297,AUTO,-35.3632643,149.165859,21474,-0.009347187355160713,0.07283376902341843,1.5888464450836182,-0.2868345081806183,-0.031271692365407944,0.01604967750608921,-19,-43,-999,-287,-30,16,12,97,3,42611.0
02:23:03.499,AUTO,-35.3632644,149.1658616,21470,-0.02028581313788891,0.06502591818571091,1.5890250205993652,-0.664401650428772,-0.025300925597548485,0.005917846690863371,-17,-35,-1006,-664,-24,6,15,78,3,42611.0
02:23:03.701,AUTO,-35.3632645,149.1658636,21466,-0.02011268399655819,0.06051863357424736,1.5889267921447754,0.004982996266335249,-0.012170732021331787,-0.0009074240224435925,-12,7,-999,6,-11,0,17,61,3,42611.0
02:23:03.903,AUTO,-35.3632647,149.1658653,21463,-0.01123465970158577,0.05668935179710388,1.5888057947158813,0.5789188742637634,-0.015639519318938255,-0.0009189703268930316,-10,26,-1006,580,-14,0,19,46,2,42611.0
02:23:04.105,AUTO,-35.3632647,149.1658653,21463,-0.01123465970158577,0.05668935179710388,1.5888057947158813,0.5789188742637634,-0.015639519318938255,-0.0009189703268930316,-10,26,-1006,580,-14,0,19,46,2,42611.0
02:23:04.307,AUTO,-35.3632647,149.1658653,21463,-0.01123465970158577,0.05668935179710388,1.5888057947158813,0.5789188742637634,-0.015639519318938255,-0.0009189703268930316,-10,26,-1006,580,-14,0,19,46,2,42611.0
02:23:04.509,AUTO,-35.3632647,149.1658653,21463,-0.01123465970158577,0.05668935179710388,1.5888057947158813,0.5789188742637634,-0.015639519318938255,-0.0009189703268930316,-10,26,-1006,580,-14,0,19,46,2,42611.0
02:23:04.711,AUTO,-35.3632647,149.165868,21461,-0.02206915058195591,0.04229797422885895,1.5900747776031494,-0.6641753911972046,-0.01880396343767643,-0.0013290722854435444,-4,-29,-994,-664,-17,0,26,11,2,42611.0
02:23:04.913,AUTO,-35.3632647,149.1658684,21462,-0.02240045554935932,0.03709627315402031,1.5903035402297974,-0.19606003165245056,-0.021597810089588165,-0.0024780994281172752,-2,6,-1000,-195,-20,-1,25,3,1,42611.0
02:23:05.157,AUTO,-35.3632646,149.1658686,21465,-0.014895260334014893,0.03129037842154503,1.590472936630249,0.4985203742980957,-0.022154906764626503,-0.006741092540323734,-2,34,-1011,499,-21,-6,25,-3,0,42611.0
02:23:05.470,AUTO,-35.3632644,149.1658686,21468,-0.005402437876909971,0.023686358705163002,1.5904902219772339,0.4257890582084656,-0.025115439668297768,-0.004938820842653513,0,10,-1000,425,-23,-4,27,-8,0,42611.0
02:23:05.784,AUTO,-35.3632642,149.1658685,21469,-0.008009316399693489,0.016670558601617813,1.5900375843048096,0.09811460226774216,-0.027269018813967705,-0.005558825097978115,-1,-5,-1007,97,-26,-4,27,-10,1,42611.0
02:23:06.065,AUTO,-35.3632641,149.1658684,21472,-0.018489649519324303,0.009198827669024467,1.5900312662124634,-0.5265175104141235,-0.032786644995212555,-0.0018984891939908266,0,-28,-1000,-527,-31,-1,27,-11,1,42611.0
02:23:06.267,AUTO,-35.3632641,149.1658684,21472,-0.018489649519324303,0.009198827669024467,1.5900312662124634,-0.5265175104141235,-0.032786644995212555,-0.0018984891939908266,0,-28,-1000,-527,-31,-1,27,-11,1,42611.0
02:23:06.469,AUTO,-35.3632641,149.1658684,21472,-0.018489649519324303,0.009198827669024467,1.5900312662124634,-0.5265175104141235,-0.032786644995212555,-0.0018984891939908266,0,-28,-1000,-527,-31,-1,27,-11,1,42611.0
02:23:06.671,AUTO,-35.3632634,149.1658683,21474,-0.001365598407573998,-0.0012605132069438696,1.5892271995544434,0.5770050287246704,-0.03091295063495636,-0.00937133003026247,-2,31,-1011,577,-29,-8,24,-7,0,42611.0
02:23:06.873,AUTO,-35.3632631,149.1658684,21476,0.00917524192482233,-0.013568217866122723,1.5881304740905762,0.273574560880661,-0.056925736367702484,0.0007998893852345645,-2,1,-998,272,-55,1,23,-4,1,25141.0
02:23:07.075,AUTO,-35.3632631,149.1658684,21476,0.00917524192482233,-0.013568217866122723,1.5881304740905762,0.273574560880661,-0.056925736367702484,0.0007998893852345645,-2,1,-998,272,-55,1,23,-4,1,25141.0
02:23:07.276,RTL,-35.3632628,149.1658685,21476,0.0071095870807766914,-0.022805234417319298,1.5871148109436035,-0.38006988167762756,-0.012097172439098358,-0.005653297062963247,-4,-34,-985,-381,-10,-5,21,1,2,25141.0
02:23:07.478,RTL,-35.3632625,149.1658688,21475,-0.003193823155015707,-0.004243282601237297,1.5870840549468994,-0.614763617515564,0.1065850779414177,-0.0016567056300118566,-4,-24,-1004,-615,107,-1,17,5,0,25141.0
02:23:07.680,RTL,-35.3632622,149.1658692,21476,0.002577669220045209,0.011135962791740894,1.5864137411117554,-0.18200455605983734,0.032171670347452164,-0.002845275914296508,-4,7,-1005,-181,33,-2,14,5,0,25141.0
02:23:07.882,RTL,-35.3632619,149.1658695,21482,0.013304281048476696,0.014090641401708126,1.5860481262207031,0.4904119372367859,0.005278189666569233,-0.003362330375239253,-6,33,-1026,490,6,-3,11,3,-4,25141.0
02:23:08.084,RTL,-35.3632619,149.1658695,21482,0.013304281048476696,0.014090641401708126,1.5860481262207031,0.4904119372367859,0.005278189666569233,-0.003362330375239253,-6,33,-1026,490,6,-3,11,3,-4,25141.0
02:23:08.286,RTL,-35.3632619,149.1658695,21482,0.013304281048476696,0.014090641401708126,1.5860481262207031,0.4904119372367859,0.005278189666569233,-0.003362330375239253,-6,33,-1026,490,6,-3,11,3,-4,25141.0
02:23:08.488,RTL,-35.3632619,149.1658695,21482,0.013304281048476696,0.014090641401708126,1.5860481262207031,0.4904119372367859,0.005278189666569233,-0.003362330375239253,-6,33,-1026,490,6,-3,11,3,-4,25141.0
02:23:08.690,RTL,-35.3632613,149.1658702,21602,0.004632078111171722,0.016466742381453514,1.5845867395401,-0.3171696662902832,0.0018795004580169916,0.0012885240139439702,-2,-4,-1043,-317,3,1,5,-3,-28,25141.0
02:23:08.892,RTL,-35.3632612,149.1658704,21689,0.009786845184862614,0.015461464412510395,1.584329605102539,0.27881744503974915,-0.006088373251259327,-0.0013922173529863358,-1,17,-1054,278,-4,0,2,-5,-40,25141.0
02:23:09.094,RTL,-35.3632612,149.1658704,21689,0.009786845184862614,0.015461464412510395,1.584329605102539,0.27881744503974915,-0.006088373251259327,-0.0013922173529863358,-1,17,-1054,278,-4,0,2,-5,-40,25141.0
02:23:09.296,RTL,-35.363261,149.1658705,21808,0.011940306052565575,0.014365733601152897,1.5842878818511963,0.26209011673927307,-0.0036516431719064713,-0.0017716328147798777,0,6,-1055,261,-2,-1,1,-7,-52,25141.0
02:23:09.499,RTL,-35.363261,149.1658705,21960,0.004635494202375412,0.01420765370130539,1.584006905555725,-0.1064986065030098,0.0028965193778276443,0.0003221487859264016,0,-8,-1051,-107,4,0,0,-8,-65,25141.0
02:23:09.702,RTL,-35.363261,149.1658705,22146,0.0014992696233093739,0.013349675573408604,1.5838043689727783,-0.044487375766038895,-0.0022071641869843006,0.0004529930301941931,0,1,-1049,-44,0,0,-1,-10,-78,25141.0
02:23:09.934,RTL,-35.363261,149.1658705,22361,0.0012704567052423954,0.012174634262919426,1.5836129188537598,0.055404916405677795,-0.005918014794588089,-0.000604057393502444,0,1,-1047,54,-4,0,-1,-10,-89,25141.0
02:23:10.207,RTL,-35.363261,149.1658705,22361,0.0012704567052423954,0.012174634262919426,1.5836129188537598,0.055404916405677795,-0.005918014794588089,-0.000604057393502444,0,1,-1047,54,-4,0,-1,-10,-89,25141.0
02:23:10.502,RTL,-35.363261,149.1658705,22361,0.0012704567052423954,0.012174634262919426,1.5836129188537598,0.055404916405677795,-0.005918014794588089,-0.000604057393502444,0,1,-1047,54,-4,0,-1,-10,-89,25141.0
02:23:10.802,RTL,-35.3632612,149.1658704,23179,-0.004211132414638996,0.010834092274308205,1.5831645727157593,-0.011033348739147186,-0.0014009099686518312,0.001362150302156806,1,0,-1046,-11,0,1,0,-11,-123,25141.0
02:23:11.004,RTL,-35.3632613,149.1658703,23511,-0.005243243649601936,0.009763052687048912,1.5830137729644775,-0.0025708405300974846,-0.0057455627247691154,-0.0004100391815882176,1,0,-1044,-2,-3,0,0,-11,-134,25141.0
02:23:11.207,RTL,-35.3632614,149.1658702,23868,0.0018301609670743346,0.007620757445693016,1.5820480585098267,0.046218518167734146,-0.010232330299913883,-0.0018661789363250136,1,0,-1024,45,-8,-1,0,-11,-143,25141.0
