time_stamp,MODE,lat,lon,relative_alt,roll,pitch,yaw,rollspeed,pitchspeed,yawspeed,xacc,yacc,zacc,xgyro,ygyro,zgyro,vx,vy,vz,RTL_ALT
12:39:30.055,STABILIZE,-35.3632621,149.1652374,0,6.72473106533289e-05,0.0016087591648101807,0.027627769857645035,0.0002583501918707043,0.00019959986093454063,0.0021975364070385695,0,1,-1000,0,0,0,-1,1,0,1500.0
12:39:30.256,STABILIZE,-35.3632621,149.1652374,0,6.72473106533289e-05,0.0016087591648101807,0.027627769857645035,0.0002583501918707043,0.00019959986093454063,0.0021975364070385695,0,1,-1000,0,0,0,-1,1,0,1500.0
12:39:30.456,STABILIZE,-35.3632621,149.1652374,0,6.72473106533289e-05,0.0016087591648101807,0.027627769857645035,0.0002583501918707043,0.00019959986093454063,0.0021975364070385695,0,1,-1000,0,0,0,-1,1,0,1500.0
12:39:30.657,STABILIZE,-35.3632621,149.1652374,0,6.72473106533289e-05,0.0016087591648101807,0.027627769857645035,0.0002583501918707043,0.00019959986093454063,0.0021975364070385695,0,1,-1000,0,0,0,-1,1,0,1500.0
12:39:30.858,STABILIZE,-35.3632621,149.1652374,0,6.72473106533289e-05,0.0016087591648101807,0.027627769857645035,0.0002583501918707043,0.00019959986093454063,0.0021975364070385695,0,1,-1000,0,0,0,-1,1,0,1500.0
12:39:31.058,STABILIZE,-35.3632621,149.1652374,0,6.72473106533289e-05,0.0016087591648101807,0.027627769857645035,0.0002583501918707043,0.00019959986093454063,0.0021975364070385695,0,1,-1000,0,0,0,-1,1,0,1500.0
12:39:31.259,STABILIZE,-35.3632621,149.1652374,0,6.72473106533289e-05,0.0016087591648101807,0.027627769857645035,0.0002583501918707043,0.00019959986093454063,0.0021975364070385695,0,1,-1000,0,0,0,-1,1,0,1500.0
12:39:31.460,STABILIZE,-35.3632622,149.1652375,0,-4.536713822744787e-05,0.0013746320037171245,0.02682502754032612,0.0002441442047711462,0.00028601905796676874,0.0021779355593025684,0,1,-1000,0,0,0,-2,2,0,1500.0
12:39:31.661,STABILIZE,-35.3632622,149.1652375,0,-4.536713822744787e-05,0.0013746320037171245,0.02682502754032612,0.0002441442047711462,0.00028601905796676874,0.0021779355593025684,0,1,-1000,0,0,0,-2,2,0,1500.0
12:39:31.862,STABILIZE,-35.3632622,149.1652375,0,-4.536713822744787e-05,0.0013746320037171245,0.02682502754032612,0.0002441442047711462,0.00028601905796676874,0.0021779355593025684,0,1,-1000,0,0,0,-2,2,0,1500.0
12:39:32.063,STABILIZE,-35.3632622,149.1652375,0,-0.0003852737427223474,0.0012198437470942736,0.02640720270574093,4.8679678002372384e-05,0.0003090683603659272,0.0022331085056066513,0,1,-1000,0,0,1,-1,2,0,1500.0
12:39:32.264,STABILIZE,-35.3632622,149.1652375,0,-0.0003852737427223474,0.0012198437470942736,0.02640720270574093,4.8679678002372384e-05,0.0003090683603659272,0.0022331085056066513,0,1,-1000,0,0,1,-1,2,0,1500.0
12:39:32.465,STABILIZE,-35.3632622,149.1652375,0,-0.0003852737427223474,0.0012198437470942736,0.02640720270574093,4.8679678002372384e-05,0.0003090683603659272,0.0022331085056066513,0,1,-1000,0,0,1,-1,2,0,1500.0
12:39:32.666,STABILIZE,-35.3632622,149.1652375,0,-0.0005659530870616436,0.0011181281879544258,0.026167411357164383,9.361817501485348e-05,0.0002786868717521429,0.0021688989363610744,0,1,-1000,0,0,0,-1,1,0,1500.0
12:39:32.868,STABILIZE,-35.3632622,149.1652375,0,-0.0005659530870616436,0.0011181281879544258,0.026167411357164383,9.361817501485348e-05,0.0002786868717521429,0.0021688989363610744,0,1,-1000,0,0,0,-1,1,0,1500.0
12:39:33.069,STABILIZE,-35.3632622,149.1652375,0,-0.0007067500846460462,0.001050758408382535,0.02594190277159214,0.000151047483086586,0.00022921961499378085,0.002166847698390484,0,1,-1000,1,0,0,-1,1,0,1500.0
12:39:33.270,STABILIZE,-35.3632622,149.1652375,0,-0.0007067500846460462,0.001050758408382535,0.02594190277159214,0.000151047483086586,0.00022921961499378085,0.002166847698390484,0,1,-1000,1,0,0,-1,1,0,1500.0
12:39:33.471,STABILIZE,-35.3632622,149.1652375,0,-0.0007067500846460462,0.001050758408382535,0.02594190277159214,0.000151047483086586,0.00022921961499378085,0.002166847698390484,0,1,-1000,1,0,0,-1,1,0,1500.0
12:39:33.672,STABILIZE,-35.3632622,149.1652375,0,-0.0007067500846460462,0.001050758408382535,0.02594190277159214,0.000151047483086586,0.00022921961499378085,0.002166847698390484,0,1,-1000,1,0,0,-1,1,0,1500.0
12:39:33.874,STABILIZE,-35.3632622,149.1652375,0,-0.0007067500846460462,0.001050758408382535,0.02594190277159214,0.000151047483086586,0.00022921961499378085,0.002166847698390484,0,1,-1000,1,0,0,-1,1,0,1500.0
12:39:34.075,STABILIZE,-35.3632621,149.1652375,0,-0.0009034579270519316,0.0009445605683140457,0.025559764355421066,0.0002993006492033601,0.00016689032781869173,0.00206821714527905,0,1,-1000,0,0,0,-1,1,0,1500.0
12:39:34.279,STABILIZE,-35.3632621,149.1652375,0,-0.0009034579270519316,0.0009445605683140457,0.025559764355421066,0.0002993006492033601,0.00016689032781869173,0.00206821714527905,0,1,-1000,0,0,0,-1,1,0,1500.0
12:39:34.480,STABILIZE,-35.3632621,149.1652375,0,-0.0009359376854263246,0.000926705077290535,0.025463441386818886,0.0002669973182491958,0.0003334401408210397,0.0020027204882353544,0,1,-1000,0,0,0,-1,1,0,1500.0
12:39:34.681,STABILIZE,-35.3632621,149.1652375,0,-0.0009604865335859358,0.000918160832952708,0.025385785847902298,0.00020175735699012876,0.00035135512007400393,0.00198973435908556,0,1,-1000,0,0,0,-1,0,0,1500.0
12:39:34.883,STABILIZE,-35.3632621,149.1652375,0,-0.0009869275381788611,0.0009066610364243388,0.025310605764389038,0.00021363230189308524,0.0003225316177122295,0.001995989354327321,0,1,-1000,0,0,0,-1,0,0,1500.0
12:39:35.084,STABILIZE,-35.3632621,149.1652375,0,-0.0009869275381788611,0.0009066610364243388,0.025310605764389038,0.00021363230189308524,0.0003225316177122295,0.001995989354327321,0,1,-1000,0,0,0,-1,0,0,1500.0
12:39:35.286,STABILIZE,-35.3632621,149.1652375,0,-0.0009869275381788611,0.0009066610364243388,0.025310605764389038,0.00021363230189308524,0.0003225316177122295,0.001995989354327321,0,1,-1000,0,0,0,-1,0,0,1500.0
12:39:35.487,STABILIZE,-35.3632621,149.1652375,0,-0.0009869275381788611,0.0009066610364243388,0.025310605764389038,0.00021363230189308524,0.0003225316177122295,0.001995989354327321,0,1,-1000,0,0,0,-1,0,0,1500.0
12:39:35.688,STABILIZE,-35.3632621,149.1652375,0,-0.0009869275381788611,0.0009066610364243388,0.025310605764389038,0.00021363230189308524,0.0003225316177122295,0.001995989354327321,0,1,-1000,0,0,0,-1,0,0,1500.0
12:39:35.890,STABILIZE,-35.3632621,149.1652375,0,-0.0009869275381788611,0.0009066610364243388,0.025310605764389038,0.00021363230189308524,0.0003225316177122295,0.001995989354327321,0,1,-1000,0,0,0,-1,0,0,1500.0
12:39:36.091,STABILIZE,-35.3632621,149.1652375,0,-0.001034160377457738,0.0008933969656936824,0.02491348795592785,0.00024398387176916003,0.00021857774117961526,0.0018500605365261436,0,1,-1000,0,0,0,-1,0,0,1500.0
12:39:36.292,STABILIZE,-35.3632621,149.1652375,0,-0.001034160377457738,0.0008933969656936824,0.02491348795592785,0.00024398387176916003,0.00021857774117961526,0.0018500605365261436,0,1,-1000,0,0,0,-1,0,0,1500.0
12:39:36.493,STABILIZE,-35.3632621,149.1652375,0,-0.001034160377457738,0.0008933969656936824,0.02491348795592785,0.00024398387176916003,0.00021857774117961526,0.0018500605365261436,0,1,-1000,0,0,0,-1,0,0,1500.0
12:39:36.694,STABILIZE,-35.3632621,149.1652375,0,-0.0010520751820877194,0.0008838196517899632,0.024740135297179222,0.00020081212278455496,0.0001627850579097867,0.0018907019402831793,0,1,-1000,0,0,0,-1,0,0,1500.0
12:39:36.895,STABILIZE,-35.3632621,149.1652375,0,-0.0010520751820877194,0.0008838196517899632,0.024740135297179222,0.00020081212278455496,0.0001627850579097867,0.0018907019402831793,0,1,-1000,0,0,0,-1,0,0,1500.0
12:39:37.097,STABILIZE,-35.3632621,149.1652375,0,-0.0010520751820877194,0.0008838196517899632,0.024740135297179222,0.00020081212278455496,0.0001627850579097867,0.0018907019402831793,0,2,-1000,0,0,0,-1,0,0,1500.0
12:39:37.298,STABILIZE,-35.3632621,149.1652375,0,-0.001059805043041706,0.000923850224353373,0.024500848725438118,0.00018678727792575955,0.0002480391995050013,0.0018680889625102282,0,2,-1000,0,0,0,-1,0,0,1500.0
12:39:37.500,STABILIZE,-35.3632621,149.1652375,0,-0.001059805043041706,0.000923850224353373,0.024500848725438118,0.00018678727792575955,0.0002480391995050013,0.0018680889625102282,0,2,-1000,0,0,0,-1,0,0,1500.0
12:39:37.701,STABILIZE,-35.3632621,149.1652375,0,-0.001059805043041706,0.000923850224353373,0.024500848725438118,0.00018678727792575955,0.0002480391995050013,0.0018680889625102282,0,2,-1000,0,0,0,-1,0,0,1500.0
12:39:37.902,STABILIZE,-35.3632621,149.1652375,0,-0.001059805043041706,0.000923850224353373,0.024500848725438118,0.00018678727792575955,0.0002480391995050013,0.0018680889625102282,0,2,-1000,0,0,0,-1,0,0,1500.0
12:39:38.103,STABILIZE,-35.3632621,149.1652374,0,-0.0009897546842694283,0.0009544356144033372,0.02428494021296501,0.00014694716082885861,0.0003665052354335785,0.0017952308990061283,0,2,-1000,0,0,1,-1,0,-3,1500.0
12:39:38.304,STABILIZE,-35.3632621,149.1652374,0,-0.0009897546842694283,0.0009544356144033372,0.02428494021296501,0.00014694716082885861,0.0003665052354335785,0.0017952308990061283,0,2,-1000,0,0,1,-1,0,-3,1500.0
12:39:38.506,STABILIZE,-35.3632621,149.1652374,0,-0.0009897546842694283,0.0009544356144033372,0.02428494021296501,0.00014694716082885861,0.0003665052354335785,0.0017952308990061283,0,2,-1000,0,0,1,-1,0,-3,1500.0
12:39:38.708,STABILIZE,-35.3632621,149.1652374,0,-0.0009897546842694283,0.0009544356144033372,0.02428494021296501,0.00014694716082885861,0.0003665052354335785,0.0017952308990061283,0,2,-1000,0,0,1,-1,0,-3,1500.0
12:39:38.910,STABILIZE,-35.3632621,149.1652374,4,-0.0008043020498007536,0.0009668064885772765,0.02408035658299923,0.0003119489410892129,0.00035953824408352375,0.001718267216347158,0,2,-1000,0,0,0,-1,0,-2,1500.0
12:39:39.111,STABILIZE,-35.3632621,149.1652374,4,-0.0008043020498007536,0.0009668064885772765,0.02408035658299923,0.0003119489410892129,0.00035953824408352375,0.001718267216347158,0,2,-1000,0,0,0,-1,0,-2,1500.0
12:39:39.312,STABILIZE,-35.3632621,149.1652375,6,-0.0007271944195963442,0.0009700481896288693,0.02393481507897377,0.0003120384644716978,0.00026159139815717936,0.0017454669578000903,0,1,-1000,0,0,0,-1,0,-2,1500.0
12:39:39.514,STABILIZE,-35.3632621,149.1652375,6,-0.0007271944195963442,0.0009700481896288693,0.02393481507897377,0.0003120384644716978,0.00026159139815717936,0.0017454669578000903,0,1,-1000,0,0,0,-1,0,-2,1500.0
12:39:39.716,STABILIZE,-35.3632621,149.1652375,6,-0.0007271944195963442,0.0009700481896288693,0.02393481507897377,0.0003120384644716978,0.00026159139815717936,0.0017454669578000903,0,1,-1000,0,0,0,-1,0,-2,1500.0
12:39:39.918,STABILIZE,-35.3632621,149.1652375,6,-0.0007271944195963442,0.0009700481896288693,0.02393481507897377,0.0003120384644716978,0.00026159139815717936,0.0017454669578000903,0,1,-1000,0,0,0,-1,0,-2,1500.0
12:39:40.120,STABILIZE,-35.3632621,149.1652375,6,-0.0007271944195963442,0.0009700481896288693,0.02393481507897377,0.0003120384644716978,0.00026159139815717936,0.0017454669578000903,0,1,-1000,0,0,0,-1,0,-2,1500.0
12:39:40.321,STABILIZE,-35.3632621,149.1652375,6,-0.0007271944195963442,0.0009700481896288693,0.02393481507897377,0.0003120384644716978,0.00026159139815717936,0.0017454669578000903,0,1,-1000,0,0,0,-1,0,-2,1500.0
12:39:40.522,STABILIZE,-35.3632621,149.1652375,6,-0.0007271944195963442,0.0009700481896288693,0.02393481507897377,0.0003120384644716978,0.00026159139815717936,0.0017454669578000903,0,1,-1000,0,0,0,-1,0,-2,1500.0
12:39:40.724,STABILIZE,-35.3632621,149.1652375,6,-0.0007271944195963442,0.0009700481896288693,0.02393481507897377,0.0003120384644716978,0.00026159139815717936,0.0017454669578000903,0,1,-1000,0,0,0,-1,0,-2,1500.0
12:39:40.925,STABILIZE,-35.3632621,149.1652375,6,-0.0007271944195963442,0.0009700481896288693,0.02393481507897377,0.0003120384644716978,0.00026159139815717936,0.0017454669578000903,0,1,-1000,0,0,0,-1,0,-2,1500.0
12:39:41.126,STABILIZE,-35.3632621,149.1652375,6,-0.0007271944195963442,0.0009700481896288693,0.02393481507897377,0.0003120384644716978,0.00026159139815717936,0.0017454669578000903,0,1,-1000,0,0,0,-1,0,-2,1500.0
12:39:41.328,STABILIZE,-35.3632622,149.1652376,0,-0.0007271944195963442,0.0009700481896288693,0.02393481507897377,0.0003120384644716978,0.00026159139815717936,0.0017454669578000903,0,1,-1000,0,0,0,-1,4,2,1500.0
12:39:41.529,STABILIZE,-35.3632622,149.1652376,0,-0.0007271944195963442,0.0009700481896288693,0.02393481507897377,0.0003120384644716978,0.00026159139815717936,0.0017454669578000903,0,1,-1000,0,0,0,-1,4,2,1500.0
12:39:41.731,STABILIZE,-35.3632622,149.1652376,0,-0.0007271944195963442,0.0009700481896288693,0.02393481507897377,0.0003120384644716978,0.00026159139815717936,0.0017454669578000903,0,1,-1000,0,0,0,-1,4,2,1500.0
12:39:41.932,STABILIZE,-35.3632622,149.1652376,0,-0.0007271944195963442,0.0009700481896288693,0.02393481507897377,0.0003120384644716978,0.00026159139815717936,0.0017454669578000903,0,1,-1000,0,0,0,-1,4,2,1500.0
12:39:42.133,STABILIZE,-35.3632622,149.1652376,0,-0.0007271944195963442,0.0009700481896288693,0.02393481507897377,0.0003120384644716978,0.00026159139815717936,0.0017454669578000903,0,1,-1000,0,0,0,-1,4,2,1500.0
12:39:42.334,STABILIZE,-35.3632622,149.1652376,0,-0.0006119696190580726,0.0009821109706535935,0.0228229071944952,0.00033274246379733086,0.0002827302669174969,0.0016049593687057495,0,1,-1000,0,0,0,-1,3,2,1500.0
12:39:42.535,STABILIZE,-35.3632622,149.1652376,0,-0.0006119696190580726,0.0009821109706535935,0.0228229071944952,0.00033274246379733086,0.0002827302669174969,0.0016049593687057495,0,1,-1000,0,0,0,-1,3,2,1500.0
12:39:42.737,STABILIZE,-35.3632622,149.1652376,0,-0.0006119696190580726,0.0009821109706535935,0.0228229071944952,0.00033274246379733086,0.0002827302669174969,0.0016049593687057495,0,1,-1000,0,0,0,-1,3,2,1500.0
12:39:42.938,STABILIZE,-35.3632622,149.1652376,0,-0.0007844225037842989,0.0009816362289711833,0.022667966783046722,0.0002979081473313272,0.00024904037127271295,0.0015467936173081398,0,1,-1000,0,0,0,-1,2,1,1500.0
12:39:43.139,STABILIZE,-35.3632622,149.1652376,0,-0.0007844225037842989,0.0009816362289711833,0.022667966783046722,0.0002979081473313272,0.00024904037127271295,0.0015467936173081398,0,1,-1000,0,0,0,-1,2,1,1500.0
12:39:43.340,STABILIZE,-35.3632622,149.1652376,0,-0.0009030334767885506,0.0009694831678643823,0.02251620963215828,0.0002812610473483801,0.00024039088748395443,0.0016129282303154469,0,1,-1000,0,1,0,-1,2,1,1500.0
12:39:43.546,STABILIZE,-35.3632622,149.1652376,0,-0.0009030334767885506,0.0009694831678643823,0.02251620963215828,0.0002812610473483801,0.00024039088748395443,0.0016129282303154469,0,1,-1000,0,1,0,-1,2,1,1500.0
12:39:43.747,STABILIZE,-35.3632622,149.1652376,0,-0.0009030334767885506,0.0009694831678643823,0.02251620963215828,0.0002812610473483801,0.00024039088748395443,0.0016129282303154469,0,1,-1000,0,1,0,-1,2,1,1500.0
12:39:43.949,STABILIZE,-35.3632622,149.1652376,0,-0.0009030334767885506,0.0009694831678643823,0.02251620963215828,0.0002812610473483801,0.00024039088748395443,0.0016129282303154469,0,1,-1000,0,1,0,-1,2,1,1500.0
12:39:44.150,STABILIZE,-35.3632622,149.1652376,0,-0.0009030334767885506,0.0009694831678643823,0.02251620963215828,0.0002812610473483801,0.00024039088748395443,0.0016129282303154469,0,1,-1000,0,1,0,-1,2,1,1500.0
12:39:44.351,STABILIZE,-35.3632622,149.1652375,0,-0.001093583763577044,0.0009604789083823562,0.022274430841207504,0.0003021603333763778,0.000254009326454252,0.0015081969322636724,0,2,-1000,0,0,1,-1,1,1,1500.0
12:39:44.552,STABILIZE,-35.3632622,149.1652375,0,-0.0009635353344492614,0.0009541852050460875,0.02222461625933647,0.00024175923317670822,0.0003363381838425994,0.0015766846481710672,0,1,-1000,0,0,0,-1,1,1,1500.0
12:39:44.754,AUTO,-35.3632622,149.1652375,0,-0.0009635353344492614,0.0009541852050460875,0.02222461625933647,0.00024175923317670822,0.0003363381838425994,0.0015766846481710672,0,1,-1000,0,0,0,-1,1,1,1500.0
12:39:44.955,AUTO,-35.3632622,149.1652375,9,-0.0009974741842597723,0.0009570291149429977,0.022175271064043045,0.000240761146415025,0.00030911609064787626,0.0014212552923709154,0,1,-1000,0,0,0,-1,1,0,290009.0
12:39:45.157,AUTO,-35.3632622,149.1652375,8,-0.001024693250656128,0.0009622235666029155,0.022128071635961533,0.00014618114801123738,0.00024136906722560525,0.0015332159819081426,0,1,-1000,0,0,1,-1,1,0,290009.0
12:39:45.359,AUTO,-35.3632622,149.1652375,8,-0.0010391692630946636,0.0009618494659662247,0.02207253687083721,0.00016214477363973856,0.00019489886472001672,0.0015170148108154535,0,1,-1000,1,1,0,-1,1,0,290009.0
12:39:45.560,AUTO,-35.3632622,149.1652375,8,-0.0010391692630946636,0.0009618494659662247,0.02207253687083721,0.00016214477363973856,0.00019489886472001672,0.0015170148108154535,0,1,-1000,1,1,0,-1,1,0,290009.0
12:39:45.762,AUTO,-35.3632622,149.1652375,8,-0.0010391692630946636,0.0009618494659662247,0.02207253687083721,0.00016214477363973856,0.00019489886472001672,0.0015170148108154535,0,1,-1000,1,1,0,-1,1,0,290009.0
12:39:45.964,AUTO,-35.3632622,149.1652375,8,-0.0010391692630946636,0.0009618494659662247,0.02207253687083721,0.00016214477363973856,0.00019489886472001672,0.0015170148108154535,0,1,-1000,1,1,0,-1,1,0,290009.0
12:39:46.165,AUTO,-35.3632621,149.1652375,7,-0.0009928971994668245,0.0010539296781644225,0.021942535415291786,0.00024675705935806036,0.0003081376198679209,0.0015870581846684217,0,2,-1000,0,0,0,0,0,0,290009.0
12:39:46.366,AUTO,-35.3632621,149.1652375,7,-0.000957401585765183,0.0011096479138359427,0.0218811072409153,0.00028790102805942297,0.00028184568509459496,0.0014933288330212235,0,2,-1000,1,0,0,0,0,0,290009.0
12:39:46.568,AUTO,-35.3632621,149.1652375,8,-0.0009196772589348257,0.0011679347371682525,0.021819591522216797,0.0002363106468692422,0.0003665529075078666,0.0015033551026135683,0,1,-1000,1,0,1,0,0,0,290009.0
12:39:46.769,AUTO,-35.3632621,149.1652375,8,-0.0009196772589348257,0.0011679347371682525,0.021819591522216797,0.0002363106468692422,0.0003665529075078666,0.0015033551026135683,0,1,-1000,1,0,1,0,0,0,290009.0
12:39:46.971,AUTO,-35.3632621,149.1652375,8,-0.0008731925045140088,0.0012384230503812432,0.021763337776064873,0.00041229621274396777,0.00032265338813886046,0.0014327873941510916,0,2,-1000,1,1,0,0,0,0,290009.0
12:39:47.173,AUTO,-35.3632621,149.1652375,8,-0.0008321651257574558,0.0013057583710178733,0.021700961515307426,0.00020888203289359808,0.0003220238722860813,0.0014660890446975827,0,2,-1000,0,0,0,0,0,0,290009.0
12:39:47.374,AUTO,-35.3632621,149.1652375,8,-0.0007783512701280415,0.0013705564197152853,0.021646110340952873,0.00030938885174691677,0.00027807027800008655,0.0015063504688441753,0,1,-1000,1,0,0,0,0,0,290009.0
12:39:47.576,AUTO,-35.3632621,149.1652375,8,-0.0007783512701280415,0.0013705564197152853,0.021646110340952873,0.00030938885174691677,0.00027807027800008655,0.0015063504688441753,0,1,-1000,1,0,0,0,0,0,290009.0
12:39:47.778,AUTO,-35.3632621,149.1652375,8,-0.0007783512701280415,0.0013705564197152853,0.021646110340952873,0.00030938885174691677,0.00027807027800008655,0.0015063504688441753,0,1,-1000,1,0,0,0,0,0,290009.0
12:39:47.980,AUTO,-35.3632621,149.1652375,8,-0.0007783512701280415,0.0013705564197152853,0.021646110340952873,0.00030938885174691677,0.00027807027800008655,0.0015063504688441753,0,1,-1000,1,0,0,0,0,0,178857.0
12:39:48.182,AUTO,-35.3632621,149.1652374,10,-0.0004799703019671142,0.0015881048748269677,0.021455250680446625,0.00023721298202872276,0.00028306199237704277,0.0014390305150300264,0,1,-1000,0,0,0,0,0,0,178857.0
12:39:48.383,AUTO,-35.3632621,149.1652374,11,-0.0004151840112172067,0.0016652976628392935,0.02139183320105076,0.00032518134685233235,0.0003021027659997344,0.0014016146305948496,0,1,-1000,1,0,0,0,0,0,178857.0
12:39:48.585,AUTO,-35.3632621,149.1652374,12,-0.00035012056468985975,0.0017374387243762612,0.021327337250113487,0.00034863792825490236,0.00025890988763421774,0.0014258853625506163,0,2,-1000,1,0,0,0,0,0,178857.0
12:39:48.786,AUTO,-35.3632621,149.1652374,12,-0.00035012056468985975,0.0017374387243762612,0.021327337250113487,0.00034863792825490236,0.00025890988763421774,0.0014258853625506163,0,2,-1000,1,0,0,0,0,0,178857.0
12:39:48.988,AUTO,-35.3632621,149.1652374,36,0.0033654633443802595,-0.0002514776715543121,0.021571382880210876,0.004156222101300955,-0.007364881690591574,0.0019186788704246283,0,0,-1140,4,-6,1,0,0,-24,178857.0
12:39:49.189,AUTO,-35.3632621,149.1652375,141,0.0036974232643842697,-0.0002955040254164487,0.021521449089050293,-0.005070400424301624,0.004212311003357172,0.0011501660337671638,0,0,-1137,-4,4,0,0,0,-58,178857.0
12:39:49.391,AUTO,-35.3632621,149.1652375,326,0.0022958379704505205,0.0008462946279905736,0.02136494405567646,0.003806687891483307,0.003691492835059762,0.0028024923522025347,0,0,-1117,4,4,2,0,1,-89,178857.0
12:39:49.593,AUTO,-35.3632621,149.1652375,326,0.0022958379704505205,0.0008462946279905736,0.02136494405567646,0.003806687891483307,0.003691492835059762,0.0028024923522025347,0,0,-1117,4,4,2,0,1,-89,178857.0
12:39:49.796,AUTO,-35.3632621,149.1652375,326,0.0022958379704505205,0.0008462946279905736,0.02136494405567646,0.003806687891483307,0.003691492835059762,0.0028024923522025347,0,0,-1117,4,4,2,0,1,-89,178857.0
12:39:49.997,AUTO,-35.3632621,149.1652375,326,0.0022958379704505205,0.0008462946279905736,0.02136494405567646,0.003806687891483307,0.003691492835059762,0.0028024923522025347,0,0,-1117,4,4,2,0,1,-89,178857.0
12:39:50.199,AUTO,-35.3632621,149.1652375,1254,0.01704542525112629,-0.00037159628118388355,0.020472921431064606,0.04730067029595375,-0.006933646276593208,0.0014501559780910611,0,0,-1025,48,-6,0,0,3,-143,178857.0
12:39:50.400,AUTO,-35.363262,149.1652376,1628,0.028643924742937088,-0.002226360375061631,0.020467670634388924,0.04619043692946434,-0.007590628229081631,0.002321129199117422,0,0,-1010,46,-6,1,1,8,-147,178857.0
12:39:50.602,AUTO,-35.363262,149.1652379,2010,0.03974055498838425,-0.0042874072678387165,0.020607471466064453,0.04347231239080429,-0.008695981465280056,0.0028963610529899597,0,-2,-1004,44,-8,2,2,16,-149,178857.0
12:39:50.804,AUTO,-35.3632618,149.1652385,2395,0.05011683702468872,-0.0067188492976129055,0.02080196887254715,0.03983685001730919,-0.010310966521501541,0.003182081039994955,1,-4,-1001,40,-9,2,4,26,-149,121852.0
12:39:51.005,AUTO,-35.3632618,149.1652385,2395,0.05011683702468872,-0.0067188492976129055,0.02080196887254715,0.03983685001730919,-0.010310966521501541,0.003182081039994955,1,-4,-1001,40,-9,2,4,26,-149,121852.0
12:39:51.207,AUTO,-35.3632617,149.1652393,2781,0.05980606749653816,-0.00949163269251585,-0.005428503267467022,0.037260591983795166,-0.012055384926497936,0.003950232174247503,1,-6,-999,38,-11,3,7,37,-149,121852.0
12:39:51.409,AUTO,-35.3632614,149.1652405,3166,0.052526917308568954,0.0017557728569954634,-0.02019616775214672,-0.08523184806108475,0.10020269453525543,-0.11150162667036057,2,-10,-991,-84,100,-111,10,49,-147,121852.0
12:39:51.611,AUTO,-35.3632614,149.1652405,3166,0.052526917308568954,0.0017557728569954634,-0.02019616775214672,-0.08523184806108475,0.10020269453525543,-0.11150162667036057,2,-10,-991,-84,100,-111,10,49,-147,121852.0
12:39:51.813,AUTO,-35.3632614,149.1652405,3166,0.052526917308568954,0.0017557728569954634,-0.02019616775214672,-0.08523184806108475,0.10020269453525543,-0.11150162667036057,2,-10,-991,-84,100,-111,10,49,-147,121852.0
12:39:52.015,AUTO,-35.3632614,149.1652405,3166,0.052526917308568954,0.0017557728569954634,-0.02019616775214672,-0.08523184806108475,0.10020269453525543,-0.11150162667036057,2,-10,-991,-84,100,-111,10,49,-147,121852.0
12:39:52.217,AUTO,-35.3632609,149.1652445,4296,-0.032633885741233826,0.02266116440296173,-0.07697495073080063,-0.030339010059833527,-0.0068704113364219666,-0.06170553341507912,4,-9,-1008,-29,-6,-62,0,41,-149,121852.0
12:39:52.418,AUTO,-35.3632609,149.1652455,4680,-0.03891861438751221,0.01855611242353916,-0.08796334266662598,-0.03224204480648041,-0.021772800013422966,-0.03831350430846214,5,-8,-1002,-31,-21,-38,-4,29,-150,121852.0
12:39:52.620,AUTO,-35.3632609,149.1652461,5066,-0.05174582451581955,0.008539913222193718,-0.09086525440216064,-0.06505251675844193,-0.05003924295306206,-0.001457848004065454,4,-4,-999,-64,-49,-1,-6,17,-149,121852.0
12:39:52.822,AUTO,-35.3632611,149.1652464,5450,-0.06974851340055466,-0.006322258617728949,-0.08518722653388977,-0.0736827552318573,-0.06519162654876709,0.02591846138238907,3,0,-999,-72,-64,25,-6,1,-149,121852.0
12:39:53.024,AUTO,-35.3632611,149.1652464,5450,-0.06974851340055466,-0.006322258617728949,-0.08518722653388977,-0.0736827552318573,-0.06519162654876709,0.02591846138238907,3,0,-999,-72,-64,25,-6,1,-149,121852.0
12:39:53.226,AUTO,-35.3632612,149.1652461,5834,-0.07233431190252304,-0.013648219406604767,-0.08281201124191284,0.028713133186101913,-0.0050359503366053104,-0.0009137950837612152,0,2,-1003,29,-4,-1,-4,-17,-149,121852.0
12:39:53.429,AUTO,-35.3632613,149.1652455,6218,-0.0613287054002285,-0.013897065073251724,-0.08314509689807892,0.053057022392749786,-0.0005555692478083074,0.0015297724166885018,-2,5,-1001,53,0,1,-2,-33,-149,121852.0
12:39:53.631,AUTO,-35.3632613,149.1652455,6218,-0.0613287054002285,-0.013897065073251724,-0.08314509689807892,0.053057022392749786,-0.0005555692478083074,0.0015297724166885018,-2,5,-1001,53,0,1,-2,-33,-149,121852.0
12:39:53.833,AUTO,-35.3632613,149.1652455,6218,-0.0613287054002285,-0.013897065073251724,-0.08314509689807892,0.053057022392749786,-0.0005555692478083074,0.0015297724166885018,-2,5,-1001,53,0,1,-2,-33,-149,262628.0
12:39:54.036,AUTO,-35.3632613,149.1652455,6218,-0.0613287054002285,-0.013897065073251724,-0.08314509689807892,0.053057022392749786,-0.0005555692478083074,0.0015297724166885018,-2,5,-1001,53,0,1,-2,-33,-149,262628.0
12:39:54.238,AUTO,-35.3632613,149.1652416,7372,-0.016366012394428253,-0.008896452374756336,-0.08463525027036667,0.0644686296582222,0.012900378555059433,0.0035991824697703123,-7,9,-1002,65,13,3,1,-57,-150,262628.0
12:39:54.439,AUTO,-35.3632614,149.16524,7763,-0.00018070386431645602,-0.0052950200624763966,-0.08429291099309921,0.06478928029537201,0.014825074933469296,0.0039399839006364346,-7,8,-1003,65,15,3,1,-57,-151,262628.0
12:39:54.641,AUTO,-35.3632614,149.1652384,8151,0.01599714532494545,-0.0014623457100242376,-0.08363833278417587,0.06431415677070618,0.015147179365158081,0.004231454338878393,-8,11,-1003,64,15,3,0,-53,-152,262628.0
12:39:54.843,AUTO,-35.3632614,149.165237,8542,0.03190668299794197,0.002100421581417322,-0.08276466280221939,0.0642690658569336,0.013562959618866444,0.004280980676412582,-6,10,-1003,65,13,3,0,-45,-153,262628.0
12:39:55.045,AUTO,-35.3632614,149.1652359,8935,0.046613167971372604,0.005631106905639172,-0.08269102871417999,0.046501271426677704,0.021256612613797188,-0.009566547349095345,-6,10,-1001,47,21,-9,-1,-33,-153,262628.0
12:39:55.247,AUTO,-35.3632614,149.1652359,8935,0.046613167971372604,0.005631106905639172,-0.08269102871417999,0.046501271426677704,0.021256612613797188,-0.009566547349095345,-6,10,-1001,47,21,-9,-1,-33,-153,262628.0
12:39:55.448,AUTO,-35.3632614,149.1652351,9327,0.05403104051947594,0.01489738468080759,-0.08864766359329224,0.02145133726298809,0.043724484741687775,-0.035633113235235214,-4,7,-999,21,44,-36,-3,-19,-153,262628.0
12:39:55.652,AUTO,-35.3632614,149.1652351,9327,0.05403104051947594,0.01489738468080759,-0.08864766359329224,0.02145133726298809,0.043724484741687775,-0.035633113235235214,-4,7,-999,21,44,-36,-3,-19,-153,262628.0
12:39:55.855,AUTO,-35.3632614,149.1652351,9327,0.05403104051947594,0.01489738468080759,-0.08864766359329224,0.02145133726298809,0.043724484741687775,-0.035633113235235214,-4,7,-999,21,44,-36,-3,-19,-153,262628.0
12:39:56.058,AUTO,-35.3632619,149.1652347,10488,0.024438045918941498,0.007697166875004768,-0.09218892455101013,-0.058846570551395416,-0.02955409325659275,0.010756546631455421,2,0,-999,-58,-28,10,-10,12,-150,262628.0
12:39:56.260,AUTO,-35.3632619,149.1652347,10488,0.024438045918941498,0.007697166875004768,-0.09218892455101013,-0.058846570551395416,-0.02955409325659275,0.010756546631455421,2,0,-999,-58,-28,10,-10,12,-150,262628.0
12:39:56.462,AUTO,-35.3632621,149.1652349,10871,0.011002445593476295,0.0014560697600245476,-0.09073558449745178,-0.04860347509384155,-0.020816335454583168,0.007643600460141897,3,-1,-1001,-47,-20,7,-10,15,-150,262628.0
12:39:56.663,AUTO,-35.3632623,149.1652353,11256,0.0007399627356790006,-0.0030096594709903,-0.0904129296541214,-0.03316729515790939,-0.013963064178824425,-0.00011429641745053232,3,-2,-1002,-32,-13,0,-8,15,-150,262628.0
12:39:56.865,AUTO,-35.3632624,149.1652357,11642,-0.005854724440723658,-0.005651270505040884,-0.09189771860837936,-0.02150776982307434,-0.006856505759060383,-0.00747803645208478,3,0,-1001,-20,-6,-7,-5,13,-151,17741.0
12:39:57.066,AUTO,-35.3632625,149.165236,12028,-0.009482651948928833,-0.006852372549474239,-0.09507115185260773,-0.008518003858625889,-0.002133091911673546,-0.015731921419501305,2,-1,-1001,-7,-1,-16,-3,10,-151,17741.0
12:39:57.268,AUTO,-35.3632625,149.165236,12028,-0.009482651948928833,-0.006852372549474239,-0.09507115185260773,-0.008518003858625889,-0.002133091911673546,-0.015731921419501305,2,-1,-1001,-7,-1,-16,-3,10,-151,17741.0
12:39:57.469,AUTO,-35.3632626,149.1652362,12419,-0.009998435154557228,-0.0066886902786791325,-0.09998524188995361,0.002154772402718663,0.002100192243233323,-0.019442420452833176,1,-1,-1001,2,2,-19,-1,6,-152,17741.0
12:39:57.671,AUTO,-35.3632626,149.1652362,12419,-0.009998435154557228,-0.0066886902786791325,-0.09998524188995361,0.002154772402718663,0.002100192243233323,-0.019442420452833176,1,-1,-1001,2,2,-19,-1,6,-152,17741.0
12:39:57.873,AUTO,-35.3632626,149.1652362,12419,-0.009998435154557228,-0.0066886902786791325,-0.09998524188995361,0.002154772402718663,0.002100192243233323,-0.019442420452833176,1,-1,-1001,2,2,-19,-1,6,-152,17741.0
12:39:58.075,AUTO,-35.3632625,149.1652363,13582,-0.004261427093297243,-0.0038040815852582455,-0.11748553067445755,0.013848620466887951,0.007038304582238197,-0.02280166558921337,-1,0,-1000,14,7,-23,3,-1,-152,17741.0
12:39:58.276,AUTO,-35.3632625,149.1652363,13582,-0.004261427093297243,-0.0038040815852582455,-0.11748553067445755,0.013848620466887951,0.007038304582238197,-0.02280166558921337,-1,0,-1000,14,7,-23,3,-1,-152,17741.0
12:39:58.478,AUTO,-35.3632624,149.1652362,13972,-0.0012264500837773085,-0.0020630161743611097,-0.12362456321716309,0.011465197429060936,0.006656335201114416,-0.021817822009325027,-1,0,-1000,12,6,-22,4,-3,-152,17741.0
12:39:58.679,AUTO,-35.3632623,149.1652361,14362,0.001506445580162108,-0.0003473868127912283,-0.12957030534744263,0.009200336411595345,0.007551020942628384,-0.022212844341993332,-1,0,-1000,9,8,-22,4,-4,-152,17741.0
12:39:58.881,AUTO,-35.3632622,149.165236,14751,0.003897924441844225,0.001482160179875791,-0.13534821569919586,0.010031298734247684,0.007993482984602451,-0.021983865648508072,-2,0,-1000,10,8,-22,4,-3,-152,17741.0
12:39:59.082,AUTO,-35.3632621,149.1652358,15141,0.005879456177353859,0.0033193444833159447,-0.1409919112920761,0.008645504713058472,0.007582029327750206,-0.020970623940229416,-2,0,-1000,9,8,-21,4,-3,-152,17741.0
12:39:59.284,AUTO,-35.3632621,149.1652358,15141,0.005879456177353859,0.0033193444833159447,-0.1409919112920761,0.008645504713058472,0.007582029327750206,-0.020970623940229416,-2,0,-1000,9,8,-21,4,-3,-152,17741.0
12:39:59.486,AUTO,-35.363262,149.1652357,15531,0.0071669225580990314,0.004992846865206957,-0.14641518890857697,0.00424247095361352,0.0061764223501086235,-0.020252937451004982,-1,0,-1000,4,6,-20,3,-2,-152,17741.0
12:39:59.687,AUTO,-35.363262,149.1652357,15531,0.0071669225580990314,0.004992846865206957,-0.14641518890857697,0.00424247095361352,0.0061764223501086235,-0.020252937451004982,-1,0,-1000,4,6,-20,3,-2,-152,17741.0
12:39:59.889,AUTO,-35.363262,149.1652357,15531,0.0071669225580990314,0.004992846865206957,-0.14641518890857697,0.00424247095361352,0.0061764223501086235,-0.020252937451004982,-1,0,-1000,4,6,-20,3,-2,-152,161960.0
12:40:00.091,AUTO,-35.3632617,149.1652355,16699,0.008090812712907791,0.00700858561322093,-0.15981391072273254,-0.00021062034647911787,0.0016163577092811465,-0.013134687207639217,-1,0,-1000,0,2,-13,0,1,-152,161960.0
12:40:00.293,AUTO,-35.3632617,149.1652355,16699,0.008090812712907791,0.00700858561322093,-0.15981391072273254,-0.00021062034647911787,0.0016163577092811465,-0.013134687207639217,-1,0,-1000,0,2,-13,0,1,-152,161960.0
12:40:00.494,AUTO,-35.3632616,149.1652355,17092,0.0077349478378891945,0.006976346019655466,-0.16356885433197021,-0.0023269765079021454,-0.0011102199787274003,-0.012173031456768513,0,0,-999,-1,0,-12,0,3,-152,161960.0
12:40:00.696,AUTO,-35.3632616,149.1652355,17481,0.00702072074636817,0.006670465227216482,-0.16716215014457703,-0.006467987783253193,-0.0012175559531897306,-0.01455394271761179,0,0,-999,-5,0,-15,-1,4,-152,161960.0
12:40:00.897,AUTO,-35.3632616,149.1652355,17870,-0.004212447442114353,0.006176444236189127,-0.17066919803619385,-0.06869766861200333,-0.0011324546067044139,-0.015537096187472343,0,0,-996,-67,0,-15,-1,4,-152,161960.0
12:40:01.099,AUTO,-35.3632616,149.1652355,18256,-0.024238640442490578,0.005532612092792988,-0.17444248497486115,-0.08412372320890427,-0.0005731793353334069,-0.01696908473968506,0,0,-997,-83,0,-17,-3,0,-151,161960.0
12:40:01.301,AUTO,-35.3632616,149.1652354,18639,-0.04451849311590195,0.007054623682051897,-0.1746962070465088,-0.058396391570568085,0.033341675996780396,0.05292971059679985,0,0,-989,-57,34,52,-5,-9,-149,161960.0
12:40:01.502,AUTO,-35.3632616,149.1652354,18639,-0.04451849311590195,0.007054623682051897,-0.1746962070465088,-0.058396391570568085,0.033341675996780396,0.05292971059679985,0,0,-989,-57,34,52,-5,-9,-149,161960.0
12:40:01.704,AUTO,-35.3632616,149.1652354,18639,-0.04451849311590195,0.007054623682051897,-0.1746962070465088,-0.058396391570568085,0.033341675996780396,0.05292971059679985,0,0,-989,-57,34,52,-5,-9,-149,161960.0
12:40:01.906,AUTO,-35.3632616,149.1652354,18639,-0.04451849311590195,0.007054623682051897,-0.1746962070465088,-0.058396391570568085,0.033341675996780396,0.05292971059679985,0,0,-989,-57,34,52,-5,-9,-149,161960.0
12:40:02.108,AUTO,-35.3632625,149.1652333,19719,-0.015624487772583961,0.03020751103758812,0.04774179682135582,0.1339379847049713,-0.15635359287261963,0.2066616415977478,1,9,-956,134,-155,206,-30,-35,-129,161960.0
12:40:02.310,AUTO,-35.3632631,149.1652323,20034,0.018342282623052597,-0.008456777781248093,0.07669157534837723,0.1274326890707016,-0.13297756016254425,0.043119944632053375,4,10,-956,128,-131,42,-31,-33,-118,161960.0
12:40:02.511,AUTO,-35.3632631,149.1652323,20034,0.018342282623052597,-0.008456777781248093,0.07669157534837723,0.1274326890707016,-0.13297756016254425,0.043119944632053375,4,10,-956,128,-131,42,-31,-33,-118,161960.0
12:40:02.713,AUTO,-35.3632637,149.1652314,20322,0.0442240834236145,-0.031149547547101974,0.07594746351242065,0.07974963635206223,-0.06043167784810066,-0.03201105818152428,3,10,-960,80,-59,-32,-25,-23,-107,161960.0
12:40:02.915,AUTO,-35.3632642,149.1652309,20583,0.05790552869439125,-0.038389671593904495,0.0654895231127739,0.030683984979987144,-0.011063195765018463,-0.046087224036455154,1,6,-963,31,-10,-46,-17,-9,-97,291817.0
12:40:03.117,AUTO,-35.3632644,149.1652308,20821,0.06066800653934479,-0.03720398247241974,0.05617128312587738,-0.004040062893182039,0.01133586373180151,-0.03252357989549637,1,1,-966,-2,12,-32,-8,5,-88,291817.0
12:40:03.319,AUTO,-35.3632645,149.1652309,21038,0.05583718791604042,-0.03201644495129585,0.05052834004163742,-0.02591540478169918,0.024693230167031288,-0.01594153605401516,1,-2,-970,-25,25,-16,0,18,-80,291817.0
12:40:03.521,AUTO,-35.3632645,149.1652309,21038,0.05583718791604042,-0.03201644495129585,0.05052834004163742,-0.02591540478169918,0.024693230167031288,-0.01594153605401516,1,-2,-970,-25,25,-16,0,18,-80,291817.0
12:40:03.723,AUTO,-35.3632645,149.1652309,21038,0.05583718791604042,-0.03201644495129585,0.05052834004163742,-0.02591540478169918,0.024693230167031288,-0.01594153605401516,1,-2,-970,-25,25,-16,0,18,-80,291817.0
12:40:03.925,AUTO,-35.3632645,149.1652309,21038,0.05583718791604042,-0.03201644495129585,0.05052834004163742,-0.02591540478169918,0.024693230167031288,-0.01594153605401516,1,-2,-970,-25,25,-16,0,18,-80,291817.0
12:40:04.127,AUTO,-35.3632639,149.1652333,21567,0.02327702008187771,-0.007004878018051386,0.04709438979625702,-0.03617482632398605,0.03324652835726738,0.0027321428060531616,0,-9,-975,-35,34,2,15,40,-60,291817.0
12:40:04.328,AUTO,-35.3632635,149.1652344,21711,0.012927495874464512,0.0004158214433118701,0.046602267771959305,-0.04205683246254921,0.027341334149241447,0.0008213412947952747,0,-10,-976,-41,28,0,17,41,-54,291817.0
12:40:04.530,AUTO,-35.3632635,149.1652344,21711,0.012927495874464512,0.0004158214433118701,0.046602267771959305,-0.04205683246254921,0.027341334149241447,0.0008213412947952747,0,-10,-976,-41,28,0,17,41,-54,291817.0
12:40:04.732,AUTO,-35.3632631,149.1652354,21840,0.0039058562833815813,0.00630404194816947,0.04587342217564583,-0.036869972944259644,0.021587669849395752,0.0025366474874317646,0,-10,-977,-36,22,2,17,40,-48,291817.0
12:40:04.933,AUTO,-35.3632626,149.1652365,21956,-0.003096583765000105,0.010611752048134804,0.0452144518494606,-0.015231882221996784,0.015157753601670265,0.002084656385704875,0,-9,-977,-14,16,1,15,37,-42,291817.0
12:40:05.135,AUTO,-35.3632623,149.1652374,22055,-0.007947666570544243,0.013417095877230167,0.044649314135313034,-0.01693315990269184,0.009055322036147118,-0.0011415064800530672,0,-9,-977,-16,9,-1,13,32,-37,291817.0
12:40:05.337,AUTO,-35.3632619,149.1652382,22139,-0.011147767305374146,0.014723329804837704,0.04414543882012367,-0.023819949477910995,0.0032385019585490227,-0.0003093235136475414,0,-7,-975,-22,4,0,11,27,-31,291817.0
12:40:05.539,AUTO,-35.3632619,149.1652382,22139,-0.011147767305374146,0.014723329804837704,0.04414543882012367,-0.023819949477910995,0.0032385019585490227,-0.0003093235136475414,0,-7,-975,-22,4,0,11,27,-31,291817.0
12:40:05.740,AUTO,-35.3632619,149.1652382,22139,-0.011147767305374146,0.014723329804837704,0.04414543882012367,-0.023819949477910995,0.0032385019585490227,-0.0003093235136475414,0,-7,-975,-22,4,0,11,27,-31,291817.0
12:40:05.942,AUTO,-35.3632619,149.1652382,22139,-0.011147767305374146,0.014723329804837704,0.04414543882012367,-0.023819949477910995,0.0032385019585490227,-0.0003093235136475414,0,-7,-975,-22,4,0,11,27,-31,111135.0
12:40:06.144,AUTO,-35.3632613,149.1652398,22290,-0.013163149356842041,0.012644941918551922,0.04210606589913368,-0.03947354853153229,-0.005332553759217262,-0.0029637208208441734,0,-6,-969,-38,-4,-3,3,13,-10,111135.0
12:40:06.345,AUTO,-35.3632612,149.1652401,22303,-0.014451442286372185,0.011466451920568943,0.041426561772823334,-0.08571130037307739,0.008692331612110138,-0.0022650486789643764,0,-2,-964,-84,9,-2,1,8,-2,111135.0
12:40:06.547,AUTO,-35.3632612,149.1652401,22303,-0.014451442286372185,0.011466451920568943,0.041426561772823334,-0.08571130037307739,0.008692331612110138,-0.0022650486789643764,0,-2,-964,-84,9,-2,1,8,-2,111135.0
12:40:06.751,AUTO,-35.3632612,149.1652402,22283,-0.04107971489429474,0.025158515200018883,0.03982023522257805,0.3707541525363922,-0.001466971356421709,-0.0033458939287811518,0,8,-960,371,0,-3,-2,0,13,111135.0
12:40:06.953,AUTO,-35.3632613,149.16524,22235,-0.04284084215760231,0.0181930810213089,0.039276838302612305,-0.5254373550415039,-0.03744081035256386,-0.0073764934204518795,0,-31,-970,-525,-36,-7,-6,-12,21,111135.0
12:40:07.154,AUTO,-35.3632613,149.1652396,22177,-0.04744817689061165,0.012271848507225513,0.038382839411497116,-0.7193818688392639,-0.014857970178127289,-0.008568404242396355,-2,-21,-1028,-718,-14,-8,-9,-21,19,111135.0
12:40:07.356,AUTO,-35.3632615,149.1652389,22130,-0.04413021355867386,0.00839976780116558,0.03737431392073631,-0.09876132756471634,-0.007373322732746601,-0.007722632493823767,-1,22,-1014,-96,-6,-7,-11,-28,14,111135.0
12:40:07.558,AUTO,-35.3632615,149.1652389,22130,-0.04413021355867386,0.00839976780116558,0.03737431392073631,-0.09876132756471634,-0.007373322732746601,-0.007722632493823767,-1,22,-1014,-96,-6,-7,-11,-28,14,111135.0
12:40:07.759,AUTO,-35.3632615,149.1652389,22130,-0.04413021355867386,0.00839976780116558,0.03737431392073631,-0.09876132756471634,-0.007373322732746601,-0.007722632493823767,-1,22,-1014,-96,-6,-7,-11,-28,14,111135.0
12:40:07.961,AUTO,-35.3632615,149.1652389,22130,-0.04413021355867386,0.00839976780116558,0.03737431392073631,-0.09876132756471634,-0.007373322732746601,-0.007722632493823767,-1,22,-1014,-96,-6,-7,-11,-28,14,111135.0
12:40:08.162,AUTO,-35.3632624,149.1652353,22052,-0.036372773349285126,0.0022218027152121067,0.03612928092479706,0.30989307165145874,-0.0032008071430027485,-0.004123273771256208,-4,17,-1045,309,-2,-4,-16,-54,0,111135.0
12:40:08.364,AUTO,-35.3632627,149.1652336,22047,-0.050337471067905426,0.001356046530418098,0.03368040546774864,-0.5493672490119934,0.0020032660104334354,-0.043015751987695694,-7,-7,-1017,-549,3,-43,-17,-63,-2,111135.0
12:40:08.566,AUTO,-35.3632631,149.1652315,22049,-0.06106284633278847,-0.003049358958378434,-0.03636917844414711,-0.36511367559432983,0.012497685849666595,-0.5365845561027527,-9,16,-1006,-363,13,-536,-18,-72,-3,111135.0
12:40:08.767,AUTO,-35.3632631,149.1652315,22049,-0.06106284633278847,-0.003049358958378434,-0.03636917844414711,-0.36511367559432983,0.012497685849666595,-0.5365845561027527,-9,16,-1006,-363,13,-536,-18,-72,-3,111135.0
12:40:08.969,AUTO,-35.3632635,149.1652291,22054,-0.058037158101797104,-0.01730155572295189,-0.2560739815235138,0.36381590366363525,-0.04102277010679245,-1.1894639730453491,-11,52,-992,365,-40,-1189,-20,-82,-4,252298.0
12:40:09.171,AUTO,-35.363264,149.1652264,22061,-0.0523076131939888,-0.041138943284749985,-0.5916719436645508,0.42751389741897583,-0.04095645993947983,-1.3128994703292847,-21,28,-1015,428,-39,-1312,-22,-96,-6,252298.0
12:40:09.373,AUTO,-35.3632646,149.1652232,22071,-0.05195748433470726,-0.06387626379728317,-0.9023857712745667,-0.3453413248062134,-0.019634658470749855,-1.171074628829956,-28,-11,-1005,-345,-18,-1170,-25,-111,-7,252298.0
12:40:09.575,AUTO,-35.3632646,149.1652232,22071,-0.05195748433470726,-0.06387626379728317,-0.9023857712745667,-0.3453413248062134,-0.019634658470749855,-1.171074628829956,-28,-11,-1005,-345,-18,-1170,-25,-111,-7,252298.0
12:40:09.778,AUTO,-35.3632646,149.1652232,22071,-0.05195748433470726,-0.06387626379728317,-0.9023857712745667,-0.3453413248062134,-0.019634658470749855,-1.171074628829956,-28,-11,-1005,-345,-18,-1170,-25,-111,-7,252298.0
12:40:09.980,AUTO,-35.3632646,149.1652232,22071,-0.05195748433470726,-0.06387626379728317,-0.9023857712745667,-0.3453413248062134,-0.019634658470749855,-1.171074628829956,-28,-11,-1005,-345,-18,-1170,-25,-111,-7,252298.0
12:40:10.182,AUTO,-35.3632666,149.1652109,22108,0.013647852465510368,-0.11529530584812164,-1.6737089157104492,0.381623238325119,-0.035597555339336395,-0.7956401109695435,-43,1,-1019,383,-34,-795,-35,-166,-8,252298.0
12:40:10.384,AUTO,-35.3632675,149.1652056,22124,0.036999862641096115,-0.12608234584331512,-1.7993383407592773,0.38458725810050964,-0.03856777772307396,-0.24572741985321045,-37,-16,-1012,385,-37,-245,-40,-188,-9,252298.0
12:40:10.586,AUTO,-35.3632685,149.1651996,22142,0.03433367982506752,-0.14130796492099762,-1.813107967376709,-0.32932573556900024,-0.06981115788221359,0.09389042109251022,-43,-49,-1008,-328,-68,93,-45,-214,-10,252298.0
12:40:10.789,AUTO,-35.3632685,149.1651996,22142,0.03433367982506752,-0.14130796492099762,-1.813107967376709,-0.32932573556900024,-0.06981115788221359,0.09389042109251022,-43,-49,-1008,-328,-68,93,-45,-214,-10,252298.0
12:40:10.991,AUTO,-35.3632696,149.165193,22160,0.03313937783241272,-0.1532948911190033,-1.7812687158584595,-0.09932224452495575,-0.03370659798383713,0.1500343382358551,-49,-27,-1011,-97,-32,149,-49,-241,-10,252298.0
12:40:11.194,AUTO,-35.3632707,149.1651856,22182,0.036552708595991135,-0.1563054621219635,-1.7467570304870605,0.32061663269996643,0.01874629035592079,0.10372255742549896,-52,-20,-1011,322,19,103,-53,-270,-12,252298.0
12:40:11.396,AUTO,-35.3632719,149.1651774,22207,0.03494526818394661,-0.15439613163471222,-1.7266700267791748,0.02077965810894966,0.0007750276126898825,0.06031879037618637,-62,-45,-1008,21,1,60,-58,-296,-13,252298.0
12:40:11.598,AUTO,-35.3632719,149.1651774,22207,0.03494526818394661,-0.15439613163471222,-1.7266700267791748,0.02077965810894966,0.0007750276126898825,0.06031879037618637,-62,-45,-1008,21,1,60,-58,-296,-13,252298.0
12:40:11.800,AUTO,-35.3632719,149.1651774,22207,0.03494526818394661,-0.15439613163471222,-1.7266700267791748,0.02077965810894966,0.0007750276126898825,0.06031879037618637,-62,-45,-1008,21,1,60,-58,-296,-13,252298.0
12:40:12.002,AUTO,-35.3632719,149.1651774,22207,0.03494526818394661,-0.15439613163471222,-1.7266700267791748,0.02077965810894966,0.0007750276126898825,0.06031879037618637,-62,-45,-1008,21,1,60,-58,-296,-13,298370.0
12:40:12.204,AUTO,-35.3632762,149.1651493,22301,0.044695690274238586,-0.1804252564907074,-1.7272167205810547,0.15847426652908325,-0.033200934529304504,-0.020316163077950478,-74,-42,-1001,159,-32,-20,-70,-372,-14,298370.0
12:40:12.406,AUTO,-35.3632779,149.1651385,22335,0.0446135438978672,-0.18644651770591736,-1.7308429479599,-0.11731892824172974,-0.02108984813094139,-0.0064849695190787315,-81,-62,-1006,-116,-20,-6,-75,-400,-15,298370.0
12:40:12.608,AUTO,-35.3632797,149.165127,22371,0.048019539564847946,-0.19373191893100739,-1.732865333557129,0.02855786308646202,-0.03324989229440689,-0.001716370927169919,-89,-52,-1007,30,-32,-2,-79,-427,-16,298370.0
12:40:12.810,AUTO,-35.3632815,149.165115,22411,0.0537622831761837,-0.19713616371154785,-1.7343206405639648,0.0426936037838459,-0.005112333223223686,-0.0023826248943805695,-95,-57,-1007,44,-4,-2,-85,-453,-17,298370.0
12:40:13.012,AUTO,-35.3632815,149.165115,22411,0.0537622831761837,-0.19713616371154785,-1.7343206405639648,0.0426936037838459,-0.005112333223223686,-0.0023826248943805695,-95,-57,-1007,44,-4,-2,-85,-453,-17,298370.0
12:40:13.214,AUTO,-35.3632835,149.1651022,22455,0.05339878797531128,-0.19202400743961334,-1.7346093654632568,-0.049518976360559464,0.01967916637659073,0.006710052490234375,-88,-60,-1008,-48,20,6,-88,-480,-19,298370.0
12:40:13.416,AUTO,-35.3632855,149.1650886,22505,0.05584229528903961,-0.17940200865268707,-1.7342915534973145,-0.003240999300032854,0.03945339098572731,0.0013232623459771276,-98,-60,-1013,-1,40,1,-92,-503,-22,298370.0
12:40:13.618,AUTO,-35.3632855,149.1650886,22505,0.05584229528903961,-0.17940200865268707,-1.7342915534973145,-0.003240999300032854,0.03945339098572731,0.0013232623459771276,-98,-60,-1013,-1,40,1,-92,-503,-22,298370.0
12:40:13.821,AUTO,-35.3632855,149.1650886,22505,0.05584229528903961,-0.17940200865268707,-1.7342915534973145,-0.003240999300032854,0.03945339098572731,0.0013232623459771276,-98,-60,-1013,-1,40,1,-92,-503,-22,298370.0
12:40:14.023,AUTO,-35.3632855,149.1650886,22505,0.05584229528903961,-0.17940200865268707,-1.7342915534973145,-0.003240999300032854,0.03945339098572731,0.0013232623459771276,-98,-60,-1013,-1,40,1,-92,-503,-22,298370.0
12:40:14.225,AUTO,-35.363292,149.1650451,22696,0.06043301150202751,-0.1748141050338745,-1.7347320318222046,0.04155150428414345,0.001989054959267378,-0.01307555753737688,-116,-64,-998,43,2,-13,-101,-554,-26,298370.0
12:40:14.426,AUTO,-35.3632943,149.1650297,22763,0.06483335793018341,-0.16973541676998138,-1.7353144884109497,0.004606451839208603,0.033974539488554,-0.006041412241756916,-102,-54,-993,6,34,-6,-103,-569,-26,298370.0
12:40:14.629,AUTO,-35.3632967,149.1650138,22833,0.06338024884462357,-0.1598082333803177,-1.7351824045181274,-0.006741186138242483,0.03561285883188248,-0.0007743825553916395,-117,-64,-1000,-5,36,0,-104,-582,-28,298370.0
12:40:14.831,AUTO,-35.363299,149.1649977,22907,0.06167902797460556,-0.1530437469482422,-1.7348953485488892,0.03325815126299858,0.009769032709300518,0.0024724677205085754,-129,-56,-999,34,10,2,-105,-593,-29,298370.0
12:40:15.032,AUTO,-35.363299,149.1649977,22907,0.06167902797460556,-0.1530437469482422,-1.7348953485488892,0.03325815126299858,0.009769032709300518,0.0024724677205085754,-129,-56,-999,34,10,2,-105,-593,-29,233257.0
12:40:15.234,AUTO,-35.3633014,149.1649814,22983,0.06406530737876892,-0.15363992750644684,-1.7356407642364502,0.015689048916101456,-0.001987897325307131,-0.009452885016798973,-128,-60,-988,17,-1,-9,-107,-601,-29,233257.0
12:40:15.436,AUTO,-35.3633039,149.1649648,23057,0.06599936634302139,-0.14861440658569336,-1.7366416454315186,-0.011720330454409122,0.039123907685279846,-0.004974979441612959,-109,-83,-991,-10,39,-5,-109,-609,-28,233257.0
12:40:15.638,AUTO,-35.3633039,149.1649648,23057,0.06599936634302139,-0.14861440658569336,-1.7366416454315186,-0.011720330454409122,0.039123907685279846,-0.004974979441612959,-109,-83,-991,-10,39,-5,-109,-609,-28,233257.0
12:40:15.840,AUTO,-35.3633039,149.1649648,23057,0.06599936634302139,-0.14861440658569336,-1.7366416454315186,-0.011720330454409122,0.039123907685279846,-0.004974979441612959,-109,-83,-991,-10,39,-5,-109,-609,-28,233257.0
12:40:16.042,AUTO,-35.3633039,149.1649648,23057,0.06599936634302139,-0.14861440658569336,-1.7366416454315186,-0.011720330454409122,0.039123907685279846,-0.004974979441612959,-109,-83,-991,-10,39,-5,-109,-609,-28,233257.0
12:40:16.245,AUTO,-35.3633115,149.164914,23290,0.07295303046703339,-0.12583255767822266,-1.736764669418335,-0.012716306373476982,0.022232510149478912,0.0036633817944675684,-119,-66,-981,-11,23,3,-110,-618,-29,233257.0
12:40:16.446,AUTO,-35.363314,149.1648969,23366,0.07298333942890167,-0.11462640762329102,-1.7364311218261719,-0.06729387491941452,0.052941303700208664,0.005080333445221186,-126,-61,-993,-66,53,4,-109,-618,-29,233257.0
12:40:16.648,AUTO,-35.3633166,149.1648796,23444,0.07503259181976318,-0.10755369067192078,-1.736752986907959,0.05708880349993706,-0.002686587627977133,-0.006517473142594099,-125,-68,-987,58,-1,-6,-109,-617,-29,233257.0
12:40:16.850,AUTO,-35.3633191,149.1648626,23517,0.07411139458417892,-0.11423539370298386,-1.7375571727752686,-0.01774018257856369,-0.04940635338425636,-0.005648934282362461,-128,-65,-975,-16,-48,-5,-108,-614,-25,233257.0
12:40:17.053,AUTO,-35.3633215,149.1648456,23581,0.0715012326836586,-0.1129845604300499,-1.7379196882247925,-0.023961540311574936,0.02848244644701481,-0.002490801503881812,-122,-69,-988,-22,29,-2,-107,-613,-23,233257.0
12:40:17.255,AUTO,-35.3633215,149.1648456,23581,0.0715012326836586,-0.1129845604300499,-1.7379196882247925,-0.023961540311574936,0.02848244644701481,-0.002490801503881812,-122,-69,-988,-22,29,-2,-107,-613,-23,233257.0
12:40:17.457,AUTO,-35.3633239,149.1648288,23644,0.07053729146718979,-0.1012955829501152,-1.737899899482727,0.0018691157456487417,0.06279871612787247,0.000730366911739111,-113,-68,-993,3,63,0,-107,-611,-23,233257.0
12:40:17.665,AUTO,-35.3633239,149.1648288,23644,0.07053729146718979,-0.1012955829501152,-1.737899899482727,0.0018691157456487417,0.06279871612787247,0.000730366911739111,-113,-68,-993,3,63,0,-107,-611,-23,233257.0
12:40:17.867,AUTO,-35.3633239,149.1648288,23644,0.07053729146718979,-0.1012955829501152,-1.737899899482727,0.0018691157456487417,0.06279871612787247,0.000730366911739111,-113,-68,-993,3,63,0,-107,-611,-23,233257.0
12:40:18.069,AUTO,-35.363331,149.1647792,23854,0.06617887318134308,-0.06061045080423355,-1.7366355657577515,-0.011626165360212326,0.026171831414103508,0.0014128643088042736,-119,-70,-984,-10,27,1,-102,-584,-25,258959.0
12:40:18.271,AUTO,-35.363331,149.1647792,23854,0.06617887318134308,-0.06061045080423355,-1.7366355657577515,-0.011626165360212326,0.026171831414103508,0.0014128643088042736,-119,-70,-984,-10,27,1,-102,-584,-25,258959.0
12:40:18.472,AUTO,-35.3633333,149.1647634,23923,0.06701789796352386,-0.05202263966202736,-1.7370104789733887,0.0074384151957929134,0.037907857447862625,-0.004237571731209755,-119,-59,-985,8,38,-4,-100,-570,-23,258959.0
12:40:18.674,AUTO,-35.3633356,149.1647478,23988,0.07025295495986938,-0.03671079874038696,-1.7373974323272705,-0.001475870842114091,0.0753854438662529,-3.514194395393133e-05,-107,-74,-989,0,76,0,-99,-555,-22,258959.0
12:40:18.876,AUTO,-35.3633378,149.1647326,24052,0.06968504190444946,-0.01895807310938835,-1.7373559474945068,-0.043865617364645004,0.05803699418902397,0.0010450227418914437,-106,-70,-992,-42,58,0,-95,-538,-22,258959.0
12:40:19.078,AUTO,-35.3633399,149.164718,24113,0.0663825124502182,-0.007495185360312462,-1.7372103929519653,-0.003371794242411852,0.049950044602155685,-0.0007815099088475108,-108,-67,-990,-1,50,0,-91,-517,-20,258959.0
12:40:19.282,AUTO,-35.3633399,149.164718,24113,0.0663825124502182,-0.007495185360312462,-1.7372103929519653,-0.003371794242411852,0.049950044602155685,-0.0007815099088475108,-108,-67,-990,-1,50,0,-91,-517,-20,258959.0
12:40:19.484,AUTO,-35.3633419,149.164704,24169,0.06527858972549438,0.0003274153277743608,-1.737173318862915,0.007266468834131956,0.01882070302963257,0.0011486116563901305,-99,-63,-984,8,19,0,-87,-494,-17,258959.0
12:40:19.689,AUTO,-35.3633419,149.164704,24169,0.06527858972549438,0.0003274153277743608,-1.737173318862915,0.007266468834131956,0.01882070302963257,0.0011486116563901305,-99,-63,-984,8,19,0,-87,-494,-17,258959.0
12:40:19.892,AUTO,-35.3633419,149.164704,24169,0.06527858972549438,0.0003274153277743608,-1.737173318862915,0.007266468834131956,0.01882070302963257,0.0011486116563901305,-99,-63,-984,8,19,0,-87,-494,-17,258959.0
12:40:20.094,AUTO,-35.3633473,149.1646661,24302,0.0584498755633831,0.03583423048257828,-1.7364418506622314,0.01987532526254654,0.05567420646548271,-0.000872268807142973,-81,-54,-994,21,56,0,-73,-418,-10,258959.0
12:40:20.296,AUTO,-35.3633473,149.1646661,24302,0.0584498755633831,0.03583423048257828,-1.7364418506622314,0.01987532526254654,0.05567420646548271,-0.000872268807142973,-81,-54,-994,21,56,0,-73,-418,-10,258959.0
12:40:20.498,AUTO,-35.3633488,149.164655,24337,0.057195961475372314,0.048934295773506165,-1.7369236946105957,0.11895518004894257,0.0377705879509449,-0.0045716045424342155,-78,-51,-991,120,38,-4,-68,-388,-9,258959.0
12:40:20.699,AUTO,-35.3633502,149.1646447,24366,0.04573047161102295,0.059852223843336105,-1.7366873025894165,-0.37723472714424133,0.028626518324017525,0.016211625188589096,-72,-66,-993,-376,29,16,-62,-358,-7,258959.0
12:40:20.906,AUTO,-35.3633514,149.1646352,24389,0.03453177213668823,0.062101442366838455,-1.7374320030212402,-0.28288018703460693,-0.0006281802197918296,0.0015305336564779282,-64,-38,-987,-280,0,1,-55,-327,-3,258959.0
12:40:21.111,AUTO,-35.3633526,149.1646265,24399,0.03641020506620407,0.06497213244438171,-1.7368630170822144,0.4332009553909302,0.01902390457689762,-0.025181708857417107,-59,-8,-1003,435,20,-25,-49,-299,0,181008.0
12:40:21.313,AUTO,-35.3633536,149.1646186,24406,0.043115224689245224,0.06609134376049042,-1.7362996339797974,0.6102574467658997,0.000782516784965992,-0.00353694474324584,-56,-23,-1004,611,1,-3,-46,-269,0,181008.0
12:40:21.515,AUTO,-35.3633536,149.1646186,24406,0.043115224689245224,0.06609134376049042,-1.7362996339797974,0.6102574467658997,0.000782516784965992,-0.00353694474324584,-56,-23,-1004,611,1,-3,-46,-269,0,181008.0
12:40:21.717,AUTO,-35.3633536,149.1646186,24406,0.043115224689245224,0.06609134376049042,-1.7362996339797974,0.6102574467658997,0.000782516784965992,-0.00353694474324584,-56,-23,-1004,611,1,-3,-46,-269,0,181008.0
12:40:21.918,AUTO,-35.3633536,149.1646186,24406,0.043115224689245224,0.06609134376049042,-1.7362996339797974,0.6102574467658997,0.000782516784965992,-0.00353694474324584,-56,-23,-1004,611,1,-3,-46,-269,0,181008.0
12:40:22.120,AUTO,-35.3633561,149.1645995,24423,0.01611259952187538,0.07992638647556305,-1.7364614009857178,-0.5731661915779114,0.017975948750972748,-0.0005927574820816517,-39,-35,-1001,-571,19,0,-32,-187,0,181008.0
12:40:22.322,AUTO,-35.3633567,149.1645947,24430,0.020588301122188568,0.08397861570119858,-1.73697829246521,0.33800360560417175,0.0069233113899827,-0.015503829345107079,-33,7,-1007,340,7,-15,-26,-160,0,181008.0
12:40:22.525,AUTO,-35.3633567,149.1645947,24430,0.020588301122188568,0.08397861570119858,-1.73697829246521,0.33800360560417175,0.0069233113899827,-0.015503829345107079,-33,7,-1007,340,7,-15,-26,-160,0,181008.0
12:40:22.728,AUTO,-35.3633573,149.1645906,24435,0.02620723284780979,0.07928680628538132,-1.737513780593872,0.5986195802688599,-0.03031979128718376,0.0006219183560460806,-25,-2,-1011,599,-29,1,-23,-133,0,181008.0
12:40:22.930,AUTO,-35.3633577,149.1645872,24441,0.014237468130886555,0.06982797384262085,-1.737917184829712,-0.29787349700927734,-0.03991851955652237,0.008336680009961128,-19,-47,-991,-297,-38,8,-20,-110,0,181008.0
12:40:23.132,AUTO,-35.3633581,149.1645845,24445,0.0020191215444356203,0.06142890825867653,-1.738134503364563,-0.6339846253395081,-0.03013058379292488,-0.00040056894067674875,-19,-31,-1004,-632,-29,0,-16,-90,0,181008.0
12:40:23.334,AUTO,-35.3633584,149.1645822,24447,0.001358843524940312,0.05501813814043999,-1.738197922706604,0.004343430045992136,-0.023067999631166458,-0.003490827977657318,-14,7,-991,6,-21,-3,-12,-73,1,181008.0
12:40:23.536,AUTO,-35.3633584,149.1645822,24447,0.001358843524940312,0.05501813814043999,-1.738197922706604,0.004343430045992136,-0.023067999631166458,-0.003490827977657318,-14,7,-991,6,-21,-3,-12,-73,1,181008.0
12:40:23.738,AUTO,-35.3633584,149.1645822,24447,0.001358843524940312,0.05501813814043999,-1.738197922706604,0.004343430045992136,-0.023067999631166458,-0.003490827977657318,-14,7,-991,6,-21,-3,-12,-73,1,181008.0
12:40:23.940,AUTO,-35.3633584,149.1645822,24447,0.001358843524940312,0.05501813814043999,-1.738197922706604,0.004343430045992136,-0.023067999631166458,-0.003490827977657318,-14,7,-991,6,-21,-3,-12,-73,1,283082.0
12:40:24.142,AUTO,-35.363359,149.1645781,24453,0.0029030293226242065,0.04165910184383392,-1.738659381866455,-0.2462531477212906,-0.015608575195074081,0.0015763459959998727,-6,-30,-998,-245,-14,1,-8,-32,1,283082.0
12:40:24.344,AUTO,-35.363359,149.1645773,24454,-0.011933986097574234,0.03733682632446289,-1.7388916015625,-0.6387364268302917,-0.019206656143069267,-0.0038596857339143753,-3,-28,-997,-637,-18,-3,-6,-22,1,283082.0
12:40:24.546,AUTO,-35.363359,149.1645773,24454,-0.011933986097574234,0.03733682632446289,-1.7388916015625,-0.6387364268302917,-0.019206656143069267,-0.0038596857339143753,-3,-28,-997,-637,-18,-3,-6,-22,1,283082.0
12:40:24.748,AUTO,-35.363359,149.1645769,24455,-0.00815542135387659,0.03296409919857979,-1.7392501831054688,-0.06109979376196861,-0.018766580149531364,-0.004002726171165705,-2,6,-1005,-58,-17,-3,-4,-13,1,283082.0
12:40:24.950,AUTO,-35.3633589,149.1645766,24457,-0.0009392264182679355,0.027754122391343117,-1.7393851280212402,0.6305515766143799,-0.019770892336964607,-0.00011011498281732202,0,20,-1006,632,-18,0,-4,-6,1,283082.0
12:40:25.152,AUTO,-35.3633589,149.1645765,24457,-0.007241313345730305,0.02194846421480179,-1.7393909692764282,0.10392182320356369,-0.02571961097419262,-0.002725546946749091,1,-14,-994,104,-24,-2,-5,0,1,283082.0
12:40:25.354,AUTO,-35.3633589,149.1645766,24457,-0.021102547645568848,0.015523966401815414,-1.738982915878296,-0.577049195766449,-0.02916722185909748,-0.002949807094410062,1,-29,-995,-576,-28,-3,-6,3,1,283082.0
12:40:25.567,AUTO,-35.3633589,149.1645766,24457,-0.021102547645568848,0.015523966401815414,-1.738982915878296,-0.577049195766449,-0.02916722185909748,-0.002949807094410062,1,-29,-995,-576,-28,-3,-6,3,1,283082.0
12:40:25.769,AUTO,-35.3633589,149.1645766,24457,-0.021102547645568848,0.015523966401815414,-1.738982915878296,-0.577049195766449,-0.02916722185909748,-0.002949807094410062,1,-29,-995,-576,-28,-3,-6,3,1,283082.0
12:40:25.971,AUTO,-35.3633589,149.1645766,24457,-0.021102547645568848,0.015523966401815414,-1.738982915878296,-0.577049195766449,-0.02916722185909748,-0.002949807094410062,1,-29,-995,-576,-28,-3,-6,3,1,283082.0
12:40:26.173,AUTO,-35.3633588,149.164577,24450,-0.007540597580373287,-0.007724784780293703,-1.739263653755188,0.5752702951431274,-0.011873837560415268,-0.004860042594373226,0,33,-1016,576,-10,-4,-9,4,1,283082.0
12:40:26.374,AUTO,-35.3633588,149.1645771,24451,-0.003874809481203556,-0.007896396331489086,-1.739737629890442,0.43939197063446045,-0.0035306999925523996,0.0012157699093222618,-1,10,-995,439,-2,1,-11,2,1,283082.0
