time_stamp,MODE,lat,lon,relative_alt,roll,pitch,yaw,rollspeed,pitchspeed,yawspeed,xacc,yacc,zacc,xgyro,ygyro,zgyro,vx,vy,vz,RTL_ALT
16:18:06.062,STABILIZE,-35.3632621,149.1652374,0,-7.17701404937543e-05,0.0015371397603303194,0.027416065335273743,0.00033982397872023284,0.00037154959863983095,0.002243794035166502,0,1,-1000,0,0,0,-2,2,1,111503.0
16:18:06.263,STABILIZE,-35.3632622,149.1652375,0,-0.0001597866357769817,0.0014753740979358554,0.02727828547358513,0.00011358933988958597,0.00026483138208277524,0.0022434645798057318,0,1,-1000,0,0,0,-2,2,1,111503.0
16:18:06.464,STABILIZE,-35.3632622,149.1652375,0,-0.00025727899628691375,0.0014282468473538756,0.02713896334171295,0.00019002545741386712,0.0003208090492989868,0.002246080432087183,0,1,-1000,0,0,1,-2,2,1,111503.0
16:18:06.665,STABILIZE,-35.3632622,149.1652375,0,-0.00025727899628691375,0.0014282468473538756,0.02713896334171295,0.00019002545741386712,0.0003208090492989868,0.002246080432087183,0,1,-1000,0,0,1,-2,2,1,111503.0
16:18:06.866,STABILIZE,-35.3632622,149.1652375,0,-0.00025727899628691375,0.0014282468473538756,0.02713896334171295,0.00019002545741386712,0.0003208090492989868,0.002246080432087183,0,1,-1000,0,0,1,-2,2,1,111503.0
16:18:07.066,STABILIZE,-35.3632622,149.1652375,0,-0.00025727899628691375,0.0014282468473538756,0.02713896334171295,0.00019002545741386712,0.0003208090492989868,0.002246080432087183,0,1,-1000,0,0,1,-2,2,1,111503.0
16:18:07.267,STABILIZE,-35.3632622,149.1652375,0,-0.00025727899628691375,0.0014282468473538756,0.02713896334171295,0.00019002545741386712,0.0003208090492989868,0.002246080432087183,0,1,-1000,0,0,1,-2,2,1,111503.0
16:18:07.468,STABILIZE,-35.3632622,149.1652375,0,-0.00025727899628691375,0.0014282468473538756,0.02713896334171295,0.00019002545741386712,0.0003208090492989868,0.002246080432087183,0,1,-1000,0,0,1,-2,2,1,111503.0
16:18:07.669,STABILIZE,-35.3632622,149.1652375,0,-0.00025727899628691375,0.0014282468473538756,0.02713896334171295,0.00019002545741386712,0.0003208090492989868,0.002246080432087183,0,1,-1000,0,0,1,-2,2,1,111503.0
16:18:07.869,STABILIZE,-35.3632622,149.1652375,0,-0.000689308566506952,0.0011688938830047846,0.026478726416826248,9.779469110071659e-05,0.0003531257971189916,0.002129964530467987,0,1,-1000,0,0,0,-1,1,0,111503.0
16:18:08.070,STABILIZE,-35.3632622,149.1652375,0,-0.000689308566506952,0.0011688938830047846,0.026478726416826248,9.779469110071659e-05,0.0003531257971189916,0.002129964530467987,0,1,-1000,0,0,0,-1,1,0,111503.0
16:18:08.272,STABILIZE,-35.3632622,149.1652375,0,-0.0008035890641622245,0.0010843542404472828,0.026243986561894417,0.00032897229539230466,0.00022276531672105193,0.0020358723122626543,0,1,-1000,0,1,0,-1,1,0,111503.0
16:18:08.473,STABILIZE,-35.3632622,149.1652375,0,-0.0008035890641622245,0.0010843542404472828,0.026243986561894417,0.00032897229539230466,0.00022276531672105193,0.0020358723122626543,0,1,-1000,0,1,0,-1,1,0,111503.0
16:18:08.674,STABILIZE,-35.3632622,149.1652375,0,-0.0008035890641622245,0.0010843542404472828,0.026243986561894417,0.00032897229539230466,0.00022276531672105193,0.0020358723122626543,0,1,-1000,0,1,0,-1,1,0,111503.0
16:18:08.875,STABILIZE,-35.3632622,149.1652375,0,-0.0009086907957680523,0.0010136599885299802,0.026041850447654724,0.00015681557124480605,0.00012731889728456736,0.00207544956356287,0,1,-1000,0,0,0,-1,1,0,111503.0
16:18:09.077,STABILIZE,-35.3632622,149.1652375,0,-0.0009086907957680523,0.0010136599885299802,0.026041850447654724,0.00015681557124480605,0.00012731889728456736,0.00207544956356287,0,1,-1000,0,0,0,-1,1,0,111503.0
16:18:09.278,STABILIZE,-35.3632622,149.1652375,0,-0.0009086907957680523,0.0010136599885299802,0.026041850447654724,0.00015681557124480605,0.00012731889728456736,0.00207544956356287,0,1,-1000,0,0,0,-1,1,0,111503.0
16:18:09.479,STABILIZE,-35.3632621,149.1652374,1,-0.0008394948090426624,0.0009427983313798904,0.02575867809355259,-1.894758315756917e-05,0.00016986962873488665,0.002024102723225951,0,1,-1000,0,0,0,-1,0,-1,111503.0
16:18:09.681,STABILIZE,-35.3632621,149.1652374,1,-0.0008394948090426624,0.0009427983313798904,0.02575867809355259,-1.894758315756917e-05,0.00016986962873488665,0.002024102723225951,0,1,-1000,0,0,0,-1,0,-1,111503.0
16:18:09.882,STABILIZE,-35.3632621,149.1652374,5,-0.0008394948090426624,0.0009427983313798904,0.02575867809355259,-1.894758315756917e-05,0.00016986962873488665,0.002024102723225951,0,1,-1000,0,0,0,-1,0,-1,111503.0
16:18:10.084,STABILIZE,-35.3632621,149.1652374,5,-0.0008394948090426624,0.0009427983313798904,0.02575867809355259,-1.894758315756917e-05,0.00016986962873488665,0.002024102723225951,0,1,-1000,0,0,0,-1,0,-1,111503.0
16:18:10.286,STABILIZE,-35.3632621,149.1652374,11,-0.0007888163672760129,0.0009159121545962989,0.025486426427960396,0.00022711692145094275,0.0002444656565785408,0.002004341222345829,0,1,-1000,0,0,0,-1,0,-1,111503.0
16:18:10.487,STABILIZE,-35.3632621,149.1652374,12,-0.0007723614689894021,0.0009156842133961618,0.02540130726993084,0.00015547871589660645,0.00023815815802663565,0.001872682012617588,0,1,-1000,0,0,0,-1,0,-1,111503.0
16:18:10.689,STABILIZE,-35.3632621,149.1652374,12,-0.0007723614689894021,0.0009156842133961618,0.02540130726993084,0.00015547871589660645,0.00023815815802663565,0.001872682012617588,0,1,-1000,0,0,0,-1,0,-1,111503.0
16:18:10.890,STABILIZE,-35.3632621,149.1652374,12,-0.0007723614689894021,0.0009156842133961618,0.02540130726993084,0.00015547871589660645,0.00023815815802663565,0.001872682012617588,0,1,-1000,0,0,0,-1,0,-1,111503.0
16:18:11.092,STABILIZE,-35.3632621,149.1652374,12,-0.0007723614689894021,0.0009156842133961618,0.02540130726993084,0.00015547871589660645,0.00023815815802663565,0.001872682012617588,0,1,-1000,0,0,0,-1,0,-1,111503.0
16:18:11.294,STABILIZE,-35.3632621,149.1652374,12,-0.0007723614689894021,0.0009156842133961618,0.02540130726993084,0.00015547871589660645,0.00023815815802663565,0.001872682012617588,0,1,-1000,0,0,0,-1,0,-1,111503.0
16:18:11.496,STABILIZE,-35.3632621,149.1652374,12,-0.0007723614689894021,0.0009156842133961618,0.02540130726993084,0.00015547871589660645,0.00023815815802663565,0.001872682012617588,0,1,-1000,0,0,0,-1,0,-1,111503.0
16:18:11.699,STABILIZE,-35.3632621,149.1652374,19,-0.0007459979387931526,0.0009163075592368841,0.024877922609448433,0.00016389746451750398,0.00024369644233956933,0.001835555536672473,0,1,-1000,0,0,0,-1,1,-1,111503.0
16:18:11.900,STABILIZE,-35.3632621,149.1652374,19,-0.0007459979387931526,0.0009163075592368841,0.024877922609448433,0.00016389746451750398,0.00024369644233956933,0.001835555536672473,0,1,-1000,0,0,0,-1,1,-1,111503.0
16:18:12.101,STABILIZE,-35.3632621,149.1652374,19,-0.0007459979387931526,0.0009163075592368841,0.024877922609448433,0.00016389746451750398,0.00024369644233956933,0.001835555536672473,0,1,-1000,0,0,0,-1,1,-1,111503.0
16:18:12.302,STABILIZE,-35.3632621,149.1652374,21,-0.0007577347569167614,0.000918104313313961,0.024704711511731148,0.00018963892944157124,0.00019699009135365486,0.0019090584246441722,0,1,-1000,0,1,0,-1,1,-1,111503.0
16:18:12.504,STABILIZE,-35.3632621,149.1652374,22,-0.0007577529759146273,0.0009296455536969006,0.024586500599980354,0.00032961374381557107,0.0004918082850053906,0.0018930193036794662,0,1,-1000,0,0,0,-1,1,-1,111503.0
16:18:12.706,STABILIZE,-35.3632621,149.1652374,22,-0.0007577529759146273,0.0009296455536969006,0.024586500599980354,0.00032961374381557107,0.0004918082850053906,0.0018930193036794662,0,33,-953,18,0,0,-1,1,-1,111503.0
16:18:12.907,STABILIZE,-35.3632621,149.1652374,22,-0.0007577529759146273,0.0009296455536969006,0.024586500599980354,0.00032961374381557107,0.0004918082850053906,0.0018930193036794662,0,33,-953,18,0,0,-1,1,-1,111503.0
16:18:13.109,STABILIZE,-35.3632621,149.1652374,22,-0.0007577529759146273,0.0009296455536969006,0.024586500599980354,0.00032961374381557107,0.0004918082850053906,0.0018930193036794662,0,33,-953,18,0,0,-1,1,-1,111503.0
16:18:13.310,STABILIZE,-35.3632621,149.1652374,22,-0.0007577529759146273,0.0009296455536969006,0.024586500599980354,0.00032961374381557107,0.0004918082850053906,0.0018930193036794662,0,33,-953,18,0,0,-1,1,-1,111503.0
16:18:13.512,STABILIZE,-35.3632621,149.1652374,22,-0.0007577529759146273,0.0009296455536969006,0.024586500599980354,0.00032961374381557107,0.0004918082850053906,0.0018930193036794662,0,33,-953,18,0,0,-1,1,-1,111503.0
16:18:13.713,STABILIZE,-35.3632621,149.1652374,22,-0.0007577529759146273,0.0009296455536969006,0.024586500599980354,0.00032961374381557107,0.0004918082850053906,0.0018930193036794662,0,33,-953,18,0,0,-1,1,-1,111503.0
16:18:13.915,STABILIZE,-35.3632621,149.1652374,22,-0.0007577529759146273,0.0009296455536969006,0.024586500599980354,0.00032961374381557107,0.0004918082850053906,0.0018930193036794662,0,33,-953,18,0,0,-1,1,-1,111503.0
16:18:14.117,STABILIZE,-35.3632621,149.1652374,22,-0.0007577529759146273,0.0009296455536969006,0.024586500599980354,0.00032961374381557107,0.0004918082850053906,0.0018930193036794662,0,33,-953,18,0,0,-1,1,-1,111503.0
16:18:14.318,STABILIZE,-35.3632621,149.1652374,22,-0.0007577529759146273,0.0009296455536969006,0.024586500599980354,0.00032961374381557107,0.0004918082850053906,0.0018930193036794662,0,33,-953,18,0,0,-1,1,-1,111503.0
16:18:14.520,STABILIZE,-35.3632621,149.1652374,22,-0.0007577529759146273,0.0009296455536969006,0.024586500599980354,0.00032961374381557107,0.0004918082850053906,0.0018930193036794662,0,33,-953,18,0,0,-1,1,-1,111503.0
16:18:14.721,STABILIZE,-35.3632621,149.1652374,22,-0.0007577529759146273,0.0009296455536969006,0.024586500599980354,0.00032961374381557107,0.0004918082850053906,0.0018930193036794662,0,33,-953,18,0,0,-1,1,-1,111503.0
16:18:14.923,STABILIZE,-35.3632621,149.1652374,22,-0.0007577529759146273,0.0009296455536969006,0.024586500599980354,0.00032961374381557107,0.0004918082850053906,0.0018930193036794662,0,33,-953,18,0,0,-1,1,-1,111503.0
16:18:15.125,STABILIZE,-35.3632621,149.1652374,22,-0.0007577529759146273,0.0009296455536969006,0.024586500599980354,0.00032961374381557107,0.0004918082850053906,0.0018930193036794662,0,33,-953,18,0,0,-1,1,-1,111503.0
16:18:15.327,STABILIZE,-35.3632621,149.1652374,22,-0.0007577529759146273,0.0009296455536969006,0.024586500599980354,0.00032961374381557107,0.0004918082850053906,0.0018930193036794662,0,33,-953,18,0,0,-1,1,-1,111503.0
16:18:15.529,STABILIZE,-35.3632622,149.1652375,15,-0.000925955013372004,0.0010010248515754938,0.023489397019147873,0.00030878803227096796,0.000350276124663651,0.0017208229983225465,0,1,-1000,0,0,0,-1,1,0,111503.0
16:18:15.731,STABILIZE,-35.3632622,149.1652375,15,-0.0009607283864170313,0.0009875373216345906,0.02340143546462059,0.00017212668899446726,0.0001177603262476623,0.0017211504746228456,0,1,-1000,0,1,0,-1,1,0,111503.0
16:18:15.932,STABILIZE,-35.3632622,149.1652375,15,-0.0009607283864170313,0.0009875373216345906,0.02340143546462059,0.00017212668899446726,0.0001177603262476623,0.0017211504746228456,0,1,-1000,0,1,0,-1,1,0,111503.0
16:18:16.134,STABILIZE,-35.3632622,149.1652375,15,-0.0009908588835969567,0.0009927363134920597,0.02331991121172905,0.00020490656606853008,0.000414204434491694,0.0017235411796718836,0,2,-1000,0,0,1,-1,1,0,111503.0
16:18:16.335,STABILIZE,-35.3632622,149.1652375,14,-0.0008609596407040954,0.0009965350618585944,0.023250652477145195,4.460610216483474e-05,0.0002997489064000547,0.0016556992195546627,0,18,-974,0,0,0,-1,2,1,111503.0
16:18:16.537,STABILIZE,-35.3632622,149.1652375,12,-0.0008994988747872412,0.0009895546827465296,0.02317584864795208,0.0002478352398611605,0.00018216384341940284,0.0017532359343022108,0,1,-1000,1,0,0,-1,2,1,111503.0
16:18:16.739,STABILIZE,-35.3632622,149.1652375,10,-0.0009460705332458019,0.0009879700373858213,0.02308920957148075,0.0002573097590357065,0.00021201459458097816,0.0015741251409053802,0,2,-1000,1,0,1,-1,2,1,111503.0
16:18:16.940,STABILIZE,-35.3632622,149.1652375,10,-0.0009460705332458019,0.0009879700373858213,0.02308920957148075,0.0002573097590357065,0.00021201459458097816,0.0015741251409053802,0,2,-1000,1,0,1,-1,2,1,111503.0
16:18:17.142,STABILIZE,-35.3632622,149.1652375,10,-0.0009460705332458019,0.0009879700373858213,0.02308920957148075,0.0002573097590357065,0.00021201459458097816,0.0015741251409053802,0,2,-1000,1,0,1,-1,2,1,111503.0
16:18:17.344,STABILIZE,-35.3632622,149.1652375,10,-0.0009460705332458019,0.0009879700373858213,0.02308920957148075,0.0002573097590357065,0.00021201459458097816,0.0015741251409053802,0,2,-1000,1,0,1,-1,2,1,111503.0
16:18:17.545,STABILIZE,-35.3632622,149.1652375,7,-0.0010610413737595081,0.0009835597593337297,0.022867586463689804,0.0003332517226226628,0.000231518701184541,0.0017196391709148884,0,1,-1000,0,0,0,-1,1,0,111503.0
16:18:17.746,STABILIZE,-35.3632622,149.1652375,7,-0.0010610413737595081,0.0009835597593337297,0.022867586463689804,0.0003332517226226628,0.000231518701184541,0.0017196391709148884,0,1,-1000,0,0,0,-1,1,0,111503.0
16:18:17.948,STABILIZE,-35.3632622,149.1652375,7,-0.0011229027295485139,0.0009707406279630959,0.02275385521352291,0.00019028678070753813,0.0001777317957021296,0.001636242144741118,0,1,-1000,0,0,0,-1,1,0,111503.0
16:18:18.149,STABILIZE,-35.3632622,149.1652375,6,-0.0011229027295485139,0.0009707406279630959,0.02275385521352291,0.00019028678070753813,0.0001777317957021296,0.001636242144741118,0,1,-1000,0,0,0,-1,1,0,111503.0
16:18:18.351,STABILIZE,-35.3632622,149.1652375,6,-0.0011229027295485139,0.0009707406279630959,0.02275385521352291,0.00019028678070753813,0.0001777317957021296,0.001636242144741118,0,2,-1000,1,0,0,-1,1,0,111503.0
16:18:18.552,STABILIZE,-35.3632622,149.1652375,6,-0.0011229027295485139,0.0009707406279630959,0.02275385521352291,0.00019028678070753813,0.0001777317957021296,0.001636242144741118,0,2,-1000,1,0,0,-1,1,0,111503.0
16:18:18.754,STABILIZE,-35.3632622,149.1652375,6,-0.0011229027295485139,0.0009707406279630959,0.02275385521352291,0.00019028678070753813,0.0001777317957021296,0.001636242144741118,0,2,-1000,1,0,0,-1,1,0,111503.0
16:18:18.955,STABILIZE,-35.3632622,149.1652375,6,-0.0011229027295485139,0.0009707406279630959,0.02275385521352291,0.00019028678070753813,0.0001777317957021296,0.001636242144741118,0,2,-1000,1,0,0,-1,1,0,111503.0
16:18:19.157,STABILIZE,-35.3632622,149.1652375,6,-0.0011229027295485139,0.0009707406279630959,0.02275385521352291,0.00019028678070753813,0.0001777317957021296,0.001636242144741118,0,2,-1000,1,0,0,-1,1,0,111503.0
16:18:19.359,STABILIZE,-35.3632622,149.1652375,6,-0.0011229027295485139,0.0009707406279630959,0.02275385521352291,0.00019028678070753813,0.0001777317957021296,0.001636242144741118,0,2,-1000,1,0,0,-1,1,0,111503.0
16:18:19.560,STABILIZE,-35.3632622,149.1652375,7,-0.0012325076386332512,0.0009747009025886655,0.022428080439567566,0.0003145348164252937,0.00043071096297353506,0.001692011021077633,0,2,-1000,0,0,1,-1,1,0,111503.0
16:18:19.761,STABILIZE,-35.3632622,149.1652375,6,-0.001073191873729229,0.0009647552506066859,0.02238299325108528,0.00015229464042931795,0.00018613116117194295,0.0014675497077405453,0,1,-1000,1,0,1,-1,2,1,111503.0
16:18:19.964,AUTO,-35.3632622,149.1652375,3,-0.0010849779937416315,0.0009625848033465445,0.02231913059949875,8.276489097625017e-05,0.00015360262477770448,0.001590582076460123,0,1,-1000,1,0,1,-1,2,1,111503.0
16:18:20.168,AUTO,-35.3632622,149.1652375,3,-0.0010849779937416315,0.0009625848033465445,0.02231913059949875,8.276489097625017e-05,0.00015360262477770448,0.001590582076460123,0,1,-1000,1,0,1,-1,2,1,111503.0
16:18:20.370,AUTO,-35.3632622,149.1652375,1,-0.0011109169572591782,0.0009613806032575667,0.022267591208219528,0.0002503027208149433,0.0002447296865284443,0.00153667526319623,0,1,-1000,1,1,1,-1,1,1,111503.0
16:18:20.571,AUTO,-35.3632622,149.1652375,0,-0.0011444480624049902,0.0009691985324025154,0.02223142236471176,0.00035289174411445856,0.00022865715436637402,0.0015013195807114244,0,1,-1000,0,0,1,-1,1,1,111503.0
16:18:20.773,AUTO,-35.3632622,149.1652375,0,-0.001165028428658843,0.0009755874052643776,0.022168518975377083,0.00032754591666162014,0.0003817963879555464,0.0014989818446338177,0,1,-1000,1,0,0,-1,1,1,111503.0
16:18:20.975,AUTO,-35.3632622,149.1652375,0,-0.001165028428658843,0.0009755874052643776,0.022168518975377083,0.00032754591666162014,0.0003817963879555464,0.0014989818446338177,0,1,-1000,1,0,0,-1,1,1,111503.0
16:18:21.176,AUTO,-35.3632622,149.1652375,0,-0.001165028428658843,0.0009755874052643776,0.022168518975377083,0.00032754591666162014,0.0003817963879555464,0.0014989818446338177,0,1,-1000,1,0,0,-1,1,1,111503.0
16:18:21.378,AUTO,-35.3632622,149.1652375,0,-0.001165028428658843,0.0009755874052643776,0.022168518975377083,0.00032754591666162014,0.0003817963879555464,0.0014989818446338177,0,1,-1000,1,0,0,-1,1,1,111503.0
16:18:21.579,AUTO,-35.3632621,149.1652375,0,-0.0011135161621496081,0.0010872596176341176,0.02202417701482773,0.00024137395666912198,0.00037001026794314384,0.0014174336101859808,0,1,-1000,1,0,1,0,0,0,253943.0
16:18:21.780,AUTO,-35.3632621,149.1652375,0,-0.001077675842680037,0.0011401233496144414,0.021972570568323135,0.00023720227181911469,0.00033369066659361124,0.0015645729145035148,0,2,-1000,0,1,0,0,0,0,253943.0
16:18:21.982,AUTO,-35.3632621,149.1652375,0,-0.0010353198740631342,0.001200611237436533,0.021928593516349792,0.0002616092679090798,0.00010309100616723299,0.0015360473189502954,0,1,-1000,0,0,0,0,0,0,253943.0
16:18:22.183,AUTO,-35.3632621,149.1652375,0,-0.0010353198740631342,0.001200611237436533,0.021928593516349792,0.0002616092679090798,0.00010309100616723299,0.0015360473189502954,0,1,-1000,0,0,0,0,0,0,253943.0
16:18:22.384,AUTO,-35.3632621,149.1652375,0,-0.0009895770344883204,0.0012681270018219948,0.021869687363505363,0.00019807048374786973,0.0001933181774802506,0.0014561312273144722,0,1,-1000,1,0,1,0,0,0,253943.0
16:18:22.585,AUTO,-35.3632621,149.1652375,0,-0.0009464967297390103,0.0013404253404587507,0.021806707605719566,0.00020913267508149147,0.00017022417159751058,0.0015386933228000998,0,2,-1000,1,0,1,0,0,0,253943.0
16:18:22.787,AUTO,-35.3632621,149.1652374,0,-0.0008952495409175754,0.0014074069913476706,0.021750114858150482,0.00024476670660078526,0.0003156508901156485,0.0013849037932232022,0,1,-1000,0,0,0,0,0,0,253943.0
16:18:22.988,AUTO,-35.3632621,149.1652374,0,-0.0008952495409175754,0.0014074069913476706,0.021750114858150482,0.00024476670660078526,0.0003156508901156485,0.0013849037932232022,0,1,-1000,0,0,0,0,0,0,253943.0
16:18:23.190,AUTO,-35.3632621,149.1652374,0,-0.0008952495409175754,0.0014074069913476706,0.021750114858150482,0.00024476670660078526,0.0003156508901156485,0.0013849037932232022,0,1,-1000,0,0,0,0,0,0,253943.0
16:18:23.391,AUTO,-35.3632621,149.1652374,0,-0.0008952495409175754,0.0014074069913476706,0.021750114858150482,0.00024476670660078526,0.0003156508901156485,0.0013849037932232022,0,1,-1000,0,0,0,0,0,0,253943.0
16:18:23.592,AUTO,-35.3632621,149.1652375,0,-0.0003702362591866404,0.0016247322782874107,0.021563269197940826,0.00033001555129885674,0.0003084856434725225,0.0014267417136579752,0,1,-1000,0,0,0,0,0,0,253943.0
16:18:23.794,AUTO,-35.3632621,149.1652375,0,-0.00030535442056134343,0.0017018856015056372,0.02148273214697838,0.00032729399390518665,0.0002728503313846886,0.0013672952773049474,0,2,-1000,1,1,1,0,0,0,253943.0
16:18:23.995,AUTO,-35.3632621,149.1652375,1,0.0006622267537750304,0.0009759190143086016,0.021436648443341255,0.00927121564745903,-0.008334551937878132,0.0012196293100714684,0,0,-1098,9,-7,0,0,0,-5,253943.0
16:18:24.196,AUTO,-35.3632621,149.1652375,1,0.0006622267537750304,0.0009759190143086016,0.021436648443341255,0.00927121564745903,-0.008334551937878132,0.0012196293100714684,0,0,-1098,9,-7,0,0,0,-5,253943.0
16:18:24.398,AUTO,-35.3632621,149.1652375,60,0.0028435655403882265,-0.0005704248324036598,0.021437620744109154,0.009834862314164639,-0.0004965025000274181,0.0019729393534362316,0,0,-1141,10,0,1,0,0,-39,253943.0
16:18:24.600,AUTO,-35.3632621,149.1652375,201,0.0022763668093830347,0.00016990116273518652,0.021289952099323273,-0.004944908898323774,0.004788539372384548,0.0006673847092315555,0,0,-1128,-4,5,0,0,0,-73,253943.0
16:18:24.801,AUTO,-35.3632621,149.1652375,418,0.0014381711371243,0.0010861334158107638,0.02122376672923565,-0.0034484623465687037,0.0033413399942219257,0.0008899732492864132,0,0,-1107,-2,4,0,0,0,-101,253943.0
16:18:25.003,AUTO,-35.3632621,149.1652375,418,0.0014381711371243,0.0010861334158107638,0.02122376672923565,-0.0034484623465687037,0.0033413399942219257,0.0008899732492864132,0,0,-1107,-2,4,0,0,0,-101,253943.0
16:18:25.205,AUTO,-35.3632621,149.1652375,418,0.0014381711371243,0.0010861334158107638,0.02122376672923565,-0.0034484623465687037,0.0033413399942219257,0.0008899732492864132,0,0,-1107,-2,4,0,0,0,-101,253943.0
16:18:25.408,AUTO,-35.3632621,149.1652375,418,0.0014381711371243,0.0010861334158107638,0.02122376672923565,-0.0034484623465687037,0.0033413399942219257,0.0008899732492864132,0,0,-1107,-2,4,0,0,0,-101,253943.0
16:18:25.610,AUTO,-35.363262,149.1652375,1409,0.022696223109960556,-0.0009268687572330236,0.020970601588487625,0.047168705612421036,-0.007108812220394611,0.002284074667841196,0,0,-1017,47,-6,1,0,5,-145,100672.0
16:18:25.812,AUTO,-35.363262,149.1652377,1788,0.03416052833199501,-0.0028196938801556826,0.02110573835670948,0.045031484216451645,-0.00811636634171009,0.0029341294430196285,0,-1,-1007,45,-7,2,1,11,-147,100672.0
16:18:26.013,AUTO,-35.3632619,149.1652381,2172,0.04506056755781174,-0.005001315381377935,0.021343069151043892,0.042289428412914276,-0.009135796688497066,0.0031125477980822325,0,-2,-1002,43,-8,2,3,20,-148,100672.0
16:18:26.215,AUTO,-35.3632618,149.1652387,2558,0.055217597633600235,-0.0077054123394191265,0.021593738347291946,0.03952128440141678,-0.011073359288275242,0.0038626210298389196,1,-5,-1000,40,-10,3,5,31,-149,100672.0
16:18:26.416,AUTO,-35.3632618,149.1652387,2558,0.055217597633600235,-0.0077054123394191265,0.021593738347291946,0.03952128440141678,-0.011073359288275242,0.0038626210298389196,1,-5,-1000,40,-10,3,5,31,-149,100672.0
16:18:26.618,AUTO,-35.3632616,149.1652397,2943,0.06252146512269974,-0.00921866949647665,-0.007154548075050116,-0.008607779629528522,0.018587986007332802,-0.04094218835234642,0,-7,-992,-8,19,-41,8,43,-148,100672.0
16:18:26.820,AUTO,-35.3632614,149.165241,3327,0.04181148111820221,0.01261574774980545,-0.029641879722476006,-0.13991814851760864,0.09615561366081238,-0.1007729321718216,3,-11,-990,-139,96,-100,9,53,-146,100672.0
16:18:27.021,AUTO,-35.3632614,149.165241,3327,0.04181148111820221,0.01261574774980545,-0.029641879722476006,-0.13991814851760864,0.09615561366081238,-0.1007729321718216,3,-11,-990,-139,96,-100,9,53,-146,100672.0
16:18:27.223,AUTO,-35.3632614,149.165241,3327,0.04181148111820221,0.01261574774980545,-0.029641879722476006,-0.13991814851760864,0.09615561366081238,-0.1007729321718216,3,-11,-990,-139,96,-100,9,53,-146,100672.0
16:18:27.425,AUTO,-35.3632614,149.165241,3327,0.04181148111820221,0.01261574774980545,-0.029641879722476006,-0.13991814851760864,0.09615561366081238,-0.1007729321718216,3,-11,-990,-139,96,-100,9,53,-146,100672.0
16:18:27.627,AUTO,-35.363261,149.1652449,4459,-0.03441483899950981,0.01735464669764042,-0.07804853469133377,-0.023262273520231247,-0.013747396878898144,-0.05039579048752785,5,-9,-1006,-22,-13,-50,0,36,-149,100672.0
16:18:27.829,AUTO,-35.3632609,149.1652457,4845,-0.0437568835914135,0.011998208239674568,-0.08677822351455688,-0.052595630288124084,-0.02933482453227043,-0.024018174037337303,4,-7,-1000,-51,-28,-24,-3,25,-150,100672.0
16:18:28.031,AUTO,-35.3632609,149.1652462,5230,-0.06071314960718155,0.001787677756510675,-0.08837389200925827,-0.07863548398017883,-0.045376572757959366,0.00310991401784122,3,-2,-998,-78,-44,2,-4,10,-149,100672.0
16:18:28.233,AUTO,-35.363261,149.1652463,5614,-0.07621768862009048,-0.008681084960699081,-0.08623835444450378,-0.01392343919724226,-0.02356058359146118,-0.004665202461183071,1,0,-1005,-13,-22,-5,-4,-7,-149,100672.0
16:18:28.436,AUTO,-35.363261,149.1652463,5614,-0.07621768862009048,-0.008681084960699081,-0.08623835444450378,-0.01392343919724226,-0.02356058359146118,-0.004665202461183071,1,0,-1005,-13,-22,-5,-4,-7,-149,100672.0
16:18:28.638,AUTO,-35.3632611,149.1652459,5998,-0.06966952979564667,-0.01060856506228447,-0.08789205551147461,0.04612470045685768,-0.002206933218985796,-0.004922976717352867,-1,3,-1003,46,-1,-5,-2,-25,-149,100672.0
16:18:28.840,AUTO,-35.3632612,149.1652451,6383,-0.056433893740177155,-0.010820599272847176,-0.08955446630716324,0.05670120194554329,0.0009387130849063396,-0.001552465371787548,-4,7,-1001,57,1,-1,-1,-40,-150,100672.0
16:18:29.042,AUTO,-35.3632612,149.1652451,6383,-0.056433893740177155,-0.010820599272847176,-0.08955446630716324,0.05670120194554329,0.0009387130849063396,-0.001552465371787548,-4,7,-1001,57,1,-1,-1,-40,-150,279236.0
16:18:29.248,AUTO,-35.3632612,149.1652451,6383,-0.056433893740177155,-0.010820599272847176,-0.08955446630716324,0.05670120194554329,0.0009387130849063396,-0.001552465371787548,-4,7,-1001,57,1,-1,-1,-40,-150,279236.0
16:18:29.450,AUTO,-35.3632612,149.1652451,6383,-0.056433893740177155,-0.010820599272847176,-0.08955446630716324,0.05670120194554329,0.0009387130849063396,-0.001552465371787548,-4,7,-1001,57,1,-1,-1,-40,-150,279236.0
16:18:29.655,AUTO,-35.3632613,149.1652407,7539,-0.010308418422937393,-0.0042233774438500404,-0.09095416963100433,0.06530749797821045,0.013896738179028034,0.0028676646761596203,-7,11,-1003,65,14,2,-1,-59,-151,279236.0
16:18:29.857,AUTO,-35.3632613,149.165239,7930,0.006361739709973335,-0.0005070707993581891,-0.09042465686798096,0.0660223737359047,0.014815803617238998,0.003658853005617857,-7,13,-1003,67,15,3,-2,-57,-152,279236.0
16:18:30.058,AUTO,-35.3632614,149.1652375,8320,0.02270890213549137,0.0030890414491295815,-0.08950310200452805,0.0659552812576294,0.013868854381144047,0.004158604424446821,-6,8,-1003,66,14,4,-3,-51,-153,279236.0
16:18:30.260,AUTO,-35.3632615,149.1652361,8712,0.038663461804389954,0.0061474330723285675,-0.08826199173927307,0.06266461312770844,0.010724137537181377,0.005040816497057676,-5,8,-1003,63,11,4,-4,-42,-153,279236.0
16:18:30.462,AUTO,-35.3632616,149.1652351,9106,0.05416734889149666,0.008269178681075573,-0.08696840703487396,0.06059594824910164,0.0067045981995761395,0.005203200504183769,-5,10,-1003,61,7,4,-6,-28,-154,279236.0
16:18:30.663,AUTO,-35.3632616,149.1652351,9106,0.05416734889149666,0.008269178681075573,-0.08696840703487396,0.06059594824910164,0.0067045981995761395,0.005203200504183769,-5,10,-1003,61,7,4,-6,-28,-154,279236.0
16:18:30.866,AUTO,-35.3632617,149.1652344,9500,0.06732127815485,0.009724297560751438,-0.08643420785665512,0.02958511933684349,0.009815997444093227,-0.0015512974932789803,-2,5,-998,30,10,-1,-7,-12,-154,279236.0
16:18:31.068,AUTO,-35.3632617,149.1652344,9500,0.06732127815485,0.009724297560751438,-0.08643420785665512,0.02958511933684349,0.009815997444093227,-0.0015512974932789803,-2,5,-998,30,10,-1,-7,-12,-154,279236.0
16:18:31.270,AUTO,-35.3632617,149.1652344,9500,0.06732127815485,0.009724297560751438,-0.08643420785665512,0.02958511933684349,0.009815997444093227,-0.0015512974932789803,-2,5,-998,30,10,-1,-7,-12,-154,279236.0
16:18:31.472,AUTO,-35.3632622,149.1652347,10661,0.019198358058929443,0.00029870489379391074,-0.08370953798294067,-0.07336161285638809,-0.01421725656837225,-0.0004435654846020043,3,-1,-1000,-72,-13,0,-6,19,-150,279236.0
16:18:31.674,AUTO,-35.3632622,149.1652347,10661,0.019198358058929443,0.00029870489379391074,-0.08370953798294067,-0.07336161285638809,-0.01421725656837225,-0.0004435654846020043,3,-1,-1000,-72,-13,0,-6,19,-150,279236.0
16:18:31.875,AUTO,-35.3632623,149.1652352,11045,0.0031174614559859037,-0.002533708233386278,-0.08549267053604126,-0.05243397131562233,-0.00834534503519535,-0.00871995184570551,4,-4,-1003,-51,-7,-8,-4,20,-150,279236.0
16:18:32.077,AUTO,-35.3632624,149.1652357,11430,-0.007398826535791159,-0.00419298280030489,-0.0890713632106781,-0.034373510628938675,-0.004737479612231255,-0.01583090052008629,3,-3,-1002,-33,-4,-15,-2,18,-151,279236.0
16:18:32.278,AUTO,-35.3632624,149.1652361,11816,-0.013024325482547283,-0.0050292592495679855,-0.09398811310529709,-0.01508275605738163,-0.0022307096514850855,-0.020715385675430298,2,-3,-1002,-14,-1,-21,0,14,-151,279236.0
16:18:32.480,AUTO,-35.3632624,149.1652364,12203,-0.014708907343447208,-0.005023314617574215,-0.09993048012256622,-0.0015640429919585586,0.0018089760560542345,-0.023288827389478683,1,-2,-1002,0,2,-23,0,9,-152,279236.0
16:18:32.682,AUTO,-35.3632624,149.1652364,12203,-0.014708907343447208,-0.005023314617574215,-0.09993048012256622,-0.0015640429919585586,0.0018089760560542345,-0.023288827389478683,1,-2,-1002,0,2,-23,0,9,-152,279236.0
16:18:32.883,AUTO,-35.3632624,149.1652365,12592,-0.01345167774707079,-0.0042948368936777115,-0.10652713477611542,0.011059445329010487,0.004764680750668049,-0.02405666559934616,0,-1,-1001,11,5,-24,2,4,-152,279236.0
16:18:33.085,AUTO,-35.3632624,149.1652365,12592,-0.01345167774707079,-0.0042948368936777115,-0.10652713477611542,0.011059445329010487,0.004764680750668049,-0.02405666559934616,0,-1,-1001,11,5,-24,2,4,-152,94410.0
16:18:33.287,AUTO,-35.3632624,149.1652365,12592,-0.01345167774707079,-0.0042948368936777115,-0.10652713477611542,0.011059445329010487,0.004764680750668049,-0.02405666559934616,0,-1,-1001,11,5,-24,2,4,-152,94410.0
16:18:33.488,AUTO,-35.3632622,149.1652364,13762,-0.0031748302280902863,-0.0006693497416563332,-0.12527599930763245,0.01586581952869892,0.007287296466529369,-0.0242101289331913,-1,0,-1000,16,7,-24,4,-4,-153,94410.0
16:18:33.690,AUTO,-35.3632622,149.1652364,13762,-0.0031748302280902863,-0.0006693497416563332,-0.12527599930763245,0.01586581952869892,0.007287296466529369,-0.0242101289331913,-1,0,-1000,16,7,-24,4,-4,-153,94410.0
16:18:33.891,AUTO,-35.3632621,149.1652363,14152,0.00024638514150865376,0.0012643919326364994,-0.1312895268201828,0.011389651335775852,0.007372872903943062,-0.021648723632097244,-2,0,-1000,12,7,-21,4,-5,-153,94410.0
16:18:34.093,AUTO,-35.363262,149.1652361,14542,0.00339970993809402,0.0028384446632117033,-0.13675440847873688,0.012668179348111153,0.0068480633199214935,-0.02007736638188362,-2,0,-1000,13,7,-20,3,-5,-153,94410.0
16:18:34.294,AUTO,-35.3632619,149.1652359,14940,0.005929454229772091,0.0043402425944805145,-0.14196142554283142,0.007805805653333664,0.0054174610413610935,-0.01813393086194992,-2,0,-999,8,5,-18,2,-4,-153,94410.0
16:18:34.496,AUTO,-35.3632618,149.1652358,15330,0.007666517980396748,0.005383300594985485,-0.14652395248413086,0.004997235722839832,0.004146520048379898,-0.01615299843251705,-1,0,-999,5,4,-16,2,-3,-153,94410.0
16:18:34.698,AUTO,-35.3632618,149.1652358,15330,0.007666517980396748,0.005383300594985485,-0.14652395248413086,0.004997235722839832,0.004146520048379898,-0.01615299843251705,-1,0,-999,5,4,-16,2,-3,-153,94410.0
16:18:34.899,AUTO,-35.3632618,149.1652356,15720,0.00860900990664959,0.006376083940267563,-0.15103021264076233,0.003225558903068304,0.004970572888851166,-0.01764058880507946,-1,0,-1000,4,5,-18,1,-2,-153,94410.0
16:18:35.101,AUTO,-35.3632618,149.1652356,15720,0.00860900990664959,0.006376083940267563,-0.15103021264076233,0.003225558903068304,0.004970572888851166,-0.01764058880507946,-1,0,-1000,4,5,-18,1,-2,-153,94410.0
16:18:35.303,AUTO,-35.3632618,149.1652356,15720,0.00860900990664959,0.006376083940267563,-0.15103021264076233,0.003225558903068304,0.004970572888851166,-0.01764058880507946,-1,0,-1000,4,5,-18,1,-2,-153,94410.0
16:18:35.505,AUTO,-35.3632617,149.1652355,16880,0.008219963870942593,0.006179735995829105,-0.16145281493663788,0.00013183505507186055,-0.0011867426801472902,-0.012119919061660767,0,0,-1000,0,0,-12,-1,2,-153,94410.0
16:18:35.706,AUTO,-35.3632616,149.1652355,17270,0.00751942303031683,0.005705696996301413,-0.16462235152721405,-0.003902945900335908,-3.319984534755349e-05,-0.01316258404403925,0,0,-1000,-3,0,-13,-1,3,-153,94410.0
16:18:35.908,AUTO,-35.3632616,149.1652355,17270,0.00751942303031683,0.005705696996301413,-0.16462235152721405,-0.003902945900335908,-3.319984534755349e-05,-0.01316258404403925,0,0,-1000,-3,0,-13,-1,3,-153,94410.0
16:18:36.109,AUTO,-35.3632616,149.1652355,17660,0.006413436960428953,0.005430093966424465,-0.1680421680212021,-0.004224190954118967,-0.00038246012991294265,-0.014296094886958599,0,0,-1000,-3,0,-14,-2,4,-153,94410.0
16:18:36.311,AUTO,-35.3632616,149.1652356,18049,0.0054073939099907875,0.0051137362606823444,-0.17160989344120026,-0.0018788629677146673,-0.0013114885659888387,-0.013103383593261242,0,0,-1000,-1,0,-13,-2,5,-153,94410.0
16:18:36.513,AUTO,-35.3632616,149.1652357,18438,0.004590393044054508,0.00468044588342309,-0.17542539536952972,-0.001767221954651177,3.37928649969399e-05,-0.016326317563652992,0,0,-1000,-1,0,-16,-2,5,-153,94410.0
16:18:36.715,AUTO,-35.3632616,149.1652358,18827,-0.0009385114535689354,0.004473032895475626,-0.17955614626407623,-0.0530167892575264,-0.00030507106566801667,-0.017300544306635857,0,0,-996,-51,0,-17,-3,5,-153,94410.0
16:18:36.917,AUTO,-35.3632616,149.1652358,18827,-0.0009385114535689354,0.004473032895475626,-0.17955614626407623,-0.0530167892575264,-0.00030507106566801667,-0.017300544306635857,0,0,-996,-51,0,-17,-3,5,-153,94410.0
16:18:37.118,AUTO,-35.3632616,149.1652358,18827,-0.0009385114535689354,0.004473032895475626,-0.17955614626407623,-0.0530167892575264,-0.00030507106566801667,-0.017300544306635857,0,0,-996,-51,0,-17,-3,5,-153,187096.0
16:18:37.320,AUTO,-35.3632616,149.1652358,18827,-0.0009385114535689354,0.004473032895475626,-0.17955614626407623,-0.0530167892575264,-0.00030507106566801667,-0.017300544306635857,0,0,-996,-51,0,-17,-3,5,-153,187096.0
16:18:37.522,AUTO,-35.3632618,149.1652354,19981,-0.050160910934209824,0.028966551646590233,-0.13828884065151215,-0.006898472551256418,0.10228926688432693,0.30790549516677856,-1,2,-981,-5,103,307,-10,-17,-145,187096.0
16:18:37.723,AUTO,-35.3632621,149.1652347,20343,-0.04772649705410004,0.054465483874082565,-0.03252505511045456,0.021182231605052948,0.022468628361821175,0.44935086369514465,0,5,-969,22,23,449,-21,-28,-140,187096.0
16:18:37.925,AUTO,-35.3632621,149.1652347,20343,-0.04772649705410004,0.054465483874082565,-0.03252505511045456,0.021182231605052948,0.022468628361821175,0.44935086369514465,0,5,-969,22,23,449,-21,-28,-140,187096.0
16:18:38.127,AUTO,-35.3632626,149.1652338,20685,-0.020750127732753754,0.0320599339902401,0.051214881241321564,0.1299613118171692,-0.1700555384159088,0.2252892255783081,2,9,-955,130,-169,224,-31,-35,-129,187096.0
16:18:38.330,AUTO,-35.3632633,149.1652328,20998,0.013330279849469662,-0.008849096484482288,0.08281662315130234,0.12666192650794983,-0.14095978438854218,0.04780593886971474,1,12,-956,127,-140,47,-32,-34,-118,187096.0
16:18:38.532,AUTO,-35.3632639,149.1652319,21284,0.03963062912225723,-0.03288007527589798,0.08254079520702362,0.08888208866119385,-0.061057936400175095,-0.03158736601471901,2,9,-959,89,-60,-31,-26,-25,-107,187096.0
16:18:38.734,AUTO,-35.3632644,149.1652313,21544,0.05472499132156372,-0.04054642468690872,0.07170192152261734,0.038780003786087036,-0.013722989708185196,-0.047042764723300934,2,6,-962,39,-13,-47,-17,-12,-97,187096.0
16:18:38.936,AUTO,-35.3632644,149.1652313,21544,0.05472499132156372,-0.04054642468690872,0.07170192152261734,0.038780003786087036,-0.013722989708185196,-0.047042764723300934,2,6,-962,39,-13,-47,-17,-12,-97,187096.0
16:18:39.138,AUTO,-35.3632644,149.1652313,21544,0.05472499132156372,-0.04054642468690872,0.07170192152261734,0.038780003786087036,-0.013722989708185196,-0.047042764723300934,2,6,-962,39,-13,-47,-17,-12,-97,187096.0
16:18:39.340,AUTO,-35.3632644,149.1652313,21544,0.05472499132156372,-0.04054642468690872,0.07170192152261734,0.038780003786087036,-0.013722989708185196,-0.047042764723300934,2,6,-962,39,-13,-47,-17,-12,-97,187096.0
16:18:39.541,AUTO,-35.3632646,149.1652317,22181,0.046352047473192215,-0.026550577953457832,0.053518857806921005,-0.03921467438340187,0.03327156603336334,-0.004883608780801296,1,-5,-973,-38,33,-5,7,26,-72,187096.0
16:18:39.743,AUTO,-35.3632643,149.1652324,22353,0.03631000220775604,-0.017560914158821106,0.05279744043946266,-0.04173790663480759,0.03833766654133797,0.001116658328101039,1,-7,-976,-40,39,0,13,34,-65,187096.0
16:18:39.945,AUTO,-35.3632643,149.1652324,22353,0.03631000220775604,-0.017560914158821106,0.05279744043946266,-0.04173790663480759,0.03833766654133797,0.001116658328101039,1,-7,-976,-40,39,0,13,34,-65,187096.0
16:18:40.150,AUTO,-35.3632641,149.1652334,22511,0.024606123566627502,-0.008592447265982628,0.05243488773703575,-0.04909428954124451,0.03370782732963562,0.0031979787163436413,0,-9,-976,-48,34,3,16,38,-59,187096.0
16:18:40.351,AUTO,-35.3632636,149.1652344,22652,0.013730740174651146,-0.001323539181612432,0.051915206015110016,-0.04479478672146797,0.02748999558389187,0.0023817347828298807,0,-9,-977,-43,28,2,18,40,-53,187096.0
16:18:40.553,AUTO,-35.3632632,149.1652354,22779,0.0054640700109303,0.005121351219713688,0.05112079530954361,-0.03189431503415108,0.022508343681693077,3.201916115358472e-05,0,-10,-977,-30,23,0,18,38,-48,187096.0
16:18:40.755,AUTO,-35.3632628,149.1652364,22891,-0.000910047150682658,0.009546351619064808,0.05046211928129196,-0.013163733296096325,0.014787135645747185,-0.0008889443706721067,0,-9,-977,-12,15,-1,17,36,-42,187096.0
16:18:40.957,AUTO,-35.3632628,149.1652364,22891,-0.000910047150682658,0.009546351619064808,0.05046211928129196,-0.013163733296096325,0.014787135645747185,-0.0008889443706721067,0,-9,-977,-12,15,-1,17,36,-42,187096.0
16:18:41.171,AUTO,-35.3632628,149.1652364,22891,-0.000910047150682658,0.009546351619064808,0.05046211928129196,-0.013163733296096325,0.014787135645747185,-0.0008889443706721067,0,-9,-977,-12,15,-1,17,36,-42,207721.0
16:18:41.373,AUTO,-35.3632628,149.1652364,22891,-0.000910047150682658,0.009546351619064808,0.05046211928129196,-0.013163733296096325,0.014787135645747185,-0.0008889443706721067,0,-9,-977,-12,15,-1,17,36,-42,207721.0
16:18:41.574,AUTO,-35.3632618,149.1652387,23135,-0.011345318518579006,0.014626236632466316,0.04811624437570572,0.0002253968850709498,-0.0005230934475548565,-0.004103328101336956,0,-5,-974,1,0,-4,10,23,-24,207721.0
16:18:41.776,AUTO,-35.3632615,149.1652393,23185,-0.01194002479314804,0.014172174036502838,0.047222964465618134,0.016156958416104317,-0.0002761354553513229,-0.0029661585576832294,0,-4,-972,17,0,-3,7,18,-17,207721.0
16:18:41.978,AUTO,-35.3632614,149.1652397,23216,-0.012316212058067322,0.012995768338441849,0.04632464796304703,-0.03214595466852188,-0.004894637037068605,-0.004800682421773672,0,-5,-969,-31,-4,-5,4,13,-10,207721.0
16:18:42.179,AUTO,-35.3632614,149.1652397,23216,-0.012316212058067322,0.012995768338441849,0.04632464796304703,-0.03214595466852188,-0.004894637037068605,-0.004800682421773672,0,-5,-969,-31,-4,-5,4,13,-10,207721.0
16:18:42.381,AUTO,-35.3632612,149.16524,23227,-0.019175898283720016,0.014364977367222309,0.04509348049759865,-0.2854176163673401,0.10301618278026581,-0.010109374299645424,-4,-11,-952,-284,103,-10,2,9,-1,207721.0
16:18:42.583,AUTO,-35.3632612,149.1652401,23203,-0.04801155626773834,0.02483942359685898,0.043867096304893494,-0.10236220806837082,-0.03577899932861328,-0.0071596866473555565,0,1,-967,-101,-34,-7,-1,0,13,207721.0
16:18:42.785,AUTO,-35.3632613,149.1652399,23159,-0.01841636188328266,0.003076066030189395,0.043482229113578796,0.767422616481781,-0.10360969603061676,-0.007300607860088348,0,31,-993,768,-102,-7,-4,-9,17,207721.0
16:18:42.987,AUTO,-35.3632613,149.1652399,23159,-0.01841636188328266,0.003076066030189395,0.043482229113578796,0.767422616481781,-0.10360969603061676,-0.007300607860088348,0,31,-993,768,-102,-7,-4,-9,17,207721.0
16:18:43.189,AUTO,-35.3632613,149.1652399,23159,-0.01841636188328266,0.003076066030189395,0.043482229113578796,0.767422616481781,-0.10360969603061676,-0.007300607860088348,0,31,-993,768,-102,-7,-4,-9,17,207721.0
16:18:43.391,AUTO,-35.3632613,149.1652399,23159,-0.01841636188328266,0.003076066030189395,0.043482229113578796,0.767422616481781,-0.10360969603061676,-0.007300607860088348,0,31,-993,768,-102,-7,-4,-9,17,207721.0
16:18:43.594,AUTO,-35.363261,149.1652391,23015,0.018955577164888382,-0.053861409425735474,0.04065144807100296,-0.7051109671592712,-0.05436163395643234,-0.004486457444727421,-3,-36,-1007,-704,-53,-4,16,-5,10,207721.0
16:18:43.795,AUTO,-35.3632605,149.165239,22987,0.02774590626358986,-0.06533266603946686,0.03869045153260231,-0.1820104718208313,-0.03965803235769272,-0.015803048387169838,-6,1,-1020,-180,-38,-15,29,2,6,207721.0
16:18:43.997,AUTO,-35.3632596,149.1652391,22967,0.04413532093167305,-0.07596630603075027,0.0381992906332016,0.5501540899276733,-0.03713591396808624,0.033466633409261703,-7,28,-1017,551,-36,33,45,11,4,207721.0
16:18:44.198,AUTO,-35.3632596,149.1652391,22967,0.04413532093167305,-0.07596630603075027,0.0381992906332016,0.5501540899276733,-0.03713591396808624,0.033466633409261703,-7,28,-1017,551,-36,33,45,11,4,207721.0
16:18:44.400,AUTO,-35.3632584,149.1652395,22950,0.052084825932979584,-0.08770516514778137,0.10887754708528519,0.6192353963851929,-0.0028057468589395285,0.5429013967514038,-12,10,-1023,620,-1,542,63,19,2,207721.0
16:18:44.602,AUTO,-35.3632568,149.1652401,22940,0.03653329983353615,-0.1037687212228775,0.31236129999160767,0.33710551261901855,-0.013208474032580853,0.9009642601013184,-17,-15,-1011,337,-12,900,82,28,0,207721.0
16:18:44.804,AUTO,-35.3632547,149.165241,22930,0.01609228365123272,-0.11837673932313919,0.47930994629859924,-0.38417911529541016,-0.0323248989880085,0.46316349506378174,-24,-38,-1003,-384,-31,462,101,39,1,207721.0
16:18:45.006,AUTO,-35.3632547,149.165241,22930,0.01609228365123272,-0.11837673932313919,0.47930994629859924,-0.38417911529541016,-0.0323248989880085,0.46316349506378174,-24,-38,-1003,-384,-31,462,101,39,1,207721.0
16:18:45.208,AUTO,-35.3632547,149.165241,22930,0.01609228365123272,-0.11837673932313919,0.47930994629859924,-0.38417911529541016,-0.0323248989880085,0.46316349506378174,-24,-38,-1003,-384,-31,462,101,39,1,200.0
16:18:45.410,AUTO,-35.3632547,149.165241,22930,0.01609228365123272,-0.11837673932313919,0.47930994629859924,-0.38417911529541016,-0.0323248989880085,0.46316349506378174,-24,-38,-1003,-384,-31,462,101,39,1,200.0
16:18:45.611,AUTO,-35.3632457,149.1652453,22892,0.026835041120648384,-0.15365120768547058,0.5000777244567871,0.4395217299461365,-0.055743034929037094,-0.09428033977746964,-35,-2,-1000,440,-54,-94,168,75,3,200.0
16:18:45.814,AUTO,-35.3632416,149.1652474,22876,0.02958722785115242,-0.16689951717853546,0.4797484576702118,0.010425138287246227,-0.05959297716617584,-0.03668273612856865,-43,-33,-1000,10,-58,-36,194,87,3,200.0
16:18:46.016,AUTO,-35.3632369,149.1652499,22856,0.026515938341617584,-0.18070048093795776,0.4687637686729431,-0.45905157923698425,-0.057783856987953186,-0.0050661335699260235,-47,-50,-1000,-458,-56,-5,222,100,6,200.0
16:18:46.218,AUTO,-35.3632316,149.1652527,22832,0.033999860286712646,-0.18880406022071838,0.46520331501960754,0.1192501112818718,-0.007203022018074989,-0.007628380320966244,-58,-19,-1010,120,-6,-7,251,115,7,200.0
16:18:46.420,AUTO,-35.3632316,149.1652527,22832,0.033999860286712646,-0.18880406022071838,0.46520331501960754,0.1192501112818718,-0.007203022018074989,-0.007628380320966244,-58,-19,-1010,120,-6,-7,251,115,7,200.0
16:18:46.621,AUTO,-35.3632256,149.1652559,22807,0.04455295577645302,-0.18876022100448608,0.466501384973526,0.3144957423210144,0.009779579937458038,0.00774040212854743,-56,-19,-1002,315,10,7,280,129,7,200.0
16:18:46.823,AUTO,-35.3632191,149.1652596,22782,0.03871852532029152,-0.18743149936199188,0.468992680311203,-0.17740094661712646,0.0048079462721943855,0.017050640657544136,-67,-57,-1002,-176,5,16,306,142,7,200.0
16:18:47.026,AUTO,-35.3632191,149.1652596,22782,0.03871852532029152,-0.18743149936199188,0.468992680311203,-0.17740094661712646,0.0048079462721943855,0.017050640657544136,-67,-57,-1002,-176,5,16,306,142,7,200.0
16:18:47.228,AUTO,-35.3632191,149.1652596,22782,0.03871852532029152,-0.18743149936199188,0.468992680311203,-0.17740094661712646,0.0048079462721943855,0.017050640657544136,-67,-57,-1002,-176,5,16,306,142,7,200.0
16:18:47.430,AUTO,-35.3632191,149.1652596,22782,0.03871852532029152,-0.18743149936199188,0.468992680311203,-0.17740094661712646,0.0048079462721943855,0.017050640657544136,-67,-57,-1002,-176,5,16,306,142,7,200.0
16:18:47.632,AUTO,-35.3631962,149.1652726,22697,0.045463547110557556,-0.19760259985923767,0.4683573246002197,0.2528717517852783,-0.02708076499402523,-0.022926539182662964,-91,-43,-1005,253,-26,-22,381,177,10,200.0
16:18:47.833,AUTO,-35.3631875,149.1652777,22665,0.04687134549021721,-0.20447836816310883,0.46871641278266907,0.10892025381326675,-0.03370887413620949,-0.002254507504403591,-91,-49,-992,109,-32,-2,406,188,11,200.0
16:18:48.035,AUTO,-35.3631782,149.1652831,22629,0.0438963919878006,-0.21116048097610474,0.4685218036174774,-0.11770158261060715,-0.007839661091566086,0.004740959964692593,-88,-57,-992,-116,-6,4,432,199,13,200.0
16:18:48.237,AUTO,-35.3631683,149.1652889,22588,0.043338872492313385,-0.21621467173099518,0.4674765467643738,-0.06957819312810898,-0.030970197170972824,-0.005405356641858816,-96,-62,-994,-68,-29,-5,457,211,14,200.0
16:18:48.439,AUTO,-35.3631683,149.1652889,22588,0.043338872492313385,-0.21621467173099518,0.4674765467643738,-0.06957819312810898,-0.030970197170972824,-0.005405356641858816,-96,-62,-994,-68,-29,-5,457,211,14,200.0
16:18:48.641,AUTO,-35.3631578,149.1652949,22545,0.04777337983250618,-0.2185007780790329,0.46630412340164185,0.08814236521720886,0.006564733572304249,-0.007653587497770786,-105,-57,-999,89,7,-7,483,221,15,200.0
16:18:48.843,AUTO,-35.3631468,149.1653012,22503,0.052337296307086945,-0.20948462188243866,0.46463292837142944,0.0037520527839660645,0.027921130880713463,-0.013549868948757648,-115,-52,-1006,4,28,-13,507,231,14,200.0
16:18:49.045,AUTO,-35.3631468,149.1653012,22503,0.052337296307086945,-0.20948462188243866,0.46463292837142944,0.0037520527839660645,0.027921130880713463,-0.013549868948757648,-115,-52,-1006,4,28,-13,507,231,14,200.0
16:18:49.246,AUTO,-35.3631468,149.1653012,22503,0.052337296307086945,-0.20948462188243866,0.46463292837142944,0.0037520527839660645,0.027921130880713463,-0.013549868948757648,-115,-52,-1006,4,28,-13,507,231,14,177217.0
16:18:49.448,AUTO,-35.3631468,149.1653012,22503,0.052337296307086945,-0.20948462188243866,0.46463292837142944,0.0037520527839660645,0.027921130880713463,-0.013549868948757648,-115,-52,-1006,4,28,-13,507,231,14,177217.0
16:18:49.650,AUTO,-35.3631109,149.1653215,22395,0.06489415466785431,-0.18714429438114166,0.4610990285873413,0.08081765472888947,0.05224122852087021,-0.01504252664744854,-122,-71,-1004,81,52,-15,563,253,11,177217.0
16:18:49.852,AUTO,-35.3630982,149.1653287,22364,0.06804043054580688,-0.17995014786720276,0.4606439769268036,0.04043801501393318,0.0030251408461481333,-0.00504602026194334,-120,-66,-988,41,4,-5,576,260,10,177217.0
16:18:50.053,AUTO,-35.3630851,149.165336,22333,0.07453098893165588,-0.17605969309806824,0.4596581757068634,0.021595610305666924,0.012330083176493645,0.006481615826487541,-137,-71,-993,22,13,6,588,264,10,177217.0
16:18:50.255,AUTO,-35.3630719,149.1653434,22301,0.0760689452290535,-0.17304839193820953,0.45868682861328125,0.013256563805043697,0.025235256180167198,-0.0007526561967097223,-134,-81,-990,14,26,0,598,270,11,177217.0
16:18:50.457,AUTO,-35.3630719,149.1653434,22301,0.0760689452290535,-0.17304839193820953,0.45868682861328125,0.013256563805043697,0.025235256180167198,-0.0007526561967097223,-134,-81,-990,14,26,0,598,270,11,177217.0
16:18:50.659,AUTO,-35.3630584,149.165351,22269,0.07712419331073761,-0.17009270191192627,0.45825403928756714,-0.020582199096679688,-0.009997251443564892,0.0006585844093933702,-119,-73,-979,-19,-9,0,605,274,11,177217.0
16:18:50.861,AUTO,-35.3630448,149.1653588,22233,0.07559214532375336,-0.16330115497112274,0.45793476700782776,-0.04482076317071915,0.05508191138505936,0.0018626360688358545,-122,-77,-983,-43,55,1,613,279,12,177217.0
16:18:51.070,AUTO,-35.3630448,149.1653588,22233,0.07559214532375336,-0.16330115497112274,0.45793476700782776,-0.04482076317071915,0.05508191138505936,0.0018626360688358545,-122,-77,-983,-43,55,1,613,279,12,177217.0
16:18:51.272,AUTO,-35.3630448,149.1653588,22233,0.07559214532375336,-0.16330115497112274,0.45793476700782776,-0.04482076317071915,0.05508191138505936,0.0018626360688358545,-122,-77,-983,-43,55,1,613,279,12,177217.0
16:18:51.474,AUTO,-35.3630032,149.1653825,22120,0.08127733319997787,-0.14601115882396698,0.4558815062046051,-0.022859007120132446,0.021743882447481155,0.00024382935953326523,-134,-94,-987,-21,22,0,625,285,13,177217.0
16:18:51.676,AUTO,-35.3630032,149.1653825,22120,0.08127733319997787,-0.14601115882396698,0.4558815062046051,-0.022859007120132446,0.021743882447481155,0.00024382935953326523,-134,-94,-987,-21,22,0,625,285,13,177217.0
16:18:51.877,AUTO,-35.3629892,149.1653904,22079,0.0770144909620285,-0.13867825269699097,0.4559890031814575,0.017131609842181206,0.03741471841931343,0.0023626303300261497,-135,-76,-985,18,38,2,625,287,14,177217.0
16:18:52.079,AUTO,-35.362975,149.1653985,22038,0.07727255672216415,-0.12920357286930084,0.4560885429382324,-0.007826626300811768,0.03204955533146858,0.000921526167076081,-113,-83,-975,-6,32,1,625,287,14,177217.0
16:18:52.281,AUTO,-35.362961,149.1654064,21996,0.07928989827632904,-0.12167132645845413,0.45585936307907104,-0.026612084358930588,-0.020702211186289787,-0.0026562924031168222,-137,-79,-985,-25,-19,-2,623,285,13,177217.0
16:18:52.483,AUTO,-35.362947,149.1654143,21953,0.08409449458122253,-0.13286307454109192,0.45494344830513,0.07776309549808502,-0.03723876550793648,-0.004894842393696308,-134,-79,-971,78,-36,-4,621,284,17,177217.0
16:18:52.685,AUTO,-35.362947,149.1654143,21953,0.08409449458122253,-0.13286307454109192,0.45494344830513,0.07776309549808502,-0.03723876550793648,-0.004894842393696308,-134,-79,-971,78,-36,-4,621,284,17,177217.0
16:18:52.887,AUTO,-35.3629331,149.1654222,21901,0.0859556645154953,-0.13710610568523407,0.4537788927555084,0.000992052024230361,-0.0013865435030311346,0.0004197022644802928,-130,-73,-978,1,0,0,621,285,20,177217.0
16:18:53.089,AUTO,-35.3629331,149.1654222,21901,0.0859556645154953,-0.13710610568523407,0.4537788927555084,0.000992052024230361,-0.0013865435030311346,0.0004197022644802928,-130,-73,-978,1,0,0,621,285,20,177217.0
16:18:53.291,AUTO,-35.3629331,149.1654222,21901,0.0859556645154953,-0.13710610568523407,0.4537788927555084,0.000992052024230361,-0.0013865435030311346,0.0004197022644802928,-130,-73,-978,1,0,0,621,285,20,300000.0
16:18:53.494,AUTO,-35.3628911,149.1654458,21728,0.08515308797359467,-0.14553098380565643,0.4529634416103363,0.08615901321172714,-0.0395016185939312,-0.018531091511249542,-160,-76,-995,87,-38,-18,621,287,20,300000.0
16:18:53.696,AUTO,-35.3628911,149.1654458,21728,0.08515308797359467,-0.14553098380565643,0.4529634416103363,0.08615901321172714,-0.0395016185939312,-0.018531091511249542,-160,-76,-995,87,-38,-18,621,287,20,300000.0
16:18:53.898,AUTO,-35.3628772,149.1654536,21668,0.08267013728618622,-0.15102854371070862,0.4527623951435089,-0.03357647731900215,0.014842134900391102,0.0025543225929141045,-134,-79,-989,-32,15,2,623,290,22,300000.0
16:18:54.099,AUTO,-35.3628631,149.1654616,21609,0.08399736136198044,-0.1403639316558838,0.4543485939502716,0.03641299903392792,0.039572589099407196,-0.009588496759533882,-149,-122,-1015,37,40,-9,627,289,18,300000.0
16:18:54.301,AUTO,-35.3628489,149.1654695,21559,0.09125082194805145,-0.13950346410274506,0.45241206884384155,-0.026923198252916336,-0.027504267171025276,-0.005578489508479834,-146,-80,-988,-25,-26,-5,626,290,17,300000.0
16:18:54.503,AUTO,-35.3628348,149.1654774,21507,0.08952239155769348,-0.14138178527355194,0.4511122405529022,-0.00873589888215065,0.03547998517751694,-0.009560942649841309,-115,-86,-974,-7,36,-9,627,291,18,300000.0
16:18:54.705,AUTO,-35.3628348,149.1654774,21507,0.08952239155769348,-0.14138178527355194,0.4511122405529022,-0.00873589888215065,0.03547998517751694,-0.009560942649841309,-115,-86,-974,-7,36,-9,627,291,18,300000.0
16:18:54.908,AUTO,-35.3628206,149.1654854,21456,0.08895047754049301,-0.13321207463741302,0.45070940256118774,0.00939655490219593,0.03517014533281326,-0.006865129340440035,-139,-80,-995,10,35,-6,626,293,16,300000.0
16:18:55.110,AUTO,-35.3628206,149.1654854,21456,0.08895047754049301,-0.13321207463741302,0.45070940256118774,0.00939655490219593,0.03517014533281326,-0.006865129340440035,-139,-80,-995,10,35,-6,626,293,16,300000.0
16:18:55.312,AUTO,-35.3628206,149.1654854,21456,0.08895047754049301,-0.13321207463741302,0.45070940256118774,0.00939655490219593,0.03517014533281326,-0.006865129340440035,-139,-80,-995,10,35,-6,626,293,16,300000.0
16:18:55.514,AUTO,-35.3627783,149.1655093,21349,0.09117741882801056,-0.08263706415891647,0.45240339636802673,0.0059256842359900475,0.05318829417228699,-0.005418713670223951,-130,-81,-992,6,53,-5,609,286,7,300000.0
16:18:55.716,AUTO,-35.3627646,149.165517,21324,0.0899033397436142,-0.06962727010250092,0.45238324999809265,-0.008487705141305923,0.06545613706111908,-0.011095520108938217,-133,-85,-990,-7,66,-11,597,281,7,300000.0
16:18:55.917,AUTO,-35.3627646,149.165517,21324,0.0899033397436142,-0.06962727010250092,0.45238324999809265,-0.008487705141305923,0.06545613706111908,-0.011095520108938217,-133,-85,-990,-7,66,-11,597,281,7,300000.0
16:18:56.119,AUTO,-35.3627512,149.1655246,21299,0.08901014178991318,-0.05484125763177872,0.4521324038505554,-0.008612774312496185,0.06732437014579773,-0.0009106548386625946,-114,-87,-987,-7,68,-1,584,275,7,300000.0
16:18:56.322,AUTO,-35.3627381,149.1655321,21273,0.08779797703027725,-0.04011069983243942,0.4521545171737671,0.021306069567799568,0.04498118907213211,-0.006521095521748066,-126,-77,-991,22,45,-6,567,268,8,300000.0
16:18:56.525,AUTO,-35.3627252,149.1655395,21243,0.08433027565479279,-0.03309536352753639,0.4526982605457306,-0.07661346346139908,0.025111649185419083,0.0008969288319349289,-119,-80,-982,-75,25,0,548,260,10,300000.0
16:18:56.727,AUTO,-35.362713,149.1655464,21209,0.08546827733516693,-0.025886310264468193,0.45260539650917053,0.05771724134683609,0.05024143308401108,-0.015990370884537697,-119,-79,-991,58,51,-15,529,251,12,300000.0
16:18:56.929,AUTO,-35.362713,149.1655464,21209,0.08546827733516693,-0.025886310264468193,0.45260539650917053,0.05771724134683609,0.05024143308401108,-0.015990370884537697,-119,-79,-991,58,51,-15,529,251,12,300000.0
16:18:57.131,AUTO,-35.362713,149.1655464,21209,0.08546827733516693,-0.025886310264468193,0.45260539650917053,0.05771724134683609,0.05024143308401108,-0.015990370884537697,-119,-79,-991,58,51,-15,529,251,12,300000.0
16:18:57.333,AUTO,-35.362713,149.1655464,21209,0.08546827733516693,-0.025886310264468193,0.45260539650917053,0.05771724134683609,0.05024143308401108,-0.015990370884537697,-119,-79,-991,58,51,-15,529,251,12,94929.0
16:18:57.536,AUTO,-35.3626794,149.1655659,21088,0.06661316007375717,0.012564362958073616,0.4522126019001007,-0.8353872299194336,0.0456908643245697,0.014299111440777779,-97,-105,-984,-834,46,14,464,221,17,94929.0
16:18:57.737,AUTO,-35.3626692,149.1655718,21038,0.05848652869462967,0.02374877780675888,0.45228999853134155,-0.4679981768131256,0.0333954319357872,0.010898057371377945,-95,-59,-1004,-465,34,10,438,211,18,94929.0
16:18:57.939,AUTO,-35.3626692,149.1655718,21038,0.05848652869462967,0.02374877780675888,0.45228999853134155,-0.4679981768131256,0.0333954319357872,0.010898057371377945,-95,-59,-1004,-465,34,10,438,211,18,94929.0
16:18:58.141,AUTO,-35.3626596,149.1655775,20988,0.061048563569784164,0.032750070095062256,0.4508209526538849,0.16903908550739288,0.049293212592601776,-0.0550152063369751,-88,-25,-1015,171,50,-55,411,198,17,94929.0
16:18:58.342,AUTO,-35.3626506,149.1655829,20943,0.06210264936089516,0.04384876787662506,0.4498988091945648,0.6713560223579407,0.03823590278625488,-0.03231476992368698,-83,-15,-1007,673,38,-32,384,186,17,94929.0
16:18:58.544,AUTO,-35.3626423,149.1655879,20903,0.06645642966032028,0.05255354940891266,0.4493485987186432,0.6654359698295593,0.0020118632819503546,0.005549499299377203,-77,-42,-1006,666,3,5,356,172,13,94929.0
16:18:58.746,AUTO,-35.3626347,149.1655926,20865,0.05768540874123573,0.0483761727809906,0.44972026348114014,0.19092769920825958,-0.020425457507371902,0.02742476388812065,-74,-65,-991,190,-19,27,328,158,15,94929.0
16:18:58.948,AUTO,-35.3626347,149.1655926,20865,0.05768540874123573,0.0483761727809906,0.44972026348114014,0.19092769920825958,-0.020425457507371902,0.02742476388812065,-74,-65,-991,190,-19,27,328,158,15,94929.0
16:18:59.150,AUTO,-35.3626347,149.1655926,20865,0.05768540874123573,0.0483761727809906,0.44972026348114014,0.19092769920825958,-0.020425457507371902,0.02742476388812065,-74,-65,-991,190,-19,27,328,158,15,94929.0
16:18:59.352,AUTO,-35.3626347,149.1655926,20865,0.05768540874123573,0.0483761727809906,0.44972026348114014,0.19092769920825958,-0.020425457507371902,0.02742476388812065,-74,-65,-991,190,-19,27,328,158,15,94929.0
16:18:59.553,AUTO,-35.3626151,149.165605,20771,0.017624804750084877,0.05670580640435219,0.4469147026538849,-0.336448609828949,0.032189443707466125,-0.015866221860051155,-63,-39,-1005,-334,33,-15,255,121,10,94929.0
16:18:59.755,AUTO,-35.3626097,149.1656084,20750,0.021542781963944435,0.06070056930184364,0.4470349848270416,0.4800580143928528,0.022725380957126617,-0.017579473555088043,-50,-2,-1010,482,23,-17,231,108,6,94929.0
16:18:59.957,AUTO,-35.3626097,149.1656084,20750,0.021542781963944435,0.06070056930184364,0.4470349848270416,0.4800580143928528,0.022725380957126617,-0.017579473555088043,-50,-2,-1010,482,23,-17,231,108,6,94929.0
16:19:00.159,AUTO,-35.3626049,149.1656115,20733,0.025279028341174126,0.06786361336708069,0.4469220042228699,0.6851416826248169,0.030265597626566887,0.007619818206876516,-45,-13,-1010,685,31,7,208,93,6,94929.0
16:19:00.360,AUTO,-35.3626006,149.1656142,20717,0.018387462943792343,0.07483923435211182,0.4466077983379364,-0.05656421184539795,0.01891188882291317,0.016096152365207672,-40,-51,-1004,-56,19,16,184,78,5,94929.0
16:19:00.562,AUTO,-35.3625968,149.1656164,20703,0.009510109201073647,0.07984750717878342,0.4471566677093506,-0.7079873085021973,0.029325883835554123,0.017208371311426163,-35,-60,-1011,-707,29,17,160,65,4,94929.0
16:19:00.764,AUTO,-35.3625936,149.1656183,20690,0.0039156461134552956,0.08140446990728378,0.44700300693511963,-0.3783813714981079,-0.01114773377776146,-0.008036110550165176,-29,-20,-997,-376,-10,-7,135,53,4,94929.0
16:19:00.972,AUTO,-35.3625936,149.1656183,20690,0.0039156461134552956,0.08140446990728378,0.44700300693511963,-0.3783813714981079,-0.01114773377776146,-0.008036110550165176,-29,-20,-997,-376,-10,-7,135,53,4,94929.0
16:19:01.174,AUTO,-35.3625936,149.1656183,20690,0.0039156461134552956,0.08140446990728378,0.44700300693511963,-0.3783813714981079,-0.01114773377776146,-0.008036110550165176,-29,-20,-997,-376,-10,-7,135,53,4,94929.0
16:19:01.379,AUTO,-35.3625936,149.1656183,20690,0.0039156461134552956,0.08140446990728378,0.44700300693511963,-0.3783813714981079,-0.01114773377776146,-0.008036110550165176,-29,-20,-997,-376,-10,-7,135,53,4,77726.0
16:19:01.583,AUTO,-35.3625869,149.1656222,20661,0.01022885087877512,0.05626997724175453,0.4460724890232086,0.34801673889160156,-0.032430242747068405,0.01085594017058611,-15,-8,-995,348,-31,10,76,23,1,77726.0
16:19:01.784,AUTO,-35.3625854,149.1656229,20658,0.000328075751895085,0.051301367580890656,0.44677749276161194,-0.49516913294792175,-0.016947874799370766,0.009935379028320312,-14,-37,-1000,-495,-16,10,61,16,0,77726.0
16:19:01.986,AUTO,-35.3625842,149.1656234,20655,-0.006960087921470404,0.046070463955402374,0.4468748867511749,-0.608909010887146,-0.020558178424835205,0.004367031157016754,-11,-20,-998,-607,-19,4,48,9,1,77726.0
16:19:02.188,AUTO,-35.3625842,149.1656234,20655,-0.006960087921470404,0.046070463955402374,0.4468748867511749,-0.608909010887146,-0.020558178424835205,0.004367031157016754,-11,-20,-998,-607,-19,4,48,9,1,77726.0
16:19:02.390,AUTO,-35.3625833,149.1656236,20652,-0.001316581154242158,0.040958892554044724,0.4466085135936737,0.20553337037563324,-0.02297038584947586,-0.0033004728611558676,-8,21,-1004,207,-21,-2,36,4,0,77726.0
