time_stamp,MODE,roll,pitch,yaw,rollspeed,pitchspeed,yawspeed,lat,lon,relative_alt,vx,vy,vz,xacc,yacc,zacc,xgyro,ygyro,zgyro,RTL_ALT
10:39:18,STABILIZE,0.0005961137940175831,0.0015955345006659627,0.02710624411702156,0.0002451513719279319,0.0003008238854818046,0.0022678617388010025,-35.3632621,149.1652374,0.0,-1.0,1.0,0.0,0.0,1.0,-1000.0,0.0,0.0,0.0,1500.0
10:39:26,STABILIZE,-0.0010890149278566241,0.0009379842958878726,0.023622794076800346,0.00013234623475000262,0.00026427356351632625,0.001814955670852214,-35.3632621,149.1652375,0.0,-1.0,0.5,0.5,0.0,1.0,-1000.0,0.0,0.0,0.0,1500.0
10:39:32,AUTO,-0.0009505268244538456,0.00097062045824714,0.02209191769361496,0.00027226199745200574,0.000363644037861377,0.001590368163306266,-35.3632622,149.1652375,0.0,-1.0,1.0,0.0,0.0,1.0,-1000.0,0.0,0.0,0.0,29573.5
10:39:34,AUTO,-0.0006956909589158992,0.001101769506931305,0.021672329554955166,0.00031553036145245034,0.00024258521928762397,0.0015608541046579678,-35.3632621,149.1652374,20.666666666666668,0.0,-0.3333333333333333,-3.6666666666666665,0.0,1.0,-1000.0,0.3333333333333333,0.3333333333333333,0.3333333333333333,57647.0
10:39:35,AUTO,-0.00039675916195847094,0.0014363054263715942,0.02136175272365411,0.00032381511603792507,0.0002963561952734987,0.001439098307552437,-35.3632621,149.1652375,26.666666666666668,0.0,0.6666666666666666,-2.3333333333333335,0.0,1.0,-1000.0,0.6666666666666666,0.3333333333333333,0.3333333333333333,68003.0
10:39:36,AUTO,-0.00020673283628032854,0.001662111336675783,0.021122368673483532,0.000282371436090519,0.00030514324316754937,0.001423933426849544,-35.3632621,149.1652375,26.0,0.0,1.0,-1.6666666666666667,0.0,1.0,-1000.0,0.0,0.6666666666666666,0.3333333333333333,68003.0
10:39:38,AUTO,0.024893071812887985,-0.0013306730543263257,0.020786698907613754,0.04682597269614538,-0.007034008391201496,0.0024768513006468615,-35.363262066666664,149.16523756666666,1440.0,0.3333333333333333,7.0,-144.66666666666666,0.0,-0.3333333333333333,-1019.3333333333334,47.0,-6.0,1.6666666666666667,94905.0
10:39:40,AUTO,-0.0341779850423336,0.009295096310476461,-0.0676757035156091,-0.060744740068912506,-0.020011783267060917,-0.03574767584602038,-35.3632609,149.165245,4471.666666666667,2.0,37.666666666666664,-147.66666666666666,3.3333333333333335,-7.333333333333333,-1003.6666666666666,-59.333333333333336,-18.666666666666668,-35.666666666666664,121807.0
10:39:41,AUTO,-0.057674827675024666,-0.0002304660932471355,-0.09987192352612813,0.057517360895872116,0.0026001697406172752,-0.012268527721365293,-35.36326086666667,149.1652448,6383.0,-4.0,-43.333333333333336,-148.0,-3.6666666666666665,7.0,-1001.0,57.666666666666664,3.0,-12.333333333333334,54314.0
10:39:42,AUTO,-0.010081467994799217,0.005841047503054142,-0.10521909594535828,0.06704018761714299,0.011304729618132114,-0.0009668665200782319,-35.363261333333334,149.16524016666668,7536.666666666667,-10.333333333333334,-61.333333333333336,-149.0,-6.333333333333333,12.333333333333334,-1003.0,67.0,11.333333333333334,-1.6666666666666667,54314.0
10:39:44,AUTO,0.04016635691126188,-0.048150951663653054,-0.04979334771633148,-0.10364888111750285,-0.044744595885276794,0.05868314206600189,-35.36326423333333,149.1652347,10640.0,-0.3333333333333333,33.0,-147.33333333333334,4.0,-4.0,-996.6666666666666,-102.66666666666667,-44.0,58.0,135389.5
10:39:46,AUTO,-0.011781475875371447,0.021144527321060497,-0.16145728528499603,0.045150045305490494,0.012884715261558691,-0.035705662022034325,-35.363260233333335,149.16523716666666,13725.666666666666,12.333333333333334,-17.666666666666668,-151.66666666666666,-4.333333333333333,1.0,-1001.3333333333334,45.333333333333336,12.666666666666666,-35.666666666666664,216465.0
10:39:47,AUTO,0.01886576972901821,0.016812173339227836,-0.17227204144001007,-0.005807654156039159,-0.01718786172568798,0.009853272698819637,-35.363260133333334,149.1652352,15676.666666666666,-12.333333333333334,-1.3333333333333333,-151.0,0.3333333333333333,1.6666666666666667,-998.3333333333334,-5.333333333333333,-16.333333333333332,9.333333333333334,148587.0
10:39:48,AUTO,0.009302943168828884,0.005034292892863353,-0.16711259384950003,-0.013635998281339804,-0.011967691282431284,0.0009557517866293589,-35.36326089999999,149.16523533333336,16841.333333333332,-14.0,8.0,-150.33333333333334,2.3333333333333335,0.3333333333333333,-999.6666666666666,-12.666666666666666,-11.0,0.3333333333333333,148587.0
10:39:50,AUTO,-0.027332905679941177,0.02308988105505705,0.008752089614669481,0.11905825013915698,-0.08744549254576366,0.22799131646752357,-35.36326306666667,149.1652341,19843.666666666668,-27.0,-37.333333333333336,-123.33333333333333,0.3333333333333333,9.666666666666666,-953.3333333333334,119.0,-87.0,227.0,102905.0
10:39:52,AUTO,0.028985969722270966,-0.007922650217854729,0.028602644180258114,-0.04412492737174034,0.03430938348174095,0.0026107401742289462,-35.36326426666667,149.16523296666668,21547.0,17.0,38.0,-50.333333333333336,0.0,-8.666666666666666,-976.6666666666666,-42.666666666666664,34.666666666666664,2.0,57223.0
10:39:53,AUTO,-0.009043021748463312,0.015285464003682137,0.02574343668917815,-0.006866022944450378,0.0034908418698857227,-0.0006799325929023325,-35.363262133333336,149.1652379,22024.333333333332,12.666666666666666,30.0,-22.666666666666668,0.3333333333333333,-7.333333333333333,-975.0,-5.666666666666667,4.333333333333333,-0.3333333333333333,292409.0
10:39:54,AUTO,-0.02333518397063017,0.01934543065726757,0.023215404401222866,0.1468030254667004,0.003096045615772406,-0.001611636932163189,-35.36326143333333,149.16523966666668,22114.0,3.6666666666666665,13.333333333333334,1.3333333333333333,0.3333333333333333,1.0,-963.0,147.33333333333334,4.333333333333333,-1.3333333333333333,292409.0
10:39:56,AUTO,0.05486801639199257,0.06892621020476024,0.10901579881707828,-0.1662134202197194,0.028982285720606644,0.35913797850177315,-35.36326556666666,149.16524,21853.0,-67.33333333333333,28.666666666666668,1.3333333333333333,16.333333333333332,-6.0,-1007.6666666666666,-165.33333333333334,29.333333333333332,358.6666666666667,154758.5
10:39:58,AUTO,0.1792656828959783,-0.06747520218292873,1.5130540132522583,0.06743975480397542,-0.0022597399850686393,0.7795006434122721,-35.363290666666664,149.16525656666667,21818.666666666668,-233.66666666666666,147.0,2.6666666666666665,10.666666666666666,-55.333333333333336,-1005.6666666666666,68.66666666666667,-1.3333333333333333,779.0,17108.0
10:39:59,AUTO,0.06968683128555615,-0.19837460915247598,2.4702247778574624,0.03709574540456136,-0.03217344544827938,0.7030514677365621,-35.363323799999996,149.16528003333335,21779.666666666668,-360.3333333333333,223.0,3.3333333333333335,-75.66666666666667,-58.666666666666664,-1000.6666666666666,38.333333333333336,-30.666666666666668,702.3333333333334,99792.0
10:40:00,AUTO,0.031456914419929184,-0.22996104756991068,2.7232545216878257,0.012475683353841305,-0.020075938043495018,-0.016557010511557262,-35.363350366666666,149.16529923333334,21744.0,-434.6666666666667,262.6666666666667,5.333333333333333,-112.33333333333333,-44.333333333333336,-1000.6666666666666,14.0,-18.666666666666668,-16.666666666666668,99792.0
10:40:02,AUTO,0.0731566920876503,-0.17540655036767325,2.6590781211853027,0.0003442235756665468,0.022420456632971764,0.0018532622295121353,-35.363443399999994,149.1653657,21734.666666666668,-571.0,327.6666666666667,-3.6666666666666665,-138.33333333333334,-68.33333333333333,-984.6666666666666,1.6666666666666667,23.0,2.0,173346.5
10:40:04,AUTO,0.07392952591180801,-0.1276133731007576,2.656116167704264,-0.006227159406989813,-0.009132457276185354,0.0019453983598699172,-35.36355053333333,149.16543986666667,21761.666666666668,-593.0,333.0,-0.3333333333333333,-131.66666666666666,-77.0,-975.0,-5.333333333333333,-7.666666666666667,2.0,246901.0
10:40:05,AUTO,0.07149232923984528,-0.1445073535044988,2.652062018712362,-0.01926847407594323,0.01264264186223348,0.0013066422737513979,-35.3636174,149.1654857,21680.333333333332,-594.3333333333334,335.3333333333333,6.333333333333333,-133.66666666666666,-75.0,-994.6666666666666,-17.666666666666668,13.333333333333334,1.0,243581.0
10:40:06,AUTO,0.07123540838559468,-0.14483627676963806,2.650911728541056,0.017867456500728924,0.004188765538856387,-0.004305271121362845,-35.3636577,149.16551343333333,21633.0,-597.0,339.0,3.3333333333333335,-129.66666666666666,-84.0,-988.6666666666666,19.333333333333332,5.333333333333333,-3.6666666666666665,243581.0
10:40:08,AUTO,0.07990654309590657,-0.13352149724960327,2.646820386250814,-0.0014073445151249568,0.01997832969451944,-0.0002737716616441806,-35.36376546666667,149.1655886,21569.0,-598.0,339.6666666666667,0.0,-132.0,-77.33333333333333,-985.3333333333334,-0.3333333333333333,20.333333333333332,0.0,136462.5
10:40:10,AUTO,0.07867819567521413,-0.03520158181587855,2.6469523906707764,-0.04629670331875483,0.04238264821469784,-0.0002991399815073237,-35.363867766666665,149.16565980000001,21596.0,-515.3333333333334,289.6666666666667,-2.6666666666666665,-116.66666666666667,-76.33333333333333,-989.3333333333334,-45.0,43.0,-0.3333333333333333,29344.0
10:40:11,AUTO,0.06600671385725339,0.02227788884192705,2.6468480428059897,0.08758527040481567,0.055046550929546356,-0.020216102246195078,-35.3639201,149.16569583333333,21547.333333333332,-407.0,225.33333333333334,4.333333333333333,-91.33333333333333,-59.333333333333336,-1002.6666666666666,89.33333333333333,55.666666666666664,-20.0,204482.0
10:40:12,AUTO,0.044740098218123116,0.04529289652903875,2.6466683546702066,-0.5738814870516459,0.0001146400657792886,0.020192773547023535,-35.36394513333334,149.16571273333332,21493.0,-328.6666666666667,179.33333333333334,3.6666666666666665,-72.66666666666667,-73.66666666666667,-1006.6666666666666,-572.3333333333334,1.3333333333333333,20.0,204482.0
10:40:14,AUTO,0.01593871663014094,0.07924726605415344,2.6438989639282227,0.292062696069479,0.0009673116728663445,-0.0015173408901318908,-35.36398723333333,149.16574006666664,21420.0,-133.33333333333334,74.33333333333333,0.0,-30.0,-13.0,-1010.3333333333334,293.3333333333333,1.6666666666666667,-1.0,107152.0
10:40:16,AUTO,-0.0031640659047601125,0.03550116717815399,2.6426857312520347,0.19249840577443442,-0.019251621638735134,-0.0007588654213274518,-35.36399913333333,149.16574806666665,21423.0,-6.666666666666667,12.333333333333334,0.0,-5.0,10.0,-1002.6666666666666,194.0,-17.333333333333332,0.0,9822.0
10:40:18,RTL,0.00014900447179873785,-0.008185318671166897,2.640227715174357,0.09323540329933167,-0.010442158052076897,0.002600324689410627,-35.36399863333333,149.1657493333333,21440.333333333332,10.0,0.0,0.0,-1.0,10.333333333333334,-999.0,94.33333333333333,-8.666666666666666,2.3333333333333335,79920.0
10:40:20,RTL,0.009334666809688011,0.00976175225029389,2.636192878087362,0.07085867847005527,-0.0007666521705687046,0.006674049887806177,-35.363999166666666,149.16575146666665,21587.0,0.0,-8.333333333333334,-30.333333333333332,-1.0,6.0,-1044.3333333333333,73.0,0.3333333333333333,7.0,79920.0
10:40:21,RTL,0.0058853477239608765,0.005789842611799638,2.6349666913350425,0.037247972562909126,-0.0012062171784540017,0.006228995819886525,-35.3639992,149.1657519,22270.0,3.0,-14.666666666666666,-84.66666666666667,0.0,2.3333333333333335,-1046.0,38.666666666666664,0.0,7.0,157349.0
10:40:22,RTL,0.004501311418910821,0.003225561153764526,2.6347452799479165,0.007929996393310526,-0.0016055570061629016,0.004422101347396771,-35.36399906666667,149.16575186666668,23052.666666666668,3.0,-16.0,-118.0,0.6666666666666666,0.3333333333333333,-1044.6666666666667,9.333333333333334,0.3333333333333333,5.0,157349.0
10:40:24,RTL,0.030679184943437576,0.0035540351333717504,2.604424556096395,-0.10720228559027116,0.0480931227405866,-0.08132983247439067,-35.36400033333334,149.16574843333333,26125.666666666668,-32.0,-48.333333333333336,-144.33333333333334,3.3333333333333335,-10.333333333333334,-994.6666666666666,-105.0,49.666666666666664,-79.66666666666667,225979.0
10:40:26,RTL,-0.03839311624566714,-0.007596272664765517,2.524217208226522,0.055576770255963005,0.0013704504429673154,-0.011509646040697893,-35.36400133333333,149.16574593333334,29178.666666666668,21.666666666666668,28.0,-148.66666666666666,-2.3333333333333335,6.666666666666667,-1000.3333333333334,57.333333333333336,3.0,-9.666666666666666,225979.0
10:40:27,RTL,0.014410379653175672,-0.004293481586501002,2.5194102923075357,0.008654161666830381,-0.003129907068796456,0.004455821278194587,-35.3639985,149.16575023333334,31119.0,19.0,21.333333333333332,-150.0,-2.6666666666666665,6.0,-999.3333333333334,10.666666666666666,-1.0,5.333333333333333,238776.0
10:40:28,RTL,0.011661687244971594,-0.006687560894836982,2.5206708113352456,-0.01018591970205307,-0.002104767559406658,-0.0024952422051380077,-35.36399743333333,149.16575146666665,32285.333333333332,9.0,8.0,-150.0,-0.6666666666666666,3.3333333333333335,-999.3333333333334,-7.666666666666667,-0.6666666666666666,-1.3333333333333333,238776.0
10:40:30,RTL,-0.004176824741686384,-0.004770507259915273,2.4911484718322754,-0.0019493072759360075,0.0030870346818119287,-0.022950469826658566,-35.3639971,149.16575163333334,35396.0,-3.6666666666666665,0.0,-150.0,0.0,-0.6666666666666666,-1000.0,0.0,4.333333333333333,-21.666666666666668,276023.0
10:40:32,RTL,-0.004742093694706758,-0.0013123757283513744,2.445288817087809,-0.0025489206115404763,0.0001673392252996564,-0.0222626943141222,-35.36399766666667,149.16575136666668,38512.666666666664,-2.3333333333333335,-0.3333333333333333,-151.0,0.0,-1.0,-999.6666666666666,-0.6666666666666666,1.6666666666666667,-20.333333333333332,276023.0
10:40:33,RTL,-0.005890934728085995,-0.0023267950552205243,2.4193197886149087,-0.0001665713886419932,-0.001469732300999264,-0.019713900983333588,-35.3639979,149.1657509,40462.0,-0.6666666666666666,-1.0,-151.0,0.0,0.0,-1000.0,2.0,0.0,-18.0,49079.0
10:40:34,RTL,-0.0056724863437314825,-0.0033672775607556105,2.4045069217681885,-0.0007779974645624558,-0.0009524837369099259,-0.019018651296695072,-35.36399793333334,149.1657506,41634.666666666664,0.0,-0.6666666666666666,-151.0,0.0,0.0,-1000.0,1.3333333333333333,0.6666666666666666,-17.0,49079.0
10:40:36,RTL,-0.005710885704805453,-0.0026750140047321715,2.3627282778422036,0.0017668839233616989,0.0013186365055541198,-0.01864283283551534,-35.3639981,149.1657502,44748.333333333336,0.0,0.0,-151.0,0.0,0.0,-1000.0,3.3333333333333335,3.0,-16.666666666666668,193155.0
10:40:38,RTL,-0.004251273814588785,-0.0020652350892002382,2.3866496086120605,-0.0036405151089032492,-0.0027180552327384553,0.028174226482709248,-35.36399813333333,149.1657496,47864.0,0.0,-3.3333333333333335,-151.0,0.0,0.0,-1000.0,-1.0,-0.3333333333333333,28.666666666666668,193155.0
10:40:39,RTL,-0.006878797896206379,-0.003607025525222222,2.4188032944997153,-0.0007305918261408806,0.0006853787150854865,0.023637575407822926,-35.3639982,149.16574913333332,49806.0,0.0,-1.0,-151.0,0.0,0.0,-1000.0,0.6666666666666666,1.6666666666666667,24.0,192521.0
10:40:40,RTL,-0.006565618483970563,-0.0032733510403583446,2.4354588190714517,0.0015058590409656365,6.822442325452964e-05,0.021350651358564694,-35.3639982,149.16574903333333,50973.666666666664,0.0,0.0,-151.0,0.0,0.0,-1000.0,2.6666666666666665,1.6666666666666667,22.0,192521.0
10:40:42,RTL,-0.0049880923082431155,-0.002405195419366161,2.4697135289510093,0.0019374134329458077,0.0005949554809679588,0.015790184028446674,-35.3639983,149.16574923333334,54079.333333333336,0.0,1.0,-151.0,0.0,0.0,-1000.0,3.3333333333333335,1.6666666666666667,16.666666666666668,292851.0
10:40:44,RTL,-0.004044103901833296,-0.0013682903178657095,2.4953349431355796,-0.0006700838760783275,7.095599236587684e-05,0.012620948255062103,-35.3639984,149.1657496,57186.0,0.6666666666666666,0.0,-151.0,0.0,0.0,-999.6666666666666,1.0,1.3333333333333333,13.333333333333334,292851.0
10:40:45,RTL,-0.004600069796045621,-0.0017837065582474072,2.5079065958658853,-0.00039715308230370283,-0.00013980824345101914,0.009089767932891846,-35.3639984,149.1657497,59128.0,1.0,0.0,-151.33333333333334,0.0,0.0,-1000.0,1.3333333333333333,1.0,10.0,55736.0
10:40:46,RTL,-0.004474411873767774,-0.001706699258647859,2.514379103978475,-7.058854680508375e-05,0.00023212175195415816,0.009950254733363787,-35.3639984,149.1657497333333,60293.666666666664,1.0,0.0,-152.0,0.0,0.0,-1000.0,1.3333333333333333,1.6666666666666667,10.666666666666666,55736.0
10:40:48,RTL,-0.004211504322787126,-0.0017676464437196653,2.528797467549642,0.0007018904046465954,-0.00012232281733304262,0.00715510081499815,-35.3639984,149.1657499,63404.333333333336,1.0,-0.3333333333333333,-152.0,0.0,0.0,-1000.0,2.0,1.3333333333333333,8.0,109578.0
10:40:50,RTL,-0.0041087606611351175,-0.0016703129513189197,2.541161139806112,0.0006987735784302155,0.00011803353360543649,0.006625028171887,-35.3639984,149.1657499,66506.0,1.0,-0.6666666666666666,-152.0,0.0,0.0,-999.6666666666666,2.0,1.6666666666666667,7.666666666666667,109578.0
10:40:51,RTL,-0.0037670795184870562,-0.0021671352442353964,2.5481975078582764,-8.428919439514478e-05,-0.00028511307512720424,0.004472451750189066,-35.3639984,149.1657499,68451.33333333333,0.0,-1.0,-152.0,0.0,0.0,-1000.6666666666666,1.3333333333333333,1.0,5.666666666666667,425.0
10:40:52,RTL,-0.003869068964074055,-0.0019773150561377406,2.5520406564076743,0.0005480797650913397,0.000356516878431042,0.005097326046476762,-35.3639984,149.16575,69620.66666666667,0.0,-1.0,-152.0,0.0,0.0,-1000.3333333333334,2.0,1.6666666666666667,6.0,425.0
10:40:54,RTL,-0.003926979222645362,-0.0017136613993595045,2.5613006750742593,-0.0002784712705761194,0.00027412758208811283,0.003929441251481573,-35.3639984,149.16575,72722.0,0.0,-1.0,-152.0,0.0,0.0,-1000.0,1.3333333333333333,1.6666666666666667,5.333333333333333,13200.0
10:40:56,RTL,-0.004007367261995872,-0.0017645448291053374,2.5699774424235025,0.0004983874581133326,-1.7320426801840465e-05,0.00587035979454716,-35.3639984,149.16575,75827.66666666667,0.0,-1.0,-151.33333333333334,0.0,0.0,-1000.0,2.0,1.3333333333333333,6.666666666666667,13200.0
10:40:57,RTL,-0.0030624717473983765,-0.0021319080454607806,2.574607531229655,0.0011075591513266165,-0.0008137072436511517,0.004092303298724194,-35.3639984,149.16575,77772.0,0.0,-1.0,-152.0,0.0,0.0,-1000.3333333333334,3.0,0.6666666666666666,5.333333333333333,240666.0
10:40:58,RTL,-0.0033000401065995297,-0.0020483866489181914,2.577113389968872,-0.0006635724566876888,0.0002760797118147214,0.002798641100525856,-35.3639984,149.16575,78937.66666666667,0.0,-1.0,-152.0,0.0,0.0,-1000.3333333333334,1.3333333333333333,2.0,3.6666666666666665,240666.0
10:41:00,RTL,-0.0035827086151887975,-0.0017743972906221945,2.5831288496653237,7.235371352483828e-05,7.382628973573446e-05,0.003916608635336161,-35.3639984,149.16575,82042.66666666667,0.0,-1.0,-151.66666666666666,0.0,0.0,-1000.0,1.6666666666666667,1.3333333333333333,4.666666666666667,32672.0
10:41:02,RTL,-0.0036920226799945035,-0.001768118313824137,2.5886871019999185,0.0005385213686774174,-0.0008393713117887577,0.004967334990700086,-35.3639984,149.16575,85156.33333333333,0.0,-1.0,-151.66666666666666,0.0,0.0,-999.6666666666666,2.0,0.6666666666666666,6.0,32672.0
10:41:03,RTL,-0.003567360108718276,-0.0018245618557557464,2.591648896535238,0.0010548945671568315,-3.931182436645031e-05,0.00421131153901418,-35.3639984,149.16575,87089.66666666667,0.0,-1.0,-151.0,0.0,0.0,-1000.0,2.6666666666666665,1.3333333333333333,5.333333333333333,43142.0
10:41:04,RTL,-0.0034636595907310643,-0.001783481954286496,2.5932816664377847,-0.0003955991317828496,-0.00023929669987410307,0.0017949929848934214,-35.3639984,149.16575,88259.0,0.0,-1.0,-151.0,0.0,0.0,-1000.0,1.3333333333333333,1.3333333333333333,2.6666666666666665,43142.0
10:41:06,RTL,-0.0035775803650418916,-0.0016495451952020328,2.5973571141560874,0.001073262421414256,0.0003482140212630232,0.002609483509634932,-35.3639984,149.16575,91368.0,0.0,-1.0,-152.0,0.0,0.0,-1000.3333333333334,2.3333333333333335,2.0,3.6666666666666665,3488.0
10:41:08,RTL,-0.0028325305320322514,-0.001483903576930364,2.600949684778849,0.0006951779748002688,0.0007186141641189655,0.0030072396621108055,-35.3639984,149.1657501,94474.33333333333,0.0,-2.0,-152.0,0.0,0.0,-999.6666666666666,2.3333333333333335,2.6666666666666665,4.0,3488.0
10:41:09,RTL,-0.003456264346217116,-0.0015072743020330865,2.6028228600819907,-0.0018717453349381685,-0.0009364752719799677,0.0021801602949077883,-35.3639984,149.1657501,96417.66666666667,0.0,-2.0,-152.0,0.0,0.0,-1000.0,0.3333333333333333,1.0,3.3333333333333335,290206.0
10:41:10,RTL,-0.004033481081326802,-0.0019247171003371477,2.6042359670003257,-0.0006816041034956773,-0.00018938064264754453,0.0013219315636282165,-35.3639984,149.1657501,97585.0,0.0,-2.0,-152.0,0.0,0.0,-999.6666666666666,1.3333333333333333,1.6666666666666667,2.6666666666666665,290206.0
10:41:12,RTL,-0.003651787294074893,-0.0016094799696778257,2.6070972283681235,-0.00036125979386270046,-0.0003400319255888462,0.002158279142652949,-35.3639984,149.1657501,100689.33333333333,0.0,-1.0,-152.0,0.0,0.0,-1000.3333333333334,1.3333333333333333,1.3333333333333333,3.6666666666666665,154313.0
10:41:14,RTL,-0.003371671075001359,-0.0017239255054543416,2.609689235687256,-0.0006641781268020471,0.0003809804717699687,0.0015159351751208305,-35.3639984,149.1657501,103795.33333333333,0.0,-1.0,-152.0,0.0,0.0,-1000.0,1.3333333333333333,2.0,2.6666666666666665,154313.0
10:41:15,RTL,-0.003445906564593315,-0.0016514558034638565,2.6108272870381675,-0.000391946950306495,0.0009397498797625303,0.0014033242672060926,-35.3639984,149.1657501,105737.66666666667,0.0,-1.0,-152.0,0.0,0.0,-1000.0,1.3333333333333333,2.3333333333333335,2.6666666666666665,128395.0
10:41:16,RTL,-0.0033041470063229403,-0.0016037879201273124,2.6116340160369873,0.000515341137846311,0.0001496241893619299,0.00190223540024211,-35.3639984,149.1657501,106903.0,0.0,-1.6666666666666667,-152.0,0.0,0.0,-1000.0,2.3333333333333335,1.6666666666666667,3.0,128395.0
10:41:18,RTL,-0.0032009875867515802,-0.001523148346071442,2.613362709681193,-0.0010337356943637133,0.0006011483104278644,0.0023607087787240744,-35.3639984,149.1657501,110013.0,0.0,-2.0,-152.0,0.0,0.0,-999.6666666666666,1.0,2.3333333333333335,4.0,168661.0
10:41:20,RTL,-0.003879727174838384,-0.001886686310172081,2.6149497032165527,-0.0005611900705844164,-0.0006886363650361697,0.001176915131509304,-35.3639984,149.1657501,113120.66666666667,0.0,-2.0,-152.0,0.0,0.0,-1000.0,1.3333333333333333,1.3333333333333333,2.6666666666666665,168661.0
10:41:21,RTL,-0.0036883934711416564,-0.0016430965236698587,2.6157254378000894,0.0006493202333028117,0.0010495578559736411,0.0010869925220807393,-35.3639984,149.1657501,115063.0,0.0,-1.0,-152.0,0.0,0.0,-999.6666666666666,2.6666666666666665,2.6666666666666665,2.3333333333333335,9840.0
10:41:22,RTL,-0.00346574024297297,-0.001674683337720732,2.616229295730591,-0.00010244501754641533,0.00015006389003247023,0.00141047197394073,-35.3639984,149.1657501,116236.33333333333,0.0,-1.0,-152.0,0.0,0.0,-1000.0,1.6666666666666667,2.0,2.6666666666666665,9840.0
10:41:24,RTL,-0.00334171454111735,-0.0017235768027603626,2.6173770427703857,0.0013651734528442223,0.0003594411537051201,0.0025632421796520552,-35.3639984,149.1657501,119335.33333333333,0.0,-1.3333333333333333,-152.0,0.0,0.0,-1000.0,3.0,2.3333333333333335,4.0,196414.0
10:41:26,RTL,-0.0027853476349264383,-0.001248487193758289,2.6183136304219565,0.0003261686069890857,-0.0005875917073960105,0.0018796147778630257,-35.3639984,149.1657501,122449.66666666667,0.0,-2.0,-152.0,0.0,0.0,-1000.0,2.3333333333333335,1.0,3.6666666666666665,196414.0
10:41:27,RTL,-0.003031501779332757,-0.00137392058968544,2.618922154108683,0.0007584338697294394,0.0001583814931412538,0.0007795719429850578,-35.3639984,149.1657501,124392.0,0.0,-2.0,-152.0,0.0,0.0,-999.6666666666666,2.6666666666666665,2.0,2.0,47328.0
10:41:28,RTL,-0.0034074554375062385,-0.001281195766447733,2.6196464697519937,-0.000623499082090954,0.0012842028712232907,0.0016657029821847875,-35.3639984,149.1657501,125556.66666666667,0.0,-2.0,-152.0,0.0,0.0,-999.6666666666666,1.3333333333333333,3.0,3.0,47328.0
10:41:30,RTL,-0.0036477710430820784,-0.0018627416575327516,2.620701313018799,-0.001158744019145767,-1.118596022327741e-05,0.0031317550844202438,-35.3639984,149.1657501,128668.0,0.0,-2.0,-152.0,0.0,0.0,-999.3333333333334,1.0,2.3333333333333335,4.333333333333333,43843.0
10:41:32,RTL,-0.0035136621445417404,-0.0014063744650532801,2.6211771170298257,-0.0007066143055756887,-7.352248455087344e-06,0.001961177991082271,-35.3639984,149.1657501,131770.33333333334,0.0,-1.0,-152.0,0.0,0.0,-999.3333333333334,1.6666666666666667,1.6666666666666667,3.3333333333333335,43843.0
10:41:33,RTL,-0.0036454363726079464,-0.00138125983842959,2.621550957361857,-0.0009035895733783642,0.0003974655410274863,0.0009552807702372471,-35.3639984,149.1657501,133712.33333333334,0.0,-2.0,-152.0,0.0,0.0,-999.3333333333334,1.0,2.3333333333333335,2.6666666666666665,16000.0
10:41:34,RTL,-0.003583789880697926,-0.0016491865972056985,2.621612071990967,0.0004728889713684718,0.00018374520974854627,0.00018899961529920498,-35.3639984,149.1657501,134877.66666666666,0.0,-2.0,-152.0,0.0,0.0,-999.6666666666666,2.6666666666666665,2.3333333333333335,1.6666666666666667,16000.0
10:41:36,RTL,-0.0029629547304163375,-0.0016221905825659633,2.6223721504211426,0.0002414058738698562,2.826835649708907e-05,0.0012039590316514175,-35.3639984,149.1657501,137987.66666666666,0.0,-2.0,-152.0,0.0,0.0,-1000.0,2.3333333333333335,2.0,2.6666666666666665,135346.0
10:41:38,RTL,-0.0031970342000325522,-0.001463952745931844,2.6225098768870034,-0.00014580305044849715,0.0001319163323690494,0.0010788501240313053,-35.3639984,149.1657501,141091.66666666666,0.0,-2.0,-152.0,0.0,0.0,-999.6666666666666,2.0,2.0,2.6666666666666665,135346.0
10:41:39,RTL,-0.003458220356454452,-0.001653296562532584,2.622780720392863,-0.0006354249392946562,-1.9780748213330906e-05,0.0003458863745133082,-35.3639984,149.1657501,143039.66666666666,0.0,-2.0,-152.0,0.0,0.0,-1000.0,1.3333333333333333,2.0,2.0,204756.0
10:41:40,RTL,-0.003870977166419228,-0.0018023067386820912,2.6228841145833335,0.0009922742222746213,0.0005937810055911541,0.0015880227244148652,-35.3639984,149.1657501,144207.0,0.0,-2.0,-152.0,0.0,0.0,-1000.3333333333334,3.3333333333333335,2.3333333333333335,3.0,204756.0
10:41:42,RTL,-0.003275867085903883,-0.0016489859359959762,2.6232030391693115,-0.0002562922891229391,-0.0006114850984886289,0.0007874438694367806,-35.3639984,149.1657501,147311.33333333334,0.0,-1.0,-152.0,0.0,0.0,-1000.0,1.6666666666666667,1.3333333333333333,2.3333333333333335,76416.0
10:41:44,RTL,-0.0028298788238316774,-0.001085728678541879,2.6237295468648276,0.0006617514882236719,0.0009094565951575836,0.001691011634344856,-35.3639984,149.1657501,150413.0,0.0,-2.0,-152.0,0.0,0.0,-1000.3333333333334,2.6666666666666665,3.0,3.3333333333333335,76416.0
10:41:45,RTL,-0.0030220497865229845,-0.0015345816888536017,2.6243892510732016,-0.000302689615637064,-0.0003310150932520628,0.0014236271381378174,-35.3639984,149.1657501,152362.33333333334,0.0,-2.0,-152.0,0.0,0.0,-999.3333333333334,1.6666666666666667,1.6666666666666667,3.0,32274.0
10:41:46,RTL,-0.0031897114434589944,-0.0015020324693371852,2.624328374862671,-0.0005726250431810816,0.00045003221991161507,0.0018250169232487679,-35.3639984,149.1657501,153527.0,0.0,-2.0,-152.0,0.0,0.0,-999.3333333333334,2.0,2.3333333333333335,3.6666666666666665,32274.0
10:41:48,RTL,-0.003334675139437119,-0.0015359133249148726,2.624558925628662,-0.00020653684623539448,-0.0002604963180298607,0.001646278309635818,-35.3639984,149.1657501,156637.33333333334,0.0,-2.0,-152.0,0.0,0.0,-999.3333333333334,1.6666666666666667,2.0,3.3333333333333335,171639.0
10:41:50,RTL,-0.0038231080397963524,-0.0012548875141267974,2.6246487299601235,-0.0006722559531529745,-0.0002870166984697183,-0.00010410995067407687,-35.3639984,149.1657501,159742.0,0.3333333333333333,-1.6666666666666667,-152.0,0.0,0.0,-1000.0,1.3333333333333333,2.0,1.6666666666666667,171639.0
10:41:51,RTL,-0.003280852921307087,-0.0015813012917836506,2.624604066212972,0.000588529355203112,-0.00019197903263072172,0.0009148987786223491,-35.3639984,149.1657501,161682.33333333334,0.6666666666666666,-2.0,-152.0,0.0,0.0,-999.6666666666666,2.6666666666666665,1.6666666666666667,3.0,282147.0
10:41:52,RTL,-0.0035401064281662307,-0.0017718678961197536,2.624626318613688,-0.0003961866411070029,-0.0005203212688987454,0.001061028412853678,-35.3639984,149.1657501,162847.66666666666,0.0,-2.0,-152.0,0.0,0.0,-999.6666666666666,1.6666666666666667,1.3333333333333333,2.6666666666666665,282147.0
10:41:54,RTL,-0.002826801578824719,-0.0013562041179587443,2.6247331301371255,0.00021245136546591917,-0.00027554963404933613,0.0005465503005931774,-35.3639984,149.1657501,165954.66666666666,0.0,-2.0,-152.0,0.0,0.0,-1000.0,2.3333333333333335,2.3333333333333335,2.0,97019.0
10:41:56,RTL,-0.003223860403522849,-0.0013732213604574401,2.624544302622477,-0.00023242093933125338,1.1498574167490005e-05,0.0006700005227078994,-35.3639984,149.1657501,169065.0,0.0,-2.0,-152.0,0.0,0.0,-999.6666666666666,2.0,2.3333333333333335,2.6666666666666665,97019.0
10:41:57,RTL,-0.0032707134572168193,-0.0014172123822694023,2.62494691212972,-0.000897935979689161,-0.001311587014545997,0.0014070119553556044,-35.3639984,149.1657501,171003.33333333334,0.0,-2.0,-152.0,0.0,0.0,-999.6666666666666,1.3333333333333333,1.0,3.3333333333333335,23251.0
10:41:58,RTL,-0.003948576515540481,-0.001809017228273054,2.6248372395833335,-0.0007301981483275691,0.0005294547105828921,-0.0014532582135871053,-35.3639984,149.1657501,172169.33333333334,0.0,-2.0,-152.0,0.0,0.0,-1000.3333333333334,1.3333333333333333,2.6666666666666665,0.3333333333333333,23251.0
10:42:00,RTL,-0.0033456893482555947,-0.0017211413166175287,2.624788761138916,0.00041024879707644385,0.0008474389712015787,0.0017904789031793673,-35.3639984,149.1657501,175286.0,0.0,-1.0,-152.0,0.0,0.0,-999.6666666666666,2.6666666666666665,3.3333333333333335,3.6666666666666665,15642.0
10:42:02,RTL,-0.0030699269846081734,-0.0016110406334822376,2.6254285971323648,0.0012744423778106768,0.0009137756812075774,0.0005824367981404066,-35.3639984,149.1657501,178385.66666666666,0.0,-2.0,-152.0,0.0,0.0,-1000.0,4.0,3.0,2.6666666666666665,15642.0
10:42:03,RTL,-0.0027451636269688606,-0.0012436769126604001,2.6255088647206626,0.0006600839551538229,0.0008552519915004572,0.0017712654856344063,-35.3639984,149.1657501,180327.33333333334,0.0,-2.0,-152.0,0.0,0.0,-999.6666666666666,3.6666666666666665,3.0,3.6666666666666665,208260.0
10:42:04,RTL,-0.0030295610583076873,-0.0013246985618025064,2.6254501342773438,-0.0003135619529833396,-0.0006511344496781627,0.0006550097993264595,-35.3639984,149.1657501,181492.33333333334,0.0,-2.0,-152.0,0.0,0.0,-1000.0,2.0,1.6666666666666667,2.6666666666666665,208260.0
10:42:06,RTL,-0.0031099850311875343,-0.0013525298951814573,2.625494639078776,0.00025447407582153875,0.0002247956581413746,-0.0008629155345261097,-35.3639984,149.1657501,184606.66666666666,0.0,-2.0,-152.0,0.0,0.0,-1000.0,3.0,2.6666666666666665,1.0,248784.0
10:42:08,RTL,-0.003846558975055814,-0.0017612397593135636,2.625544706980387,-0.00041024619713425636,-0.00031710590701550245,0.0010511467698961496,-35.3639984,149.1657501,187717.0,0.0,-2.0,-152.0,0.0,0.0,-999.6666666666666,2.0,2.0,2.6666666666666665,248784.0
10:42:09,RTL,-0.003755740122869611,-0.001157149439677596,2.6252780755360923,-8.872407488524914e-05,-0.0007159862822542588,0.002561271501084169,-35.3639984,149.1657501,189655.33333333334,0.3333333333333333,-2.0,-152.0,0.0,0.0,-999.6666666666666,2.3333333333333335,2.0,4.666666666666667,50227.0
10:42:10,RTL,-0.003474460681900382,-0.0015279817938183744,2.6255156993865967,0.0005823016011466583,-0.00047432743789007265,-0.0007891825322682658,-35.3639984,149.1657501,190820.66666666666,0.6666666666666666,-2.0,-152.0,0.0,0.0,-1000.3333333333334,2.6666666666666665,1.6666666666666667,1.3333333333333333,50227.0
10:42:12,RTL,-0.0026505750914414725,-0.0013453004648908973,2.625218947728475,0.0002017374305675427,-0.0015775737507889669,0.0012182492452363174,-35.3639984,149.1657501,193927.0,0.0,-2.0,-152.0,0.0,0.0,-1000.0,2.6666666666666665,1.0,3.3333333333333335,290911.0
10:42:14,RTL,-0.0031458443651596704,-0.001411021997531255,2.6253891785939536,0.0002117409991721312,0.001148585540552934,0.0007798038423061371,-35.3639984,149.1657501,197037.0,0.0,-2.0,-152.0,0.0,0.0,-999.6666666666666,2.3333333333333335,3.6666666666666665,2.6666666666666665,290911.0
10:42:15,RTL,-0.003160388364146153,-0.0014073265483602881,2.6253113746643066,0.00012625144639362892,-0.0008173035457730293,0.00013010762631893158,-35.3639984,149.1657501,198974.66666666666,0.0,-2.0,-152.0,0.0,0.0,-1000.0,2.6666666666666665,1.6666666666666667,2.3333333333333335,263787.0
10:42:16,RTL,-0.0033353022299706936,-0.0015293546797086794,2.625483433405558,-0.00045363022945821285,0.000843965137998263,0.0016095808241516352,-35.3639984,149.1657501,200142.66666666666,0.0,-2.0,-152.0,0.0,0.0,-1000.0,2.0,3.3333333333333335,4.0,263787.0
10:42:18,RTL,-0.003295314653466145,-0.0016962090351929267,2.6259067058563232,-0.0003134180248404543,0.00014229173151155314,0.0017607443345089753,-35.3639984,149.1657501,203246.66666666666,0.0,-2.0,-152.0,0.0,0.0,-999.6666666666666,2.3333333333333335,2.6666666666666665,4.0,231215.0
10:42:20,RTL,-0.0032983096316456795,-0.0015513199614360929,2.6257243156433105,0.00010078252914051215,-0.00022191018797457218,0.000280682851249973,-35.3639984,149.1657501,206363.0,0.0,-2.0,-152.0,0.0,0.0,-1000.0,2.6666666666666665,2.0,2.3333333333333335,231215.0
10:42:21,RTL,-0.002692968895037969,-0.0011761717032641172,2.625899314880371,-0.0009305815522869428,-4.998105578124523e-05,0.0007516607486953338,-35.3639984,149.1657501,208300.0,0.0,-2.0,-152.0,0.0,0.0,-999.6666666666666,1.3333333333333333,2.6666666666666665,3.0,191136.0
10:42:22,RTL,-0.0030839803318182626,-0.0014576366714512308,2.6258745988210044,-0.0007044247662027677,0.0004056626930832863,0.0014619426801800728,-35.3639984,149.1657501,209465.66666666666,0.0,-2.0,-152.0,0.0,0.0,-1000.0,2.0,3.0,3.3333333333333335,191136.0
10:42:24,RTL,-0.0031899300714333854,-0.0013524975317219894,2.625537554423014,0.0008504165646930536,0.0006260458224763473,2.9121447975436848e-05,-35.3639984,149.1657501,212571.66666666666,0.0,-2.0,-152.0,0.0,0.0,-1000.0,3.6666666666666665,3.3333333333333335,2.3333333333333335,269975.0
10:42:26,RTL,-0.0035619874640057483,-0.001666527163858215,2.6255833307902017,0.0005531711503863335,-0.0002679229558755954,0.00023696858746310076,-35.3639984,149.1657501,215686.33333333334,0.0,-2.0,-152.0,0.0,0.0,-1000.3333333333334,3.3333333333333335,2.3333333333333335,2.3333333333333335,269975.0
10:42:27,RTL,-0.0031999234730998674,-0.0016075267534082134,2.6257176399230957,0.0011494404170662165,-0.00039576288933555287,0.001257935616498192,-35.3639984,149.1657501,217627.33333333334,0.0,-1.6666666666666667,-152.0,0.0,0.0,-1000.3333333333334,4.0,2.3333333333333335,3.3333333333333335,175951.0
10:42:28,RTL,-0.003372741242249807,-0.0017041978038226564,2.6255575815836587,-0.001551321242004633,-0.0003362059748421113,0.0007010193464035789,-35.3639984,149.1657501,218793.33333333334,0.0,-2.0,-152.0,0.0,0.0,-999.3333333333334,1.6666666666666667,2.3333333333333335,3.0,175951.0
10:42:30,RTL,-0.0028988117507348457,-0.0007012796316606303,2.62553071975708,0.002026614655430118,-2.2572426435848076e-05,0.0010572046351929505,-35.3639984,149.1657501,221898.33333333334,0.0,-2.0,-152.0,0.0,0.0,-1000.3333333333334,4.666666666666667,2.6666666666666665,3.3333333333333335,34695.0
10:42:32,RTL,-0.003335511932770411,-0.0013454972843949993,2.625410795211792,-0.000712889169032375,-0.000429353987177213,0.0006422251462936401,-35.3639984,149.1657501,225005.0,0.0,-2.0,-152.0,0.0,0.0,-1000.3333333333334,2.0,2.3333333333333335,3.0,34695.0
10:42:33,RTL,-0.00323028846954306,-0.0015765340455497305,2.626260757446289,0.0008756985577444235,0.0003970263060182333,0.00132599213005354,-35.3639984,149.1657501,226945.66666666666,0.0,-2.0,-152.0,0.0,0.0,-1000.0,3.6666666666666665,3.0,3.6666666666666665,22081.0
10:42:34,RTL,-0.0031939566445847354,-0.0017005410821487506,2.6261890729268393,-0.0017733977874740958,-0.0003185176756232977,0.001852544800688823,-35.3639984,149.1657501,228115.0,0.0,-2.0,-152.0,0.0,0.0,-999.3333333333334,1.0,2.6666666666666665,4.333333333333333,22081.0
10:42:36,RTL,-0.0034044244481871524,-0.0015606808010488749,2.6257776419321694,0.0002788431787242492,0.0006319227783630291,0.0007384305354207754,-35.3639984,149.1657501,231216.66666666666,0.0,-2.0,-152.0,0.0,0.0,-999.6666666666666,3.3333333333333335,3.3333333333333335,3.0,168185.0
10:42:38,RTL,-0.003178881403679649,-0.001425989787094295,2.6256815592447915,0.0009360228820393482,0.00037911309239765006,0.00019218741605679193,-35.3639984,149.1657501,234324.66666666666,0.0,-2.0,-152.0,0.0,0.0,-1000.3333333333334,4.0,3.0,2.3333333333333335,168185.0
10:42:39,RTL,-0.002770167076960206,-0.0012217942082012694,2.625828663508097,-0.0005039896350353956,-0.0007226169885446628,0.0006575053557753563,-35.3639984,149.1657501,236270.66666666666,0.0,-2.0,-152.0,0.0,0.0,-1000.0,2.6666666666666665,2.3333333333333335,3.0,199176.0
10:42:40,RTL,-0.002922416819880406,-0.0012462247783939044,2.62581467628479,-0.000732026839007934,0.001279674159983794,0.0011560787291576464,-35.3639984,149.1657501,237435.33333333334,0.0,-2.0,-152.0,0.0,0.0,-999.3333333333334,2.3333333333333335,4.0,3.3333333333333335,199176.0
10:42:42,RTL,-0.0031946429517120123,-0.0013034472552438576,2.625603993733724,0.0005187469845016798,0.0007758151429394881,0.0016574944214274485,-35.3639984,149.1657501,240542.66666666666,0.0,-2.0,-152.0,0.0,0.0,-999.3333333333334,3.3333333333333335,3.6666666666666665,4.0,28072.0
10:42:44,RTL,-0.003646650273973743,-0.0016338971521084507,2.6256505648295083,0.0005798844698195657,-0.00037192630891998607,0.0010093691914031904,-35.3639984,149.1657501,243657.0,0.0,-2.0,-152.0,0.0,0.0,-1000.3333333333334,3.6666666666666665,2.6666666666666665,3.6666666666666665,28072.0
10:42:45,RTL,-0.0032250378280878067,-0.0015556244179606438,2.625437339146932,0.0019202841601024072,0.00025384741214414436,0.0012036689246694248,-35.3639984,149.1657501,245590.0,0.0,-2.0,-152.0,0.0,0.0,-1000.0,4.666666666666667,3.3333333333333335,3.6666666666666665,263551.0
10:42:46,RTL,-0.0031011325772851706,-0.0015800990707551439,2.625704606374105,-0.0001035955889771382,-0.0003290793392807245,0.0003412742322931687,-35.3639984,149.1657501,246760.0,0.0,-2.0,-152.0,0.0,0.0,-999.6666666666666,2.6666666666666665,2.6666666666666665,2.6666666666666665,263551.0
10:42:48,RTL,-0.002716502562786142,-0.0012089137453585863,2.6256399154663086,-0.0024429896535972753,-0.00035003347632785636,0.00034895217201362055,-35.3639984,149.1657501,249870.66666666666,0.0,-2.0,-152.0,0.0,0.0,-1000.0,1.0,2.6666666666666665,3.0,251880.0
10:42:50,RTL,-0.0034486860192070403,-0.0010875998802172642,2.6263614495595298,0.000623230899994572,0.0002705902637292941,0.00018024537712335587,-35.3639984,149.1657501,252976.66666666666,1.0,-2.0,-152.0,0.0,0.0,-999.6666666666666,3.6666666666666665,3.6666666666666665,2.6666666666666665,251880.0
10:42:51,RTL,-0.003807518631219864,-0.0017377928597852588,2.626207113265991,-0.00037646239312986535,-0.00022036551187435785,0.001320400508120656,-35.3639984,149.1657501,254921.0,0.3333333333333333,-2.0,-152.0,0.0,0.0,-999.6666666666666,2.6666666666666665,3.0,4.0,114709.0
10:42:52,RTL,-0.003877010972549518,-0.0015998647625868518,2.625975767771403,0.00015487653824190298,0.00032135448418557644,0.0001065734929094712,-35.3639984,149.1657501,256086.66666666666,0.3333333333333333,-2.0,-152.0,0.0,0.0,-999.6666666666666,3.3333333333333335,3.3333333333333335,3.0,114709.0
10:42:54,RTL,-0.0032591896597296,-0.0017572185412670176,2.625872532526652,0.00040930253453552723,0.00013170678478976092,9.169483867784341e-05,-35.3639984,149.1657501,259193.66666666666,0.0,-2.0,-152.0,0.0,0.0,-1000.3333333333334,4.0,3.3333333333333335,2.6666666666666665,267641.0
10:42:56,RTL,-0.002634987933561206,-0.0012160962990795572,2.6259659131368003,0.0010728261743982632,0.0011405815215160449,0.00010772689711302519,-35.3639984,149.1657501,262297.6666666667,0.0,-2.0,-152.0,0.0,0.0,-999.6666666666666,4.333333333333333,4.0,2.6666666666666665,267641.0
10:42:57,RTL,-0.0030297196935862303,-0.0012748695056264598,2.625705083211263,-0.0014318951095143955,-0.0009161300646762053,0.001597495749592781,-35.3639984,149.1657501,264238.0,0.0,-2.0,-152.0,0.0,0.0,-999.6666666666666,2.0,2.3333333333333335,4.333333333333333,90610.0
10:42:58,RTL,-0.0030992336881657443,-0.00132698150506864,2.625770092010498,0.0007828548550605774,0.00012392216982940832,0.0010828702555348475,-35.3639984,149.1657501,265403.0,0.0,-2.0,-152.0,0.0,0.0,-1000.0,4.0,3.6666666666666665,4.0,90610.0
10:43:00,RTL,-0.0036981922263900437,-0.001647965710920592,2.6257921059926352,-0.0011874062474817038,-0.0005311110677818457,0.0014619595215966303,-35.3639984,149.1657501,268515.6666666667,0.0,-2.0,-152.0,0.0,0.0,-999.3333333333334,2.3333333333333335,2.6666666666666665,4.333333333333333,36957.0
10:43:02,RTL,-0.0032444923805693784,-0.0016215389672045906,2.625765323638916,0.0015066189225763083,0.0007797668222337961,0.0018775472417473793,-35.3639984,149.1657501,271619.0,0.0,-2.0,-152.0,0.0,0.0,-999.6666666666666,4.666666666666667,3.6666666666666665,4.666666666666667,36957.0
10:43:03,RTL,-0.003456621818865339,-0.0015240957727655768,2.6256577173868814,-0.0009522634403159221,0.0008532469316075245,-0.00028316831837097806,-35.3639984,149.1657501,273561.0,0.0,-2.0,-152.0,0.0,0.0,-1000.0,2.3333333333333335,4.0,2.3333333333333335,9117.0
10:43:04,RTL,-0.0034894527246554694,-0.0014527147480597098,2.6254560152689614,-0.00027254487698276836,0.0009222591761499643,0.00048820321292926866,-35.3639984,149.1657501,274726.0,0.0,-2.0,-152.0,0.0,0.0,-999.6666666666666,3.0,4.0,3.3333333333333335,9117.0
10:43:08,RTL,-0.01296870286266009,0.09129111220439275,2.6259772777557373,-0.007815450429916382,0.038071129471063614,0.0006677499040961266,-35.3639918,149.16574526666668,280868.6666666667,86.33333333333333,-54.0,-142.0,17.666666666666668,9.0,-993.0,-3.3333333333333335,41.333333333333336,3.6666666666666665,55081.0
10:43:09,RTL,-0.03512319022168716,0.20293810963630676,2.8991733392079673,-0.016864445060491562,-0.007853286961714426,0.44622576236724854,-35.363976433333335,149.1657351,282453.6666666667,210.0,-94.0,-88.33333333333333,41.666666666666664,14.333333333333334,-933.6666666666666,-13.0,-4.0,449.0,154156.0
10:43:10,RTL,0.05578796068827311,0.13079662124315897,1.02100936571757,0.06763146693507831,-0.07516140242417653,0.14374188830455145,-35.363959566666665,149.16572646666665,282937.0,285.0,-125.33333333333333,-37.0,70.33333333333333,12.333333333333334,-941.3333333333334,70.66666666666667,-70.66666666666667,146.33333333333334,154156.0
10:43:14,RTL,-0.0019718853388136872,0.19676505525906882,3.080214818318685,-0.009532991175850233,-0.034710707142949104,-0.039730617155631386,-35.36381003333334,149.16561436666666,282582.3333333333,567.0,-327.3333333333333,-1.6666666666666667,147.66666666666666,3.0,-1000.3333333333334,-5.666666666666667,-30.0,-35.666666666666664,264531.0
10:43:16,RTL,-0.030096050972739857,0.1489425996939341,3.0039258003234863,-0.015821874141693115,0.0039019683996836343,-0.035401797542969383,-35.36370406666666,149.1655421,282693.6666666667,596.6666666666666,-334.3333333333333,-2.3333333333333335,151.33333333333334,26.0,-978.3333333333334,-11.666666666666666,7.666666666666667,-31.333333333333332,75579.0
10:43:18,RTL,-0.03310230281203985,0.15260762348771095,2.945091426372528,-0.05405984818935394,0.00011469097808003426,-0.029999591410160065,-35.363597874999996,149.16547012499998,282661.0,601.75,-341.5,1.25,149.5,24.75,-988.25,-49.75,4.25,-26.0,49530.0
10:43:20,RTL,-0.045868256129324436,0.1449141837656498,2.9028082489967346,-0.040316457860171795,-0.03486059186980128,-0.025772372027859092,-35.363490174999995,149.16539547500003,282670.5,598.75,-339.75,0.25,149.5,28.0,-990.25,-35.75,-30.25,-21.5,49530.0
10:43:21,RTL,-0.06825367361307144,0.07790924236178398,2.885202169418335,-0.16106536239385605,-0.047054627910256386,-0.012407527305185795,-35.36342415,149.1653497,282741.0,562.5,-318.5,-4.0,139.0,46.0,-983.0,-156.5,-42.5,-9.0,108521.0
10:43:22,RTL,-0.07259026728570461,0.04621564457193017,2.8760838508605957,-0.10312702134251595,-0.03676250227726996,-0.02227997686713934,-35.363387825,149.16532455,282766.25,512.75,-289.0,1.0,133.5,43.25,-984.75,-99.0,-32.5,-18.5,108521.0
10:43:24,RTL,-0.06273691542446613,-0.03338570101186633,2.8567689657211304,0.21180009469389915,-0.01794132753275335,0.016566762700676918,-35.363310975,149.16527235,282705.0,329.75,-181.0,5.0,83.5,56.0,-1010.5,217.0,-13.5,20.0,230420.0
10:43:26,RTL,-0.022256090538576245,-0.0663817897439003,2.838677167892456,0.34622643142938614,0.006726262625306845,-0.002198678907006979,-35.363269475,149.16524569999999,282646.5,138.0,-82.0,2.25,33.25,29.0,-1007.25,350.25,10.75,1.75,230420.0
10:43:27,RTL,-0.005505439214175567,-0.04163981229066849,2.829450845718384,0.5375138074159622,0.013833915814757347,0.0002308618277311325,-35.36325975,149.16523935,282636.0,48.5,-38.5,0.5,11.5,33.0,-1004.5,542.0,18.0,4.0,155757.0
10:43:29,RTL,-0.002854563412256539,0.001103700022213161,2.8168896436691284,-0.35887592495419085,0.02605385798960924,-0.005118511384353042,-35.363257950000005,149.16523675000002,282648.5,-2.0,-8.0,0.0,0.0,-29.5,-991.5,-354.5,30.5,-1.5,155757.0
10:43:30,RTL,-0.0017586344620212913,0.0029954300480312668,2.812892735004425,0.12362300418317318,-0.01572036847937852,-0.009662695229053497,-35.363258325000004,149.16523652499998,282652.5,0.5,-8.75,0.0,-0.25,11.0,-1003.25,128.75,-11.0,-5.25,167042.0
10:43:33,RTL,0.003067292971536517,0.005028591025620699,2.7970553636550903,0.0031267553567886353,0.0036573171382769942,-0.004781893570907414,-35.363260749999995,149.16523765,282655.0,-4.5,-6.5,1.0,0.0,-16.5,-1014.0,7.0,7.5,-1.0,93322.5
10:43:35,RTL,-0.0035180593840777874,0.004172926535829902,2.7885971069335938,0.5144007131457329,0.0015696225455030799,-0.0025008661905303597,-35.363261949999995,149.1652378,282616.0,0.5,-6.5,20.0,0.0,40.5,-928.5,520.0,6.0,0.5,19603.0
10:43:36,RTL,0.009208691539242864,0.003836890624370426,2.7860860228538513,1.1866861879825592,0.0015582244377583265,-0.007335495261941105,-35.3632622,149.16523755,282254.5,2.25,-4.25,69.0,0.25,42.25,-943.0,1191.25,5.75,-3.25,177010.0
10:43:37,RTL,0.010030191857367754,0.0017851173179224133,2.781546950340271,1.6568018198013306,0.0028733545914292336,0.00022179866209626198,-35.3632625,149.1652372,281000.5,4.5,-1.5,116.0,0.0,69.5,-1031.5,1662.0,7.0,3.5,177010.0
10:43:39,RTL,0.017448292579501867,0.001391295634675771,2.775411367416382,1.4223099946975708,0.0006708174478262663,-0.0010833819396793842,-35.3632626,149.16523745,278864.5,5.0,0.0,101.5,0.0,48.0,-978.5,1426.5,5.0,3.0,148318.0
10:43:41,RTL,0.0068404467310756445,0.0027983058243989944,2.770349383354187,0.17930322140455246,-0.002436328213661909,-0.0015487954951822758,-35.363262649999996,149.1652376,276821.5,5.0,0.0,100.0,1.0,-31.5,-986.5,181.5,2.0,2.0,119626.0
10:43:42,RTL,0.005328253988409415,0.0035453803138807416,2.768363654613495,0.26097685005515814,0.003179644583724439,-0.001738079881761223,-35.363262825,149.16523725000002,276049.5,6.0,1.0,99.25,2.75,-39.75,-988.75,263.75,8.0,2.0,250724.0
10:43:43,RTL,-0.013569198548793793,0.003607348771765828,2.766416311264038,0.4640747159719467,-0.0007690610364079475,0.004357177065685391,-35.3632632,149.16523585,274778.0,7.5,6.5,97.0,3.0,-20.0,-1038.0,466.5,4.0,8.0,250724.0
10:43:45,RTL,-0.029127190820872784,0.000513286726345541,2.761865258216858,-0.8779913187026978,-0.001640817616134882,-0.004459543735720217,-35.3632635,149.1652347,272756.5,14.0,21.5,99.5,0.0,-65.5,-994.0,-875.0,3.5,-0.5,187766.5
10:43:47,RTL,-0.01864887773990631,-0.0031367267947643995,2.7585678100585938,-1.1434673070907593,-7.818499580025673e-05,-0.008696424076333642,-35.3632631,149.1652355,270716.0,12.0,19.5,105.0,-1.5,-75.5,-941.0,-1141.0,5.5,-5.0,124809.0
10:43:48,RTL,-0.013332879985682666,-0.0035218296106904745,2.7573902010917664,-1.1004302501678467,-0.00012155750300735235,-0.0025051155826076865,-35.36326282500001,149.165236275,269953.25,10.0,16.0,101.0,-2.0,-64.75,-1002.75,-1097.75,4.75,1.25,127411.0
10:43:49,RTL,-0.0026423882227391005,-0.0032843167427927256,2.754169464111328,-1.2951489090919495,-0.004890225362032652,-0.00023248069919645786,-35.3632623,149.1652378,268680.5,4.0,4.5,104.0,-1.0,-71.0,-1018.5,-1292.5,0.5,3.0,127411.0
10:43:51,RTL,-0.003762609325349331,-0.001727344118990004,2.752272605895996,-1.4830092191696167,-0.0008879471570253372,-0.0037265426944941282,-35.3632618,149.16523965,266633.5,-1.5,-11.0,100.5,0.0,-60.5,-998.0,-1479.0,4.0,0.0,104997.0
10:43:53,RTL,-0.0031695649959146976,-0.0018493694951757789,2.7508323192596436,-1.2406978011131287,-0.0001229498302564025,-0.0016855867579579353,-35.3632616,149.16524034999998,264589.5,-4.5,-20.5,102.0,-1.0,-36.5,-1030.0,-1235.5,5.0,2.5,82583.0
10:43:54,RTL,-0.00046786140592303127,-0.0016139068320626393,2.749474048614502,-0.7574304491281509,0.0019098753691650927,0.0032269337098114192,-35.363261425,149.16524065000002,263831.5,-6.5,-24.0,102.25,-0.25,2.5,-995.5,-751.0,7.25,6.5,105979.0
10:43:55,RTL,-0.01208322774618864,3.796481905737892e-05,2.748979091644287,-0.9386754930019379,-0.0012519017327576876,0.0021345674758777022,-35.3632615,149.1652403,262549.0,-8.0,-25.5,103.5,1.0,-10.0,-1007.5,-932.0,4.0,6.0,105979.0
10:43:57,RTL,-0.028267694637179375,0.00117950898129493,2.7461538314819336,-0.3346584811806679,0.0003630206920206547,-0.001836493145674467,-35.363262250000005,149.1652381,260502.5,-2.5,-13.0,98.5,0.5,21.0,-1004.5,-327.5,5.5,1.5,107574.5
10:43:59,RTL,-0.00640778464730829,-0.0013051075511611998,2.743828058242798,0.17689139395952225,0.00913564395159483,0.0027010267367586493,-35.3632622,149.16523784999998,258440.0,-0.5,-4.5,102.5,-0.5,40.5,-1054.0,183.5,14.5,6.0,109170.0
10:44:00,RTL,-0.01153205567970872,-0.0011313055401842576,2.7445045113563538,0.5526341199874878,-0.00052744394633919,0.0021161650074645877,-35.363262250000005,149.16523747500003,257685.5,-0.75,-4.5,98.0,0.75,55.5,-999.5,559.25,4.75,6.0,221703.0
10:44:01,RTL,0.009271980496123433,-0.0036894031800329685,2.7441599369049072,1.429759681224823,-0.0011066674487665296,-0.00474003585986793,-35.3632623,149.16523715,256417.0,0.0,-0.5,101.5,-1.5,68.0,-1015.0,1435.0,4.0,-1.0,221703.0
10:44:03,RTL,0.035178130492568016,-0.003195271478034556,2.7426446676254272,1.3939208388328552,0.0026297257281839848,0.0011142598232254386,-35.3632617,149.16523895,254372.0,-3.5,-8.5,101.0,-0.5,43.0,-991.0,1399.0,8.0,4.5,221795.5
10:44:05,RTL,0.010101085295900702,-0.0016090460703708231,2.7414016723632812,-0.5227913707494736,0.0009336963994428515,0.001210119342431426,-35.3632616,149.16523915,252330.5,-6.0,-13.0,103.0,1.0,-63.0,-973.5,-518.5,6.0,5.0,221888.0
10:44:06,RTL,0.004640751278202515,-0.00030793512996751815,2.7414920330047607,-0.49869168922305107,0.0009213703451678157,-0.0037635256303474307,-35.363261775,149.165238675,251547.0,-5.0,-10.0,100.0,2.75,-61.0,-989.75,-494.75,6.0,0.5,44848.0
10:44:07,RTL,-0.02911228034645319,0.002350487746298313,2.7404465675354004,-1.0195196270942688,-0.001984194153919816,-0.003515606978908181,-35.36326255,149.16523665,250279.5,-1.0,-1.0,99.0,4.5,-75.5,-992.5,-1015.5,3.5,0.5,44848.0
10:44:09,RTL,-0.05229349806904793,-0.001864975260104984,2.7413125038146973,-1.5266768336296082,-0.005119290086440742,-0.0023744478821754456,-35.3632634,149.16523385,248253.5,10.0,23.5,101.5,0.5,-59.5,-957.5,-1521.5,0.5,1.5,108015.0
10:44:11,RTL,-0.024404319934546947,-0.006449529668316245,2.7400295734405518,-0.06575492769479752,0.0013188745360821486,-0.0036672994028776884,-35.3632629,149.16523475,246203.5,10.0,26.0,100.5,-2.5,44.5,-1001.5,-58.5,6.5,0.0,171182.0
10:44:12,RTL,-0.024141154251992702,-0.0058906590566039085,2.7391937375068665,-0.3754058424383402,0.00396494590677321,-0.0022995120380073786,-35.363262625,149.16523562499998,245430.5,6.75,20.75,99.5,-2.25,30.0,-1000.5,-368.25,8.75,1.5,2177.0
10:44:13,RTL,-0.014308193232864141,-0.0026431874139234424,2.7387806177139282,0.4345158487558365,0.0031573304440826178,0.0007927934639155865,-35.3632625,149.1652363,244155.0,2.0,12.0,96.5,0.0,57.0,-998.5,440.5,8.0,4.5,2177.0
10:44:15,RTL,0.0005957812536507845,-0.004603690700605512,2.738422155380249,1.3624372482299805,0.0008785683894529939,0.004139721626415849,-35.3632626,149.16523604999998,242107.0,3.5,11.5,98.5,-1.0,68.5,-1015.0,1367.0,6.0,8.0,11697.5
10:44:17,RTL,0.014745994936674833,-0.004312236327677965,2.738596200942993,0.21876835078001022,-0.00029433914460241795,0.002119895536452532,-35.3632622,149.1652374,240063.5,1.5,5.5,98.0,-1.5,-27.5,-985.0,220.5,4.5,5.5,21218.0
10:44:18,RTL,0.01236143580172211,-0.0038829564582556486,2.738225758075714,-0.22847780375741422,0.0027095547411590815,0.00599502632394433,-35.363262025,149.165237875,239295.0,0.25,2.5,98.5,0.0,-48.5,-963.0,-226.0,7.5,10.0,102863.0
10:44:19,RTL,-0.0076379377860575914,-0.002451560227200389,2.7378193140029907,-1.106833428144455,-0.004599256906658411,-0.00019487435929477215,-35.3632619,149.1652382,238021.0,-1.5,-2.0,97.0,0.0,-68.0,-998.5,-1103.5,0.0,3.5,102863.0
10:44:21,RTL,-0.017878270708024502,-0.002590338117443025,2.737774968147278,-1.4233291745185852,-0.0038716408889740705,0.0015440256102010608,-35.36326205,149.16523775000002,235979.5,-1.0,-1.5,98.5,0.0,-68.5,-968.5,-1419.5,1.0,4.5,157057.0
10:44:23,RTL,0.007004187209531665,-0.008351967204362154,2.7373905181884766,-1.041429579257965,0.001219683326780796,-0.005822757259011269,-35.3632613,149.16523965,233942.0,-3.0,-9.0,96.0,-4.5,-9.0,-974.5,-1035.5,6.5,-2.0,211251.0
10:44:24,RTL,0.01524712354876101,-0.007185098831541836,2.737539529800415,-0.4906483602244407,0.004427643143571913,0.002290763019118458,-35.3632608,149.165241,233178.5,-9.25,-20.0,98.25,-3.5,15.25,-999.0,-484.0,9.25,6.0,109266.0
10:44:25,RTL,0.02970193512737751,-0.0016222067642956972,2.736563563346863,1.0140218436717987,0.008149069035425782,-0.0027969154762104154,-35.3632606,149.16524195,231918.0,-17.0,-34.5,98.5,-1.5,70.0,-1020.0,1020.5,13.0,1.5,109266.0
10:44:27,RTL,0.023139790631830692,-0.0009057603165274486,2.7370649576187134,1.3262432217597961,0.006782629759982228,0.0048909722827374935,-35.363261050000006,149.1652406,229872.5,-15.0,-31.0,101.0,4.0,55.0,-1000.0,1332.0,12.0,8.0,126519.5
10:44:29,RTL,0.008422249113209546,-0.0015141365001909435,2.7362782955169678,1.206725299358368,0.001909185666590929,0.003966685384511948,-35.36326185,149.1652381,227833.5,-6.5,-12.0,97.0,1.0,56.0,-1072.0,1213.0,7.0,7.5,143773.0
10:44:30,RTL,0.0063874372353893705,-0.0015572257689200342,2.736864387989044,1.3748534619808197,-0.0006497756112366915,0.00504985183943063,-35.363262125000006,149.1652374,227071.5,-4.25,-8.25,98.75,1.0,61.25,-1031.0,1380.75,4.5,8.75,50526.0
10:44:31,RTL,0.01672894973307848,-0.0027332569006830454,2.7361799478530884,1.0625870823860168,-0.0011723677162081003,0.0013234000653028488,-35.36326235,149.16523695,225799.0,0.0,2.0,100.5,0.0,14.0,-976.0,1066.5,4.0,4.5,50526.0
10:44:33,RTL,0.0001192362979054451,-0.001309345941990614,2.7361154556274414,-0.12772609665989876,-0.0008875429630279541,0.0021946688648313284,-35.3632623,149.16523695,223762.5,0.0,2.0,101.5,1.5,-51.5,-977.0,-124.0,4.0,5.5,47002.0
10:44:35,RTL,-0.035202604718506336,0.0014100600383244455,2.7348837852478027,-1.0534040927886963,-0.004677717573940754,-0.006750994129106402,-35.363263149999995,149.1652348,221721.0,4.5,16.0,99.0,5.5,-74.5,-998.0,-1049.0,1.0,-2.0,43478.0
10:44:36,RTL,-0.057430727407336235,0.001500182377640158,2.7359029054641724,-1.2994864583015442,-0.001825164072215557,-0.002984053280670196,-35.363263675,149.1652332,220952.5,9.25,26.25,101.25,4.0,-79.5,-986.75,-1295.0,3.25,1.0,31615.0
10:44:37,RTL,-0.06952548399567604,-0.00060099562688265,2.7359319925308228,-1.3824474811553955,-0.008099292172119021,0.006468681152909994,-35.36326445,149.16523085,219693.0,18.5,45.5,99.5,1.5,-80.5,-963.5,-1378.5,-3.0,10.5,31615.0
10:44:39,RTL,-0.07023504748940468,-0.003933852771297097,2.73666250705719,-1.1735478043556213,-0.003745347261428833,-0.0011741123162209988,-35.36326455,149.16523005,217671.5,25.0,61.5,103.0,1.0,-20.5,-991.5,-1168.5,2.0,3.0,160211.5
10:44:41,RTL,-0.06389269977807999,-0.006158156786113977,2.7365511655807495,-0.7693119049072266,-0.0032350278925150633,0.000392989837564528,-35.36326425,149.1652306,215632.0,23.0,60.0,99.5,-2.5,1.5,-1010.5,-765.5,1.5,4.0,288808.0
10:44:42,RTL,-0.05106962379068136,-0.008059092331677675,2.7372567653656006,-0.021712657064199448,-0.0006922906031832099,-0.0068027558154426515,-35.363263950000004,149.16523130000002,214868.25,21.5,57.0,103.5,-4.0,40.5,-992.75,-18.0,4.0,-2.75,274063.0
10:44:43,RTL,-0.023264975287020206,-0.008220853749662638,2.736446976661682,0.5476965457201004,0.004381469218060374,0.0027378785889595747,-35.3632632,149.16523335,213564.5,15.5,44.5,102.0,-4.0,69.5,-981.0,550.5,9.5,6.0,274063.0
10:44:45,RTL,0.011667356360703707,-0.005815401906147599,2.7372905015945435,1.3578243851661682,0.0008368876297026873,0.00336210650857538,-35.3632625,149.165236,211514.5,6.0,22.0,99.0,-3.5,57.0,-1001.0,1358.0,5.5,6.5,188612.5
10:44:47,RTL,0.023906096816062927,-0.006426231237128377,2.7363210916519165,-0.28594639897346497,-0.0023625013418495655,0.005554627510719001,-35.363261550000004,149.1652388,209468.5,-0.5,2.0,100.0,-3.0,-48.5,-985.5,-286.0,2.5,8.5,103162.0
10:44:48,RTL,0.01729314774274826,-0.0066811684519052505,2.7367160320281982,-0.9210683405399323,-0.001747357309795916,-0.0028406953206285834,-35.363261275,149.1652398,208703.75,-4.5,-7.0,99.25,-2.75,-66.5,-985.5,-921.25,3.0,0.5,285397.0
10:44:49,RTL,0.017382179386913776,-0.005193960387259722,2.7364219427108765,-1.3916293382644653,-0.002245113952085376,-0.011078804265707731,-35.363260749999995,149.16524125,207420.5,-10.5,-21.5,97.5,-2.0,-67.5,-1029.0,-1390.5,3.0,-6.5,285397.0
10:44:51,RTL,0.015204266645014286,-0.004002674366347492,2.7359941005706787,-1.318560779094696,0.0033067779149860144,0.0066998619586229324,-35.3632601,149.16524314999998,205378.5,-19.5,-41.0,99.0,-1.0,-34.0,-981.0,-1315.5,8.0,10.0,197265.0
10:44:53,RTL,0.013239125721156597,-0.0010458315664436668,2.7359529733657837,0.14424128644168377,0.008376383688300848,-0.010007868288084865,-35.363260249999996,149.16524285,203341.0,-23.0,-48.0,100.0,1.5,43.0,-974.5,149.0,13.0,-5.5,109133.0
10:44:54,RTL,0.009238929022103548,-7.564546933735983e-05,2.7356749773025513,0.7214262783527374,0.004159615025855601,0.004138273419812322,-35.3632606,149.165241775,202564.0,-21.25,-44.5,98.75,1.75,63.75,-993.5,726.0,8.75,7.25,227245.0
10:44:55,RTL,-0.006424774881452322,0.0012643782538361847,2.7370575666427612,1.0318720936775208,0.0012217611074447632,0.013025866821408272,-35.3632614,149.16523945,201283.5,-15.0,-30.5,96.0,3.5,70.0,-1000.5,1036.5,6.5,16.0,227245.0
10:44:57,RTL,0.022175963036715984,-0.005427292315289378,2.736596703529358,0.9878518879413605,-0.002250473015010357,-0.0011634007096290588,-35.36326175,149.1652382,199251.0,-4.0,-7.5,99.5,-1.0,21.5,-1082.5,990.5,2.0,2.5,262972.0
10:44:59,RTL,0.028584491461515427,-0.004551459453068674,2.7356618642807007,-0.45280249416828156,-5.5055366829037666e-05,-0.0013966799015179276,-35.3632609,149.16524034999998,197222.5,-10.0,-18.5,98.0,0.0,-56.0,-997.0,-450.0,4.5,1.5,298699.0
10:45:00,RTL,0.014429899543756619,-0.0023267195210792124,2.7364240884780884,-0.889143206179142,-0.0014773779548704624,-0.002322163083590567,-35.363261025,149.1652403,196460.25,-12.0,-21.75,100.25,0.0,-72.25,-972.25,-885.75,3.25,1.0,260373.0
10:45:01,RTL,-0.005300835939124227,-0.002454797038808465,2.7363795042037964,-1.3997008204460144,0.0008731265552341938,-0.009742835070937872,-35.3632612,149.16524005000002,195188.5,-10.5,-22.0,102.0,-0.5,-57.0,-1000.5,-1395.0,5.0,-5.5,260373.0
10:45:03,RTL,0.0026272329268977046,-0.0015546020003966987,2.735917568206787,0.4875410497188568,0.0005661854520440102,0.01183989318087697,-35.3632614,149.1652397,193141.0,-10.0,-21.5,98.0,0.0,57.0,-1027.5,494.0,5.0,15.0,175576.0
10:45:05,RTL,0.0029606998432427645,-0.004033424309454858,2.7371431589126587,1.1218326091766357,0.005105742486193776,0.0014776084572076797,-35.3632616,149.1652387,191094.5,-7.0,-14.5,98.5,0.0,81.5,-974.5,1128.5,10.0,5.0,90779.0
