time_stamp,RTL_ALT,roll,pitch,yaw,rollspeed,pitchspeed,yawspeed,lat,lon,relative_alt,vx,vy,vz,xacc,yacc,zacc,xgyro,ygyro,zgyro,MODE
12:14:53,1500.0,-0.0006796911475248635,0.0015939869917929173,0.02765592187643051,0.0001500711659900844,0.000247164600295946,0.0022048908285796642,-35.3632621,149.1652374,0.0,-1.0,-1.0,-4.0,0.0,1.0,-999.0,0.0,0.0,0.0,STABILIZE
12:14:57,1500.0,-0.0004809903330169618,0.0009664441458880901,0.025188278406858444,0.00032076810020953417,0.00029337339219637215,0.0019217899534851313,-35.3632621,149.1652375,25.0,-1.0,2.0,0.0,0.0,1.0,-1000.0,0.0,0.0,1.0,STABILIZE
12:15:09,1500.0,-0.0005790576105937362,0.0010120548540726304,0.021329598501324654,0.00020617956761270761,0.00025494955480098724,0.0016241627745330334,-35.3632622,149.1652375,1.0,-1.0,1.0,0.0,0.0,1.0,-1000.0,0.0,0.0,1.0,AUTO
12:15:10,255698.0,-0.00042061207204824314,0.0010646429436746985,0.0211722026579082,0.0025930544652510434,0.00022961989452596754,0.0014544159348588437,-35.3632621,149.1652375,0.5,-0.25,0.75,0.0,0.0,4.75,-994.5,3.0,0.5,0.5,AUTO
12:15:11,255698.0,-0.00017699536450284845,0.0013314423073704045,0.020851296683152516,0.0002924530999734998,0.0003233035871138175,0.001403625162007908,-35.3632621,149.1652375,0.0,0.0,0.0,0.0,0.0,1.3333333333333333,-1000.0,0.6666666666666666,0.3333333333333333,0.6666666666666666,AUTO
12:15:13,255698.0,0.00279306061565876,0.0006795215813326649,0.020350506529211998,-0.0027438521792646497,0.0034619385842233896,0.001199341204483062,-35.3632621,149.1652375,292.0,0.0,0.0,-84.5,0.0,0.0,-1119.5,-2.0,3.5,0.5,AUTO
12:15:14,43873.0,0.01772794534917921,-0.0003315863577881828,0.020228177309036255,0.03644674958195537,-0.005166338291019201,0.0017260347012779675,-35.363262049999996,149.16523755,1212.0,0.25,4.25,-137.75,0.0,-0.25,-1038.25,36.5,-4.25,1.25,AUTO
12:15:15,43873.0,0.05265268124639988,0.001743705477565527,-0.020048310048878193,-0.07047885144129395,0.05857474077492952,-0.07332105934619904,-35.3632615,149.16524035,3097.5,9.0,48.0,-145.5,1.5,-9.5,-992.0,-69.5,58.5,-73.0,AUTO
12:15:17,43873.0,-0.0526386983692646,-0.03174216486513615,-0.08615904673933983,0.05599810555577278,-0.019816478714346886,0.03676457330584526,-35.3632631,149.16524555,6145.5,-15.0,-28.5,-149.0,1.0,7.0,-1002.0,56.0,-18.5,35.5,AUTO
12:15:18,241776.0,-0.008175605689757504,-0.03188761044293642,-0.07167542539536953,0.06127705331891775,0.00776331132510677,0.018733300268650055,-35.363263450000005,149.16524215,7303.0,5.0,-46.5,-149.5,-6.0,7.5,-1001.5,61.5,8.25,18.0,AUTO
12:15:19,241776.0,0.025807935744524002,0.0050860242918133736,-0.08290712535381317,-0.019089477136731148,0.03637751191854477,-0.028415251523256302,-35.3632618,149.1652366,9209.0,21.0,-23.0,-150.0,-7.0,2.0,-999.0,-18.0,37.0,-28.0,AUTO
12:15:21,241776.0,0.01122911786660552,0.013973991386592388,-0.10357457399368286,-0.005159979686141014,-0.008399089332669973,-5.478684033732861e-05,-35.36326055,149.1652347,11730.5,-2.5,1.0,-150.0,-0.5,0.0,-1000.0,-4.0,-7.0,0.0,AUTO
12:15:22,200.0,0.006187073304317892,0.005153237492777407,-0.10637482441961765,-0.004550420097075403,-0.007533910102210939,-0.006094181720982306,-35.36326092499999,149.165234875,13283.5,-7.75,6.25,-150.75,1.25,0.0,-1000.0,-3.0,-6.5,-5.75,AUTO
12:15:23,200.0,0.0024605286307632923,0.00038646592292934656,-0.11928499862551689,-0.002896795980632305,-0.0018857960822060704,-0.016322404611855745,-35.3632615,149.1652354,14838.0,-5.5,6.0,-151.0,1.0,0.0,-1000.0,-2.5,-1.0,-16.0,AUTO
12:15:25,200.0,0.004391604452393949,0.0030698725022375584,-0.16523829847574234,0.002346231893170625,0.0030774803599342704,-0.023102538660168648,-35.3632618,149.16523585,17957.0,-1.0,3.0,-152.0,0.0,0.0,-1000.0,3.0,3.5,-23.0,AUTO
12:15:26,182176.0,0.0048099871492013335,0.0043609703425318,-0.1875312328338623,-0.00011424902186263353,0.00026258156867697835,-0.021732288412749767,-35.363261725,149.165236,19514.0,-1.5,3.75,-152.0,0.0,0.0,-1000.0,0.5,0.5,-21.25,AUTO
12:15:27,182176.0,-0.017309363465756178,0.01353003759868443,-0.186196006834507,-0.014977607876062393,0.04411341930972412,0.10902425367385149,-35.36326185,149.16523610000002,21065.5,-5.0,-3.0,-149.0,0.0,0.0,-991.0,-13.5,44.5,108.5,AUTO
12:15:29,182176.0,0.044893136247992516,-0.038212137296795845,0.09159445390105247,0.01854982040822506,-0.0029097162187099457,-0.029850878287106752,-35.36326475,149.16523225,23611.0,-8.5,-0.5,-89.0,1.5,2.5,-966.5,19.5,-2.0,-29.5,AUTO
12:15:30,195611.0,0.025860986206680536,-0.011170464858878404,0.07564139179885387,-0.03597116144374013,0.03540349379181862,0.00035800870682578534,-35.363264275000006,149.1652338,24376.25,17.0,33.0,-59.75,0.0,-7.5,-975.5,-34.75,35.75,0.0,AUTO
12:15:31,195611.0,-0.001989031909033656,0.0112385218963027,0.07225736975669861,-0.019298480357974768,0.011714150430634618,-0.0009013272938318551,-35.3632625,149.16523725,24858.5,15.5,29.5,-38.5,0.0,-8.0,-1017.0,-18.0,12.0,-1.0,AUTO
12:15:33,195611.0,-0.04233271814882755,0.015414630412124097,0.06334868259727955,0.06763982772827148,-0.025878727436065674,-0.012297331588342786,-35.363261300000005,149.16523925,25019.0,-7.5,-17.5,21.0,-0.5,12.0,-1003.5,69.0,-24.5,-12.0,AUTO
12:15:34,171408.0,-0.05043830722570419,-0.004792895982973278,0.05283509939908981,0.16514520533382893,-0.011625791434198618,-0.06702068622689694,-35.36326205,149.165235475,24869.75,-9.5,-54.25,3.25,-3.75,21.25,-1018.5,166.5,-10.0,-66.75,AUTO
12:15:35,171408.0,-0.0424811695702374,-0.062346684746444225,-0.6930242665112019,0.004109889268875122,-0.020144944079220295,-1.2150276899337769,-35.363262750000004,149.16522709999998,24846.0,-6.0,-105.5,-0.5,-19.5,5.5,-1000.0,5.0,-19.0,-1214.5,AUTO
12:15:37,171408.0,0.03810696676373482,-0.1746922954916954,-1.562054693698883,0.29472874850034714,-0.026476078492123634,0.03470693156123161,-35.363264400000006,149.16518635,24782.5,-9.0,-290.0,4.5,-58.5,-19.5,-1006.0,295.5,-25.5,35.0,AUTO
12:15:38,157855.0,0.04416210204362869,-0.18817602470517159,-1.5622970163822174,0.021408788859844208,-0.015870430041104555,-0.0038408456603065133,-35.3632652,149.16514884999998,24714.5,-10.0,-397.5,6.5,-79.75,-40.75,-998.5,22.25,-14.25,-3.75,AUTO
12:15:39,157855.0,0.05435572378337383,-0.19461797922849655,-1.5658106207847595,-0.10718263313174248,0.015323063358664513,0.0042998953722417355,-35.363266249999995,149.16509945,24631.0,-13.5,-497.0,7.0,-101.5,-63.0,-999.5,-106.0,16.0,4.5,AUTO
12:15:41,157855.0,0.07018999010324478,-0.1568787395954132,-1.5706378817558289,0.03407228086143732,0.03428070805966854,0.0023962887935340405,-35.36326875,149.16497475,24494.0,-15.5,-614.5,5.5,-112.5,-69.0,-986.5,34.5,35.0,2.5,AUTO
12:15:42,115799.0,0.0722678191959858,-0.12860128469765186,-1.572494626045227,-0.04469437152147293,0.031363104935735464,-0.0042269640252925456,-35.363269975,149.16490562500002,24425.5,-16.0,-633.0,5.0,-124.75,-73.0,-990.0,-43.5,31.75,-3.75,AUTO
12:15:43,115799.0,0.0776153951883316,-0.1121826283633709,-1.5745551586151123,0.3466711491346359,0.012228721752762794,-0.026799645740538836,-35.36327125,149.1648358,24343.5,-15.5,-629.0,8.0,-118.0,-64.0,-989.0,347.0,13.0,-26.5,AUTO
12:15:45,115799.0,0.0724029392004013,-0.029567730613052845,-1.5751798152923584,0.12316558510065079,0.04988900385797024,-0.01400369219481945,-35.36327355,149.16470465,24183.5,-13.0,-540.0,8.0,-110.5,-51.5,-991.0,123.5,50.0,-14.0,AUTO
12:15:46,200.0,0.06612277869135141,0.021576628496404737,-1.574299305677414,-0.20121957082301378,0.049928585067391396,0.013527209870517254,-35.363274625,149.164649925,24102.5,-10.0,-444.25,8.0,-95.75,-72.5,-995.75,-201.0,50.25,13.25,AUTO
12:15:47,200.0,0.052176378667354584,0.05347995087504387,-1.5746862888336182,0.051762938499450684,0.010223192628473043,-0.004101271973922849,-35.3632753,149.16460805,24010.5,-3.5,-325.0,7.5,-65.0,-38.5,-1003.0,53.0,10.5,-3.5,AUTO
12:15:49,200.0,0.012435477925464511,0.06127157434821129,-1.5774377584457397,0.03933015465736389,-0.030547325499355793,-0.005479758197907358,-35.3632753,149.16456175000002,23888.0,1.0,-111.0,0.5,-19.5,-8.0,-1016.5,40.5,-29.0,-5.0,AUTO
12:15:50,271165.0,0.0044724789913743734,0.03723675711080432,-1.5783514082431793,0.05026672314852476,-0.018442927626892924,0.0012328018856351264,-35.3632752,149.16455382499998,23874.0,-1.75,-44.75,-1.0,-7.0,-3.0,-1002.75,51.0,-17.25,1.5,AUTO
12:15:51,271165.0,-0.0038657921249978244,0.015914948424324393,-1.579629898071289,-0.1849292442202568,-0.02802138216793537,0.0005395189073169604,-35.3632753,149.1645518,23877.0,-3.5,-9.5,-2.0,-1.5,-7.0,-996.0,-183.5,-27.0,0.5,AUTO
12:15:53,271165.0,0.012669521383941174,-0.01049642264842987,-1.5824668407440186,0.09780193865299225,-0.012497610412538052,0.0009374673827551305,-35.36327635,149.16455205,23892.0,-1.0,-10.0,-2.0,-1.0,-1.5,-1002.0,98.0,-12.0,1.0,RTL
12:15:54,273027.0,0.008263939467724413,0.0006312908517429605,-1.5833337903022766,-0.07380549609661102,0.0029895251645939425,0.0006291403115028515,-35.36327665,149.16455135,23962.75,2.75,-10.0,-18.75,-1.25,-5.5,-1034.5,-72.75,2.75,0.5,RTL
12:15:55,273027.0,0.008978664875030518,0.0008604756258137058,-1.5841597318649292,0.20235561579465866,-0.005050296895205975,0.0026385607197880745,-35.3632767,149.16455094999998,24383.0,4.5,-4.5,-63.5,-0.5,4.0,-1050.0,202.5,-4.0,2.5,RTL
12:15:57,273027.0,0.023670952767133713,-0.004305081791244447,-1.5864410400390625,0.03395711164921522,-0.0034559317864477634,0.0009347968734800816,-35.36327675,149.164551,26593.5,10.0,-1.5,-143.0,0.0,-0.5,-1021.5,34.5,-2.5,1.5,RTL
12:15:58,300000.0,0.05588663648813963,-0.004231445956975222,-1.5937248170375824,-0.020494079682976007,0.02478588349185884,-0.033404924150090665,-35.363275375,149.164550625,28107.5,42.25,-7.25,-146.75,0.75,-6.25,-995.5,-19.5,25.5,-33.0,RTL
12:15:59,300000.0,-0.040481179661583155,0.01199749216903001,-1.6476892232894897,-0.08821139647625387,-0.0074570029973983765,-0.04780070669949055,-35.363271850000004,149.1645497,29616.5,34.5,-3.0,-145.5,3.0,-7.5,-1004.0,-87.5,-6.0,-46.5,RTL
12:16:01,300000.0,0.00849885307252407,0.008274440187960863,-1.680893063545227,0.06498458608984947,0.009261429775506258,-0.0003029088256880641,-35.3632765,149.16455035,32697.0,-45.5,16.0,-150.5,-6.0,11.5,-1002.5,65.5,9.5,0.5,RTL
12:16:02,134108.0,0.05829240661114454,-0.0008525195426045684,-1.6674270033836365,0.010092835873365402,-0.05248614423908293,0.05462678277399391,-35.363279775,149.16455209999998,34258.25,-5.25,21.25,-151.0,0.75,5.5,-999.0,11.5,-51.75,54.75,RTL
12:16:03,134108.0,0.00824938528239727,-0.029374686535447836,-1.6398445963859558,-0.06293287687003613,0.018253929913043976,-0.01679367944598198,-35.36327905,149.1645524,35808.0,22.0,-7.5,-148.5,1.0,-4.0,-1000.0,-60.5,19.0,-16.0,RTL
12:16:05,134108.0,0.004543191462289542,0.017473485320806503,-1.7319236397743225,0.017264623660594225,0.0003124615177512169,-0.018624299205839634,-35.36327865,149.16454885000002,38924.0,-3.0,1.5,-152.0,-1.5,0.0,-1000.0,18.0,1.0,-17.0,RTL
12:16:06,70697.0,0.010830193292349577,0.011277757352218032,-1.7420464158058167,-0.002701026009162888,-0.009136324631981552,-0.004897547099972144,-35.3632789,149.164549025,40488.75,4.75,12.25,-151.0,0.75,0.0,-999.75,-1.0,-7.75,-3.5,RTL
12:16:07,70697.0,0.004119989171158522,0.002492294952389784,-1.75210303068161,-0.0071973002050071955,-0.004762158845551312,-0.015071523375809193,-35.36327845,149.16454985000001,42045.5,10.0,13.0,-151.5,2.0,0.0,-1000.0,-5.5,-3.0,-14.0,RTL
12:16:09,70697.0,0.0009020834395414568,-0.0003142023633699864,-1.7989906072616577,0.001002896693535149,0.0032566242152825,-0.0283665731549263,-35.36327755000001,149.16455085,45162.5,4.0,5.0,-152.0,0.0,0.0,-1000.0,2.0,4.0,-27.0,RTL
12:16:10,254144.0,0.00263206975068897,0.0018132995755877346,-1.825620174407959,-2.472505730111152e-05,0.0025438984157517552,-0.025292986538261175,-35.363277375,149.1645509,46723.0,3.0,3.75,-152.0,0.0,0.0,-999.75,1.25,3.0,-24.0,RTL
12:16:11,254144.0,0.0032210329081863165,0.002313415170647204,-1.8487156629562378,0.0012123676133342087,0.0008186716586351395,-0.021556437015533447,-35.363277249999996,149.1645509,48283.0,3.5,4.0,-152.0,0.0,0.0,-1000.0,2.0,1.5,-20.0,RTL
12:16:13,254144.0,0.004698674310930073,0.003167765913531184,-1.8743698000907898,0.004086535540409386,0.004198835988063365,0.010867389966733754,-35.363277,149.164551,51401.5,5.0,3.5,-152.0,0.0,0.0,-999.0,5.0,5.0,12.0,RTL
12:16:14,200.0,0.0037154495366849005,0.0025384073960594833,-1.853053331375122,-0.0040804886957630515,-0.000690680171828717,0.026900562923401594,-35.36327665,149.164551125,52953.5,7.0,4.0,-152.0,0.25,0.0,-999.75,-2.0,0.5,27.5,RTL
12:16:15,200.0,0.0008030413591768593,0.0005944462027400732,-1.827154517173767,0.00030023243743926287,0.0014757154858671129,0.02661402616649866,-35.363276299999995,149.16455125,54507.5,6.0,3.5,-152.0,0.0,0.0,-1000.0,1.5,2.5,27.0,RTL
12:16:17,200.0,0.0017323029460385442,-0.000549672229681164,-1.7852187752723694,0.0026346403756178916,0.0015782574191689491,0.019117001444101334,-35.3632761,149.16455135,57614.5,1.5,1.5,-152.0,0.0,0.0,-1000.0,4.0,2.0,20.0,RTL
12:16:18,194744.0,0.0022681521368213,-0.00033910614729393274,-1.7683542966842651,0.00010509273852221668,0.0005752411670982838,0.016735453391447663,-35.3632761,149.1645513,59170.5,0.5,1.0,-152.0,0.0,0.0,-1000.0,1.25,1.5,17.5,RTL
12:16:19,194744.0,0.003120519104413688,-0.00014583341453544563,-1.754205048084259,0.0022755719255656004,0.0006563395145349205,0.015438067726790905,-35.36327625,149.1645513,60729.0,0.5,1.0,-152.0,0.0,0.0,-1000.5,3.5,1.5,16.0,RTL
12:16:21,194744.0,0.002969448221847415,0.0003838690317934379,-1.7311410307884216,0.0015221082139760256,0.0008349191048182547,0.010062714107334614,-35.3632764,149.16455115000002,63832.0,1.0,1.0,-152.0,0.0,0.0,-1000.0,2.5,2.0,11.0,RTL
12:16:22,39907.0,0.0029316460713744164,0.00030879668884153944,-1.721606731414795,-0.000222907867282629,0.0006690039299428463,0.010443405713886023,-35.3632765,149.1645511,65385.75,1.0,1.0,-152.0,0.0,0.0,-999.5,1.25,1.75,11.0,RTL
12:16:23,39907.0,0.0027611334808170795,0.00019129369229631266,-1.7135441899299622,0.0008386154659092426,0.0006756622460670769,0.00962606305256486,-35.3632765,149.1645511,66939.5,1.0,1.0,-152.0,0.0,0.0,-1000.0,2.5,1.5,10.5,RTL
12:16:25,39907.0,0.0026792369317263365,0.0003537546726875007,-1.7001991868019104,0.0023750373511575162,0.002405816107057035,0.008776406291872263,-35.3632765,149.16455105,70054.5,1.0,1.0,-152.0,0.0,0.0,-1000.0,3.5,3.5,9.5,RTL
12:16:26,200.0,0.0026914047193713486,0.00020632587620639242,-1.6941601932048798,2.9795337468385696e-06,-0.00028320419369265437,0.006388558307662606,-35.3632765,149.164551,71607.75,1.0,1.75,-152.0,0.0,0.0,-1000.0,1.75,0.75,7.0,RTL
12:16:27,200.0,0.002688692999072373,-2.4106292585202027e-05,-1.6883585453033447,-0.001201752747874707,0.001072169456165284,0.005325469188392162,-35.3632765,149.164551,73162.0,1.0,1.5,-152.0,0.0,0.0,-1000.0,0.5,2.5,6.0,RTL
12:16:29,200.0,0.0027211857959628105,5.9147088904865086e-05,-1.6776700615882874,0.0018485182663425803,0.00023521971888840199,0.005452236393466592,-35.3632765,149.164551,76268.5,1.0,1.5,-152.0,0.0,0.0,-1000.0,3.0,1.5,6.5,RTL
12:16:30,128558.0,0.002917423436883837,-0.0005588429776253179,-1.6729165017604828,0.0012674637837335467,0.0006442661688197404,0.005574840935878456,-35.363276575,149.164551,77822.75,1.0,1.25,-152.0,0.0,0.0,-999.75,2.5,1.75,6.25,RTL
12:16:31,128558.0,0.0031657032668590546,-0.00028411437233444303,-1.6688545942306519,0.002356627897825092,0.0009967678925022483,0.006808933336287737,-35.3632766,149.164551,79377.0,1.0,1.0,-152.0,0.0,0.0,-1000.0,3.5,2.0,7.5,RTL
12:16:33,128558.0,0.003147164825350046,1.6921109818213154e-05,-1.6610095500946045,0.0018020336283370852,0.00135913206031546,0.005838433746248484,-35.3632766,149.164551,82485.5,2.0,1.0,-152.0,0.0,0.0,-1000.0,3.0,2.5,6.5,RTL
12:16:34,51663.0,0.0029304621857590973,-0.00011317514326947276,-1.6577042043209076,0.0002860047679860145,-0.00012858648551627994,0.00326273450627923,-35.3632766,149.164551,84038.0,2.0,1.0,-152.0,0.0,0.0,-1000.0,1.75,1.0,4.0,RTL
12:16:35,51663.0,0.0029344508657231927,-0.00023357808095170185,-1.654380977153778,-0.0006136433221399784,0.000555882987100631,0.006248088087886572,-35.3632766,149.164551,85592.0,2.0,1.0,-152.0,0.0,0.0,-999.0,1.5,2.0,7.0,RTL
12:16:37,51663.0,0.002726146252825856,-0.00020903482800349593,-1.64837646484375,0.001617730944417417,0.0003935028216801584,0.004592655343003571,-35.3632766,149.164551,88700.0,1.0,1.0,-152.0,0.0,0.0,-1000.0,3.0,1.5,5.5,RTL
12:16:38,200.0,0.0028523231740109622,-0.0002706938630581135,-1.6457565128803253,-6.369984475895762e-05,0.0006926567875780165,0.002840134606231004,-35.3632766,149.164551,90258.0,1.0,1.0,-152.0,0.0,0.0,-1000.0,1.5,2.0,4.0,RTL
12:16:39,200.0,0.0027600605972111225,-0.00025949926930479705,-1.643250823020935,-0.0006893638055771589,-0.0006885319016873837,0.005135617218911648,-35.3632766,149.164551,91812.5,1.0,1.0,-152.0,0.0,0.0,-999.5,1.0,0.5,6.0,RTL
12:16:41,200.0,0.0027783181285485625,-0.0003454515535850078,-1.638942837715149,0.0009884578757919371,-1.1735246516764164e-05,0.0040410952642560005,-35.3632766,149.164551,94921.0,1.0,1.0,-152.0,0.0,0.0,-999.5,2.5,1.5,5.0,RTL
12:16:42,67631.0,0.002780490554869175,-0.0001569496962474659,-1.6368984282016754,-4.8338843043893576e-06,0.0005566537147387862,0.0023723254853393883,-35.3632766,149.164551,96481.75,1.0,1.0,-152.0,0.0,0.0,-1000.0,1.5,1.75,3.25,RTL
12:16:43,67631.0,0.002793558523990214,-0.0003704308037413284,-1.6351794004440308,0.0011352404253557324,0.0005763244116678834,0.003032861975952983,-35.3632766,149.164551,98032.0,1.0,1.0,-152.0,0.0,0.0,-1000.0,2.5,2.0,4.5,RTL
12:16:45,67631.0,0.0028122913790866733,-0.0002524778319639154,-1.6309934854507446,-0.0007685919990763068,8.290482219308615e-05,0.004305909853428602,-35.3632766,149.164551,101144.5,1.0,1.0,-152.0,0.0,0.0,-999.5,1.0,1.5,5.5,RTL
12:16:46,300000.0,0.0028768600313924253,-0.0004459920965018682,-1.6292861998081207,0.00014564726734533906,0.00022033060668036342,0.0011475189530756325,-35.3632766,149.164551,102699.25,1.0,1.0,-152.0,0.0,0.0,-999.75,1.75,1.5,2.25,RTL
12:16:47,300000.0,0.0029149962356314063,-0.00042205405043205246,-1.6279222965240479,-0.0007003287901170552,0.001539929653517902,0.0005803515668958426,-35.3632766,149.164551,104252.5,1.0,1.0,-152.0,0.0,0.0,-999.5,0.5,3.0,2.0,RTL
12:16:49,300000.0,0.0027945260517299175,-0.0005578614072874188,-1.6256468296051025,-0.00048278248868882656,0.000106393126770854,0.0012055387487635016,-35.3632766,149.164551,107361.0,1.0,1.0,-152.0,0.0,0.0,-1000.0,1.0,1.5,2.5,RTL
12:16:50,140816.0,0.0029496587230823934,-0.0006149554828880355,-1.6245371401309967,0.0002849388401955366,0.0009788888273760676,0.0015697113994974643,-35.3632766,149.164551,108919.0,1.0,1.0,-152.0,0.0,0.0,-1000.0,2.25,2.25,2.5,RTL
12:16:51,140816.0,0.0028706114972010255,-0.00043369430932216346,-1.6233472228050232,-0.0019211419275961816,-0.0007285515894182026,0.0016732720541767776,-35.3632766,149.164551,110472.5,1.0,1.0,-152.0,0.0,0.0,-1000.0,0.5,0.5,3.0,RTL
12:16:53,140816.0,0.0028722353745251894,-0.00020912209947709925,-1.6211668252944946,-0.001473675831221044,2.5995541363954544e-07,0.0019939278718084097,-35.3632766,149.164551,113580.5,1.0,1.0,-152.0,0.0,0.0,-1000.0,0.5,2.0,3.0,RTL
12:16:54,300000.0,0.0027647744864225388,-0.00012387806941660529,-1.6205169260501862,0.0009223857487086207,-0.00011316905147396028,0.0016694965306669474,-35.3632766,149.164551,115133.5,1.0,1.0,-152.0,0.0,0.0,-1000.0,2.25,1.5,2.75,RTL
12:16:55,300000.0,0.0027262053918093443,-0.0002745091915130615,-1.619930624961853,0.0009670397266745567,-0.00032158568501472473,0.00186861032852903,-35.3632766,149.164551,116688.0,1.0,1.0,-152.0,0.0,0.0,-1000.0,3.0,1.5,3.0,RTL
12:16:57,300000.0,0.002392441499978304,-0.00034711689659161493,-1.6181901097297668,-0.0001413871068507433,-0.000387495500035584,0.002447218226734549,-35.3632766,149.164551,119796.5,1.0,1.0,-152.0,0.0,0.0,-1000.0,2.0,1.0,3.5,RTL
12:16:58,90011.0,0.0025954738375730813,-0.0004072777082910761,-1.6176339983940125,0.0003090565442107618,-0.00046463063335977495,0.0006874432438053191,-35.3632766,149.164551,121353.25,1.0,1.0,-152.0,0.0,0.0,-1000.25,2.25,1.0,1.75,RTL
12:16:59,90011.0,0.002646037726663053,-0.0004738001152873039,-1.6171870827674866,0.0002882694825530052,0.0003738295054063201,-0.0006543389754369855,-35.3632766,149.164551,122909.0,1.0,1.0,-152.0,0.0,0.0,-1000.0,2.0,2.0,1.0,RTL
12:17:01,90011.0,0.0029783437494188547,-0.0006634994933847338,-1.615521490573883,0.0007706171600148082,-1.125020207837224e-05,0.0003557116724550724,-35.3632766,149.164551,126017.0,1.0,1.0,-152.0,0.0,0.0,-1000.0,2.5,1.5,2.0,RTL
12:17:02,290612.0,0.0029184240265749395,-0.0006514440610771999,-1.6146876215934753,0.0008420459926128387,-0.00014470293535850942,0.0013559564540628344,-35.3632766,149.164551,127574.75,1.0,1.0,-152.0,0.0,0.0,-1000.0,2.75,1.75,2.75,RTL
12:17:03,290612.0,0.002902774140238762,-0.0004666237800847739,-1.614366888999939,0.0019327488262206316,-7.536873454228044e-05,-9.892473462969065e-05,-35.3632766,149.164551,129128.5,1.0,1.0,-152.0,0.0,0.0,-1000.5,3.5,1.5,1.0,RTL
12:17:05,290612.0,0.0027261258801445365,-0.0005378545465646312,-1.6135501861572266,0.0002367048291489482,-5.840999074280262e-05,0.001463641761802137,-35.3632766,149.164551,132237.0,1.0,1.0,-152.0,0.0,0.0,-1000.0,2.0,1.5,2.5,RTL
12:17:06,200.0,0.002837253618054092,-0.0002479623581166379,-1.61323681473732,0.0009456558036617935,-0.00014953716890886426,0.00151731981895864,-35.3632766,149.164551,133795.5,1.0,1.0,-152.0,0.0,0.0,-1000.0,3.0,1.75,2.75,RTL
12:17:07,200.0,0.0028999801725149155,-0.0002551947982283309,-1.6128246188163757,0.0020612607477232814,0.00038288452196866274,-0.00016641791444271803,-35.3632766,149.164551,135349.5,1.0,1.0,-152.0,0.0,0.0,-1000.5,4.0,2.0,1.5,RTL
12:17:09,200.0,0.0028370264917612076,-0.0001973800826817751,-1.6122789978981018,-0.0011941133998334408,7.377966539934278e-05,0.002766025601886213,-35.3632766,149.164551,138460.0,1.0,1.0,-152.0,0.0,0.0,-1000.0,0.5,1.5,4.5,RTL
12:17:10,81750.0,0.0025063907960429788,-0.0004078133497387171,-1.6120763719081879,-0.0012594056315720081,0.0005534051451832056,-0.00034109054831787944,-35.3632766,149.164551,140014.25,1.0,1.0,-152.0,0.0,0.0,-1000.0,1.0,2.25,1.5,RTL
12:17:11,81750.0,0.0022800042061135173,-0.0002832149912137538,-1.6118427515029907,-0.001225203217472881,0.0001841397024691105,0.0005189426592551172,-35.3632766,149.164551,141569.0,1.0,1.0,-152.0,0.0,0.0,-1000.0,1.0,2.5,2.0,RTL
12:17:13,81750.0,0.0027538452995941043,-0.0006043186003807932,-1.6113791465759277,0.0010764488251879811,-0.0006288334843702614,0.0022464036010205746,-35.3632766,149.164551,144675.5,1.0,1.0,-152.0,0.0,0.0,-1000.0,3.0,1.5,3.5,RTL
12:17:14,73927.0,0.002687282219994813,-0.0007284802122740075,-1.6111504435539246,-6.762714474461973e-05,-5.3502386435866356e-05,0.00024358986411243677,-35.3632766,149.164551,146230.25,1.0,1.0,-152.0,0.0,0.0,-999.75,2.25,2.0,2.0,RTL
12:17:15,73927.0,0.0031749539775773883,-0.0005779527127742767,-1.6110376715660095,-0.00046109710820019245,-0.0008596312836743891,0.0016378503059968352,-35.3632766,149.164551,147785.0,1.0,1.0,-152.0,0.0,0.0,-1000.0,1.5,1.5,3.0,RTL
12:17:17,73927.0,0.0027505980106070638,-0.0003361315975780599,-1.6102222204208374,0.0006720783421769738,0.00022414035629481077,0.0007238225662149489,-35.3632766,149.164551,150896.0,1.0,1.0,-152.0,0.0,0.0,-1000.0,3.0,2.0,2.5,RTL
12:17:18,300000.0,0.0029434647876769304,-0.0004856900850427337,-1.609699159860611,0.0005782644147984684,3.198179183527827e-05,1.6597681678831577e-05,-35.3632766,149.164551,152449.25,1.0,1.0,-152.0,0.0,0.0,-1000.0,2.75,2.0,1.75,RTL
12:17:19,300000.0,0.0028349722269922495,-0.0005618730647256598,-1.6098014116287231,0.0002964615123346448,-4.482991062104702e-05,0.0017388550331816077,-35.3632766,149.164551,154006.5,1.0,1.0,-152.0,0.0,0.0,-1000.0,2.5,1.5,3.5,RTL
12:17:21,300000.0,0.002739108633249998,-0.00016768553905421868,-1.6095754504203796,0.0012844667071476579,-5.267816595733166e-05,-7.055292371660471e-05,-35.3632766,149.164551,157119.0,1.0,1.0,-152.0,0.0,0.0,-1000.5,3.5,2.0,1.5,RTL
12:17:22,300000.0,0.0028590165893547237,-0.0002313534205313772,-1.6094418168067932,0.0013809811789542437,0.0006507018697448075,0.0013531370786949992,-35.3632766,149.164551,158670.75,1.0,1.0,-152.0,0.0,0.0,-999.75,3.5,2.5,2.75,RTL
12:17:23,300000.0,0.002549757482483983,-0.000402503355871886,-1.6095847487449646,-0.0005724893417209387,0.0002449272433295846,-0.001073031045962125,-35.3632766,149.164551,160227.0,1.0,1.0,-152.0,0.0,0.0,-1000.0,1.5,2.5,0.5,RTL
12:17:25,300000.0,0.002467894577421248,-0.0005342334334272891,-1.6092705130577087,8.159095887094736e-05,-0.0009482142049819231,0.0004933668533340096,-35.3632766,149.164551,163335.5,1.0,1.0,-152.0,0.0,0.0,-1000.0,2.5,1.0,2.0,RTL
12:17:26,200.0,0.0027296600746922195,-0.0009141688933596015,-1.6092392802238464,0.0009646372054703534,-0.00011335039744153619,0.0011118712136521935,-35.3632766,149.164551,164893.75,1.0,1.0,-152.0,0.0,0.0,-1000.25,3.0,2.0,2.75,RTL
12:17:27,200.0,0.002856678795069456,-0.0006912203971296549,-1.6090312004089355,-0.0015294142067432404,-0.00022359064314514399,0.0007329772925004363,-35.3632766,149.164551,166448.5,1.0,1.0,-152.0,0.0,0.0,-1000.0,0.5,2.0,2.5,RTL
12:17:29,200.0,0.0031060705659911036,-0.0005245070642558858,-1.6090393662452698,-0.002053739153780043,0.0008958346443250775,0.0006355916848406196,-35.3632766,149.164551,169558.5,1.0,1.0,-152.0,0.0,0.0,-999.0,0.5,3.0,2.5,RTL
12:17:30,98490.0,0.0029647540068253875,-0.00043709025703719817,-1.608798623085022,0.0007160741370171309,0.000584352295845747,0.0007948421407490969,-35.3632766,149.164551,171111.0,1.0,1.0,-152.0,0.0,0.0,-999.75,3.0,2.75,2.5,RTL
12:17:31,98490.0,0.0028344745514914393,-0.0004303061432437971,-1.6090595722198486,-0.003098786575719714,1.7465674318373203e-05,-0.0010287019540555775,-35.3632766,149.164551,172667.5,1.0,1.0,-152.0,0.0,0.0,-999.5,-0.5,2.0,1.0,RTL
12:17:33,98490.0,0.002750345505774021,-0.000302060657304537,-1.608774721622467,-0.002728436840698123,-0.00044334324775263667,0.001956085441634059,-35.3632766,149.164551,175774.0,1.0,1.0,-152.0,0.0,0.0,-999.5,0.0,1.5,4.0,RTL
12:17:34,200.0,0.0028240152169018984,-0.00044593690472538583,-1.6080314815044403,0.000858181738294661,0.0001241086283698678,-0.0001115489867515862,-35.3632766,149.164551,177328.0,1.0,1.0,-152.0,0.0,0.0,-999.75,3.25,2.25,1.75,RTL
12:17:35,200.0,0.002985072904266417,-0.0005129424971528351,-1.6081079244613647,-0.0008886861614882946,0.0006664532120339572,0.002111849025823176,-35.3632766,149.164551,178883.0,1.0,1.0,-152.0,0.0,0.0,-999.5,2.0,3.0,4.0,RTL
12:17:37,200.0,0.0026068614097312093,0.014956582301238086,-1.6079488396644592,-0.002352203824557364,0.027289685793220997,0.0014619141584262252,-35.3632766,149.16455109999998,181989.5,1.5,5.0,-151.5,0.0,0.0,-999.5,0.0,29.5,3.5,RTL
12:17:38,236722.0,0.00028918441967107356,0.055326130241155624,-1.6079034507274628,-0.004894630808848888,0.03685706574469805,-0.00035971173201687634,-35.363276549999995,149.1645527,183525.75,2.75,35.25,-149.25,5.0,2.5,-997.75,-1.75,39.0,1.75,RTL
12:17:39,236722.0,-0.0070189087418839335,0.08863942697644234,-1.6077889204025269,-0.005730944569222629,0.03682218864560127,0.0018052117666229606,-35.36327625,149.16455975000002,185026.5,5.0,95.5,-143.0,18.0,9.0,-993.0,-2.5,39.0,4.0,RTL
12:17:41,236722.0,0.05380520597100258,0.13390595838427544,-1.1161093711853027,0.08585168235003948,-0.06418568221852183,0.1794588267803192,-35.3632778,149.1646018,187140.0,-19.0,295.5,-44.0,67.5,11.5,-940.0,88.5,-61.5,181.0,RTL
12:17:42,300000.0,0.09585453383624554,0.14878737553954124,-1.027415931224823,0.0027534764958545566,0.07343382015824318,0.029465436236932874,-35.36327792499999,149.164638175,187320.0,25.75,373.5,10.0,85.0,-2.25,-959.0,5.75,75.5,31.75,RTL
12:17:43,300000.0,0.06388161703944206,0.1962401196360588,-1.0325838923454285,-0.17819543182849884,0.026771480217576027,-0.026450878009200096,-35.363274399999995,149.16468535,187100.0,46.5,477.0,21.5,117.5,-12.5,-1008.5,-174.5,29.5,-23.5,RTL
12:17:45,300000.0,0.00019961153157055378,0.18254513293504715,-1.118177592754364,-0.06500222138129175,-0.030280637554824352,-0.04098896589130163,-35.363268,149.16480855,186900.5,20.5,620.0,-2.0,136.0,7.0,-996.5,-61.5,-27.5,-38.0,RTL
12:17:46,265368.0,-0.012021332513540983,0.1511562615633011,-1.158597320318222,-0.007995654828846455,-0.0332275265827775,-0.03661764692515135,-35.36326685,149.1648786,186937.0,11.25,645.0,-6.75,147.5,14.75,-992.75,-5.25,-30.0,-33.5,RTL
12:17:47,265368.0,-0.022656858898699284,0.1318337619304657,-1.1954838037490845,0.0019387349020689726,-0.02562329825013876,-0.031009345315396786,-35.363266100000004,149.16494935,186978.5,10.5,641.5,-4.0,151.0,24.5,-994.5,5.0,-23.0,-28.0,RTL
12:17:49,265368.0,-0.056287942454218864,0.04764642380177975,-1.2558127641677856,-0.37122610956430435,-0.037565333768725395,-0.07523868605494499,-35.3632645,149.1650833,187034.5,8.5,551.5,-0.5,122.5,0.0,-978.5,-368.5,-34.0,-72.0,RTL
12:17:50,136344.0,-0.06226437818259001,-9.57356533035636e-05,-1.2785433232784271,0.15765158087015152,-0.052378312684595585,-0.005610916763544083,-35.36326395,149.16513910000003,187025.25,7.0,457.25,1.75,103.0,42.75,-991.0,161.0,-48.75,-3.0,RTL
12:17:51,136344.0,-0.056753162294626236,-0.04067821986973286,-1.2974268198013306,-0.06251534726470709,-0.025859317858703434,-0.025261725299060345,-35.36326375,149.1651824,186990.0,3.0,338.5,2.0,77.0,19.0,-1007.0,-59.5,-23.0,-22.5,RTL
12:17:53,136344.0,-0.024446409661322832,-0.06577723287045956,-1.3285786509513855,-0.023031607270240784,0.014678478240966797,-0.01202128385193646,-35.3632642,149.1652316,186941.0,4.0,119.5,0.5,26.5,10.0,-996.5,-20.0,17.0,-8.5,RTL
12:17:54,236411.0,-0.008371206116862595,-0.04514399264007807,-1.3406983315944672,0.0146409273147583,0.01656330283731222,-0.009108970989473164,-35.363264325,149.16524055,186934.5,7.5,46.75,-0.25,10.0,4.5,-996.5,18.25,19.0,-6.25,RTL
12:17:55,236411.0,7.143989205360413e-05,-0.026712879538536072,-1.3514551520347595,0.1756722116842866,0.02262585423886776,-0.011197288520634174,-35.363264,149.16524325,186941.0,8.5,7.5,-0.5,2.0,6.0,-995.5,179.0,25.0,-8.0,RTL
12:17:57,236411.0,-0.005304908496327698,-0.00860539055429399,-1.3689993023872375,-0.07000267505645752,-0.0110675108153373,-0.005439908942207694,-35.3632627,149.16524325,186955.0,3.0,-7.0,0.0,0.0,-1.0,-996.0,-67.0,-8.5,-2.0,RTL
12:17:58,200.0,-0.0030549316225005896,-0.012401014100760221,-1.37576824426651,0.14353523775935173,-0.0001945350377354771,-0.006919145002029836,-35.36326235,149.165242675,186955.25,0.25,-14.0,-0.5,-1.5,8.0,-998.0,147.25,2.25,-4.0,RTL
12:17:59,200.0,-0.002692743524676189,-0.008110490161925554,-1.382780909538269,-0.6022240221500397,0.004808949772268534,-0.007848788518458605,-35.3632623,149.16524155000002,186958.0,-1.0,-16.5,0.0,-2.5,-34.5,-1000.0,-599.5,7.0,-4.5,RTL
12:18:01,200.0,0.0018353676423430443,-0.003091923426836729,-1.3943139910697937,-0.304158266633749,0.0018935437547042966,-0.0048960818676277995,-35.3632623,149.16523949999998,186957.5,0.0,-11.0,2.0,-0.5,-20.0,-979.0,-301.5,4.0,-2.0,RTL
12:18:02,173655.0,-0.00849510869011283,-0.003826679429039359,-1.399473637342453,-0.48308512941002846,4.1864579543471336e-05,-0.0005333044682629406,-35.3632623,149.16523895,186778.25,0.0,-8.0,44.5,-1.25,-9.0,-926.0,-478.75,2.0,2.0,RTL
12:18:03,173655.0,-0.010635208804160357,-0.003390323487110436,-1.4043218493461609,-0.5165451467037201,0.0046739294193685055,-0.011682409793138504,-35.363262250000005,149.1652386,186062.0,0.5,-6.5,102.0,-1.5,0.5,-962.5,-511.5,6.5,-8.0,RTL
12:18:05,173655.0,0.008214152418076992,-0.007253426825627685,-1.412617266178131,-0.6272908262908459,0.0026351038832217455,-0.002117267926223576,-35.363263450000005,149.165238,183855.5,6.5,-2.5,103.5,-4.0,8.5,-1020.5,-622.5,5.0,0.5,RTL
12:18:06,282918.0,0.02236438961699605,-0.005151206278242171,-1.4169582724571228,0.5130891054868698,0.0045822347165085375,-0.0009619934135116637,-35.363264574999995,149.16523765,182772.75,18.5,-1.0,99.5,-1.25,59.5,-1010.5,518.75,6.5,1.75,RTL
12:18:07,282918.0,0.013909779430832714,-0.0030293415766209364,-1.4204289317131042,0.15364700555801392,0.0034089222317561507,0.008051039883866906,-35.36326485,149.1652375,181804.5,25.0,0.0,97.5,0.0,39.5,-960.0,159.5,5.0,10.5,RTL
12:18:09,282918.0,0.026690307538956404,-0.004551616497337818,-1.4267324805259705,0.8245990574359894,-0.004831090860534459,0.00358481181319803,-35.3632646,149.16523745,179768.5,23.5,0.0,99.5,-0.5,44.5,-986.5,829.5,-2.5,6.0,RTL
12:18:10,139528.0,0.04577658884227276,-0.0043515730649232864,-1.4305080771446228,0.8758565708994865,-0.001578016730491072,-0.003217291319742799,-35.3632649,149.1652374,178693.0,26.25,0.0,101.0,0.0,5.25,-987.75,878.5,0.75,-0.25,RTL
12:18:11,139528.0,0.041757408529520035,-0.004123665392398834,-1.4332263469696045,0.7222995460033417,-0.0042121243895962834,-0.002053359057754278,-35.363265049999995,149.1652374,177670.0,27.5,0.0,102.0,0.0,-9.0,-1016.5,725.0,-2.0,0.5,RTL
12:18:13,139528.0,0.02976929023861885,-0.0025980090722441673,-1.4377609491348267,-0.3936099112033844,0.0049066790379583836,-0.004635471850633621,-35.3632652,149.1652373,176023.0,30.0,0.0,97.0,1.0,-58.0,-975.0,-390.0,7.0,-1.0,RTL
12:18:14,300000.0,0.003517887881025672,0.00019570066360756754,-1.4398865222930908,-1.1363049507141114,0.006701768795028329,-0.008838625601492822,-35.36326436,149.1652373,174749.2,26.4,0.0,100.2,1.6,-73.8,-997.2,-1132.0,8.4,-5.6,RTL
12:18:15,300000.0,-0.017869263887405396,0.0026512942276895046,-1.4418151378631592,-1.462811827659607,0.006847057491540909,-0.0031868063379079103,-35.3632636,149.1652373,173987.0,21.0,0.0,100.0,4.0,-62.0,-1007.0,-1457.0,9.0,0.0,RTL
12:18:17,300000.0,-0.05422637611627579,0.0031880682799965143,-1.4465831518173218,-1.184643030166626,-0.005271108355373144,0.004266627132892609,-35.3632599,149.1652377,171929.0,-6.0,-1.0,98.0,3.0,-31.0,-1024.0,-1178.0,-3.0,7.0,RTL
12:18:18,229570.0,-0.03801726289093495,-0.004561237152665853,-1.447665762901306,-0.45357441902160645,-0.004018216673284769,0.0008610454620793462,-35.363259219999996,149.16523814,170667.4,-24.6,-1.8,101.2,-2.2,18.8,-996.8,-446.6,-1.8,3.4,RTL
12:18:19,229570.0,-0.013756471686065197,-0.009113541804254055,-1.4491921663284302,0.05061408877372742,-0.002373732393607497,-0.002133437432348728,-35.3632601,149.1652383,169899.0,-26.0,-2.0,103.0,-7.0,43.0,-949.0,58.0,0.0,0.0,RTL
12:18:21,229570.0,0.014664380811154842,-0.0066567701287567616,-1.4514520168304443,0.23255358636379242,0.00656519178301096,0.0034402883611619473,-35.3632637,149.1652379,167845.0,4.0,-3.0,109.0,-3.0,65.0,-954.0,240.0,8.0,6.0,RTL
12:18:22,200.0,0.028403790667653084,-0.0017897210665978492,-1.4531637191772462,1.0756855368614198,0.005295729916542769,0.003635359043255448,-35.36326454,149.16523739999997,166578.4,19.2,-0.6,99.2,-1.0,68.8,-1011.0,1082.8,6.8,6.2,RTL
12:18:23,200.0,0.023331266827881336,-0.00020709686214104295,-1.455426573753357,1.1395033299922943,0.008178448770195246,0.00954836094751954,-35.3632643,149.16523725000002,165427.0,23.0,0.0,97.0,0.0,68.0,-1038.0,911.0,4.0,18.0,RTL
12:18:25,200.0,0.027735942974686623,-0.00068110666325083,-1.4570612907409668,1.3339544534683228,-0.008503662655130029,-0.000736296409741044,-35.3632635,149.16523715,163374.0,14.5,2.0,100.0,0.0,43.0,-1043.0,1400.0,-11.0,2.0,RTL
12:18:26,108662.0,0.032080958131700754,-0.0010131349990842864,-1.4578843414783478,1.2377093881368637,-0.004698193923104554,-0.0003307951265014708,-35.3632635,149.1652372,162342.75,13.0,1.5,96.75,1.0,27.0,-1016.4,1249.4,-1.8,2.2,RTL
12:18:27,108662.0,0.03282717615365982,-7.826581713743508e-05,-1.458508014678955,1.577573537826538,0.005596301518380642,0.0019784693140536547,-35.3632633,149.1652372,161711.0,14.0,1.0,98.0,3.0,46.0,-925.0,1583.0,7.0,4.0,RTL
12:18:29,108662.0,0.021595720201730728,-0.002002864144742489,-1.4597891569137573,0.8638885021209717,-0.003497148398309946,-0.005181631539016962,-35.3632624,149.1652375,159674.0,2.0,0.0,103.0,0.0,0.0,-923.0,867.0,-1.0,-1.0,RTL
12:18:30,74625.0,0.007082433183677494,-0.001636825129389763,-1.4612792253494262,-0.6535672187805176,-0.0012236938811838627,-0.006984185986220836,-35.363262559999995,149.1652375,158387.0,2.2,0.0,97.0,0.2,-58.8,-983.6,-649.2,0.8,-4.0,RTL
12:18:31,74625.0,-0.0001105280825868249,-0.0015334166819229722,-1.4617319107055664,-1.2207093238830566,-0.0031103193759918213,-0.0011685092467814684,-35.3632627,149.1652375,157619.0,3.0,0.0,96.0,0.0,-72.0,-1031.0,-1215.0,-1.0,2.0,RTL
12:18:33,74625.0,-0.02530836407095194,0.0015392914065159857,-1.4629416465759277,-1.384822130203247,-0.0032428615959361196,0.0018231617286801338,-35.36326175,149.1652375,155714.5,0.0,0.0,96.0,1.5,-65.0,-1019.0,-1379.0,-1.5,5.0,RTL
12:18:34,254554.0,-0.03094245819374919,0.0010371820826549083,-1.4639923572540283,-1.0180445611476898,-0.000584812747547403,0.007178916945122182,-35.363260975,149.1652375,154446.0,-7.75,0.0,97.75,1.0,-17.25,-1009.5,-1010.25,1.25,10.0,RTL
12:18:35,254554.0,-0.03348965384066105,0.0005928136233706027,-1.4644989371299744,-0.6617678552865982,0.0020433757454156876,0.004008273361250758,-35.363260600000004,149.1652375,153680.0,-11.5,0.0,101.0,-0.5,10.0,-960.5,-653.0,4.5,6.5,RTL
12:18:37,254554.0,-0.0013929448323324323,0.001565751968882978,-1.4651750326156616,1.4729872941970825,-0.0022137428168207407,0.0026920977979898453,-35.3632595,149.1652375,151516.0,-23.0,0.0,100.0,0.5,52.5,-1003.5,1431.5,1.0,5.5,RTL
12:18:38,120587.0,-0.00034699711250141263,-0.0009447948675642692,-1.4662512242794037,0.6996361166238785,-0.007207816175650805,-0.0016531150904484093,-35.363259449999994,149.165237625,150365.0,-28.25,0.0,97.75,1.0,-1.25,-991.25,702.5,-4.5,1.5,RTL
12:18:39,120587.0,0.0005523032741621137,-0.003209079965017736,-1.4656999707221985,0.19013450294733047,-0.0006035049445927143,-0.0032250992953777313,-35.36325975,149.16523775000002,149598.5,-28.0,-0.5,100.0,-1.0,-31.5,-984.0,192.0,1.5,0.0,RTL
12:18:41,120587.0,-0.006746114231646061,-0.002108660584781319,-1.466315746307373,-0.9665297567844391,0.006274020299315453,0.0017152855871245265,-35.36326095,149.1652378,147546.5,-17.0,-2.0,97.0,0.0,-69.0,-991.0,-963.5,8.0,4.5,RTL
12:18:42,152631.0,-0.0313427496701479,0.00045251561969053,-1.4676963090896606,-1.426895523071289,-0.0019745737779885532,0.00040708594024181367,-35.3632606,149.16523772000002,146148.6,-17.2,-2.0,98.2,0.4,-61.6,-1008.8,-1422.4,0.2,3.8,RTL
12:18:43,152631.0,-0.030303407460451126,3.748607559828088e-05,-1.4675532579421997,-1.4016586542129517,-0.0006223786622285843,0.0036657662130892277,-35.3632603,149.1652377,145379.0,-19.0,-2.0,100.0,1.0,-64.0,-1000.0,-1397.0,1.0,7.0,RTL
12:18:45,152631.0,-0.03337244503200054,5.6733300880296156e-05,-1.468807876110077,-0.4575975388288498,0.0029975436627864838,0.00019687600433826447,-35.36326015,149.1652377,143482.5,-19.0,-1.0,100.0,0.0,23.0,-964.5,-451.0,4.5,4.0,RTL
12:18:46,300000.0,-0.017760624177753925,0.0014640768931712955,-1.4690271615982056,0.8696272671222687,0.0044508769060485065,0.0013564033433794975,-35.363259725,149.1652377,142205.75,-22.5,-1.0,98.25,0.0,65.5,-1009.5,875.0,6.0,4.5,RTL
12:18:47,300000.0,-0.004990590387023985,0.0006511114770546556,-1.4689269661903381,1.3644688725471497,-0.0017905537970364094,0.006699748337268829,-35.3632595,149.1652377,141438.0,-25.0,-0.5,98.0,0.0,65.5,-1000.0,1368.5,0.5,9.5,RTL
12:18:49,300000.0,0.013437669724225998,-0.0030477417167276144,-1.4686371088027954,1.3647329807281494,-0.003675424726679921,-0.00045782048255205154,-35.3632602,149.1652377,139404.0,-25.0,0.0,99.0,-1.5,44.5,-1035.0,1367.0,-1.0,2.5,RTL
12:18:50,300000.0,0.025405405554920435,-0.004389009904116392,-1.469424694776535,1.1405670195817947,-0.0005043690616730601,-0.0010602943366393447,-35.3632615,149.165237625,138138.5,-15.5,0.0,98.25,-2.25,28.0,-1003.0,1142.0,1.5,2.0,RTL
12:18:51,300000.0,0.032976916059851646,-0.004299524938687682,-1.4691887497901917,0.7152652442455292,-0.0024073896347545087,0.0014873689506202936,-35.363262399999996,149.16523755,137380.0,-8.5,0.0,101.5,-1.5,-6.0,-1003.0,716.0,0.0,4.5,RTL
12:18:53,300000.0,0.01869079191237688,-0.0009686632838565856,-1.4698677062988281,-1.1116965413093567,0.005040448624640703,-0.01212701527401805,-35.36326415,149.1652372,135341.0,9.5,0.5,101.5,1.0,-74.5,-1011.0,-1110.0,7.0,-8.0,RTL
12:18:54,104898.0,-0.005214192126004491,0.0007778185317874886,-1.4700264632701874,-1.0687173753976822,0.0005495114019140601,0.00515308155445382,-35.363264125,149.165237125,134069.5,19.25,1.5,99.75,0.75,-24.75,-1005.5,-1064.25,2.75,8.5,RTL
12:18:55,104898.0,-0.010343729285523295,0.001018816721625626,-1.4700375199317932,-0.4997388571500778,0.0027344790287315845,0.006433240137994289,-35.36326375,149.1652371,133302.5,18.5,2.0,103.5,0.0,13.0,-987.5,-493.0,5.0,9.5,RTL
12:18:57,104898.0,0.01937519572675228,-0.002020644024014473,-1.4704806208610535,0.7470023930072784,0.0025944728404283524,-0.0022552888840436935,-35.3632641,149.1652371,131262.5,18.0,3.0,105.0,-2.0,74.0,-984.0,752.5,4.0,1.5,RTL
12:18:58,272562.0,0.031042600516229868,-0.0016423191991634667,-1.470523864030838,1.3778488337993622,0.001773927127942443,0.0007907893159426749,-35.363264525,149.1652371,129989.0,22.75,3.0,102.25,-0.75,75.25,-1000.75,1383.0,3.75,4.0,RTL
12:18:59,272562.0,0.039020219817757607,-0.0008465638384222984,-1.4706643223762512,1.3063603043556213,0.004621474305167794,0.0032380984630435705,-35.36326485,149.16523705,129221.5,24.5,3.0,99.5,0.0,71.0,-1018.0,1311.5,6.5,6.0,RTL
12:19:01,272562.0,0.022100485861301422,0.004792640917003155,-1.4698949456214905,0.9872057139873505,-0.0012302941177040339,0.0034469306701794267,-35.36326375,149.1652369,127165.5,23.0,3.0,100.0,2.5,11.5,-1032.0,990.0,0.5,6.5,RTL
12:19:02,213953.0,0.013501228531822562,0.0006434312817873433,-1.4705208241939545,0.5884879343211651,-0.0055484549375250936,-0.0026586594176478684,-35.36326232500001,149.16523719999998,125887.25,8.75,2.5,99.75,2.0,-16.5,-992.0,590.75,-2.5,0.75,RTL
12:19:03,213953.0,0.00541999819688499,-0.0017857119673863053,-1.4707228541374207,-0.23235811293125153,-0.0024129458470270038,-0.0062595324125140905,-35.36326205,149.16523745,125115.5,1.5,1.5,100.0,0.0,-50.5,-975.5,-230.0,0.0,-2.5,RTL
12:19:05,213953.0,-0.0065935030579566956,-0.00500343251042068,-1.4704226851463318,-1.1145209074020386,0.0001902629155665636,0.005356019362807274,-35.363263,149.1652376,123090.0,3.5,0.0,101.5,-3.0,-20.5,-1000.0,-1108.5,3.0,8.5,RTL
12:19:06,278115.0,0.004977010728907771,-0.00151475629536435,-1.4707211554050446,-0.14736688509583473,0.002563584130257368,0.0037800789577886462,-35.363263825,149.16523745,121814.25,14.75,0.0,102.0,-0.5,33.75,-968.5,-139.25,4.75,7.25,RTL
12:19:07,278115.0,0.02447338681668043,0.0007977814839250641,-1.4703595638275146,1.2139294147491455,0.0068232695339247584,-0.000995471142232418,-35.363263849999996,149.1652373,121052.5,17.0,0.5,99.5,0.0,67.0,-1010.0,1220.0,9.0,2.5,RTL
12:19:09,278115.0,0.023857587948441505,0.002817276632413268,-1.4707458019256592,1.3310765027999878,-0.0019808494253084064,0.0006198871415108442,-35.363263,149.165237,119015.0,11.0,3.5,99.0,0.0,47.5,-1021.5,1336.5,0.5,3.5,RTL
12:19:10,200.0,0.03903475124388933,-0.0009269965012208559,-1.4711937010288239,1.2007193267345428,-0.0027384435816202313,0.002021806489210576,-35.363263375,149.165236925,117751.0,10.0,4.25,101.5,-1.0,29.25,-1016.25,1204.75,0.0,5.25,RTL
12:19:11,200.0,0.0414790865033865,-0.001467923866584897,-1.4707874655723572,1.0941288471221924,0.0004008760442957282,0.004550860030576587,-35.3632638,149.165237,116985.5,14.0,4.0,102.5,-0.5,22.5,-999.5,1098.0,2.5,8.0,RTL
12:19:13,200.0,0.018161728978157043,0.0011188366333954036,-1.4707893133163452,-0.6190181374549866,-0.0025234699714928865,-0.009704806376248598,-35.363264,149.1652371,114945.5,18.0,2.0,103.0,1.5,-72.5,-930.5,-615.0,0.0,-5.5,RTL
12:19:14,231833.0,-0.012314193183556199,0.0020695746643468738,-1.4709453284740448,-1.2003585994243622,-0.004262821865268052,-0.0031300538103096187,-35.3632627,149.1652372,113657.75,10.5,2.0,102.75,1.25,-74.75,-1013.75,-1195.25,-1.75,0.75,RTL
12:19:15,231833.0,-0.019174381159245968,0.00012564037751872092,-1.4713934659957886,-1.4079861640930176,-0.0033913407241925597,0.001589204533956945,-35.363262250000005,149.1652373,112884.0,4.0,2.0,98.0,0.0,-57.5,-1008.5,-1402.0,0.0,4.5,RTL
12:19:17,231833.0,-0.02808873914182186,0.00037131214048713446,-1.4712035655975342,-1.229008138179779,0.00951390084810555,0.0025598396314308047,-35.363262,149.1652375,110838.5,0.0,0.0,101.5,1.5,-30.5,-960.0,-1221.0,12.0,5.5,RTL
12:19:18,300000.0,-0.04421236738562584,0.0028232369222678244,-1.4712049961090088,-1.3646791577339172,-0.0009101681644096971,0.0007196408696472645,-35.3632603,149.165237625,109560.5,-8.5,-1.0,98.75,2.75,-49.5,-995.5,-1358.0,1.5,4.0,RTL
12:19:19,300000.0,-0.05409575253725052,0.0004570171295199543,-1.4709004759788513,-1.2674214243888855,-0.010131501592695713,-0.002185274031944573,-35.363259299999996,149.1652378,108799.5,-20.0,-1.0,99.5,0.5,-39.5,-1039.0,-1261.0,-7.0,1.5,RTL
12:19:21,300000.0,-0.020377950742840767,-0.006346231093630195,-1.471055030822754,-0.601459264755249,0.003694966551847756,-0.0012263095704838634,-35.363260350000004,149.1652381,106766.0,-23.0,-3.0,98.0,-2.5,9.0,-997.0,-594.0,6.0,2.5,RTL
12:19:22,109471.0,0.010928331146715209,-0.005621748045086861,-1.470936268568039,1.1084687262773514,0.004137493669986725,0.003981792600825429,-35.363261475,149.16523805,105497.25,-12.75,-3.0,100.75,-2.5,69.25,-999.5,1115.0,6.0,7.5,RTL
12:19:23,109471.0,0.03179331589490175,-0.00459760962985456,-1.4710824489593506,1.229428231716156,0.0005452971672639251,0.0005972424987703562,-35.3632621,149.16523795,104727.0,-8.0,-3.0,102.0,-1.0,30.0,-996.5,1233.5,3.0,4.0,RTL
12:19:25,109471.0,0.011291465256363153,-0.0013781071756966412,-1.4711045622825623,-0.32826855778694153,-0.0036407388979569077,-0.005805244669318199,-35.3632624,149.16523765,102680.0,-0.5,-2.0,100.0,0.0,-53.0,-991.0,-325.0,-0.5,-1.5,RTL
12:19:26,40382.0,0.0036569186340784654,-0.000580724724841275,-1.4714163541793823,-0.7485140115022659,-0.0003010402724612504,-0.005249755107797682,-35.363262325,149.1652376,101394.75,-0.75,-1.0,100.25,1.25,-65.5,-1012.0,-745.25,1.75,-1.25,RTL
12:19:27,40382.0,-0.013776584062725306,0.001211697468534112,-1.4712579846382141,-1.309082806110382,-0.00035910785663872957,-0.003942331997677684,-35.3632619,149.1652376,100629.5,-0.5,-1.0,98.5,1.5,-75.0,-989.0,-1305.0,2.0,-0.5,RTL
12:19:29,40382.0,-0.04028912074863911,0.00034785488969646394,-1.4707655310630798,-1.4281628131866455,0.0021966373315081,0.0016994590405374765,-35.36326015,149.1652376,98583.5,-16.0,-1.0,104.0,-0.5,-42.0,-965.5,-1422.5,4.5,5.0,RTL
12:19:30,284973.0,-0.026040620170533657,-0.0024667051038704813,-1.471083253622055,-0.9476476907730103,0.0002777173067443073,0.0003784200525842607,-35.363260325,149.1652377,97315.75,-20.25,-1.0,97.0,0.0,-14.0,-994.5,-941.5,2.5,3.75,RTL
12:19:31,284973.0,-0.030576124787330627,-0.001781091035809368,-1.4715655446052551,-0.9648145139217377,-0.0007119663059711456,0.01274878135882318,-35.36326065,149.1652377,96542.0,-17.0,-1.0,102.5,-1.0,-7.0,-980.0,-958.5,2.0,16.0,RTL
12:19:33,284973.0,-0.0022232381743378937,-0.0035901378141716123,-1.4710898399353027,1.0295296609401703,-0.0012033632956445217,0.0001467871479690075,-35.363261,149.1652377,94494.0,-12.5,-1.0,98.0,-2.0,76.5,-1021.5,1035.0,1.0,3.5,RTL
12:19:34,83033.0,0.02993199462071061,-0.0068107867846265435,-1.4713270962238312,1.2508362531661987,0.0004717679985333234,-0.00019907148089259863,-35.36326235,149.1652377,93219.75,-5.75,-1.0,98.0,-3.75,52.0,-1016.5,1254.5,2.75,3.25,RTL
12:19:35,83033.0,0.035610709339380264,-0.006534141255542636,-1.471115529537201,0.4144286960363388,0.0005647027865052223,-0.007670831400901079,-35.3632632,149.1652377,92465.0,1.0,-1.0,99.0,-2.0,-19.0,-963.0,416.0,2.5,-3.5,RTL
12:19:37,83033.0,0.007234638324007392,-0.002092704293318093,-1.471863031387329,-1.193749725818634,-0.00183019635733217,-0.0004142927937209606,-35.3632639,149.16523755,90430.5,13.0,-1.0,100.0,-2.0,-73.0,-1009.5,-1190.5,0.5,4.0,RTL
12:19:38,200.0,0.008819108246825635,-0.0030313400784507394,-1.4710968732833862,-1.2317703664302826,0.0007283390150405467,-0.005113852676004171,-35.363264150000006,149.1652375,89158.25,15.75,0.0,99.75,-0.25,-75.5,-1001.75,-1228.0,2.75,-0.75,RTL
12:19:39,200.0,0.005288290791213512,-0.0030083968304097652,-1.470969319343567,-1.429854393005371,-0.004200811497867107,-0.001085615367628634,-35.3632643,149.1652375,88402.0,17.5,0.0,101.0,1.0,-72.0,-991.5,-1426.0,-1.5,2.5,RTL
12:19:41,200.0,-0.024465654976665974,0.0022252940107136965,-1.4709663391113281,-1.040575385093689,0.0007756487466394901,0.001720197033137083,-35.3632627,149.1652375,86368.0,13.5,-0.5,101.5,3.0,-21.5,-981.0,-1034.0,3.0,5.0,RTL
12:19:42,212845.0,-0.03569726971909404,0.0021229807171039283,-1.471194326877594,-0.2395912278443575,0.0016308623016811907,0.0030333701288327575,-35.363260825,149.1652376,85089.5,-2.0,-0.75,102.0,2.25,21.75,-1004.0,-232.5,3.75,6.5,RTL
12:19:43,212845.0,-0.03266471065580845,0.0014072672929614782,-1.470704734325409,0.43982575833797455,-0.0036932556540705264,0.008183664176613092,-35.36325985,149.16523775000002,84331.0,-12.5,-1.0,99.5,3.0,49.0,-970.5,447.0,-1.0,11.5,RTL
12:19:45,212845.0,0.005910666979616508,-0.005902653792873025,-1.4709658026695251,1.3566713333129883,-0.00239811884239316,0.0020156826358288527,-35.363259400000004,149.1652381,82293.5,-31.0,-2.0,100.5,-2.5,57.5,-1026.5,1361.0,0.0,5.5,RTL
12:19:46,275753.0,0.024629660416394472,-0.005713117541745305,-1.4708587527275085,0.9185707494616508,0.0010799936135299504,0.00024617474991828203,-35.36326105,149.165238025,81012.0,-20.0,-3.0,102.5,-1.0,16.0,-1023.25,920.75,3.25,4.0,RTL
12:19:47,275753.0,0.017561599612236023,-0.00396276731044054,-1.4709190130233765,-0.13223717734217644,-0.00312156172003597,-0.0038205108139663935,-35.36326185,149.16523784999998,80255.0,-12.5,-3.0,102.0,-1.0,-45.0,-960.0,-131.0,-0.5,0.0,RTL
12:19:49,275753.0,-0.018770881928503513,-0.001872125139925629,-1.4704553484916687,-1.4400169849395752,0.0004094691248610616,-0.0002029543975368142,-35.36326205,149.1652377,78191.5,-1.5,-1.5,98.5,0.5,-48.5,-1009.0,-1435.5,2.0,3.5,RTL
12:19:50,10487.0,-0.007591104076709598,-0.005540171405300498,-1.4707852900028229,-1.3231914043426514,-0.0037580934586003423,0.0007259988924488425,-35.363262199999994,149.1652377,76917.25,-3.5,-0.75,98.25,-3.75,-58.75,-1032.0,-1319.5,-1.25,4.0,RTL
12:19:51,10487.0,0.0014981138083385304,-0.007846122607588768,-1.471427857875824,-1.0931399464607239,-0.000203804112970829,6.984150968492031e-05,-35.3632631,149.1652377,76159.0,1.5,0.0,100.5,-4.5,-24.5,-1000.5,-1087.5,2.0,4.0,RTL
12:19:53,10487.0,0.027167963795363903,-0.0035003735683858395,-1.4705271124839783,0.2489660084247589,0.008875668980181217,0.0032828403636813164,-35.363266100000004,149.1652373,74098.5,30.5,0.0,102.0,-1.5,49.0,-1014.0,256.0,10.5,6.5,RTL
12:19:54,263123.0,0.03193144593387842,0.0010563702256831675,-1.4704572558403015,1.3326773345470428,0.0056850683758966625,0.009789775358512998,-35.363265874999996,149.16523705,72834.25,40.0,1.25,99.5,1.0,72.25,-1007.5,1339.25,7.5,13.25,RTL
12:19:55,263123.0,0.02620373573154211,0.0023665352491661906,-1.4701446294784546,1.4315057396888733,-0.0013211537152528763,0.0022896891459822655,-35.363265150000004,149.165237,72058.5,36.0,2.0,99.0,1.5,60.5,-1017.5,1437.0,1.0,6.0,RTL
12:19:57,263123.0,0.00828915135934949,0.0024017157265916467,-1.4703288078308105,1.0637338161468506,-0.0037746077869087458,-0.00019782292656600475,-35.363262399999996,149.16523725000002,70008.5,13.0,1.0,99.5,3.0,28.0,-1020.5,1067.5,-1.0,3.5,RTL
12:19:58,200.0,0.009671811014413834,-0.0021140954922884703,-1.470450907945633,0.8823523968458176,-0.0032634285162203014,0.0056317049311473966,-35.363261425,149.1652376,68743.25,-2.0,0.5,99.5,0.25,7.75,-1004.5,885.75,-0.75,9.25,RTL
12:19:59,200.0,0.016160327941179276,-0.004038049373775721,-1.4702145457267761,0.283929917961359,-0.008716261480003595,-0.01258473563939333,-35.3632616,149.1652377,67981.5,-6.0,0.0,99.5,0.0,-25.0,-1001.0,286.5,-6.0,-8.0,RTL
12:20:01,200.0,-0.008541165851056576,-0.0032174530206248164,-1.4707902669906616,-1.3202080130577087,4.474428715184331e-05,-0.0024308841675519943,-35.3632627,149.1652378,65945.5,2.5,-2.0,98.5,0.0,-52.5,-1024.0,-1314.5,2.0,1.5,RTL
12:20:02,300000.0,-0.016329656122252345,-0.0010711057111620903,-1.4703212678432465,-0.8067703619599342,0.003279088414274156,0.002165375160984695,-35.363262425,149.1652378,64674.0,4.25,-2.0,99.5,-0.25,-13.5,-1002.5,-799.5,4.75,5.75,RTL
12:20:03,300000.0,-0.018826788291335106,-0.0006738370866514742,-1.470499873161316,0.06410108506679535,-0.001716232975013554,0.016002541640773416,-35.363261949999995,149.1652378,63915.0,1.0,-2.0,104.5,0.0,41.0,-987.0,72.0,1.0,19.5,RTL
12:20:05,300000.0,-0.011984193231910467,0.0003556249284883961,-1.4698322415351868,1.2927992939949036,-0.0019670933252200484,0.0027768402360379696,-35.3632604,149.1652378,61873.0,-10.0,-1.0,100.5,0.0,75.0,-979.5,1299.0,0.5,6.0,RTL
12:20:06,300000.0,0.0018403002177365124,-0.0008578915949328803,-1.4711531102657318,0.9541541785001755,-0.0020400292123667896,0.001259193173609674,-35.36326,149.1652378,60600.25,-20.0,-1.5,100.0,0.5,16.75,-996.25,957.5,0.0,4.75,RTL
12:20:07,300000.0,-0.0025466105435043573,-0.001108450349420309,-1.470259189605713,0.23829986341297626,-0.001058434834703803,7.45097640901804e-05,-35.363259850000006,149.1652378,59839.5,-22.5,-2.0,102.5,1.0,-25.5,-969.5,240.0,1.0,3.0,RTL
12:20:09,300000.0,-0.02998632937669754,-0.0002398050855845213,-1.469671607017517,-1.015260010957718,-0.004326181253418326,-0.0053226257441565394,-35.36325875,149.165238,57791.5,-32.0,-4.0,103.5,0.0,-74.0,-979.0,-1013.0,-1.5,-1.5,RTL
12:20:10,68142.0,-0.03290081210434437,-0.0008929467367124744,-1.470217913389206,-1.10496124625206,0.0005046532023698092,-0.007004587387200445,-35.363258325,149.1652381,56529.0,-39.25,-4.0,100.5,1.5,-72.0,-984.75,-1103.0,2.75,-3.25,RTL
12:20:11,68142.0,-0.046057432889938354,-0.0017581001739017665,-1.4702484011650085,-1.4062221050262451,-0.0026533720083534718,-0.0032634008675813675,-35.36325805,149.1652381,55761.5,-40.5,-4.0,104.0,0.5,-76.5,-978.0,-1403.5,-0.5,0.5,RTL
12:20:13,68142.0,-0.03926529549062252,-0.00410371832549572,-1.4698463082313538,-0.9365448951721191,0.0009454188402742147,0.003404913004487753,-35.3632585,149.1652383,53709.0,-40.0,-5.0,99.5,-1.0,-15.5,-1033.0,-932.0,3.0,7.0,RTL
12:20:14,300000.0,-0.02825864590704441,-0.0059778227005153894,-1.4701229333877563,-0.25613296031951904,0.0009578609024174511,-0.0013279769336804748,-35.363259375,149.16523825,52425.25,-35.0,-4.5,101.0,-3.75,31.5,-1000.25,-251.5,2.5,2.25,RTL
12:20:15,300000.0,0.004765402612974867,-0.0072327114176005125,-1.4694710969924927,0.8552581816911697,-0.00018346443539485335,-0.003691617981530726,-35.36326055,149.16523805,51659.5,-27.5,-3.5,98.5,-5.0,68.0,-977.5,859.5,1.5,0.0,RTL
12:20:17,300000.0,0.044566910713911057,-0.006410713540390134,-1.4704911708831787,1.3373094201087952,0.002778440830297768,0.0020224425243213773,-35.3632646,149.16523755,49603.0,9.5,-1.0,99.5,-2.5,68.5,-1018.5,1340.5,4.5,5.5,RTL
12:20:18,181512.0,0.03880737815052271,-0.0019681131234392524,-1.4693533778190613,1.2814049422740936,0.0007651213090866804,-0.003277063893619925,-35.363265,149.1652374,48326.25,24.0,-0.5,96.75,1.0,38.0,-1005.75,1283.25,3.0,0.5,RTL
12:20:19,181512.0,0.03165783826261759,-0.000701397791999625,-1.4685605764389038,1.285331666469574,0.008624997921288013,0.0017903908155858517,-35.3632646,149.1652374,47560.5,24.0,0.0,99.5,0.5,28.5,-1009.5,1287.0,10.0,4.5,RTL
12:20:21,181512.0,0.00011375611939001828,0.003028948442079127,-1.4698331952095032,0.2535720355808735,-0.001127560273744166,-0.00428385310806334,-35.363262,149.1652375,45519.0,7.5,-1.0,101.0,4.5,-26.5,-1020.0,254.0,0.5,-0.5,RTL
12:20:22,28822.0,-0.02746117953211069,-0.0003409090268178261,-1.469769150018692,-1.0887929648160934,-0.0023772405402269214,-0.004043664433993399,-35.3632603,149.16523775000002,44256.0,-11.5,-1.0,98.75,0.5,-73.5,-980.0,-1087.5,-0.75,-0.5,RTL
12:20:23,28822.0,-0.03676159121096134,-0.0014718807360623032,-1.4707258343696594,-1.4311209321022034,-0.0039628829108551145,-0.00287615810520947,-35.363259850000006,149.16523784999998,43491.5,-18.5,-1.5,101.0,0.0,-63.5,-1023.5,-1429.0,-2.0,1.0,RTL
12:20:25,28822.0,-0.011181375943124294,-0.004762357100844383,-1.4699223637580872,-0.1258542686700821,-0.0007512257434427738,-0.0009012428345158696,-35.363261050000006,149.165238,41456.0,-14.5,-2.0,100.0,-1.0,32.5,-1010.0,-121.0,1.0,2.5,RTL
12:20:26,200.0,-0.008413641131483018,-0.0037905744975432754,-1.4698037505149841,0.3276267908513546,0.0024015146773308516,0.0025997194461524487,-35.363261575,149.16523794999998,40178.75,-7.5,-3.0,101.0,-0.5,54.5,-984.0,332.0,3.75,5.75,RTL
12:20:27,200.0,-0.005581784178502858,-0.00245183112565428,-1.469369113445282,0.44440972805023193,0.008172742556780577,0.00022200413513928652,-35.36326165,149.1652379,39412.0,-6.0,-3.0,100.0,-0.5,55.0,-995.0,449.0,9.5,3.5,RTL
12:20:29,200.0,0.010432589333504438,-0.002608717535622418,-1.4696765542030334,1.497888207435608,0.000457265879958868,0.0028837029822170734,-35.3632611,149.1652378,37379.5,-8.0,-2.0,101.5,-0.5,65.0,-987.5,1500.5,1.5,7.0,RTL
12:20:30,300000.0,0.02792495209723711,-0.006566686788573861,-1.4688312709331512,1.2507944703102112,-0.003120200475677848,-0.0042996908887289464,-35.363262225,149.1652378,36103.0,-5.75,-1.0,99.25,-3.25,41.5,-1012.0,1251.75,-1.5,-0.75,RTL
12:20:31,300000.0,0.04192371107637882,-0.0061101773753762245,-1.4700366258621216,0.9200979471206665,-0.0003746260772459209,-0.004320204025134444,-35.3632633,149.1652377,35335.0,1.5,-1.0,100.5,-2.0,14.0,-995.5,920.0,1.0,-0.5,RTL
12:20:33,300000.0,0.011979346163570881,-0.0010452905262354761,-1.4694152474403381,-1.2977972030639648,0.0005652874824590981,-0.00584171898663044,-35.3632644,149.1652373,33290.0,19.0,0.0,100.0,0.0,-73.0,-1022.5,-1296.5,2.0,-1.5,RTL
12:20:34,164884.0,0.005419944747700356,-0.0018309260776732117,-1.4697145521640778,-1.3933607935905457,-0.001515696058049798,-0.003949463076423854,-35.36326439999999,149.1652372,32017.5,20.25,1.25,99.5,-1.5,-66.5,-992.25,-1391.25,0.5,-0.5,RTL
12:20:35,164884.0,0.007485588546842337,-0.003415701910853386,-1.4694114327430725,-1.4528026580810547,0.000787698314525187,-0.002728454419411719,-35.36326475,149.1652372,31259.0,22.0,2.0,98.0,-2.0,-58.5,-997.0,-1450.0,2.0,1.0,RTL
12:20:37,164884.0,0.013779779430478811,-0.003072006977163255,-1.4693080186843872,-0.9812026917934418,0.0034710365580394864,-0.000742265023291111,-35.36326605,149.1652372,29224.0,36.0,2.0,104.0,-0.5,-6.0,-970.0,-975.0,4.5,2.5,RTL
12:20:38,114827.0,0.014920635847374797,-0.002741931937634945,-1.4692235887050629,-0.5450033769011497,0.0026057724899146706,-0.0021053357049822807,-35.36326615,149.1652371,27948.0,40.5,2.25,102.25,-0.75,19.0,-969.0,-538.25,4.0,1.5,RTL
12:20:39,114827.0,0.02198993507772684,-0.0035223818849772215,-1.4694916009902954,-0.05250413715839386,-0.003803554573096335,-0.0006442805752158165,-35.3632663,149.1652371,27183.0,42.0,3.0,99.0,-1.5,36.0,-1007.5,-45.5,-1.5,2.0,RTL
12:20:41,114827.0,0.0465924646705389,-0.0023223486496135592,-1.4693067073822021,1.1949197053909302,5.164591129869223e-06,-0.001027361722663045,-35.363267199999996,149.165237,25135.0,50.0,3.0,102.5,0.0,68.5,-1011.0,1202.0,1.5,2.5,RTL
12:20:42,193128.0,0.04172657057642937,0.0010027068419731222,-1.4689174890518188,1.351785570383072,0.006696466181892902,0.00943815114442259,-35.363266800000005,149.165237,23858.25,52.0,2.75,100.25,3.0,70.0,-989.0,1358.75,8.0,12.25,RTL
12:20:43,193128.0,0.027126613073050976,0.003002489684149623,-1.4694507122039795,1.3409786224365234,0.003334074281156063,-0.0005530060734599829,-35.36326565,149.165237,23087.0,48.5,2.0,99.5,5.5,62.5,-1040.5,1347.5,4.5,2.0,RTL
12:20:45,193128.0,-0.0011726486700354144,0.003814188181422651,-1.4685184955596924,1.1687010526657104,-0.0002868211595341563,-0.0028063450008630753,-35.363261449999996,149.1652375,21027.0,8.5,0.0,98.5,6.5,14.5,-1015.0,1173.0,1.0,0.5,RTL
12:20:46,243167.0,-0.02267868141643703,0.003919352253433317,-1.469302624464035,1.254717767238617,-0.0052525407809298486,0.003386030555702746,-35.363258775,149.165237875,19765.25,-15.5,-1.5,99.0,5.5,33.0,-1004.5,1259.25,-3.75,6.25,RTL
12:20:47,243167.0,-0.02888884488493204,0.0019180520321242511,-1.468975841999054,0.4638436436653137,-0.004439522395841777,-0.005186917260289192,-35.36325745,149.1652381,19009.0,-33.0,-3.0,101.0,3.0,-21.0,-960.0,467.0,-2.5,-1.5,RTL
