time_stamp,MODE,lat,lon,relative_alt,roll,pitch,yaw,rollspeed,pitchspeed,yawspeed,xacc,yacc,zacc,xgyro,ygyro,zgyro,vx,vy,vz,LAND_SPEED_HIGH,WPNAV_SPEED_DN,RTL_ALT
21:18:19.573,GUIDED,-35.3632621,149.1652374,0,0.00028625549748539925,0.001412965008057654,0.02858833037316799,0.00023109704488888383,0.00024411245249211788,0.0025579023640602827,0,1,-1000,0,0,0,0,0,0,0.0,150.0,1500.0
21:18:19.774,GUIDED,-35.3632621,149.1652374,0,0.00028625549748539925,0.001412965008057654,0.02858833037316799,0.00023109704488888383,0.00024411245249211788,0.0025579023640602827,0,1,-1000,0,0,0,0,0,0,0.0,150.0,1500.0
21:18:19.975,GUIDED,-35.3632621,149.1652374,0,0.00032396084861829877,0.0014739687321707606,0.028403980657458305,0.0002665907086338848,0.00019611755851656199,0.002338163321837783,0,1,-1000,0,1,0,0,1,0,0.0,150.0,1500.0
21:18:20.175,GUIDED,-35.3632621,149.1652374,0,0.0003542248159646988,0.0015175340231508017,0.02822965569794178,0.0003415805986151099,0.00030180293833836913,0.0022894074209034443,0,1,-1000,0,0,0,-1,1,0,0.0,150.0,1500.0
21:18:20.376,GUIDED,-35.3632621,149.1652374,0,0.00036451296182349324,0.001550982240587473,0.02803417295217514,0.0003715472121257335,0.000265199167188257,0.0025668484158813953,0,1,-1000,0,0,0,-1,1,0,0.0,150.0,1500.0
21:18:20.577,GUIDED,-35.3632621,149.1652374,0,0.00037389257340691984,0.0015828897012397647,0.027834735810756683,0.00030506198527291417,0.0003002291778102517,0.002313372679054737,0,1,-1000,0,0,0,-1,1,0,0.0,150.0,1500.0
21:18:20.778,GUIDED,-35.3632621,149.1652374,0,0.00037389257340691984,0.0015828897012397647,0.027834735810756683,0.00030506198527291417,0.0003002291778102517,0.002313372679054737,0,1,-1000,0,0,0,-1,1,0,0.0,150.0,1500.0
21:18:20.978,GUIDED,-35.3632621,149.1652374,0,0.00037389257340691984,0.0015828897012397647,0.027834735810756683,0.00030506198527291417,0.0003002291778102517,0.002313372679054737,0,1,-1000,0,0,0,-1,1,0,0.0,150.0,1500.0
21:18:21.180,GUIDED,-35.3632621,149.1652374,0,0.00037389257340691984,0.0015828897012397647,0.027834735810756683,0.00030506198527291417,0.0003002291778102517,0.002313372679054737,0,1,-1000,0,0,0,-1,1,0,0.0,150.0,1500.0
21:18:21.381,GUIDED,-35.3632621,149.1652374,0,0.00037389257340691984,0.0015828897012397647,0.027834735810756683,0.00030506198527291417,0.0003002291778102517,0.002313372679054737,0,1,-1000,0,0,0,-1,1,0,0.0,150.0,1500.0
21:18:21.582,GUIDED,-35.3632621,149.1652375,0,0.000226405740249902,0.001557844690978527,0.027134811505675316,0.0002495757944416255,0.0002077938406728208,0.0022840702440589666,0,1,-1000,0,0,0,-2,2,0,0.0,150.0,1500.0
21:18:21.783,GUIDED,-35.3632621,149.1652375,0,0.000226405740249902,0.001557844690978527,0.027134811505675316,0.0002495757944416255,0.0002077938406728208,0.0022840702440589666,0,1,-1000,0,0,0,-2,2,0,0.0,150.0,1500.0
21:18:21.984,GUIDED,-35.3632621,149.1652375,3,0.00014433923934120685,0.0015268793795257807,0.026964832097291946,0.0002698116295505315,0.0003061288152821362,0.002254545222967863,0,1,-1000,1,0,0,-2,2,0,0.0,150.0,1500.0
21:18:22.185,GUIDED,-35.3632622,149.1652375,3,6.118505552876741e-05,0.0014797401381656528,0.026818718761205673,0.00014461309183388948,0.00035633440711535513,0.0021076584234833717,0,1,-1000,0,0,0,-2,2,0,0.0,150.0,1500.0
21:18:22.386,GUIDED,-35.3632622,149.1652375,3,-1.5287909263861366e-05,0.0014339563203975558,0.026680223643779755,0.00029150216141715646,0.00024776303325779736,0.00228219386190176,0,1,-1000,0,0,0,-1,2,0,0.0,150.0,1500.0
21:18:22.586,GUIDED,-35.3632622,149.1652375,3,-8.027045259950683e-05,0.0014032343169674277,0.026530250906944275,0.0001888637780211866,0.0003632821317296475,0.0022108517587184906,0,1,-1000,0,0,0,-1,1,0,0.0,150.0,1500.0
21:18:22.787,GUIDED,-35.3632622,149.1652375,3,-8.027045259950683e-05,0.0014032343169674277,0.026530250906944275,0.0001888637780211866,0.0003632821317296475,0.0022108517587184906,0,1,-1000,0,0,0,-1,1,0,0.0,150.0,1500.0
21:18:22.988,GUIDED,-35.3632622,149.1652375,3,-8.027045259950683e-05,0.0014032343169674277,0.026530250906944275,0.0001888637780211866,0.0003632821317296475,0.0022108517587184906,0,1,-1000,0,0,0,-1,1,0,0.0,150.0,1500.0
21:18:23.189,GUIDED,-35.3632622,149.1652375,3,-8.027045259950683e-05,0.0014032343169674277,0.026530250906944275,0.0001888637780211866,0.0003632821317296475,0.0022108517587184906,0,1,-1000,0,0,0,-1,1,0,0.0,150.0,1500.0
21:18:23.390,GUIDED,-35.3632622,149.1652375,3,-8.027045259950683e-05,0.0014032343169674277,0.026530250906944275,0.0001888637780211866,0.0003632821317296475,0.0022108517587184906,0,1,-1000,0,0,0,-1,1,0,0.0,150.0,1500.0
21:18:23.591,GUIDED,-35.3632621,149.1652374,4,0.000245853909291327,0.0014863531105220318,0.025928422808647156,0.00018857576651498675,0.0003258358337916434,0.002123484155163169,0,1,-1000,0,0,0,0,0,0,0.0,150.0,1500.0
21:18:23.791,GUIDED,-35.3632621,149.1652374,4,0.000245853909291327,0.0014863531105220318,0.025928422808647156,0.00018857576651498675,0.0003258358337916434,0.002123484155163169,0,1,-1000,0,0,0,0,0,0,0.0,150.0,1500.0
21:18:23.992,GUIDED,-35.3632621,149.1652374,4,0.0002833448234014213,0.0015450756764039397,0.025783032178878784,0.0003480345767457038,0.000240781664615497,0.002155567519366741,0,1,-1000,0,0,0,0,0,0,0.0,150.0,1500.0
21:18:24.193,GUIDED,-35.3632621,149.1652374,4,0.00032927090069279075,0.0016121547669172287,0.025639202445745468,0.00019465715740807354,0.0004056236066389829,0.0020878510549664497,0,1,-1000,1,0,0,0,0,0,0.0,150.0,1500.0
21:18:24.393,GUIDED,-35.3632621,149.1652374,4,0.0003826682805083692,0.001669488032348454,0.025464201346039772,0.00032400942291133106,0.00023122993297874928,0.0020173569209873676,0,1,-1000,0,1,1,0,0,0,0.0,150.0,1500.0
21:18:24.594,GUIDED,-35.3632621,149.1652374,4,0.00043568428372964263,0.0017471329774707556,0.02530926838517189,0.00022505363449454308,0.00030754602630622685,0.0020708246156573296,0,1,-1000,0,0,0,0,0,0,0.0,150.0,1500.0
21:18:24.795,GUIDED,-35.3632621,149.1652374,4,0.00043568428372964263,0.0017471329774707556,0.02530926838517189,0.00022505363449454308,0.00030754602630622685,0.0020708246156573296,0,1,-1000,0,0,0,0,0,0,0.0,150.0,1500.0
21:18:24.996,GUIDED,-35.3632621,149.1652374,4,0.00043568428372964263,0.0017471329774707556,0.02530926838517189,0.00022505363449454308,0.00030754602630622685,0.0020708246156573296,0,1,-1000,0,0,0,0,0,0,0.0,150.0,1500.0
21:18:25.197,GUIDED,-35.3632621,149.1652374,4,0.00043568428372964263,0.0017471329774707556,0.02530926838517189,0.00022505363449454308,0.00030754602630622685,0.0020708246156573296,0,1,-1000,0,0,0,0,0,0,0.0,150.0,1500.0
21:18:25.398,GUIDED,-35.3632621,149.1652374,4,0.0006026679766364396,0.001962807262316346,0.024818262085318565,0.0003337218367960304,0.0002494397631380707,0.0019438160816207528,0,1,-1000,0,0,0,0,0,0,0.0,150.0,1500.0
21:18:25.598,GUIDED,-35.3632621,149.1652374,4,0.0006640493520535529,0.00204025418497622,0.02466190978884697,0.0003512656840030104,0.0002473249041941017,0.0019573334138840437,0,1,-1000,0,0,0,0,0,0,0.0,150.0,1500.0
21:18:25.799,GUIDED,-35.3632621,149.1652374,4,0.0006640493520535529,0.00204025418497622,0.02466190978884697,0.0003512656840030104,0.0002473249041941017,0.0019573334138840437,0,1,-1000,0,0,0,0,0,0,0.0,150.0,1500.0
21:18:26.000,GUIDED,-35.3632621,149.1652374,4,0.0007292228401638567,0.0021100931335240602,0.024510350078344345,0.0003924276679754257,0.0002555124228820205,0.001942994655109942,0,1,-1000,0,0,0,0,0,0,0.0,150.0,1500.0
21:18:26.201,GUIDED,-35.3632621,149.1652374,3,0.00080465292558074,0.0021818187087774277,0.02431950531899929,0.0003784995060414076,0.00030487330514006317,0.0018992663826793432,0,1,-1000,0,0,0,0,0,0,0.0,150.0,1500.0
21:18:26.402,GUIDED,-35.3632621,149.1652374,15,0.00221778592094779,-5.976741704216693e-06,0.02424212172627449,0.006952381692826748,-0.011984691023826599,0.002731126267462969,0,0,-1139,7,-11,1,0,0,-16,0.0,150.0,1500.0
21:18:26.603,GUIDED,-35.3632621,149.1652374,102,0.0032479765359312296,-0.0007526635890826583,0.02434980869293213,0.004274927079677582,0.003799338825047016,0.002901532920077443,0,0,-1140,4,3,1,0,0,-51,0.0,150.0,1500.0
21:18:26.803,GUIDED,-35.3632621,149.1652374,102,0.0032479765359312296,-0.0007526635890826583,0.02434980869293213,0.004274927079677582,0.003799338825047016,0.002901532920077443,0,0,-1140,4,3,1,0,0,-51,0.0,150.0,1500.0
21:18:27.004,GUIDED,-35.3632621,149.1652374,102,0.0032479765359312296,-0.0007526635890826583,0.02434980869293213,0.004274927079677582,0.003799338825047016,0.002901532920077443,0,0,-1140,4,3,1,0,0,-51,0.0,150.0,1500.0
21:18:27.205,GUIDED,-35.3632621,149.1652374,102,0.0032479765359312296,-0.0007526635890826583,0.02434980869293213,0.004274927079677582,0.003799338825047016,0.002901532920077443,0,0,-1140,4,3,1,0,0,-51,0.0,150.0,1500.0
21:18:27.405,GUIDED,-35.3632621,149.1652374,102,0.0032479765359312296,-0.0007526635890826583,0.02434980869293213,0.004274927079677582,0.003799338825047016,0.002901532920077443,0,0,-1140,4,3,1,0,0,-51,0.0,150.0,1500.0
21:18:27.606,GUIDED,-35.363262,149.1652374,1162,0.015991317108273506,0.000768137164413929,0.02414129674434662,0.04778243601322174,-0.005971519276499748,0.0025100335478782654,0,0,-1030,48,-5,1,0,2,-141,0.0,150.0,1500.0
21:18:27.807,GUIDED,-35.363262,149.1652374,1162,0.015991317108273506,0.000768137164413929,0.02414129674434662,0.04778243601322174,-0.005971519276499748,0.0025100335478782654,0,0,-1030,48,-5,1,0,2,-141,0.0,150.0,1500.0
21:18:28.008,GUIDED,-35.363262,149.1652375,1534,0.027751436457037926,-0.0009339554817415774,0.024169083684682846,0.04650308936834335,-0.0070647913962602615,0.0031722737476229668,0,0,-1013,47,-6,1,1,7,-146,0.0,150.0,1500.0
21:18:28.209,GUIDED,-35.3632619,149.1652377,1915,0.03901226818561554,-0.002804627874866128,0.024320678785443306,0.04443320631980896,-0.008344322443008423,0.0037710661999881268,0,-1,-1005,44,-7,2,2,14,-148,0.0,150.0,1500.0
21:18:28.410,GUIDED,-35.3632618,149.1652382,2300,0.049655091017484665,-0.005105018150061369,0.024511339142918587,0.04142455384135246,-0.008893491700291634,0.0038777042645961046,0,-3,-1001,42,-8,3,3,23,-148,0.0,150.0,1500.0
21:18:28.612,GUIDED,-35.3632617,149.165239,2689,0.05957838520407677,-0.00790296122431755,0.024645229801535606,0.03775208443403244,-0.012585368007421494,0.004413076210767031,2,-6,-999,38,-12,3,6,35,-148,0.0,150.0,1500.0
21:18:28.814,GUIDED,-35.3632617,149.165239,2689,0.05957838520407677,-0.00790296122431755,0.024645229801535606,0.03775208443403244,-0.012585368007421494,0.004413076210767031,2,-6,-999,38,-12,3,6,35,-148,0.0,150.0,1500.0
21:18:29.015,GUIDED,-35.3632617,149.165239,2689,0.05957838520407677,-0.00790296122431755,0.024645229801535606,0.03775208443403244,-0.012585368007421494,0.004413076210767031,2,-6,-999,38,-12,3,6,35,-148,0.0,150.0,1500.0
21:18:29.215,GUIDED,-35.3632617,149.165239,2689,0.05957838520407677,-0.00790296122431755,0.024645229801535606,0.03775208443403244,-0.012585368007421494,0.004413076210767031,2,-6,-999,38,-12,3,6,35,-148,0.0,150.0,1500.0
21:18:29.417,GUIDED,-35.363261,149.1652429,3820,-0.014259629882872105,0.034696727991104126,-0.06915295869112015,-0.11287941783666611,0.10015874356031418,-0.15364789962768555,6,-11,-1014,-112,100,-154,4,53,-145,0.0,150.0,1500.0
21:18:29.618,GUIDED,-35.363261,149.1652442,4199,-0.028471145778894424,0.048365019261837006,-0.1010950431227684,-0.027278179302811623,0.012287965975701809,-0.1053440123796463,5,-11,-1009,-26,12,-106,-4,44,-147,0.0,150.0,1500.0
21:18:29.819,GUIDED,-35.363261,149.1652442,4199,-0.028471145778894424,0.048365019261837006,-0.1010950431227684,-0.027278179302811623,0.012287965975701809,-0.1053440123796463,5,-11,-1009,-26,12,-106,-4,44,-147,0.0,150.0,1500.0
21:18:30.020,GUIDED,-35.3632612,149.1652453,4583,-0.03418266028165817,0.0414452999830246,-0.11888757348060608,-0.015345415100455284,-0.043529409915208817,-0.057622600346803665,7,-7,-1004,-15,-43,-58,-14,35,-149,0.0,150.0,1500.0
21:18:30.220,GUIDED,-35.3632614,149.1652461,4968,-0.044011473655700684,0.029416868463158607,-0.12893545627593994,-0.06303808093070984,-0.039032530039548874,-0.0421934649348259,7,-4,-998,-62,-38,-43,-21,24,-148,0.0,150.0,1500.0
21:18:30.421,GUIDED,-35.3632619,149.1652466,5351,-0.06478284299373627,0.01894366554915905,-0.13340571522712708,-0.08085990697145462,-0.07791726291179657,0.022994929924607277,7,0,-1000,-80,-77,21,-26,10,-148,0.0,150.0,1500.0
21:18:30.622,GUIDED,-35.3632626,149.1652466,5734,-0.07272270321846008,-0.004699070937931538,-0.12229540199041367,0.005677863024175167,-0.08418399095535278,0.03512727469205856,6,3,-1005,6,-83,34,-28,-6,-148,0.0,150.0,1500.0
21:18:30.823,GUIDED,-35.3632626,149.1652466,5734,-0.07272270321846008,-0.004699070937931538,-0.12229540199041367,0.005677863024175167,-0.08418399095535278,0.03512727469205856,6,3,-1005,6,-83,34,-28,-6,-148,0.0,150.0,1500.0
21:18:31.521,GUIDED,-35.3632626,149.1652466,5734,-0.07272270321846008,-0.004699070937931538,-0.12229540199041367,0.005677863024175167,-0.08418399095535278,0.03512727469205856,6,3,-1005,6,-83,34,-28,-6,-148,0.0,150.0,1500.0
21:18:31.722,GUIDED,-35.3632626,149.1652466,5734,-0.07272270321846008,-0.004699070937931538,-0.12229540199041367,0.005677863024175167,-0.08418399095535278,0.03512727469205856,6,3,-1005,6,-83,34,-28,-6,-148,0.0,150.0,1500.0
21:18:31.922,GUIDED,-35.3632626,149.1652466,5734,-0.07272270321846008,-0.004699070937931538,-0.12229540199041367,0.005677863024175167,-0.08418399095535278,0.03512727469205856,6,3,-1005,6,-83,34,-28,-6,-148,0.0,150.0,1500.0
21:18:32.123,GUIDED,-35.3632645,149.165243,7275,-0.017868684604763985,-0.024118848145008087,-0.1041993573307991,0.06473691761493683,0.0009269556612707675,0.014141174033284187,-2,11,-1002,65,1,12,-11,-50,-150,0.0,150.0,1500.0
21:18:32.324,GUIDED,-35.3632647,149.1652416,7662,-0.001860257820226252,-0.023180991411209106,-0.1015593484044075,0.06258248537778854,0.00459179887548089,0.015162963420152664,-4,11,-1002,62,4,14,-6,-51,-150,0.0,150.0,1500.0
21:18:32.525,GUIDED,-35.3632647,149.1652416,7662,-0.001860257820226252,-0.023180991411209106,-0.1015593484044075,0.06258248537778854,0.00459179887548089,0.015162963420152664,-4,11,-1002,62,4,14,-6,-51,-150,0.0,150.0,1500.0
21:18:32.726,GUIDED,-35.3632648,149.1652402,8051,0.011889103800058365,-0.023168640211224556,-0.09749417752027512,0.04988939315080643,-0.0035765222273766994,0.025196904316544533,-6,10,-1002,50,-3,24,-1,-48,-151,0.0,150.0,1500.0
21:18:32.926,GUIDED,-35.3632649,149.1652389,8444,0.02297627367079258,-0.025445351377129555,-0.09109623730182648,0.043846309185028076,-0.009227718226611614,0.03072911500930786,-3,9,-1001,44,-8,29,3,-43,-151,0.0,150.0,1500.0
21:18:33.127,GUIDED,-35.3632648,149.1652378,8834,0.033345479518175125,-0.027667276561260223,-0.08351769298315048,0.03669395297765732,-0.010678348131477833,0.038075417280197144,-5,7,-1001,37,-9,36,9,-35,-152,0.0,150.0,1500.0
21:18:33.328,GUIDED,-35.3632648,149.1652378,8834,0.033345479518175125,-0.027667276561260223,-0.08351769298315048,0.03669395297765732,-0.010678348131477833,0.038075417280197144,-5,7,-1001,37,-9,36,9,-35,-152,0.0,150.0,1500.0
21:18:33.529,GUIDED,-35.3632648,149.1652378,8834,0.033345479518175125,-0.027667276561260223,-0.08351769298315048,0.03669395297765732,-0.010678348131477833,0.038075417280197144,-5,7,-1001,37,-9,36,9,-35,-152,0.0,150.0,1500.0
21:18:33.730,GUIDED,-35.3632648,149.1652378,8834,0.033345479518175125,-0.027667276561260223,-0.08351769298315048,0.03669395297765732,-0.010678348131477833,0.038075417280197144,-5,7,-1001,37,-9,36,9,-35,-152,0.0,150.0,1500.0
21:18:33.931,GUIDED,-35.3632634,149.1652358,10000,0.04479052871465683,-0.04707123339176178,-0.04564898461103439,-0.02404940500855446,-0.05299172177910805,0.08216406404972076,-6,0,-995,-23,-52,81,33,-6,-150,0.0,150.0,1500.0
21:18:34.132,GUIDED,-35.3632626,149.1652357,10384,0.028854500502347946,-0.04242554306983948,-0.04227215424180031,-0.07951632142066956,0.08056671917438507,-0.025449536740779877,-8,-4,-994,-79,81,-26,43,0,-148,0.0,150.0,1500.0
21:18:34.333,GUIDED,-35.3632615,149.1652357,10765,0.010368740186095238,-0.014627308584749699,-0.057862538844347,-0.06726010888814926,0.12040390819311142,-0.08277169615030289,-7,-5,-1001,-66,120,-83,49,3,-148,0.0,150.0,1500.0
21:18:34.533,GUIDED,-35.3632615,149.1652357,10765,0.010368740186095238,-0.014627308584749699,-0.057862538844347,-0.06726010888814926,0.12040390819311142,-0.08277169615030289,-7,-5,-1001,-66,120,-83,49,3,-148,0.0,150.0,1500.0
21:18:34.734,GUIDED,-35.3632604,149.1652357,11147,-0.001628769445233047,0.011883609928190708,-0.08009391278028488,-0.032769039273262024,0.08894956111907959,-0.0873328298330307,-9,-7,-1006,-32,89,-88,47,1,-149,0.0,150.0,1500.0
21:18:34.935,GUIDED,-35.3632594,149.1652357,11533,-0.00731061352416873,0.02906819060444832,-0.1017552837729454,-0.010789861902594566,0.054677821695804596,-0.07772193104028702,-9,-5,-1006,-10,54,-78,40,-1,-151,0.0,150.0,1500.0
21:18:35.136,GUIDED,-35.3632586,149.1652356,11922,-0.008257380686700344,0.038744594901800156,-0.11941604316234589,0.00952590350061655,0.028195634484291077,-0.058908846229314804,-7,-4,-1005,9,28,-59,30,-4,-152,0.0,150.0,1500.0
21:18:35.338,GUIDED,-35.3632586,149.1652356,11922,-0.008257380686700344,0.038744594901800156,-0.11941604316234589,0.00952590350061655,0.028195634484291077,-0.058908846229314804,-7,-4,-1005,9,28,-59,30,-4,-152,0.0,150.0,1500.0
21:18:35.539,GUIDED,-35.3632586,149.1652356,11922,-0.008257380686700344,0.038744594901800156,-0.11941604316234589,0.00952590350061655,0.028195634484291077,-0.058908846229314804,-7,-4,-1005,9,28,-59,30,-4,-152,0.0,150.0,1500.0
21:18:35.740,GUIDED,-35.3632586,149.1652356,11922,-0.008257380686700344,0.038744594901800156,-0.11941604316234589,0.00952590350061655,0.028195634484291077,-0.058908846229314804,-7,-4,-1005,9,28,-59,30,-4,-152,0.0,150.0,1500.0
21:18:35.941,GUIDED,-35.3632576,149.165235,13097,0.00521984975785017,0.04144251346588135,-0.14349843561649323,0.023635365068912506,-0.013404066674411297,-0.005627896171063185,-2,0,-1000,24,-13,-6,-3,-5,-152,0.0,150.0,1500.0
21:18:36.142,GUIDED,-35.3632577,149.1652348,13488,0.010118196718394756,0.03681328147649765,-0.14304736256599426,0.01694527640938759,-0.02199389599263668,0.0085452850908041,0,1,-999,17,-21,7,-11,-3,-152,0.0,150.0,1500.0
21:18:36.342,GUIDED,-35.363258,149.1652347,13877,0.013049657456576824,0.030322527512907982,-0.13972404599189758,0.009345000609755516,-0.02741994708776474,0.016382642090320587,1,2,-999,9,-27,15,-18,0,-151,0.0,150.0,1500.0
21:18:36.543,GUIDED,-35.363258,149.1652347,13877,0.013049657456576824,0.030322527512907982,-0.13972404599189758,0.009345000609755516,-0.02741994708776474,0.016382642090320587,1,2,-999,9,-27,15,-18,0,-151,0.0,150.0,1500.0
21:18:36.744,GUIDED,-35.3632584,149.1652348,14266,0.014012148603796959,0.022773446515202522,-0.1347523033618927,-0.0003099814639426768,-0.029433656483888626,0.01814637891948223,4,2,-999,0,-29,17,-23,4,-151,0.0,150.0,1500.0
21:18:36.945,GUIDED,-35.3632589,149.1652348,14656,0.012524552643299103,0.015946118161082268,-0.13009554147720337,-0.006243688985705376,-0.026568593457341194,0.014967684634029865,4,2,-1000,-5,-26,13,-25,7,-151,0.0,150.0,1500.0
21:18:37.146,GUIDED,-35.3632595,149.1652349,15044,0.010250040329992771,0.009701219387352467,-0.12633360922336578,-0.01357510220259428,-0.020386239513754845,0.00895240530371666,5,2,-999,-13,-19,8,-26,9,-151,0.0,150.0,1500.0
21:18:37.347,GUIDED,-35.3632595,149.1652349,15044,0.010250040329992771,0.009701219387352467,-0.12633360922336578,-0.01357510220259428,-0.020386239513754845,0.00895240530371666,5,2,-999,-13,-19,8,-26,9,-151,0.0,150.0,1500.0
21:18:37.547,GUIDED,-35.3632595,149.1652349,15044,0.010250040329992771,0.009701219387352467,-0.12633360922336578,-0.01357510220259428,-0.020386239513754845,0.00895240530371666,5,2,-999,-13,-19,8,-26,9,-151,0.0,150.0,1500.0
21:18:37.749,GUIDED,-35.3632595,149.1652349,15044,0.010250040329992771,0.009701219387352467,-0.12633360922336578,-0.01357510220259428,-0.020386239513754845,0.00895240530371666,5,2,-999,-13,-19,8,-26,9,-151,0.0,150.0,1500.0
21:18:37.950,GUIDED,-35.363261,149.1652357,16209,0.0018506416818127036,-0.0033529934007674456,-0.1251937448978424,-0.008985713124275208,-0.010686387307941914,-0.011738846078515053,5,0,-1001,-8,-10,-12,-21,11,-152,0.0,150.0,1500.0
21:18:38.151,GUIDED,-35.3632614,149.1652359,16597,-0.00039824421401135623,-0.005880626384168863,-0.12831586599349976,-0.008999536745250225,-0.007801252882927656,-0.017267121002078056,5,1,-1000,-8,-7,-18,-18,10,-152,0.0,150.0,1500.0
21:18:38.351,GUIDED,-35.3632617,149.1652361,16986,-0.0018937988206744194,-0.007195005659013987,-0.13319505751132965,-0.004389739595353603,-0.003776746802031994,-0.022411294281482697,4,1,-1000,-3,-3,-23,-15,9,-152,0.0,150.0,1500.0
21:18:38.552,GUIDED,-35.3632617,149.1652361,16986,-0.0018937988206744194,-0.007195005659013987,-0.13319505751132965,-0.004389739595353603,-0.003776746802031994,-0.022411294281482697,4,1,-1000,-3,-3,-23,-15,9,-152,0.0,150.0,1500.0
21:18:38.753,GUIDED,-35.363262,149.1652363,17376,-0.002765546552836895,-0.007754262071102858,-0.1393253207206726,0.001905300305224955,-0.0005920261610299349,-0.02648582123219967,2,0,-1001,2,0,-27,-11,7,-152,0.0,150.0,1500.0
21:18:38.954,GUIDED,-35.3632622,149.1652364,17767,-0.002472000429406762,-0.007707356940954924,-0.1463407576084137,0.003925046883523464,0.0026477796491235495,-0.029353050515055656,2,0,-1000,4,2,-30,-8,5,-152,0.0,150.0,1500.0
21:18:39.154,GUIDED,-35.3632623,149.1652365,18157,-0.0016061259666457772,-0.006873582489788532,-0.15413714945316315,0.002976600080728531,0.005096097011119127,-0.03163803741335869,1,0,-1000,3,5,-32,-6,3,-152,0.0,150.0,1500.0
21:18:39.355,GUIDED,-35.3632623,149.1652365,18157,-0.0016061259666457772,-0.006873582489788532,-0.15413714945316315,0.002976600080728531,0.005096097011119127,-0.03163803741335869,1,0,-1000,3,5,-32,-6,3,-152,0.0,150.0,1500.0
21:18:39.556,GUIDED,-35.3632623,149.1652365,18157,-0.0016061259666457772,-0.006873582489788532,-0.15413714945316315,0.002976600080728531,0.005096097011119127,-0.03163803741335869,1,0,-1000,3,5,-32,-6,3,-152,0.0,150.0,1500.0
21:18:39.758,GUIDED,-35.3632623,149.1652365,18157,-0.0016061259666457772,-0.006873582489788532,-0.15413714945316315,0.002976600080728531,0.005096097011119127,-0.03163803741335869,1,0,-1000,3,5,-32,-6,3,-152,0.0,150.0,1500.0
21:18:39.960,GUIDED,-35.3632624,149.1652364,19328,0.002057631965726614,-0.0015996219590306282,-0.17997530102729797,0.005045490805059671,0.008393251337110996,-0.0321870893239975,0,0,-1000,5,8,-33,0,0,-152,0.0,150.0,1500.0
21:18:40.161,GUIDED,-35.3632624,149.1652364,19719,0.0033154909033328295,0.0001528126886114478,-0.1882612109184265,0.004550785757601261,0.006691697519272566,-0.029537849128246307,0,0,-1000,5,7,-30,0,0,-153,0.0,150.0,1500.0
21:18:40.362,GUIDED,-35.3632624,149.1652364,20109,0.004267621319741011,0.0016510436544194818,-0.19614621996879578,0.004328859969973564,0.005270397290587425,-0.031051401048898697,0,0,-1000,5,5,-32,0,0,-153,0.0,150.0,1500.0
21:18:40.563,GUIDED,-35.3632624,149.1652364,20109,0.004267621319741011,0.0016510436544194818,-0.19614621996879578,0.004328859969973564,0.005270397290587425,-0.031051401048898697,0,0,-1000,5,5,-32,0,0,-153,0.0,150.0,1500.0
21:18:40.763,GUIDED,-35.3632624,149.1652364,20503,0.005236642900854349,0.0029358563479036093,-0.20349369943141937,0.004078705795109272,0.005167524330317974,-0.026583828032016754,0,0,-1000,4,5,-27,0,0,-153,0.0,150.0,1500.0
21:18:40.964,GUIDED,-35.3632623,149.1652363,20893,0.006150372792035341,0.003887622384354472,-0.21016846597194672,0.004330277442932129,0.0041700187139213085,-0.024657849222421646,0,0,-1000,4,4,-25,0,0,-153,0.0,150.0,1500.0
21:18:41.165,GUIDED,-35.3632623,149.1652363,21284,0.00691097229719162,0.004345275927335024,-0.21604245901107788,0.0026312442496418953,0.002061127219349146,-0.0224130991846323,0,0,-1000,3,2,-23,0,1,-153,0.0,150.0,1500.0
21:18:41.365,GUIDED,-35.3632623,149.1652363,21284,0.00691097229719162,0.004345275927335024,-0.21604245901107788,0.0026312442496418953,0.002061127219349146,-0.0224130991846323,0,0,-1000,3,2,-23,0,1,-153,0.0,150.0,1500.0
21:18:41.566,GUIDED,-35.3632623,149.1652363,21284,0.00691097229719162,0.004345275927335024,-0.21604245901107788,0.0026312442496418953,0.002061127219349146,-0.0224130991846323,0,0,-1000,3,2,-23,0,1,-153,0.0,150.0,1500.0
21:18:41.767,GUIDED,-35.3632623,149.1652363,21284,0.00691097229719162,0.004345275927335024,-0.21604245901107788,0.0026312442496418953,0.002061127219349146,-0.0224130991846323,0,0,-1000,3,2,-23,0,1,-153,0.0,150.0,1500.0
21:18:41.969,GUIDED,-35.3632622,149.1652363,22450,0.006190980784595013,0.004382931627333164,-0.231037437915802,-0.0006798824178986251,0.0017830212600529194,-0.018827877938747406,0,0,-1000,0,2,-19,0,3,-153,0.0,150.0,1500.0
21:18:42.169,GUIDED,-35.3632622,149.1652363,22840,0.005587720777839422,0.004402860999107361,-0.23565791547298431,-0.0015735120978206396,0.000938017328735441,-0.01608135923743248,0,0,-1000,0,1,-16,0,4,-153,0.0,150.0,1500.0
21:18:42.370,GUIDED,-35.3632622,149.1652364,23229,0.004739807453006506,0.0043546040542423725,-0.2403309941291809,-0.0034459801390767097,0.0002937809913419187,-0.018709786236286163,0,0,-1000,-2,0,-19,-1,4,-153,0.0,150.0,1500.0
21:18:42.571,GUIDED,-35.3632622,149.1652364,23619,0.0041624754667282104,0.004294175188988447,-0.24503837525844574,-0.003182357642799616,-0.00037765904562547803,-0.018286293372511864,0,0,-1000,-2,0,-19,-1,5,-153,0.0,150.0,1500.0
21:18:42.772,GUIDED,-35.3632622,149.1652364,23619,0.0041624754667282104,0.004294175188988447,-0.24503837525844574,-0.003182357642799616,-0.00037765904562547803,-0.018286293372511864,0,-1,-1000,-2,0,-19,-1,5,-153,0.0,150.0,1500.0
21:18:42.972,GUIDED,-35.3632622,149.1652365,24009,0.0034747966565191746,0.003960807342082262,-0.24953553080558777,-0.0008475636132061481,9.911786764860153e-05,-0.017437143251299858,0,0,-1000,0,0,-18,-1,5,-153,0.0,150.0,1500.0
21:18:43.173,GUIDED,-35.3632622,149.1652366,24399,0.0027302990201860666,0.0035726490896195173,-0.25392287969589233,-0.005218978971242905,0.0003080923343077302,-0.017248814925551414,0,-1,-1000,-4,0,-17,-1,5,-153,0.0,150.0,1500.0
21:18:43.374,GUIDED,-35.3632622,149.1652366,24399,0.0027302990201860666,0.0035726490896195173,-0.25392287969589233,-0.005218978971242905,0.0003080923343077302,-0.017248814925551414,0,-1,-1000,-4,0,-17,-1,5,-153,0.0,150.0,1500.0
21:18:43.574,GUIDED,-35.3632622,149.1652366,24399,0.0027302990201860666,0.0035726490896195173,-0.25392287969589233,-0.005218978971242905,0.0003080923343077302,-0.017248814925551414,0,-1,-1000,-4,0,-17,-1,5,-153,0.0,150.0,1500.0
21:18:43.775,GUIDED,-35.3632622,149.1652366,24399,0.0027302990201860666,0.0035726490896195173,-0.25392287969589233,-0.005218978971242905,0.0003080923343077302,-0.017248814925551414,0,-1,-1000,-4,0,-17,-1,5,-153,0.0,150.0,1500.0
21:18:43.976,GUIDED,-35.3632621,149.1652368,25562,-0.0072491406463086605,0.010637267492711544,-0.24733281135559082,0.010485893115401268,-9.0776477009058e-05,0.04779648780822754,0,0,-1004,11,0,46,-3,2,-151,0.0,150.0,1500.0
21:18:44.177,GUIDED,-35.3632621,149.1652368,25951,-0.0011679257731884718,0.008163390681147575,-0.23558464646339417,0.025139950215816498,-0.012864628806710243,0.04755562171339989,0,0,-1003,25,-12,46,-5,0,-152,0.0,150.0,1500.0
21:18:44.378,GUIDED,-35.3632622,149.1652368,26340,0.004222724121063948,0.004770520608872175,-0.22446812689304352,0.017455589026212692,-0.013139910064637661,0.04025238752365112,0,1,-1002,18,-12,39,-6,1,-153,0.0,150.0,1500.0
21:18:44.578,GUIDED,-35.3632623,149.1652368,26729,0.007723310496658087,0.0027805918361991644,-0.21458953619003296,0.011935795657336712,-0.0030252959113568068,0.03620116412639618,0,0,-999,12,-2,35,-6,2,-153,0.0,150.0,1500.0
21:18:44.779,GUIDED,-35.3632623,149.1652368,26729,0.007723310496658087,0.0027805918361991644,-0.21458953619003296,0.011935795657336712,-0.0030252959113568068,0.03620116412639618,0,0,-999,12,-2,35,-6,2,-153,0.0,150.0,1500.0
21:18:44.980,GUIDED,-35.3632624,149.1652368,27119,0.009264247491955757,0.0015034172683954239,-0.20681004226207733,0.0032859807834029198,-0.002739027375355363,0.028315629810094833,0,0,-999,3,-2,27,-5,3,-153,0.0,150.0,1500.0
21:18:45.180,GUIDED,-35.3632625,149.1652369,27509,0.009236863814294338,0.0008561669965274632,-0.20009194314479828,-0.0018963869661092758,0.00023883377434685826,0.024264907464385033,0,0,-999,-1,0,23,-4,5,-153,0.0,150.0,1500.0
21:18:45.381,GUIDED,-35.3632625,149.1652369,27509,0.009236863814294338,0.0008561669965274632,-0.20009194314479828,-0.0018963869661092758,0.00023883377434685826,0.024264907464385033,0,0,-999,-1,0,23,-4,5,-153,0.0,150.0,1500.0
21:18:45.582,GUIDED,-35.3632625,149.1652369,27509,0.009236863814294338,0.0008561669965274632,-0.20009194314479828,-0.0018963869661092758,0.00023883377434685826,0.024264907464385033,0,0,-999,-1,0,23,-4,5,-153,0.0,150.0,1500.0
21:18:45.783,GUIDED,-35.3632625,149.1652369,27509,0.009236863814294338,0.0008561669965274632,-0.20009194314479828,-0.0018963869661092758,0.00023883377434685826,0.024264907464385033,0,0,-999,-1,0,23,-4,5,-153,0.0,150.0,1500.0
21:18:45.984,GUIDED,-35.3632625,149.1652372,28673,0.0046867248602211475,0.0006328851450234652,-0.18412180244922638,-0.008034296333789825,0.0023521105758845806,0.020274747163057327,0,-1,-999,-7,3,19,-1,7,-152,0.0,150.0,1500.0
21:18:46.185,GUIDED,-35.3632625,149.1652374,29062,0.0030665609519928694,0.0004799370071850717,-0.17945900559425354,-0.0044341483153402805,-0.0009663542732596397,0.018683884292840958,0,0,-1000,-3,0,18,0,7,-152,0.0,150.0,1500.0
21:18:46.386,GUIDED,-35.3632625,149.1652375,29450,0.0017845528200268745,0.0004159089003223926,-0.1748795062303543,-0.003718252759426832,-9.863544255495071e-05,0.018609678372740746,0,-1,-1001,-3,0,17,0,6,-152,0.0,150.0,1500.0
21:18:46.586,GUIDED,-35.3632625,149.1652377,29842,0.0009015820687636733,0.0005654696142300963,-0.17052392661571503,-0.001994722057133913,0.0024244035594165325,0.016960421577095985,0,-1,-1000,-1,3,16,0,6,-152,0.0,150.0,1500.0
21:18:46.787,GUIDED,-35.3632625,149.1652377,29842,0.0009015820687636733,0.0005654696142300963,-0.17052392661571503,-0.001994722057133913,0.0024244035594165325,0.016960421577095985,0,-1,-1000,-1,3,16,0,6,-152,0.0,150.0,1500.0
21:18:46.988,GUIDED,-35.3632625,149.1652378,30231,0.00057173368986696,0.000874999153893441,-0.16644234955310822,-0.0004291693330742419,0.0010740277357399464,0.017564479261636734,0,-1,-1000,0,1,16,0,5,-152,0.0,150.0,1500.0
21:18:47.189,GUIDED,-35.3632625,149.1652379,30620,0.00018246534455101937,0.0009745369898155332,-0.1624050736427307,-0.000912424293346703,0.0018294751644134521,0.01559507381170988,0,-1,-1000,0,2,14,0,4,-152,0.0,150.0,1500.0
21:18:47.389,GUIDED,-35.3632625,149.1652379,30620,0.00018246534455101937,0.0009745369898155332,-0.1624050736427307,-0.000912424293346703,0.0018294751644134521,0.01559507381170988,0,-1,-1000,0,2,14,0,4,-152,0.0,150.0,1500.0
21:18:47.590,GUIDED,-35.3632625,149.1652379,30620,0.00018246534455101937,0.0009745369898155332,-0.1624050736427307,-0.000912424293346703,0.0018294751644134521,0.01559507381170988,0,-1,-1000,0,2,14,0,4,-152,0.0,150.0,1500.0
21:18:47.792,GUIDED,-35.3632625,149.1652379,30620,0.00018246534455101937,0.0009745369898155332,-0.1624050736427307,-0.000912424293346703,0.0018294751644134521,0.01559507381170988,0,-1,-1000,0,2,14,0,4,-152,0.0,150.0,1500.0
21:18:47.993,GUIDED,-35.3632624,149.165238,31786,0.00045794769539497793,0.0012581227347254753,-0.15025600790977478,0.0039361221715807915,0.0045678867027163506,0.01593606173992157,0,0,-1001,5,5,15,0,2,-153,0.0,150.0,1500.0
21:18:48.194,GUIDED,-35.3632624,149.165238,32179,0.0008398573263548315,0.0019526617834344506,-0.14691664278507233,0.0012025381438434124,0.0006203730590641499,0.01434970460832119,0,0,-1000,2,1,13,0,1,-153,0.0,150.0,1500.0
21:18:48.395,GUIDED,-35.3632624,149.165238,32568,0.0011185988551005721,0.0020569481421262026,-0.14368470013141632,-4.852068377658725e-05,-0.0018271761946380138,0.01412254013121128,0,0,-1000,0,-1,13,0,1,-153,0.0,150.0,1500.0
21:18:48.595,GUIDED,-35.3632623,149.165238,32957,0.0014962538843974471,0.001911075902171433,-0.1402582824230194,0.003967449069023132,0.0017729394603520632,0.013835960067808628,0,0,-1000,4,2,13,0,0,-153,0.0,150.0,1500.0
21:18:48.796,GUIDED,-35.3632623,149.165238,32957,0.0014962538843974471,0.001911075902171433,-0.1402582824230194,0.003967449069023132,0.0017729394603520632,0.013835960067808628,0,0,-1000,4,2,13,0,0,-153,0.0,150.0,1500.0
21:18:48.997,GUIDED,-35.3632623,149.165238,33346,0.0017630259972065687,0.0019863215275108814,-0.13730116188526154,0.0006263645482249558,9.366072481498122e-05,0.01166224479675293,0,0,-1000,1,0,11,0,0,-153,0.0,150.0,1500.0
21:18:49.198,GUIDED,-35.3632623,149.165238,33735,0.0019179136725142598,0.0019458060851320624,-0.13430728018283844,0.0005604528123512864,-0.00012241071090102196,0.011795959435403347,0,0,-1000,1,0,11,0,0,-153,0.0,150.0,1500.0
21:18:49.398,GUIDED,-35.3632623,149.165238,33735,0.0019179136725142598,0.0019458060851320624,-0.13430728018283844,0.0005604528123512864,-0.00012241071090102196,0.011795959435403347,0,0,-1000,1,0,11,0,0,-153,0.0,150.0,1500.0
21:18:49.599,GUIDED,-35.3632623,149.165238,33735,0.0019179136725142598,0.0019458060851320624,-0.13430728018283844,0.0005604528123512864,-0.00012241071090102196,0.011795959435403347,0,0,-1000,1,0,11,0,0,-153,0.0,150.0,1500.0
21:18:49.802,GUIDED,-35.3632623,149.165238,33735,0.0019179136725142598,0.0019458060851320624,-0.13430728018283844,0.0005604528123512864,-0.00012241071090102196,0.011795959435403347,0,0,-1000,1,0,11,0,0,-153,0.0,150.0,1500.0
21:18:50.002,GUIDED,-35.3632622,149.1652379,34897,0.0021315901540219784,0.0011875261552631855,-0.12549777328968048,0.0006341857369989157,-0.0012502281460911036,0.013693204149603844,0,0,-1000,1,0,13,0,0,-153,0.0,150.0,1500.0
21:18:50.203,GUIDED,-35.3632622,149.1652379,35286,0.0020715477876365185,0.0008065136498771608,-0.12262209504842758,-0.0016198846278712153,-0.002182932570576668,0.012047705240547657,0,0,-1000,0,-1,11,0,0,-153,0.0,150.0,1500.0
21:18:50.404,GUIDED,-35.3632622,149.1652379,35675,0.0021539819426834583,0.0009323395788669586,-0.11992008984088898,0.002714258385822177,0.002099978504702449,0.011943573132157326,0,0,-1000,3,2,11,0,0,-153,0.0,150.0,1500.0
21:18:50.605,GUIDED,-35.3632622,149.1652378,36063,0.0021172764245420694,0.0011739012552425265,-0.11743830889463425,0.0005085145239718258,0.0007940998766571283,0.011366701684892178,0,0,-1000,1,1,10,0,0,-153,0.0,150.0,1500.0
21:18:50.806,GUIDED,-35.3632622,149.1652378,36063,0.0021172764245420694,0.0011739012552425265,-0.11743830889463425,0.0005085145239718258,0.0007940998766571283,0.011366701684892178,0,0,-1000,1,1,10,0,0,-153,0.0,150.0,1500.0
21:18:51.007,GUIDED,-35.3632622,149.1652378,36452,0.0022892807610332966,0.001391401863656938,-0.11497239023447037,-0.0011769495904445648,0.0015195521991699934,0.009423458017408848,0,0,-1000,0,2,9,0,0,-153,0.0,150.0,1500.0
21:18:51.207,GUIDED,-35.3632622,149.1652378,36845,0.002439057221636176,0.0014090100303292274,-0.11267517507076263,0.005096410401165485,0.0003602000651881099,0.011807823553681374,0,0,-1001,6,1,11,0,0,-153,0.0,150.0,1500.0
21:18:51.408,GUIDED,-35.3632622,149.1652378,36845,0.002439057221636176,0.0014090100303292274,-0.11267517507076263,0.005096410401165485,0.0003602000651881099,0.011807823553681374,0,0,-1001,6,1,11,0,0,-153,0.0,150.0,1500.0
21:18:51.610,GUIDED,-35.3632622,149.1652378,36845,0.002439057221636176,0.0014090100303292274,-0.11267517507076263,0.005096410401165485,0.0003602000651881099,0.011807823553681374,0,0,-1001,6,1,11,0,0,-153,0.0,150.0,1500.0
21:18:51.811,GUIDED,-35.3632622,149.1652378,36845,0.002439057221636176,0.0014090100303292274,-0.11267517507076263,0.005096410401165485,0.0003602000651881099,0.011807823553681374,0,0,-1001,6,1,11,0,0,-153,0.0,150.0,1500.0
21:18:52.013,GUIDED,-35.3632621,149.1652376,38008,0.003116428619250655,0.0014691801043227315,-0.10606580972671509,0.0007755273254588246,-0.0005751624121330678,0.010197682306170464,0,0,-1000,1,0,9,0,0,-153,0.0,150.0,1500.0
21:18:52.214,GUIDED,-35.3632621,149.1652376,38397,0.003008971456438303,0.001491832546889782,-0.10404099524021149,-0.0006927709910087287,0.0003001293516717851,0.008268970064818859,0,0,-1000,0,1,8,0,0,-153,0.0,150.0,1500.0
21:18:52.414,GUIDED,-35.3632621,149.1652376,38786,0.0026920302771031857,0.0014397669583559036,-0.10228552669286728,-0.0007274872623383999,0.0002651012619026005,0.006690143141895533,0,0,-1000,0,1,6,0,0,-153,0.0,150.0,1500.0
21:18:52.615,GUIDED,-35.3632621,149.1652375,39175,0.0026802108623087406,0.001379290595650673,-0.10035154223442078,0.0013225480215623975,0.0004455274320207536,0.00706346845254302,0,0,-1000,2,1,6,0,0,-153,0.0,150.0,1500.0
21:18:52.816,GUIDED,-35.3632621,149.1652375,39175,0.0026802108623087406,0.001379290595650673,-0.10035154223442078,0.0013225480215623975,0.0004455274320207536,0.00706346845254302,0,0,-1000,2,1,6,0,0,-153,0.0,150.0,1500.0
21:18:53.017,GUIDED,-35.3632621,149.1652375,39564,0.0026342454366385937,0.0011610682122409344,-0.0982329398393631,-0.001403281232342124,0.00027284189127385616,0.007635822985321283,0,0,-1000,0,0,7,0,0,-153,0.0,150.0,1500.0
21:18:53.218,GUIDED,-35.3632621,149.1652375,39952,0.0026626146864145994,0.0012665395624935627,-0.09669271111488342,0.0008837386849336326,0.00034520792542025447,0.005947910714894533,0,0,-1000,1,1,5,0,0,-153,0.0,150.0,1500.0
21:18:53.418,GUIDED,-35.3632621,149.1652375,39952,0.0026626146864145994,0.0012665395624935627,-0.09669271111488342,0.0008837386849336326,0.00034520792542025447,0.005947910714894533,0,0,-1000,1,1,5,0,0,-153,0.0,150.0,1500.0
21:18:53.619,GUIDED,-35.3632621,149.1652375,39952,0.0026626146864145994,0.0012665395624935627,-0.09669271111488342,0.0008837386849336326,0.00034520792542025447,0.005947910714894533,0,0,-1000,1,1,5,0,0,-153,0.0,150.0,1500.0
21:18:53.820,GUIDED,-35.3632621,149.1652375,39952,0.0026626146864145994,0.0012665395624935627,-0.09669271111488342,0.0008837386849336326,0.00034520792542025447,0.005947910714894533,0,0,-1000,1,1,5,0,0,-153,0.0,150.0,1500.0
21:18:54.021,GUIDED,-35.3632621,149.1652375,41118,0.00248543918132782,0.0015392511850222945,-0.09153280407190323,0.0026009269058704376,-0.00016728328773751855,0.007470502518117428,0,0,-1000,3,0,7,-1,0,-153,0.0,150.0,1500.0
21:18:54.221,GUIDED,-35.3632621,149.1652374,41511,0.002574807032942772,0.0016266817692667246,-0.08987370878458023,0.0018488969653844833,0.00015275028999894857,0.005111793987452984,0,0,-1001,2,1,4,-1,0,-153,0.0,150.0,1500.0
21:18:54.422,GUIDED,-35.3632621,149.1652374,41900,0.002471559913828969,0.001592460903339088,-0.08848851919174194,-0.002343554049730301,-0.0014094992075115442,0.006254596170037985,0,0,-1000,-1,0,6,-1,1,-153,0.0,150.0,1500.0
21:18:54.623,GUIDED,-35.363262,149.1652374,42289,0.0023830709978938103,0.0014406627742573619,-0.08687964081764221,-0.0023843729868531227,5.724024958908558e-05,0.007985912263393402,0,0,-999,-1,1,7,-1,1,-153,0.0,150.0,1500.0
21:18:54.824,GUIDED,-35.363262,149.1652374,42289,0.0023830709978938103,0.0014406627742573619,-0.08687964081764221,-0.0023843729868531227,5.724024958908558e-05,0.007985912263393402,0,0,-999,-1,1,7,-1,1,-153,0.0,150.0,1500.0
21:18:55.024,GUIDED,-35.363262,149.1652374,42677,0.002334652468562126,0.0012777397641912103,-0.08517471700906754,0.003725784830749035,0.000817629974335432,0.007561925332993269,0,0,-1000,4,1,7,-1,1,-153,0.0,150.0,1500.0
21:18:55.225,GUIDED,-35.363262,149.1652374,43067,0.002150740707293153,0.0011306243250146508,-0.08375345915555954,-0.0020636424887925386,-0.00048699736362323165,0.004792205523699522,0,0,-1000,0,0,4,-1,1,-153,0.0,150.0,1500.0
21:18:55.426,GUIDED,-35.363262,149.1652374,43067,0.002150740707293153,0.0011306243250146508,-0.08375345915555954,-0.0020636424887925386,-0.00048699736362323165,0.004792205523699522,0,0,-1000,0,0,4,-1,1,-153,0.0,90.0,1500.0
21:18:55.628,GUIDED,-35.363262,149.1652374,43067,0.002150740707293153,0.0011306243250146508,-0.08375345915555954,-0.0020636424887925386,-0.00048699736362323165,0.004792205523699522,0,0,-1000,0,0,4,-1,1,-153,0.0,90.0,1500.0
21:18:55.829,GUIDED,-35.363262,149.1652374,43067,0.002150740707293153,0.0011306243250146508,-0.08375345915555954,-0.0020636424887925386,-0.00048699736362323165,0.004792205523699522,0,0,-1000,0,0,4,-1,1,-153,0.0,90.0,1500.0
21:18:56.030,GUIDED,-35.363262,149.1652374,44231,0.002480634953826666,0.001177360420115292,-0.079319529235363,-0.0011361123761162162,-8.135975804179907e-05,0.00670220609754324,0,0,-1000,0,0,6,-1,1,-153,0.0,90.0,1500.0
21:18:56.230,GUIDED,-35.363262,149.1652374,44620,0.0023402755614370108,0.001050406601279974,-0.07802733778953552,-0.0022429004311561584,-2.278340980410576e-05,0.006346165202558041,0,0,-999,-1,0,6,-1,1,-153,0.0,90.0,1500.0
21:18:56.432,GUIDED,-35.363262,149.1652374,45009,0.002465359168127179,0.0011032882612198591,-0.07665812224149704,0.0016610226593911648,0.0006426884210668504,0.004483061842620373,0,0,-1001,2,1,4,-1,1,-153,0.0,90.0,1500.0
21:18:56.633,GUIDED,-35.363262,149.1652374,45397,0.0025129877030849457,0.00113289977889508,-0.07526027411222458,0.0019344850443303585,0.0007826342480257154,0.006799114402383566,0,0,-1000,2,1,6,-1,1,-153,0.0,90.0,1500.0
21:18:56.834,GUIDED,-35.363262,149.1652374,45786,0.0024420481640845537,0.001077319961041212,-0.07379455119371414,-0.0028084884397685528,0.0004977906355634332,0.007054836489260197,0,0,-999,-1,1,7,-1,1,-152,0.0,90.0,1500.0
21:18:57.036,GUIDED,-35.363262,149.1652374,45786,0.0024420481640845537,0.001077319961041212,-0.07379455119371414,-0.0028084884397685528,0.0004977906355634332,0.007054836489260197,0,0,-999,-1,1,7,-1,1,-152,0.0,90.0,1500.0
21:18:57.236,GUIDED,-35.363262,149.1652374,46175,0.00232350523583591,0.0009616372990421951,-0.07252174615859985,0.003325660713016987,-0.0001686882460489869,0.007821985520422459,0,0,-1000,4,0,7,-1,1,-153,0.0,90.0,1500.0
21:18:57.437,GUIDED,-35.363262,149.1652374,46175,0.00232350523583591,0.0009616372990421951,-0.07252174615859985,0.003325660713016987,-0.0001686882460489869,0.007821985520422459,0,0,-1000,4,0,7,-1,1,-153,0.0,90.0,1500.0
21:18:57.638,GUIDED,-35.363262,149.1652374,46175,0.00232350523583591,0.0009616372990421951,-0.07252174615859985,0.003325660713016987,-0.0001686882460489869,0.007821985520422459,0,0,-1000,4,0,7,-1,1,-153,0.0,90.0,1500.0
21:18:57.839,GUIDED,-35.363262,149.1652374,46175,0.00232350523583591,0.0009616372990421951,-0.07252174615859985,0.003325660713016987,-0.0001686882460489869,0.007821985520422459,0,0,-1000,4,0,7,-1,1,-153,0.0,90.0,1500.0
21:18:58.040,GUIDED,-35.363262,149.1652373,47341,0.0021904909517616034,0.0010342655004933476,-0.06858894973993301,-0.00021839578403159976,0.00038306141505017877,0.007188572082668543,0,0,-1000,0,1,7,-1,1,-152,0.0,90.0,1500.0
21:18:58.241,GUIDED,-35.363262,149.1652373,47729,0.002204199554398656,0.0010102953528985381,-0.0673658475279808,-0.000990509521216154,0.00033220433397218585,0.0027734844479709864,0,0,-1000,0,1,2,-1,1,-152,0.0,90.0,1500.0
21:18:58.442,GUIDED,-35.363262,149.1652373,48117,0.002251563360914588,0.0009448346681892872,-0.06607215851545334,0.0029563934076577425,0.001423713518306613,0.005868772976100445,0,0,-1000,3,2,5,-1,1,-152,90.0,90.0,1500.0
21:18:58.643,GUIDED,-35.363262,149.1652373,48513,0.002236240543425083,0.0009844719897955656,-0.06463956087827682,-0.0002875968348234892,-0.0006158666801638901,0.0063490006141364574,0,0,-1000,0,0,6,-1,1,-152,90.0,90.0,1500.0
21:18:58.845,GUIDED,-35.363262,149.1652373,48902,0.0021484699100255966,0.0011174553073942661,-0.06363093107938766,-0.0003330375184305012,-0.000799015280790627,0.007188498508185148,0,0,-1000,0,0,7,-1,1,-152,90.0,90.0,1500.0
21:18:59.046,GUIDED,-35.363262,149.1652373,48902,0.0021484699100255966,0.0011174553073942661,-0.06363093107938766,-0.0003330375184305012,-0.000799015280790627,0.007188498508185148,0,0,-1000,0,0,7,-1,1,-152,90.0,90.0,1500.0
21:18:59.247,GUIDED,-35.363262,149.1652373,49291,0.0021040712017565966,0.001044553704559803,-0.06262785941362381,0.002819755347445607,0.0017766632372513413,0.005840423982590437,0,0,-1000,3,3,5,-1,1,-152,90.0,90.0,1500.0
21:18:59.447,GUIDED,-35.363262,149.1652373,49291,0.0021040712017565966,0.001044553704559803,-0.06262785941362381,0.002819755347445607,0.0017766632372513413,0.005840423982590437,0,0,-1000,3,3,5,-1,1,-152,90.0,90.0,1500.0
21:18:59.648,GUIDED,-35.363262,149.1652373,49291,0.0021040712017565966,0.001044553704559803,-0.06262785941362381,0.002819755347445607,0.0017766632372513413,0.005840423982590437,0,0,-1000,3,3,5,-1,1,-152,90.0,90.0,1500.0
21:18:59.849,GUIDED,-35.363262,149.1652373,49291,0.0021040712017565966,0.001044553704559803,-0.06262785941362381,0.002819755347445607,0.0017766632372513413,0.005840423982590437,0,0,-1000,3,3,5,-1,1,-152,90.0,90.0,1500.0
21:19:00.050,GUIDED,-35.363262,149.1652373,50449,0.0020412595476955175,0.0012240993091836572,-0.058803632855415344,0.0006900988519191742,0.002986365929245949,0.0056976438499987125,0,0,-1000,1,4,5,-1,1,-152,90.0,90.0,1500.0
21:19:00.250,GUIDED,-35.363262,149.1652373,50838,0.0020686008501797915,0.0012016495456919074,-0.057616982609033585,0.002600136213004589,-0.0010034781880676746,0.003611242864280939,0,0,-1001,3,0,3,-1,1,-152,90.0,90.0,1500.0
21:19:00.451,GUIDED,-35.363262,149.1652373,51227,0.002073111245408654,0.0009966099169105291,-0.05645789951086044,-0.002950714435428381,-0.0008024837588891387,0.003968870732933283,0,0,-1000,-2,0,4,-1,1,-152,90.0,90.0,1500.0
21:19:00.653,GUIDED,-35.363262,149.1652373,51614,0.0022046263329684734,0.0009131788392551243,-0.05537339672446251,0.0028289027977734804,-0.00010118063073605299,0.004766033496707678,0,0,-1000,3,0,4,-1,1,-152,90.0,90.0,1500.0
21:19:00.854,GUIDED,-35.363262,149.1652373,52003,0.002299962565302849,0.0008645682828500867,-0.05441327020525932,0.0005716783925890923,0.00030780251836404204,0.0056118168868124485,0,0,-1000,1,1,5,-1,1,-152,90.0,90.0,1500.0
21:19:01.055,GUIDED,-35.363262,149.1652373,52003,0.002299962565302849,0.0008645682828500867,-0.05441327020525932,0.0005716783925890923,0.00030780251836404204,0.0056118168868124485,0,0,-1000,1,1,5,-1,1,-152,90.0,90.0,1500.0
21:19:01.255,GUIDED,-35.363262,149.1652373,52392,0.0023395088501274586,0.000864801520947367,-0.05354918912053108,-0.0022002793848514557,-0.00024189631221815944,0.0029896870255470276,0,0,-1000,-1,0,3,-1,1,-152,90.0,90.0,1500.0
21:19:01.457,LAND,-35.363262,149.1652373,52392,0.0023395088501274586,0.000864801520947367,-0.05354918912053108,-0.0022002793848514557,-0.00024189631221815944,0.0029896870255470276,0,0,-1000,-1,0,3,-1,1,-152,90.0,90.0,1500.0
21:19:01.658,LAND,-35.363262,149.1652373,52392,0.0023395088501274586,0.000864801520947367,-0.05354918912053108,-0.0022002793848514557,-0.00024189631221815944,0.0029896870255470276,0,0,-1000,-1,0,3,-1,1,-152,90.0,90.0,1500.0
21:19:01.860,LAND,-35.363262,149.1652373,52392,0.0023395088501274586,0.000864801520947367,-0.05354918912053108,-0.0022002793848514557,-0.00024189631221815944,0.0029896870255470276,0,0,-1000,-1,0,3,-1,1,-152,90.0,90.0,1500.0
21:19:02.061,LAND,-35.363262,149.1652373,53565,0.002942498540505767,0.0008444531122222543,-0.05052626505494118,-0.002555506769567728,0.0006878542480990291,0.0053830803371965885,0,0,-999,-1,1,5,-1,1,-152,90.0,90.0,1500.0
21:19:02.262,LAND,-35.363262,149.1652373,53955,0.002932050498202443,0.0007834528805688024,-0.0495995469391346,0.0028311582282185555,-0.000988994026556611,0.0039007056038826704,0,0,-1001,3,0,3,-1,1,-152,90.0,90.0,1500.0
21:19:02.503,LAND,-35.363262,149.1652373,54341,-0.0022944794036448,0.005236395634710789,-0.038699518889188766,-0.08094392716884613,0.0738057792186737,0.15989869832992554,-1,-1,-964,-79,74,160,-1,1,-149,90.0,90.0,1500.0
21:19:02.705,LAND,-35.363262,149.1652372,54708,-0.038320161402225494,0.04502582922577858,0.05187102034687996,-0.19087935984134674,0.18734461069107056,0.5456464290618896,0,-1,-952,-190,188,546,-6,-4,-138,90.0,90.0,1500.0
21:19:02.907,LAND,-35.3632622,149.1652368,55041,-0.06631439924240112,0.0794544517993927,0.1991146057844162,-0.06137925013899803,-0.05104795843362808,0.4891829490661621,2,2,-907,-60,-50,489,-19,-19,-120,90.0,90.0,1500.0
21:19:03.108,LAND,-35.3632628,149.1652361,55318,-0.04783172160387039,0.0405426099896431,0.2926523983478546,0.12449381500482559,-0.2268323004245758,0.27420228719711304,2,9,-905,125,-225,274,-29,-33,-96,90.0,90.0,1500.0
21:19:03.309,LAND,-35.3632628,149.1652361,55318,-0.04783172160387039,0.0405426099896431,0.2926523983478546,0.12449381500482559,-0.2268323004245758,0.27420228719711304,2,9,-905,125,-225,274,-29,-33,-96,90.0,90.0,1500.0
21:19:03.511,LAND,-35.3632628,149.1652361,55318,-0.04783172160387039,0.0405426099896431,0.2926523983478546,0.12449381500482559,-0.2268323004245758,0.27420228719711304,2,9,-905,125,-225,274,-29,-33,-96,90.0,90.0,1500.0
21:19:03.713,LAND,-35.3632628,149.1652361,55318,-0.04783172160387039,0.0405426099896431,0.2926523983478546,0.12449381500482559,-0.2268323004245758,0.27420228719711304,2,9,-905,125,-225,274,-29,-33,-96,90.0,90.0,1500.0
21:19:03.917,LAND,-35.3632628,149.1652361,55318,-0.04783172160387039,0.0405426099896431,0.2926523983478546,0.12449381500482559,-0.2268323004245758,0.27420228719711304,2,9,-905,125,-225,274,-29,-33,-96,90.0,90.0,1500.0
21:19:04.119,LAND,-35.3632645,149.1652325,55877,0.03909808397293091,-0.05772937089204788,0.37115198373794556,0.026727883145213127,0.01044309139251709,-0.01908685266971588,-1,-11,-924,26,11,-18,-3,-15,-16,380.0,90.0,1500.0
21:19:04.320,LAND,-35.3632645,149.1652325,55877,0.03909808397293091,-0.05772937089204788,0.37115198373794556,0.026727883145213127,0.01044309139251709,-0.01908685266971588,-1,-11,-924,26,11,-18,-3,-15,-16,380.0,90.0,1500.0
21:19:04.521,LAND,-35.3632645,149.1652322,55893,0.03997310996055603,-0.05299205332994461,0.3636494576931,-0.5712810158729553,0.029024146497249603,-0.037188466638326645,-1,-44,-921,-572,29,-37,4,-3,4,380.0,90.0,1500.0
21:19:04.721,LAND,-35.3632644,149.1652322,55863,0.03485947474837303,-0.04260636121034622,0.35315757989883423,-0.8879319429397583,0.049506112933158875,-0.036779243499040604,-2,-52,-964,-888,50,-36,11,7,17,380.0,90.0,1500.0
21:19:04.922,LAND,-35.3632642,149.1652326,55808,0.026021935045719147,-0.03036908246576786,0.3429868519306183,-1.0541471242904663,0.04665081575512886,-0.03934749960899353,-2,-48,-956,-1053,47,-39,16,17,26,380.0,90.0,1500.0
21:19:05.123,LAND,-35.3632638,149.165233,55725,0.01895972713828087,-0.018803073093295097,0.3344807028770447,-0.7856941819190979,0.05249559134244919,-0.03428517282009125,-1,-19,-973,-783,53,-33,18,26,35,380.0,90.0,1500.0
21:19:05.324,LAND,-35.3632638,149.165233,55725,0.01895972713828087,-0.018803073093295097,0.3344807028770447,-0.7856941819190979,0.05249559134244919,-0.03428517282009125,-1,-19,-973,-783,53,-33,18,26,35,380.0,90.0,1500.0
21:19:05.525,LAND,-35.3632638,149.165233,55725,0.01895972713828087,-0.018803073093295097,0.3344807028770447,-0.7856941819190979,0.05249559134244919,-0.03428517282009125,-1,-19,-973,-783,53,-33,18,26,35,380.0,90.0,1500.0
21:19:05.727,LAND,-35.3632638,149.165233,55725,0.01895972713828087,-0.018803073093295097,0.3344807028770447,-0.7856941819190979,0.05249559134244919,-0.03428517282009125,-1,-19,-973,-783,53,-33,18,26,35,380.0,90.0,1500.0
21:19:05.928,LAND,-35.3632638,149.165233,55725,0.01895972713828087,-0.018803073093295097,0.3344807028770447,-0.7856941819190979,0.05249559134244919,-0.03428517282009125,-1,-19,-973,-783,53,-33,18,26,35,380.0,90.0,1500.0
21:19:06.130,LAND,-35.3632621,149.1652365,55160,-0.0062467497773468494,0.01247718371450901,0.29670095443725586,0.22245652973651886,0.015838470309972763,-0.031048500910401344,-1,40,-938,226,16,-30,15,31,74,380.0,90.0,1500.0
21:19:06.331,LAND,-35.3632618,149.1652373,54957,-0.018602492287755013,0.014891112223267555,0.2881545126438141,0.15836063027381897,0.013900203630328178,-0.029814833775162697,-1,40,-938,226,16,-30,13,27,82,380.0,90.0,1500.0
21:19:06.532,LAND,-35.3632618,149.1652373,54957,-0.018602492287755013,0.014891112223267555,0.2881545126438141,0.15836063027381897,0.013900203630328178,-0.029814833775162697,0,46,-921,162,14,-29,13,27,82,380.0,90.0,1500.0
21:19:06.733,LAND,-35.3632616,149.1652381,54717,-0.024611417204141617,0.016337422654032707,0.28098011016845703,-0.32330235838890076,0.0010554895270615816,-0.03991984948515892,0,17,-1003,-319,1,-39,10,23,97,380.0,90.0,1500.0
21:19:06.934,LAND,-35.3632614,149.1652387,54419,-0.03480378910899162,0.015743542462587357,0.27273330092430115,-1.2244739532470703,-0.006704231724143028,-0.030384410172700882,4,-13,-829,-1221,-5,-30,8,18,134,380.0,90.0,1500.0
21:19:07.135,LAND,-35.3632613,149.1652393,54016,-0.03050795942544937,0.016419563442468643,0.26518434286117554,-1.7982960939407349,-0.0008347197435796261,-0.04367481544613838,3,-56,-796,-1796,0,-43,6,16,177,380.0,90.0,1500.0
21:19:07.337,LAND,-35.3632613,149.1652393,54016,-0.03050795942544937,0.016419563442468643,0.26518434286117554,-1.7982960939407349,-0.0008347197435796261,-0.04367481544613838,3,-56,-796,-1796,0,-43,6,16,177,380.0,90.0,1500.0
21:19:07.541,LAND,-35.3632613,149.1652393,54016,-0.03050795942544937,0.016419563442468643,0.26518434286117554,-1.7982960939407349,-0.0008347197435796261,-0.04367481544613838,3,-56,-796,-1796,0,-43,6,16,177,380.0,90.0,1500.0
21:19:07.744,LAND,-35.3632613,149.1652393,54016,-0.03050795942544937,0.016419563442468643,0.26518434286117554,-1.7982960939407349,-0.0008347197435796261,-0.04367481544613838,3,-56,-796,-1796,0,-43,6,16,177,380.0,90.0,1500.0
21:19:07.946,LAND,-35.3632613,149.1652393,54016,-0.03050795942544937,0.016419563442468643,0.26518434286117554,-1.7982960939407349,-0.0008347197435796261,-0.04367481544613838,3,-56,-796,-1796,0,-43,6,16,177,380.0,90.0,1500.0
21:19:08.149,LAND,-35.3632614,149.165241,51288,-0.046636227518320084,0.005703786388039589,0.23428015410900116,-2.051896810531616,-0.017180848866701126,-0.034418873488903046,2,-85,-1008,-2051,-16,-33,0,1,297,380.0,90.0,1500.0
21:19:08.350,LAND,-35.3632615,149.1652411,50522,-0.04888221248984337,0.002941992599517107,0.22666750848293304,-2.3980460166931152,-0.013538400642573833,-0.019506029784679413,1,-99,-1021,-2397,-12,-18,0,-2,294,130.0,90.0,1500.0
21:19:08.551,LAND,-35.3632615,149.1652411,50522,-0.04888221248984337,0.002941992599517107,0.22666750848293304,-2.3980460166931152,-0.013538400642573833,-0.019506029784679413,1,-99,-1021,-2397,-12,-18,0,-2,294,130.0,90.0,1500.0
21:19:08.752,LAND,-35.3632616,149.1652412,49774,-0.025072043761610985,0.0014856946654617786,0.22322730720043182,-2.1919591426849365,-0.032568708062171936,-0.0026932202745229006,4,-127,-1192,-2193,-31,-2,0,-6,272,130.0,90.0,1500.0
21:19:08.953,LAND,-35.3632617,149.1652413,49189,-0.011567515321075916,-0.0006476149428635836,0.21825650334358215,-0.048950135707855225,-0.01664445549249649,-0.03212336078286171,3,-15,-1772,-49,-15,-31,0,-8,146,130.0,90.0,1500.0
21:19:09.153,LAND,-35.3632619,149.1652413,48916,-0.0230230875313282,-0.002573291538283229,0.21262703835964203,-1.0612574815750122,-0.011266585439443588,-0.02644517831504345,3,-69,-1070,-1062,-10,-26,1,-12,81,130.0,90.0,1500.0
21:19:09.354,LAND,-35.3632619,149.1652413,48916,-0.0230230875313282,-0.002573291538283229,0.21262703835964203,-1.0612574815750122,-0.011266585439443588,-0.02644517831504345,3,-69,-1070,-1062,-10,-26,1,-12,81,130.0,90.0,1500.0
21:19:09.558,LAND,-35.3632619,149.1652413,48916,-0.0230230875313282,-0.002573291538283229,0.21262703835964203,-1.0612574815750122,-0.011266585439443588,-0.02644517831504345,3,-69,-1070,-1062,-10,-26,1,-12,81,130.0,90.0,1500.0
21:19:09.760,LAND,-35.3632619,149.1652413,48916,-0.0230230875313282,-0.002573291538283229,0.21262703835964203,-1.0612574815750122,-0.011266585439443588,-0.02644517831504345,3,-69,-1070,-1062,-10,-26,1,-12,81,130.0,90.0,1500.0
21:19:09.962,LAND,-35.3632622,149.1652408,48465,-0.028859591111540794,-0.006247414276003838,0.19792717695236206,-0.5510282516479492,-0.001440400374121964,-0.014232496730983257,0,7,-965,-548,0,-13,3,-16,48,130.0,90.0,1500.0
21:19:10.163,LAND,-35.3632624,149.1652406,48330,-0.020056433975696564,-0.007063914090394974,0.19352297484874725,0.13751061260700226,0.002341469982638955,-0.015506533905863762,0,38,-961,141,3,-14,4,-17,54,130.0,90.0,1500.0
21:19:10.363,LAND,-35.3632624,149.1652404,48178,-0.010809771716594696,-0.006654148455709219,0.1887085735797882,0.7224764823913574,0.004484639503061771,-0.015213909558951855,0,60,-981,726,5,-14,5,-17,61,130.0,90.0,1500.0
21:19:10.564,LAND,-35.3632624,149.1652404,48178,-0.010809771716594696,-0.006654148455709219,0.1887085735797882,0.7224764823913574,0.004484639503061771,-0.015213909558951855,0,60,-981,726,5,-14,5,-17,61,130.0,90.0,1500.0
21:19:10.765,LAND,-35.3632624,149.1652402,48009,-0.0045601241290569305,-0.006484942510724068,0.1842537224292755,0.9130693674087524,0.003920961637049913,-0.015390073880553246,0,66,-988,916,4,-14,5,-17,66,130.0,90.0,1500.0
21:19:10.966,LAND,-35.3632625,149.1652399,47819,-0.002774667227640748,-0.006147701293230057,0.1799817681312561,1.0413044691085815,0.004957483150064945,-0.012435388751327991,0,69,-998,1043,5,-12,6,-17,73,130.0,90.0,1500.0
21:19:11.167,LAND,-35.3632626,149.1652396,47620,0.007130401208996773,-0.006401478312909603,0.1760839819908142,1.3054416179656982,-0.01059506181627512,-0.013438813388347626,-1,72,-979,1307,-9,-12,6,-17,74,130.0,90.0,1500.0
21:19:11.368,LAND,-35.3632626,149.1652396,47620,0.007130401208996773,-0.006401478312909603,0.1760839819908142,1.3054416179656982,-0.01059506181627512,-0.013438813388347626,-1,72,-979,1307,-9,-12,6,-17,74,130.0,90.0,1500.0
21:19:11.570,LAND,-35.3632626,149.1652396,47620,0.007130401208996773,-0.006401478312909603,0.1760839819908142,1.3054416179656982,-0.01059506181627512,-0.013438813388347626,-1,72,-979,1307,-9,-12,6,-17,74,130.0,90.0,1500.0
21:19:11.771,LAND,-35.3632626,149.1652396,47620,0.007130401208996773,-0.006401478312909603,0.1760839819908142,1.3054416179656982,-0.01059506181627512,-0.013438813388347626,-1,72,-979,1307,-9,-12,6,-17,74,130.0,90.0,1500.0
21:19:11.972,LAND,-35.3632625,149.1652387,46995,0.016921719536185265,-0.005576604511588812,0.16461092233657837,1.240968942642212,-0.0069662174209952354,-0.012449581176042557,0,49,-984,1241,-6,-11,6,-13,78,130.0,90.0,1500.0
21:19:12.174,LAND,-35.3632625,149.1652384,46782,0.02233317866921425,-0.005319562274962664,0.16170985996723175,1.312206745147705,-0.007757414132356644,-0.00953878927975893,-3,42,-993,1312,-6,-9,6,-12,81,130.0,90.0,1500.0
21:19:12.390,LAND,-35.3632625,149.165238,46566,0.025499699637293816,-0.006651043426245451,0.15802526473999023,1.0691940784454346,0.002220891648903489,-0.000593095610383898,-1,34,-1030,1069,3,0,6,-10,79,130.0,90.0,1500.0
21:19:12.594,LAND,-35.3632625,149.1652377,46356,0.027322985231876373,-0.005724380724132061,0.15560175478458405,1.0623804330825806,0.005097669083625078,-0.004585868213325739,-2,21,-958,1061,5,-4,6,-8,81,130.0,90.0,1500.0
21:19:12.796,LAND,-35.3632625,149.1652377,46356,0.027322985231876373,-0.005724380724132061,0.15560175478458405,1.0623804330825806,0.005097669083625078,-0.004585868213325739,-2,21,-958,1061,5,-4,6,-8,81,130.0,90.0,1500.0
21:19:12.998,LAND,-35.3632624,149.1652374,46139,0.03313625231385231,-0.00520732905715704,0.1525583267211914,0.9895285367965698,-0.0014798952033743262,-0.009586455300450325,1,18,-996,988,0,-9,6,-6,81,130.0,90.0,1500.0
21:19:13.200,LAND,-35.3632624,149.1652372,45918,0.029489250853657722,-0.0040778107941150665,0.14995847642421722,1.0269944667816162,-0.00032247896888293326,-0.009575740434229374,0,18,-1028,1026,0,-9,6,-2,85,130.0,90.0,1500.0
21:19:13.401,LAND,-35.3632624,149.1652372,45918,0.029489250853657722,-0.0040778107941150665,0.14995847642421722,1.0269944667816162,-0.00032247896888293326,-0.009575740434229374,0,18,-1028,1026,0,-9,6,-2,85,130.0,90.0,1500.0
21:19:13.605,LAND,-35.3632624,149.1652372,45918,0.029489250853657722,-0.0040778107941150665,0.14995847642421722,1.0269944667816162,-0.00032247896888293326,-0.009575740434229374,0,18,-1028,1026,0,-9,6,-2,85,130.0,90.0,1500.0
21:19:13.806,LAND,-35.3632624,149.1652372,45918,0.029489250853657722,-0.0040778107941150665,0.14995847642421722,1.0269944667816162,-0.00032247896888293326,-0.009575740434229374,0,18,-1028,1026,0,-9,6,-2,85,190.0,90.0,1500.0
21:19:14.007,LAND,-35.3632624,149.1652372,45918,0.029489250853657722,-0.0040778107941150665,0.14995847642421722,1.0269944667816162,-0.00032247896888293326,-0.009575740434229374,0,18,-1028,1026,0,-9,6,-2,85,190.0,90.0,1500.0
