time_stamp,MODE,lat,lon,relative_alt,roll,pitch,yaw,rollspeed,pitchspeed,yawspeed,xacc,yacc,zacc,xgyro,ygyro,zgyro,vx,vy,vz,RTL_ALT
01:59:14.599,STABILIZE,-35.3632621,149.1652375,1,0.00036225700750947,0.001573227345943451,0.027150630950927734,0.0002600275620352477,0.0002643643820192665,0.002317307284101844,0,1,-1000,0,0,0,-2,2,1,1500.0
01:59:14.801,STABILIZE,-35.3632621,149.1652375,1,0.00036225700750947,0.001573227345943451,0.027150630950927734,0.0002600275620352477,0.0002643643820192665,0.002317307284101844,0,1,-1000,0,0,0,-2,2,1,1500.0
01:59:15.002,STABILIZE,-35.3632621,149.1652375,1,0.00036225700750947,0.001573227345943451,0.027150630950927734,0.0002600275620352477,0.0002643643820192665,0.002317307284101844,0,1,-1000,0,0,0,-2,2,1,1500.0
01:59:15.203,STABILIZE,-35.3632622,149.1652376,0,0.00014288634702097625,0.0013950116699561477,0.026439251378178596,0.0002629218506626785,0.0003806262102443725,0.002111417707055807,0,1,-1000,0,1,0,-2,2,2,1500.0
01:59:15.404,STABILIZE,-35.3632622,149.1652376,0,0.00014288634702097625,0.0013950116699561477,0.026439251378178596,0.0002629218506626785,0.0003806262102443725,0.002111417707055807,0,1,-1000,0,1,0,-2,2,2,1500.0
01:59:15.605,STABILIZE,-35.3632622,149.1652376,0,0.00014288634702097625,0.0013950116699561477,0.026439251378178596,0.0002629218506626785,0.0003806262102443725,0.002111417707055807,0,1,-1000,0,1,0,-2,2,2,1500.0
01:59:15.806,STABILIZE,-35.3632622,149.1652376,0,0.00014288634702097625,0.0013950116699561477,0.026439251378178596,0.0002629218506626785,0.0003806262102443725,0.002111417707055807,0,1,-1000,0,1,0,-2,2,2,1500.0
01:59:16.007,STABILIZE,-35.3632622,149.1652375,0,-0.0002695270231924951,0.001223431434482336,0.02600523829460144,0.00030452042119577527,0.00022498212638311088,0.0019694864749908447,0,1,-1000,0,0,0,-1,2,1,1500.0
01:59:16.209,STABILIZE,-35.3632622,149.1652375,0,-0.0002695270231924951,0.001223431434482336,0.02600523829460144,0.00030452042119577527,0.00022498212638311088,0.0019694864749908447,0,1,-1000,0,0,0,-1,2,1,1500.0
01:59:16.410,STABILIZE,-35.3632622,149.1652375,0,-0.00047505254042334855,0.00114570208825171,0.02575528994202614,0.00019529782002791762,0.0002351970470044762,0.002081063808873296,0,1,-1000,0,0,0,-1,1,1,1500.0
01:59:16.611,STABILIZE,-35.3632622,149.1652375,0,-0.00047505254042334855,0.00114570208825171,0.02575528994202614,0.00019529782002791762,0.0002351970470044762,0.002081063808873296,0,1,-1000,0,1,0,-1,1,1,1500.0
01:59:16.812,STABILIZE,-35.3632622,149.1652375,0,-0.00047505254042334855,0.00114570208825171,0.02575528994202614,0.00019529782002791762,0.0002351970470044762,0.002081063808873296,0,1,-1000,0,1,0,-1,1,1,1500.0
01:59:17.013,STABILIZE,-35.3632622,149.1652375,0,-0.00047505254042334855,0.00114570208825171,0.02575528994202614,0.00019529782002791762,0.0002351970470044762,0.002081063808873296,0,1,-1000,0,1,0,-1,1,1,1500.0
01:59:17.215,STABILIZE,-35.3632622,149.1652375,0,-0.00047505254042334855,0.00114570208825171,0.02575528994202614,0.00019529782002791762,0.0002351970470044762,0.002081063808873296,0,1,-1000,0,0,0,-1,1,1,1500.0
01:59:17.416,STABILIZE,-35.3632622,149.1652375,0,-0.00047505254042334855,0.00114570208825171,0.02575528994202614,0.00019529782002791762,0.0002351970470044762,0.002081063808873296,0,1,-1000,0,0,0,-1,1,1,1500.0
01:59:17.617,STABILIZE,-35.3632622,149.1652375,0,-0.00047505254042334855,0.00114570208825171,0.02575528994202614,0.00019529782002791762,0.0002351970470044762,0.002081063808873296,0,1,-1000,0,0,0,-1,1,1,1500.0
01:59:17.818,STABILIZE,-35.3632622,149.1652375,0,-0.00047505254042334855,0.00114570208825171,0.02575528994202614,0.00019529782002791762,0.0002351970470044762,0.002081063808873296,0,1,-1000,0,0,0,-1,1,1,1500.0
01:59:18.019,STABILIZE,-35.3632621,149.1652375,0,-0.0008909691823646426,0.000991667271591723,0.025114351883530617,0.00012843747390434146,0.00020829963614232838,0.0020676476415246725,0,1,-1000,0,0,0,-1,1,1,1500.0
01:59:18.221,STABILIZE,-35.3632621,149.1652375,0,-0.0009316937066614628,0.0009802074637264013,0.025037145242094994,0.0001440128544345498,0.00029231503140181303,0.0020025470294058323,0,1,-1000,1,0,0,-1,1,1,1500.0
01:59:18.422,STABILIZE,-35.3632621,149.1652375,0,-0.0009640788193792105,0.0009749265154823661,0.024942899122834206,0.0003071159590035677,0.0002421829558443278,0.002096224343404174,0,1,-1000,0,0,0,-1,0,1,1500.0
01:59:18.624,STABILIZE,-35.3632621,149.1652375,0,-0.0009640788193792105,0.0009749265154823661,0.024942899122834206,0.0003071159590035677,0.0002421829558443278,0.002096224343404174,0,1,-1000,0,0,0,-1,0,1,1500.0
01:59:18.825,STABILIZE,-35.3632621,149.1652375,0,-0.0009640788193792105,0.0009749265154823661,0.024942899122834206,0.0003071159590035677,0.0002421829558443278,0.002096224343404174,0,1,-1000,0,0,0,-1,0,1,1500.0
01:59:19.026,STABILIZE,-35.3632621,149.1652375,0,-0.0009640788193792105,0.0009749265154823661,0.024942899122834206,0.0003071159590035677,0.0002421829558443278,0.002096224343404174,0,1,-1000,0,0,0,-1,0,1,1500.0
01:59:19.227,STABILIZE,-35.3632621,149.1652375,0,-0.001015402260236442,0.000952797126956284,0.024723952636122704,0.0003157784231007099,0.0003242790116928518,0.0018810257315635681,0,1,-1000,0,0,1,-1,0,0,1500.0
01:59:19.429,STABILIZE,-35.3632621,149.1652375,0,-0.001015402260236442,0.000952797126956284,0.024723952636122704,0.0003157784231007099,0.0003242790116928518,0.0018810257315635681,0,1,-1000,0,0,1,-1,0,0,1500.0
01:59:19.631,STABILIZE,-35.3632621,149.1652375,0,-0.001015402260236442,0.000952797126956284,0.024723952636122704,0.0003157784231007099,0.0003242790116928518,0.0018810257315635681,0,1,-1000,0,0,1,-1,0,0,1500.0
01:59:19.832,STABILIZE,-35.3632621,149.1652375,0,-0.001015402260236442,0.000952797126956284,0.024723952636122704,0.0003157784231007099,0.0003242790116928518,0.0018810257315635681,0,1,-1000,0,0,1,-1,0,0,1500.0
01:59:20.033,STABILIZE,-35.3632621,149.1652375,0,-0.001015402260236442,0.000952797126956284,0.024723952636122704,0.0003157784231007099,0.0003242790116928518,0.0018810257315635681,0,1,-1000,0,0,1,-1,0,0,1500.0
01:59:20.234,STABILIZE,-35.3632621,149.1652375,0,-0.001015402260236442,0.000952797126956284,0.024723952636122704,0.0003157784231007099,0.0003242790116928518,0.0018810257315635681,0,1,-1000,0,0,0,-1,0,0,1500.0
01:59:20.435,STABILIZE,-35.3632621,149.1652375,0,-0.0010735751129686832,0.0009358807001262903,0.024336105212569237,0.00015983293997123837,0.00024052284425124526,0.0017796746687963605,0,1,-1000,0,0,0,-1,0,0,1500.0
01:59:20.637,STABILIZE,-35.3632621,149.1652375,0,-0.0010748081840574741,0.0009398246766068041,0.024273589253425598,0.0002447279402986169,0.0002887102891691029,0.0019274461083114147,0,1,-1000,0,0,0,-1,0,0,1500.0
01:59:20.838,STABILIZE,-35.3632621,149.1652375,0,-0.0010716367978602648,0.0009378388640470803,0.024193037301301956,0.00030281691579148173,0.00034931604750454426,0.0018188586691394448,0,1,-1000,0,0,0,-1,0,0,1500.0
01:59:21.039,STABILIZE,-35.3632621,149.1652375,0,-0.0010716367978602648,0.0009378388640470803,0.024193037301301956,0.00030281691579148173,0.00034931604750454426,0.0018188586691394448,0,1,-1000,0,0,0,-1,0,0,1500.0
01:59:21.240,STABILIZE,-35.3632621,149.1652375,0,-0.0010716367978602648,0.0009378388640470803,0.024193037301301956,0.00030281691579148173,0.00034931604750454426,0.0018188586691394448,0,1,-1000,0,0,0,-1,0,0,1500.0
01:59:21.441,STABILIZE,-35.3632621,149.1652375,0,-0.0010716367978602648,0.0009378388640470803,0.024193037301301956,0.00030281691579148173,0.00034931604750454426,0.0018188586691394448,0,1,-1000,0,0,0,-1,0,0,1500.0
01:59:21.642,STABILIZE,-35.3632621,149.1652375,0,-0.0010716367978602648,0.0009378388640470803,0.024193037301301956,0.00030281691579148173,0.00034931604750454426,0.0018188586691394448,0,1,-1000,0,0,0,-1,0,0,1500.0
01:59:21.852,STABILIZE,-35.3632621,149.1652375,0,-0.0010716367978602648,0.0009378388640470803,0.024193037301301956,0.00030281691579148173,0.00034931604750454426,0.0018188586691394448,0,1,-1000,0,0,0,-1,0,0,1500.0
01:59:22.054,STABILIZE,-35.3632621,149.1652375,0,-0.0010716367978602648,0.0009378388640470803,0.024193037301301956,0.00030281691579148173,0.00034931604750454426,0.0018188586691394448,0,1,-1000,0,0,0,-1,0,0,1500.0
01:59:22.255,STABILIZE,-35.3632621,149.1652375,0,-0.0010716367978602648,0.0009378388640470803,0.024193037301301956,0.00030281691579148173,0.00034931604750454426,0.0018188586691394448,0,1,-1000,0,0,0,-1,0,0,1500.0
01:59:22.456,STABILIZE,-35.3632621,149.1652375,0,-0.0010716367978602648,0.0009378388640470803,0.024193037301301956,0.00030281691579148173,0.00034931604750454426,0.0018188586691394448,0,1,-1000,0,0,1,-1,1,0,1500.0
01:59:22.657,STABILIZE,-35.3632621,149.1652375,0,-0.0010716367978602648,0.0009378388640470803,0.024193037301301956,0.00030281691579148173,0.00034931604750454426,0.0018188586691394448,0,2,-1000,0,0,0,-1,1,0,1500.0
01:59:22.858,STABILIZE,-35.3632621,149.1652375,0,-0.0010716367978602648,0.0009378388640470803,0.024193037301301956,0.00030281691579148173,0.00034931604750454426,0.0018188586691394448,0,2,-1000,0,0,0,-1,1,0,1500.0
01:59:23.060,STABILIZE,-35.3632621,149.1652375,0,-0.0010716367978602648,0.0009378388640470803,0.024193037301301956,0.00030281691579148173,0.00034931604750454426,0.0018188586691394448,0,2,-1000,0,0,0,-1,1,0,1500.0
01:59:23.261,STABILIZE,-35.3632621,149.1652375,0,-0.0007221170817501843,0.0009570336551405489,0.023455826565623283,0.0002295258454978466,0.00034210277954116464,0.0017870089504867792,0,1,-1000,0,0,0,-1,1,0,1500.0
01:59:23.462,STABILIZE,-35.3632621,149.1652375,0,-0.0007221170817501843,0.0009570336551405489,0.023455826565623283,0.0002295258454978466,0.00034210277954116464,0.0017870089504867792,0,1,-1000,0,0,0,-1,1,0,1500.0
01:59:23.663,STABILIZE,-35.3632621,149.1652375,0,-0.0007221170817501843,0.0009570336551405489,0.023455826565623283,0.0002295258454978466,0.00034210277954116464,0.0017870089504867792,0,1,-1000,0,0,0,-1,1,0,1500.0
01:59:23.865,STABILIZE,-35.3632621,149.1652375,0,-0.0007221170817501843,0.0009570336551405489,0.023455826565623283,0.0002295258454978466,0.00034210277954116464,0.0017870089504867792,0,1,-1000,0,0,0,-1,1,0,1500.0
01:59:24.066,STABILIZE,-35.3632621,149.1652375,0,-0.0007221170817501843,0.0009570336551405489,0.023455826565623283,0.0002295258454978466,0.00034210277954116464,0.0017870089504867792,0,1,-1000,0,0,0,-1,1,0,1500.0
01:59:24.267,STABILIZE,-35.3632621,149.1652375,0,-0.0007221170817501843,0.0009570336551405489,0.023455826565623283,0.0002295258454978466,0.00034210277954116464,0.0017870089504867792,0,1,-1000,0,0,0,-1,1,0,1500.0
01:59:24.469,STABILIZE,-35.3632622,149.1652375,0,-0.0008053947240114212,0.0009673326276242733,0.02303488552570343,0.00023814995074644685,0.0002393542672507465,0.00152578204870224,0,1,-1000,0,1,0,-1,1,0,1500.0
01:59:24.670,STABILIZE,-35.3632622,149.1652375,0,-0.0008187881321646273,0.0009663351229391992,0.022965703159570694,0.00025240465765818954,0.0003353112260811031,0.0016247720923274755,0,-22,-1036,0,1,1,-1,0,-3,1500.0
01:59:24.871,STABILIZE,-35.3632622,149.1652375,0,-0.0008187881321646273,0.0009663351229391992,0.022965703159570694,0.00025240465765818954,0.0003353112260811031,0.0016247720923274755,0,-22,-1036,0,1,1,-1,0,-3,1500.0
01:59:25.072,STABILIZE,-35.3632622,149.1652375,0,-0.0008187881321646273,0.0009663351229391992,0.022965703159570694,0.00025240465765818954,0.0003353112260811031,0.0016247720923274755,0,-22,-1036,0,1,1,-1,0,-3,1500.0
01:59:25.274,STABILIZE,-35.3632622,149.1652375,0,-0.0008187881321646273,0.0009663351229391992,0.022965703159570694,0.00025240465765818954,0.0003353112260811031,0.0016247720923274755,0,-22,-1036,0,1,1,-1,0,-3,1500.0
01:59:25.475,STABILIZE,-35.3632622,149.1652375,0,-0.0008187881321646273,0.0009663351229391992,0.022965703159570694,0.00025240465765818954,0.0003353112260811031,0.0016247720923274755,0,-22,-1036,0,1,1,-1,0,-3,1500.0
01:59:25.676,STABILIZE,-35.3632622,149.1652375,0,-0.0008187881321646273,0.0009663351229391992,0.022965703159570694,0.00025240465765818954,0.0003353112260811031,0.0016247720923274755,0,-22,-1036,0,1,1,-1,0,-3,1500.0
01:59:25.877,STABILIZE,-35.3632622,149.1652375,15,-0.0006378567777574062,0.0009671382722444832,0.022621816024184227,0.00021217274479568005,0.00029976776568219066,0.0015871053328737617,0,1,-1000,1,1,0,-1,0,-2,1500.0
01:59:26.078,STABILIZE,-35.3632622,149.1652375,15,-0.0006378567777574062,0.0009671382722444832,0.022621816024184227,0.00021217274479568005,0.00029976776568219066,0.0015871053328737617,0,1,-1000,1,1,0,-1,0,-2,1500.0
01:59:26.280,STABILIZE,-35.3632622,149.1652375,15,-0.0006378567777574062,0.0009671382722444832,0.022621816024184227,0.00021217274479568005,0.00029976776568219066,0.0015871053328737617,0,1,-1000,1,1,0,-1,0,-2,1500.0
01:59:26.481,STABILIZE,-35.3632622,149.1652375,15,-0.0006378567777574062,0.0009671382722444832,0.022621816024184227,0.00021217274479568005,0.00029976776568219066,0.0015871053328737617,0,1,-1000,0,1,0,-1,0,-2,1500.0
01:59:26.682,STABILIZE,-35.3632622,149.1652375,15,-0.0006378567777574062,0.0009671382722444832,0.022621816024184227,0.00021217274479568005,0.00029976776568219066,0.0015871053328737617,0,1,-1000,0,1,0,-1,0,-2,1500.0
01:59:26.883,STABILIZE,-35.3632622,149.1652375,19,-0.0005568164051510394,0.0009597335010766983,0.022322988137602806,0.00025961099890992045,0.00018262601224705577,0.0016134446486830711,0,1,-1000,0,1,0,-1,1,-1,1500.0
01:59:27.085,STABILIZE,-35.3632622,149.1652375,19,-0.0005568164051510394,0.0009597335010766983,0.022322988137602806,0.00025961099890992045,0.00018262601224705577,0.0016134446486830711,0,1,-1000,0,1,0,-1,1,-1,1500.0
01:59:27.286,STABILIZE,-35.3632622,149.1652375,19,-0.0005568164051510394,0.0009597335010766983,0.022322988137602806,0.00025961099890992045,0.00018262601224705577,0.0016134446486830711,0,1,-1000,0,1,0,-1,1,-1,1500.0
01:59:27.488,AUTO,-35.3632622,149.1652375,19,-0.0005568164051510394,0.0009597335010766983,0.022322988137602806,0.00025961099890992045,0.00018262601224705577,0.0016134446486830711,0,1,-1000,0,1,0,-1,1,-1,1500.0
01:59:27.689,AUTO,-35.3632622,149.1652375,19,-0.0005568164051510394,0.0009597335010766983,0.022322988137602806,0.00025961099890992045,0.00018262601224705577,0.0016134446486830711,0,1,-1000,0,1,0,-1,1,-1,1500.0
01:59:27.891,AUTO,-35.3632622,149.1652375,10,-0.0005483086570166051,0.0009809968760237098,0.02202400378882885,0.0003284526173956692,0.00027386262081563473,0.0015959825832396746,0,2,-1000,0,0,0,-1,1,-1,1500.0
01:59:28.093,AUTO,-35.3632621,149.1652375,13,-0.0005638866568915546,0.000992089044302702,0.02195640653371811,0.00019824074115604162,0.0002711698180064559,0.001513338414952159,0,3,-997,0,0,0,-1,0,-4,1500.0
01:59:28.294,AUTO,-35.3632621,149.1652375,13,-0.0005638866568915546,0.000992089044302702,0.02195640653371811,0.00019824074115604162,0.0002711698180064559,0.001513338414952159,0,3,-997,0,0,0,-1,0,-4,1500.0
01:59:28.501,AUTO,-35.3632621,149.1652375,20,-0.0005514627555385232,0.0010151925962418318,0.02188442274928093,0.0003052223473787308,0.00022596929920837283,0.0016126439440995455,0,1,-1000,1,0,0,0,0,-4,1500.0
01:59:28.714,AUTO,-35.3632621,149.1652375,24,-0.0005030932370573282,0.0010485952952876687,0.021814560517668724,0.00041605939622968435,0.0002313260338269174,0.0014634409453719854,0,1,-1000,0,0,0,0,0,-3,1500.0
01:59:29.084,AUTO,-35.3632621,149.1652375,26,-0.0004408401146065444,0.0010920660570263863,0.02174631878733635,0.00033257639734074473,0.00023835309548303485,0.0014612111262977123,0,2,-1000,0,0,0,0,0,-3,1500.0
01:59:29.376,AUTO,-35.3632621,149.1652375,28,-0.0003854379756376147,0.001149582676589489,0.021672843024134636,0.00026681378949433565,0.00030447315657511353,0.0014182175509631634,0,1,-1000,0,1,0,0,0,-3,1500.0
01:59:29.613,AUTO,-35.3632621,149.1652375,28,-0.0003854379756376147,0.001149582676589489,0.021672843024134636,0.00026681378949433565,0.00030447315657511353,0.0014182175509631634,0,1,-1000,0,1,0,0,0,-3,1500.0
01:59:29.816,AUTO,-35.3632621,149.1652375,28,-0.0003854379756376147,0.001149582676589489,0.021672843024134636,0.00026681378949433565,0.00030447315657511353,0.0014182175509631634,0,1,-1000,0,1,0,0,0,-3,1500.0
01:59:30.020,AUTO,-35.3632621,149.1652375,29,-0.00019556326151359826,0.0013539036735892296,0.02146654576063156,0.0004221083945594728,0.00019241846166551113,0.0015758556546643376,0,1,-1000,1,0,0,0,0,-2,1500.0
01:59:30.223,AUTO,-35.3632621,149.1652375,29,-0.00013209144526626915,0.0014311819104477763,0.021371059119701385,0.0003687860444188118,0.00036541419103741646,0.0015177881577983499,0,1,-1000,0,0,1,0,0,-2,1500.0
01:59:30.425,AUTO,-35.3632621,149.1652375,28,-6.570785626536235e-05,0.0015018862904980779,0.021278172731399536,0.0003424761234782636,0.0002885503927245736,0.0014959380496293306,0,1,-1000,1,1,0,0,0,-1,57577.0
01:59:30.627,AUTO,-35.3632621,149.1652375,27,5.940019946137909e-06,0.0015753479674458504,0.02120523899793625,0.0003550667315721512,0.0002938802936114371,0.001391625963151455,0,1,-1000,0,1,1,0,0,-1,57577.0
01:59:30.828,AUTO,-35.3632621,149.1652375,27,5.940019946137909e-06,0.0015753479674458504,0.02120523899793625,0.0003550667315721512,0.0002938802936114371,0.001391625963151455,0,1,-1000,0,1,1,0,0,-1,57577.0
01:59:31.030,AUTO,-35.3632621,149.1652375,27,7.912219734862447e-05,0.0016475332668051124,0.021112140268087387,0.0003334704088047147,0.0003313348861411214,0.0014569393824785948,0,1,-1000,0,1,1,0,1,-1,57577.0
01:59:31.232,AUTO,-35.3632621,149.1652375,26,0.00015526932838838547,0.0017195300897583365,0.021010827273130417,0.00028300442500039935,0.0002748733386397362,0.0013943908270448446,0,2,-1000,0,1,1,0,1,-1,57577.0
01:59:31.433,AUTO,-35.3632621,149.1652375,26,0.00015526932838838547,0.0017195300897583365,0.021010827273130417,0.00028300442500039935,0.0002748733386397362,0.0013943908270448446,0,2,-1000,0,1,1,0,1,-1,57577.0
01:59:31.647,AUTO,-35.3632621,149.1652375,26,0.00015526932838838547,0.0017195300897583365,0.021010827273130417,0.00028300442500039935,0.0002748733386397362,0.0013943908270448446,0,2,-1000,0,1,1,0,1,-1,57577.0
01:59:31.848,AUTO,-35.3632621,149.1652375,26,0.00015526932838838547,0.0017195300897583365,0.021010827273130417,0.00028300442500039935,0.0002748733386397362,0.0013943908270448446,0,2,-1000,0,1,1,0,1,-1,57577.0
01:59:32.050,AUTO,-35.3632621,149.1652375,239,0.0021205199882388115,0.0003394264495000243,0.021024396643042564,-0.004913445096462965,0.0037627392448484898,0.002906185109168291,0,0,-1129,-4,4,2,0,0,-76,57577.0
01:59:32.251,AUTO,-35.3632621,149.1652375,462,0.0018648039549589157,0.001124606467783451,0.020920269191265106,0.00011645175982266665,0.002115941373631358,0.0008718861499801278,0,0,-1108,0,2,0,0,0,-104,57577.0
01:59:32.453,AUTO,-35.3632621,149.1652375,750,0.0028598748613148928,0.0014891540631651878,0.020684000104665756,0.023381607607007027,-0.0006234791944734752,9.608097025193274e-05,0,0,-1082,24,0,0,0,0,-127,57577.0
01:59:32.654,AUTO,-35.3632621,149.1652375,1090,0.013793461956083775,0.0003214901953469962,0.020480195060372353,0.04828393831849098,-0.006150225177407265,0.001588034792803228,0,0,-1036,48,-5,1,0,2,-140,57577.0
01:59:32.856,AUTO,-35.363262,149.1652375,1455,0.025638876482844353,-0.0013839064631611109,0.020488670095801353,0.047623299062252045,-0.006839568726718426,0.00249640760011971,0,0,-1015,48,-6,2,1,6,-145,57577.0
01:59:33.058,AUTO,-35.363262,149.1652375,1455,0.025638876482844353,-0.0013839064631611109,0.020488670095801353,0.047623299062252045,-0.006839568726718426,0.00249640760011971,0,0,-1015,48,-6,2,1,6,-145,57577.0
01:59:33.260,AUTO,-35.363262,149.1652377,1830,0.03706720098853111,-0.0032845926471054554,0.02065836451947689,0.04424767568707466,-0.008016034960746765,0.0029505484271794558,0,-2,-1006,44,-7,2,1,13,-147,57577.0
01:59:33.463,AUTO,-35.363262,149.1652377,1830,0.03706720098853111,-0.0032845926471054554,0.02065836451947689,0.04424767568707466,-0.008016034960746765,0.0029505484271794558,0,-2,-1006,44,-7,2,1,13,-147,57577.0
01:59:33.664,AUTO,-35.363262,149.1652377,1830,0.03706720098853111,-0.0032845926471054554,0.02065836451947689,0.04424767568707466,-0.008016034960746765,0.0029505484271794558,0,-2,-1006,44,-7,2,1,13,-147,57577.0
01:59:33.866,AUTO,-35.3632616,149.1652399,2975,0.06164003163576126,-0.007173717021942139,-0.011338168755173683,-0.03874862566590309,0.046293750405311584,-0.06935656070709229,1,-9,-991,-38,46,-69,9,46,-146,57577.0
01:59:34.068,AUTO,-35.3632616,149.1652399,2975,0.06164003163576126,-0.007173717021942139,-0.011338168755173683,-0.03874862566590309,0.046293750405311584,-0.06935656070709229,1,-9,-991,-38,46,-69,9,46,-146,57577.0
01:59:34.269,AUTO,-35.3632613,149.1652412,3352,0.035237621515989304,0.017042871564626694,-0.035524263978004456,-0.1629936248064041,0.08432905375957489,-0.09746792912483215,3,-11,-991,-162,85,-97,9,55,-144,57577.0
01:59:34.483,AUTO,-35.3632611,149.1652427,3725,-0.006194116547703743,0.023220624774694443,-0.0533304437994957,-0.11145834624767303,-0.015085098333656788,-0.05421902611851692,5,-11,-1010,-110,-14,-54,6,54,-144,57577.0
01:59:34.696,AUTO,-35.363261,149.165244,4103,-0.022797802463173866,0.014433244243264198,-0.06172043830156326,-0.03784247860312462,-0.03724482282996178,-0.033121973276138306,5,-13,-1009,-37,-36,-33,3,47,-147,57577.0
01:59:34.986,AUTO,-35.3632609,149.1652451,4484,-0.03538599982857704,0.006818992085754871,-0.06803982704877853,-0.06644558906555176,-0.017759814858436584,-0.0346493162214756,4,-9,-1002,-65,-17,-35,1,37,-148,57577.0
01:59:35.253,AUTO,-35.3632608,149.165246,4866,-0.05629945546388626,0.003968505188822746,-0.07575662434101105,-0.09638585895299911,-0.003484405344352126,-0.03715110570192337,3,-6,-1000,-95,-2,-37,1,23,-147,57577.0
01:59:35.470,AUTO,-35.3632608,149.165246,4866,-0.05629945546388626,0.003968505188822746,-0.07575662434101105,-0.09638585895299911,-0.003484405344352126,-0.03715110570192337,3,-6,-1000,-95,-2,-37,1,23,-147,57577.0
01:59:35.676,AUTO,-35.3632608,149.165246,4866,-0.05629945546388626,0.003968505188822746,-0.07575662434101105,-0.09638585895299911,-0.003484405344352126,-0.03715110570192337,3,-6,-1000,-95,-2,-37,1,23,-147,57577.0
01:59:35.878,AUTO,-35.3632609,149.1652454,6013,-0.06491093337535858,3.0362512916326523e-05,-0.0962081179022789,0.05311413109302521,-0.0021857249084860086,-0.01647249050438404,-2,4,-1001,53,-1,-16,-3,-33,-148,57577.0
01:59:36.080,AUTO,-35.3632609,149.1652454,6013,-0.06491093337535858,3.0362512916326523e-05,-0.0962081179022789,0.05311413109302521,-0.0021857249084860086,-0.01647249050438404,-2,4,-1001,53,-1,-16,-3,-33,-148,55816.0
01:59:36.281,AUTO,-35.3632609,149.1652444,6396,-0.05092274397611618,9.881344885798171e-05,-0.09996835887432098,0.058187086135149,0.0033419104292988777,-0.010913514532148838,-5,7,-1000,58,3,-11,-5,-46,-148,55816.0
01:59:36.483,AUTO,-35.363261,149.1652431,6778,-0.03566880151629448,0.001426133792847395,-0.10255178064107895,0.06265168637037277,0.007765152491629124,-0.007029083091765642,-5,10,-1001,63,8,-7,-6,-54,-148,55816.0
01:59:36.685,AUTO,-35.3632612,149.1652415,7164,-0.019445035606622696,0.0036869868636131287,-0.10415881872177124,0.06558755040168762,0.010042412206530571,-0.0036094803363084793,-7,13,-1002,66,10,-3,-8,-59,-148,55816.0
01:59:36.887,AUTO,-35.3632614,149.1652398,7550,-0.00295066786929965,0.006306900642812252,-0.10497970134019852,0.06651093810796738,0.01057151984423399,-0.0014325727242976427,-6,13,-1003,67,11,-1,-11,-59,-149,55816.0
01:59:37.089,AUTO,-35.3632614,149.1652398,7550,-0.00295066786929965,0.006306900642812252,-0.10497970134019852,0.06651093810796738,0.01057151984423399,-0.0014325727242976427,-6,13,-1003,67,11,-1,-11,-59,-149,55816.0
01:59:37.290,AUTO,-35.3632617,149.1652382,7938,0.013755466789007187,0.008797090500593185,-0.1050792783498764,0.06729064136743546,0.008786584250628948,0.001410303870216012,-5,11,-1004,67,9,1,-14,-55,-150,55816.0
01:59:37.492,AUTO,-35.3632617,149.1652382,7938,0.013755466789007187,0.008797090500593185,-0.1050792783498764,0.06729064136743546,0.008786584250628948,0.001410303870216012,-5,11,-1004,67,9,1,-14,-55,-150,55816.0
01:59:37.694,AUTO,-35.3632617,149.1652382,7938,0.013755466789007187,0.008797090500593185,-0.1050792783498764,0.06729064136743546,0.008786584250628948,0.001410303870216012,-5,11,-1004,67,9,1,-14,-55,-150,55816.0
01:59:37.897,AUTO,-35.3632628,149.1652348,9107,0.062064677476882935,0.011501520872116089,-0.10279126465320587,0.061094049364328384,-0.0033211265690624714,0.00434479396790266,0,8,-1002,61,-2,3,-19,-20,-152,55816.0
01:59:38.098,AUTO,-35.3632633,149.1652345,9498,0.06859628111124039,0.0029672670643776655,-0.09510459005832672,-0.014698266983032227,-0.07035168260335922,0.06642337888479233,1,4,-995,-14,-69,65,-19,-2,-150,55816.0
01:59:38.301,AUTO,-35.3632633,149.1652345,9498,0.06859628111124039,0.0029672670643776655,-0.09510459005832672,-0.014698266983032227,-0.07035168260335922,0.06642337888479233,1,4,-995,-14,-69,65,-19,-2,-150,55816.0
01:59:38.502,AUTO,-35.3632636,149.1652345,9885,0.05763958394527435,-0.025277018547058105,-0.07237973809242249,-0.058254700154066086,-0.12959697842597961,0.12570221722126007,4,2,-996,-57,-129,125,-14,12,-149,55816.0
01:59:38.705,AUTO,-35.3632638,149.1652349,10269,0.03582954406738281,-0.05127901956439018,-0.04978381469845772,-0.11089930683374405,-0.03464898094534874,0.05214222893118858,3,-1,-995,-110,-33,51,-2,22,-147,55816.0
01:59:38.906,AUTO,-35.3632637,149.1652355,10649,0.00766132352873683,-0.04394730180501938,-0.04970523715019226,-0.10212197154760361,0.06532304733991623,-0.028195539489388466,2,-5,-1000,-101,65,-28,11,25,-146,55816.0
01:59:39.108,AUTO,-35.3632634,149.1652361,11028,-0.011537729762494564,-0.025946253910660744,-0.06274265795946121,-0.05825210362672806,0.06963265687227249,-0.06509140133857727,0,-6,-1004,-57,70,-65,20,21,-147,55816.0
01:59:39.310,AUTO,-35.3632634,149.1652361,11028,-0.011537729762494564,-0.025946253910660744,-0.06274265795946121,-0.05825210362672806,0.06963265687227249,-0.06509140133857727,0,-6,-1004,-57,70,-65,20,21,-147,55816.0
01:59:39.512,AUTO,-35.3632634,149.1652361,11028,-0.011537729762494564,-0.025946253910660744,-0.06274265795946121,-0.05825210362672806,0.06963265687227249,-0.06509140133857727,0,-6,-1004,-57,70,-65,20,21,-147,55816.0
01:59:39.713,AUTO,-35.3632634,149.1652361,11028,-0.011537729762494564,-0.025946253910660744,-0.06274265795946121,-0.05825210362672806,0.06963265687227249,-0.06509140133857727,0,-6,-1004,-57,70,-65,20,21,-147,55816.0
01:59:39.915,AUTO,-35.3632619,149.1652369,12186,-0.022734038531780243,0.00607681879773736,-0.11450093984603882,0.014369554817676544,0.02906407043337822,-0.06173001974821091,-4,-4,-1003,14,29,-62,22,0,-150,55816.0
01:59:40.121,AUTO,-35.3632614,149.1652369,12575,-0.017661193385720253,0.011762402951717377,-0.12932583689689636,0.02509751170873642,0.021202445030212402,-0.05011391639709473,-4,-2,-1002,25,21,-50,19,-6,-151,55816.0
01:59:40.459,AUTO,-35.363261,149.1652367,12965,-0.010757827199995518,0.015864279121160507,-0.14138835668563843,0.03135057911276817,0.014845481142401695,-0.03952537849545479,-6,-1,-1001,32,15,-39,14,-10,-151,55816.0
01:59:40.677,AUTO,-35.3632607,149.1652363,13354,-0.003532698145136237,0.018139062449336052,-0.1500944048166275,0.030511658638715744,0.006625930778682232,-0.028229970484972,-4,0,-1001,31,7,-28,9,-12,-151,55816.0
01:59:40.897,AUTO,-35.3632605,149.165236,13744,0.0031272522173821926,0.01925732009112835,-0.15624438226222992,0.02607894316315651,0.0031416118144989014,-0.018801946192979813,-4,0,-1000,26,3,-19,4,-11,-151,55816.0
01:59:41.129,AUTO,-35.3632604,149.1652357,14143,0.009073980152606964,0.01881161890923977,-0.15972764790058136,0.020741600543260574,-0.0034059416502714157,-0.008775820024311543,-2,1,-999,21,-3,-9,0,-9,-151,55816.0
01:59:41.331,AUTO,-35.3632604,149.1652357,14143,0.009073980152606964,0.01881161890923977,-0.15972764790058136,0.020741600543260574,-0.0034059416502714157,-0.008775820024311543,-2,1,-999,21,-3,-9,0,-9,-151,55816.0
01:59:41.533,AUTO,-35.3632604,149.1652357,14143,0.009073980152606964,0.01881161890923977,-0.15972764790058136,0.020741600543260574,-0.0034059416502714157,-0.008775820024311543,-2,1,-999,21,-3,-9,0,-9,-151,55816.0
01:59:41.736,AUTO,-35.3632604,149.1652357,14143,0.009073980152606964,0.01881161890923977,-0.15972764790058136,0.020741600543260574,-0.0034059416502714157,-0.008775820024311543,-2,1,-999,21,-3,-9,0,-9,-151,70979.0
01:59:41.937,AUTO,-35.3632605,149.1652351,15303,0.014439227990806103,0.012811663560569286,-0.16143155097961426,-0.002457144670188427,-0.009054877795279026,-0.0004890907439403236,0,1,-999,-1,-8,0,-8,0,-151,70979.0
01:59:42.139,AUTO,-35.3632607,149.1652351,15692,0.013249152339994907,0.010294362902641296,-0.16140876710414886,-0.006948156747967005,-0.010292960330843925,0.001265642000362277,1,1,-999,-6,-9,1,-10,3,-150,70979.0
01:59:42.341,AUTO,-35.3632607,149.1652351,15692,0.013249152339994907,0.010294362902641296,-0.16140876710414886,-0.006948156747967005,-0.010292960330843925,0.001265642000362277,1,1,-999,-6,-9,1,-10,3,-150,70979.0
01:59:42.542,AUTO,-35.3632609,149.1652351,16080,0.010754212737083435,0.007475349120795727,-0.16155043244361877,-0.012570471502840519,-0.010849030688405037,-0.0006693399627692997,1,0,-999,-11,-10,-1,-10,5,-150,70979.0
01:59:42.744,AUTO,-35.3632611,149.1652352,16468,0.008250448852777481,0.004879292566329241,-0.1623367816209793,-0.009728079661726952,-0.009873934090137482,-0.004579219967126846,1,0,-1000,-8,-9,-4,-10,7,-150,70979.0
01:59:42.946,AUTO,-35.3632613,149.1652354,16857,0.005748717114329338,0.0029389197006821632,-0.1642746925354004,-0.006219183094799519,-0.004601130727678537,-0.012842749245464802,2,0,-1000,-5,-4,-13,-10,8,-151,70979.0
01:59:43.147,AUTO,-35.3632615,149.1652356,17245,0.004162235651165247,0.001709152478724718,-0.16720375418663025,-0.004988450091332197,-0.004092433024197817,-0.013386051170527935,2,0,-1000,-4,-3,-13,-9,8,-151,70979.0
01:59:43.356,AUTO,-35.3632615,149.1652356,17245,0.004162235651165247,0.001709152478724718,-0.16720375418663025,-0.004988450091332197,-0.004092433024197817,-0.013386051170527935,2,0,-1000,-4,-3,-13,-9,8,-151,70979.0
01:59:43.558,AUTO,-35.3632615,149.1652356,17245,0.004162235651165247,0.001709152478724718,-0.16720375418663025,-0.004988450091332197,-0.004092433024197817,-0.013386051170527935,2,0,-1000,-4,-3,-13,-9,8,-151,70979.0
01:59:43.760,AUTO,-35.3632615,149.1652356,17245,0.004162235651165247,0.001709152478724718,-0.16720375418663025,-0.004988450091332197,-0.004092433024197817,-0.013386051170527935,2,0,-1000,-4,-3,-13,-9,8,-151,70979.0
01:59:43.962,AUTO,-35.3632619,149.165236,18412,0.0008855394553393126,-0.0008552765939384699,-0.1800236999988556,0.00041156262159347534,-0.000976604875177145,-0.02004372887313366,1,0,-1000,1,0,-20,-6,7,-151,70979.0
01:59:44.163,AUTO,-35.3632619,149.1652361,18800,0.0008223539334721863,-0.0008690680260770023,-0.1856256127357483,0.0008813335443846881,0.0009147459059022367,-0.024178439751267433,1,0,-1000,1,1,-24,-4,6,-151,70979.0
01:59:44.365,AUTO,-35.363262,149.1652362,19190,0.0008620593580417335,-0.0008870469173416495,-0.1912621110677719,0.00148996792268008,-0.0006824639858677983,-0.022055398672819138,0,0,-1000,2,0,-22,-3,5,-151,70979.0
01:59:44.566,AUTO,-35.363262,149.1652362,19190,0.0008620593580417335,-0.0008870469173416495,-0.1912621110677719,0.00148996792268008,-0.0006824639858677983,-0.022055398672819138,0,0,-1000,2,0,-22,-3,5,-151,70979.0
01:59:44.779,AUTO,-35.3632621,149.1652363,19580,0.0011411493178457022,-0.0005639645387418568,-0.19727912545204163,0.001269579865038395,0.002069106325507164,-0.02273614890873432,0,0,-1000,1,2,-23,-3,4,-151,70979.0
01:59:45.024,AUTO,-35.3632621,149.1652363,19969,0.0015073944814503193,-7.545488642790588e-06,-0.2035118043422699,0.004086941480636597,0.0025354139506816864,-0.026257619261741638,0,0,-1000,4,3,-26,-2,3,-151,70979.0
01:59:45.272,AUTO,-35.3632621,149.1652364,20359,0.0021694654133170843,0.0007946919649839401,-0.20994065701961517,0.003641915274783969,0.004581477027386427,-0.026057012379169464,0,0,-1000,4,5,-26,-1,3,-151,70979.0
01:59:45.501,AUTO,-35.3632621,149.1652364,20359,0.0021694654133170843,0.0007946919649839401,-0.20994065701961517,0.003641915274783969,0.004581477027386427,-0.026057012379169464,0,0,-1000,4,5,-26,-1,3,-151,70979.0
01:59:45.721,AUTO,-35.3632621,149.1652364,20359,0.0021694654133170843,0.0007946919649839401,-0.20994065701961517,0.003641915274783969,0.004581477027386427,-0.026057012379169464,0,0,-1000,4,5,-26,-1,3,-151,70979.0
01:59:45.924,AUTO,-35.3632621,149.1652365,21528,0.003035282250493765,0.0023406511172652245,-0.22798655927181244,0.00018738314975053072,0.0032479572109878063,-0.02403075620532036,0,0,-1000,0,4,-24,0,2,-151,70979.0
01:59:46.126,AUTO,-35.3632621,149.1652365,21918,0.0034023954067379236,0.0030117505230009556,-0.233777716755867,0.0022098165936768055,0.0018661711364984512,-0.02210140787065029,0,0,-1000,3,2,-22,0,2,-152,70979.0
01:59:46.327,AUTO,-35.3632621,149.1652365,21918,0.0034023954067379236,0.0030117505230009556,-0.233777716755867,0.0022098165936768055,0.0018661711364984512,-0.02210140787065029,0,0,-1000,3,2,-22,0,2,-152,8396.0
01:59:46.529,AUTO,-35.3632621,149.1652365,22307,0.003813080722466111,0.00328506319783628,-0.23921918869018555,0.002226494252681732,0.0012820286210626364,-0.02127951756119728,0,0,-1000,2,2,-21,-1,2,-152,8396.0
01:59:46.730,AUTO,-35.3632621,149.1652365,22696,0.003930213395506144,0.003575821639969945,-0.24450898170471191,0.0008901463588699698,0.00014489446766674519,-0.02054741606116295,0,0,-1000,1,1,-21,-1,3,-152,8396.0
01:59:46.932,AUTO,-35.3632621,149.1652365,23094,0.003860783763229847,0.0037026407662779093,-0.2497684359550476,0.0005099519621580839,0.0015675828326493502,-0.020549383014440536,0,0,-1000,1,2,-20,-1,3,-152,8396.0
01:59:47.134,AUTO,-35.3632621,149.1652366,23484,0.003716349368914962,0.0033948689233511686,-0.25433769822120667,-0.0002622596803121269,-0.0013741665752604604,-0.016850819811224937,0,0,-1000,0,0,-17,-1,3,-152,8396.0
01:59:47.335,AUTO,-35.3632621,149.1652366,23484,0.003716349368914962,0.0033948689233511686,-0.25433769822120667,-0.0002622596803121269,-0.0013741665752604604,-0.016850819811224937,0,0,-1000,0,0,-17,-1,3,-152,8396.0
01:59:47.537,AUTO,-35.3632621,149.1652366,23484,0.003716349368914962,0.0033948689233511686,-0.25433769822120667,-0.0002622596803121269,-0.0013741665752604604,-0.016850819811224937,0,0,-1000,0,0,-17,-1,3,-152,8396.0
01:59:47.739,AUTO,-35.3632621,149.1652366,23484,0.003716349368914962,0.0033948689233511686,-0.25433769822120667,-0.0002622596803121269,-0.0013741665752604604,-0.016850819811224937,0,0,-1000,0,0,-17,-1,3,-152,8396.0
01:59:47.940,AUTO,-35.3632621,149.1652367,24652,0.0028353433590382338,0.0028475073631852865,-0.2679850161075592,-0.0012131183175370097,0.001353060593828559,-0.019086511805653572,0,0,-1000,0,2,-19,-1,3,-152,8396.0
01:59:48.142,AUTO,-35.3632621,149.1652367,25041,-0.0028355049435049295,0.0035918427165597677,-0.2711796462535858,-0.08375263214111328,0.016082970425486565,0.0002765568788163364,0,0,-988,-82,17,0,-1,3,-151,8396.0
01:59:48.344,AUTO,-35.3632621,149.1652367,25041,-0.0028355049435049295,0.0035918427165597677,-0.2711796462535858,-0.08375263214111328,0.016082970425486565,0.0002765568788163364,0,0,-988,-82,17,0,-1,3,-151,8396.0
01:59:48.545,AUTO,-35.3632621,149.1652367,25426,-0.010044054128229618,0.006412822753190994,-0.26833105087280273,0.011179720051586628,0.004636744968593121,0.014465494081377983,0,0,-1004,12,5,14,-2,1,-151,8396.0
01:59:48.747,AUTO,-35.3632621,149.1652367,25814,-0.002811393467709422,0.006215982139110565,-0.2632874846458435,0.033255450427532196,-0.004845482762902975,0.02328641526401043,0,0,-1002,34,-4,22,-4,0,-152,8396.0
01:59:48.949,AUTO,-35.3632622,149.1652367,26203,0.004633625503629446,0.004984707105904818,-0.25683343410491943,0.024584505707025528,-0.0030484534800052643,0.02748189866542816,0,1,-1000,25,-2,27,-5,0,-152,8396.0
01:59:49.151,AUTO,-35.3632622,149.1652367,26592,0.009090987965464592,0.003890370484441519,-0.24961696565151215,0.014078457839787006,-0.0026550102047622204,0.026271287351846695,0,0,-1000,14,-1,26,-5,0,-152,8396.0
01:59:49.354,AUTO,-35.3632622,149.1652367,26592,0.009090987965464592,0.003890370484441519,-0.24961696565151215,0.014078457839787006,-0.0026550102047622204,0.026271287351846695,0,0,-1000,14,-1,26,-5,0,-152,8396.0
01:59:49.560,AUTO,-35.3632622,149.1652367,26592,0.009090987965464592,0.003890370484441519,-0.24961696565151215,0.014078457839787006,-0.0026550102047622204,0.026271287351846695,0,0,-1000,14,-1,26,-5,0,-152,8396.0
01:59:49.763,AUTO,-35.3632622,149.1652367,26592,0.009090987965464592,0.003890370484441519,-0.24961696565151215,0.014078457839787006,-0.0026550102047622204,0.026271287351846695,0,0,-1000,14,-1,26,-5,0,-152,8396.0
01:59:49.966,AUTO,-35.3632624,149.1652367,27759,0.009477527812123299,0.0015486119082197547,-0.2295490950345993,-0.002890466246753931,0.00022577756317332387,0.024333596229553223,1,0,-1000,-2,1,23,-3,6,-151,8396.0
01:59:50.167,AUTO,-35.3632624,149.1652369,28147,0.007824788801372051,0.0015294102486222982,-0.2237539142370224,-0.007355724461376667,0.0015652172733098269,0.023166490718722343,0,0,-999,-6,2,22,-2,7,-151,8396.0
01:59:50.371,AUTO,-35.3632624,149.165237,28535,0.0060178120620548725,0.0014119879342615604,-0.21845901012420654,-0.004593442659825087,0.00020895112538710237,0.021233104169368744,0,0,-1000,-3,1,21,-1,8,-151,8396.0
01:59:50.607,AUTO,-35.3632624,149.165237,28535,0.0060178120620548725,0.0014119879342615604,-0.21845901012420654,-0.004593442659825087,0.00020895112538710237,0.021233104169368744,0,0,-1000,-3,1,21,-1,8,-151,8396.0
01:59:50.814,AUTO,-35.3632624,149.1652372,28921,-0.0006242359522730112,0.005485036876052618,-0.2043273001909256,-0.06854800134897232,0.0580255426466465,0.13904547691345215,0,-1,-974,-67,58,138,-1,8,-149,8396.0
01:59:51.109,AUTO,-35.3632624,149.1652373,29293,-0.026496954262256622,0.03191171586513519,-0.13521777093410492,-0.12960468232631683,0.12141506373882294,0.4053354263305664,0,-2,-971,-128,122,404,-5,5,-142,8396.0
01:59:51.341,AUTO,-35.3632626,149.1652373,29649,-0.05778135359287262,0.06704369187355042,0.0010815648129209876,-0.1466454714536667,0.08979957550764084,0.6235882043838501,2,0,-973,-145,90,623,-17,-4,-135,8396.0
01:59:51.543,AUTO,-35.3632626,149.1652373,29649,-0.05778135359287262,0.06704369187355042,0.0010815648129209876,-0.1466454714536667,0.08979957550764084,0.6235882043838501,2,0,-973,-145,90,623,-17,-4,-135,8396.0
01:59:51.745,AUTO,-35.3632626,149.1652373,29649,-0.05778135359287262,0.06704369187355042,0.0010815648129209876,-0.1466454714536667,0.08979957550764084,0.6235882043838501,2,0,-973,-145,90,623,-17,-4,-135,8396.0
01:59:51.949,AUTO,-35.3632648,149.1652351,30623,0.007999376393854618,-0.03966075927019119,0.1649884730577469,0.0527169443666935,-0.07594475895166397,-0.02309810183942318,2,6,-956,53,-75,-23,-26,-28,-90,8396.0
01:59:52.151,AUTO,-35.3632648,149.1652351,30623,0.007999376393854618,-0.03966075927019119,0.1649884730577469,0.0527169443666935,-0.07594475895166397,-0.02309810183942318,2,6,-956,53,-75,-23,-26,-28,-90,74028.0
01:59:52.353,AUTO,-35.3632652,149.1652344,30842,0.026874424889683723,-0.05008590221405029,0.15557798743247986,0.08113905787467957,-0.02000558376312256,-0.04110492393374443,1,8,-962,82,-18,-41,-15,-20,-80,74028.0
01:59:52.554,AUTO,-35.3632655,149.1652339,31036,0.038437068462371826,-0.05031507834792137,0.14484097063541412,0.058349497616291046,0.010821406729519367,-0.03948086127638817,0,3,-968,59,11,-39,-4,-10,-71,74028.0
01:59:52.756,AUTO,-35.3632655,149.1652337,31209,0.037823114544153214,-0.04437397047877312,0.13596592843532562,-0.16193917393684387,0.02991066686809063,-0.03057996742427349,-1,-4,-972,-161,30,-30,5,0,-63,74028.0
01:59:52.958,AUTO,-35.3632652,149.1652338,31363,0.040419358760118484,-0.035406291484832764,0.12961536645889282,0.2533639669418335,0.037021588534116745,-0.018500344827771187,-2,14,-977,254,37,-18,13,10,-57,74028.0
01:59:53.160,AUTO,-35.3632652,149.1652338,31363,0.040419358760118484,-0.035406291484832764,0.12961536645889282,0.2533639669418335,0.037021588534116745,-0.018500344827771187,-2,14,-977,254,37,-18,13,10,-57,74028.0
01:59:53.362,AUTO,-35.363265,149.165234,31499,0.03888879343867302,-0.025647619739174843,0.12457340210676193,0.10240106284618378,0.037319060415029526,-0.018346384167671204,-2,-13,-973,102,38,-18,19,17,-50,74028.0
01:59:53.564,AUTO,-35.363265,149.165234,31499,0.03888879343867302,-0.025647619739174843,0.12457340210676193,0.10240106284618378,0.037319060415029526,-0.018346384167671204,-2,-13,-973,102,38,-18,19,17,-50,74028.0
01:59:53.766,AUTO,-35.363265,149.165234,31499,0.03888879343867302,-0.025647619739174843,0.12457340210676193,0.10240106284618378,0.037319060415029526,-0.018346384167671204,-2,-13,-973,102,38,-18,19,17,-50,74028.0
01:59:53.968,AUTO,-35.3632633,149.1652357,31816,0.012150410562753677,0.003097919514402747,0.11589270085096359,0.11508040130138397,0.02769656851887703,-0.0003484969784040004,-2,15,-987,116,28,0,24,28,-35,74028.0
01:59:54.170,AUTO,-35.3632633,149.1652357,31816,0.012150410562753677,0.003097919514402747,0.11589270085096359,0.11508040130138397,0.02769656851887703,-0.0003484969784040004,-2,15,-987,116,28,0,24,28,-35,74028.0
01:59:54.372,AUTO,-35.3632628,149.1652364,31898,0.017036328092217445,0.009033982641994953,0.11408686637878418,0.6208621859550476,0.01586521603167057,-0.007405454758554697,-1,17,-993,622,16,-7,22,27,-30,74028.0
01:59:54.573,AUTO,-35.3632623,149.1652371,31966,0.010141967795789242,0.012902412563562393,0.1117367371916771,0.1312316656112671,0.014608903788030148,-0.010624030604958534,-1,-18,-979,131,15,-10,20,24,-23,74028.0
01:59:54.775,AUTO,-35.3632618,149.1652378,32018,-0.004488795064389706,0.01582546904683113,0.10957583785057068,-0.5503325462341309,0.01115232240408659,-0.007716939318925142,-1,-41,-973,-550,12,-7,16,21,-18,74028.0
01:59:55.004,AUTO,-35.3632614,149.1652384,32054,-0.017059220001101494,0.017183607444167137,0.10700050741434097,-0.6308985352516174,0.0019243836868554354,-0.011098681017756462,-1,-24,-971,-629,2,-11,13,19,-11,74028.0
01:59:55.267,AUTO,-35.3632612,149.1652389,32071,-0.027122851461172104,0.016794495284557343,0.1049901619553566,-0.6716484427452087,-0.002498938702046871,-0.00878022238612175,0,-8,-938,-670,-1,-8,9,15,-1,74028.0
01:59:55.488,AUTO,-35.3632612,149.1652389,32071,-0.027122851461172104,0.016794495284557343,0.1049901619553566,-0.6716484427452087,-0.002498938702046871,-0.00878022238612175,0,-8,-938,-670,-1,-8,9,15,-1,74028.0
01:59:55.779,AUTO,-35.3632612,149.1652389,32071,-0.027122851461172104,0.016794495284557343,0.1049901619553566,-0.6716484427452087,-0.002498938702046871,-0.00878022238612175,0,-8,-938,-670,-1,-8,9,15,-1,74028.0
01:59:56.055,AUTO,-35.3632611,149.1652395,31990,-0.04351917281746864,0.03190576285123825,0.0956459566950798,-0.2687411904335022,-0.0315164290368557,-0.002924705855548382,2,8,-1008,-266,-30,-2,-10,-13,11,74028.0
01:59:56.268,AUTO,-35.3632613,149.1652395,31963,-0.034067340195178986,0.024964287877082825,0.09364607185125351,0.36558642983436584,-0.025997625663876534,0.008431131951510906,4,41,-1010,367,-24,8,-15,-18,6,74028.0
01:59:56.469,AUTO,-35.3632618,149.1652394,31945,-0.030858587473630905,0.019704286009073257,0.08982709050178528,0.5497581958770752,-0.017437588423490524,0.0010743661550804973,4,46,-1027,551,-16,0,-18,-23,4,74028.0
01:59:56.671,AUTO,-35.3632618,149.1652394,31945,-0.030858587473630905,0.019704286009073257,0.08982709050178528,0.5497581958770752,-0.017437588423490524,0.0010743661550804973,4,46,-1027,551,-16,0,-18,-23,4,74028.0
01:59:56.873,AUTO,-35.3632623,149.1652393,31941,-0.030116762965917587,0.015021393075585365,0.08545465767383575,0.6152222156524658,-0.020193662494421005,0.007870693691074848,6,24,-1023,615,-19,7,-21,-29,-2,66119.0
01:59:57.074,AUTO,-35.3632629,149.1652391,31945,-0.04202958941459656,0.013381607830524445,0.082191102206707,-0.02595961093902588,-0.0016165063716471195,0.008463036268949509,5,-16,-1013,-26,0,8,-22,-35,-5,66119.0
01:59:57.276,AUTO,-35.3632635,149.1652388,31961,-0.05757170543074608,0.01482322160154581,0.08000664412975311,-0.652039647102356,0.011227095499634743,0.01731077954173088,5,-23,-1010,-651,12,17,-24,-42,-9,66119.0
01:59:57.478,AUTO,-35.3632635,149.1652388,31961,-0.05757170543074608,0.01482322160154581,0.08000664412975311,-0.652039647102356,0.011227095499634743,0.01731077954173088,5,-23,-1010,-651,12,17,-24,-42,-9,66119.0
01:59:57.681,AUTO,-35.3632635,149.1652388,31961,-0.05757170543074608,0.01482322160154581,0.08000664412975311,-0.652039647102356,0.011227095499634743,0.01731077954173088,5,-23,-1010,-651,12,17,-24,-42,-9,66119.0
01:59:57.883,AUTO,-35.3632635,149.1652388,31961,-0.05757170543074608,0.01482322160154581,0.08000664412975311,-0.652039647102356,0.011227095499634743,0.01731077954173088,5,-23,-1010,-651,12,17,-24,-42,-9,66119.0
01:59:58.085,AUTO,-35.3632659,149.1652367,32065,-0.07682588696479797,0.03457338362932205,0.031306806951761246,0.5331167578697205,-0.006484969984740019,-0.38766059279441833,6,35,-1036,533,-5,-387,-38,-71,-23,66119.0
01:59:58.286,AUTO,-35.3632669,149.1652355,32128,-0.083594910800457,0.02547803893685341,-0.13666796684265137,0.2368249148130417,-0.008497191593050957,-0.7909841537475586,3,14,-1012,236,-7,-791,-46,-84,-28,66119.0
01:59:58.488,AUTO,-35.3632682,149.1652339,32205,-0.10287753492593765,0.0064026894979178905,-0.3501947224140167,-0.32250383496284485,-0.004005494527518749,-0.8469654321670532,-1,-2,-1025,-322,-3,-846,-56,-98,-34,66119.0
01:59:58.690,AUTO,-35.3632682,149.1652339,32205,-0.10287753492593765,0.0064026894979178905,-0.3501947224140167,-0.32250383496284485,-0.004005494527518749,-0.8469654321670532,-1,-2,-1025,-322,-3,-846,-56,-98,-34,66119.0
01:59:58.892,AUTO,-35.3632697,149.1652319,32300,-0.10709705948829651,-0.016783714294433594,-0.5625383853912354,-0.39810407161712646,-0.010667113587260246,-0.8084897398948669,-8,11,-1025,-397,-9,-808,-65,-111,-40,66119.0
01:59:59.095,AUTO,-35.3632713,149.1652297,32412,-0.08892902731895447,-0.039116933941841125,-0.7603729963302612,0.12942606210708618,0.004654560703784227,-0.7435884475708008,-11,40,-1032,129,5,-743,-73,-123,-47,66119.0
01:59:59.296,AUTO,-35.3632731,149.1652271,32540,-0.05928780138492584,-0.0490582138299942,-0.9443337917327881,0.4042626917362213,0.01665758155286312,-0.7100092172622681,-19,34,-1024,404,17,-709,-80,-132,-53,66119.0
01:59:59.498,AUTO,-35.3632731,149.1652271,32540,-0.05928780138492584,-0.0490582138299942,-0.9443337917327881,0.4042626917362213,0.01665758155286312,-0.7100092172622681,-19,34,-1024,404,17,-709,-80,-132,-53,66119.0
01:59:59.700,AUTO,-35.3632731,149.1652271,32540,-0.05928780138492584,-0.0490582138299942,-0.9443337917327881,0.4042626917362213,0.01665758155286312,-0.7100092172622681,-19,34,-1024,404,17,-709,-80,-132,-53,66119.0
01:59:59.902,AUTO,-35.3632731,149.1652271,32540,-0.05928780138492584,-0.0490582138299942,-0.9443337917327881,0.4042626917362213,0.01665758155286312,-0.7100092172622681,-19,34,-1024,404,17,-709,-80,-132,-53,66119.0
02:00:00.104,AUTO,-35.3632789,149.1652185,32992,-0.013155950233340263,-0.05994255095720291,-1.4744549989700317,-0.02969050407409668,0.009828269481658936,-0.7182005047798157,-31,13,-1003,-29,10,-717,-87,-140,-62,66119.0
02:00:00.340,AUTO,-35.3632808,149.1652155,33155,0.009856702759861946,-0.05515971779823303,-1.653059720993042,0.3491784930229187,0.027474142611026764,-0.7326870560646057,-33,18,-1002,348,28,-732,-87,-140,-64,66119.0
02:00:00.554,AUTO,-35.3632828,149.1652125,33323,0.018372792750597,-0.04816807806491852,-1.8360096216201782,-0.19693447649478912,-0.0047787888906896114,-0.7331997156143188,-30,-18,-993,-197,-4,-732,-86,-138,-64,66119.0
02:00:00.799,AUTO,-35.3632846,149.1652095,33489,0.0238630548119545,-0.038843583315610886,-2.0161097049713135,-0.1850791871547699,0.014432596042752266,-0.7378561496734619,-31,-13,-994,-185,15,-737,-84,-135,-64,66119.0
02:00:01.060,AUTO,-35.3632864,149.1652065,33651,0.03317631408572197,-0.02631923370063305,-2.181821823120117,0.2853621542453766,0.030058981850743294,-0.5437008142471313,-29,0,-992,285,30,-543,-80,-131,-62,66119.0
02:00:01.274,AUTO,-35.3632881,149.1652036,33806,0.03481896221637726,-0.01567327231168747,-2.254042148590088,0.371407687664032,0.050188831984996796,-0.14013417065143585,-25,-6,-984,370,51,-139,-77,-125,-59,66119.0
02:00:01.477,AUTO,-35.3632881,149.1652036,33806,0.03481896221637726,-0.01567327231168747,-2.254042148590088,0.371407687664032,0.050188831984996796,-0.14013417065143585,-25,-6,-984,370,51,-139,-77,-125,-59,66119.0
02:00:01.679,AUTO,-35.3632881,149.1652036,33806,0.03481896221637726,-0.01567327231168747,-2.254042148590088,0.371407687664032,0.050188831984996796,-0.14013417065143585,-25,-6,-984,370,51,-139,-77,-125,-59,66119.0
02:00:01.884,AUTO,-35.3632881,149.1652036,33806,0.03481896221637726,-0.01567327231168747,-2.254042148590088,0.371407687664032,0.050188831984996796,-0.14013417065143585,-25,-6,-984,370,51,-139,-77,-125,-59,7456.0
02:00:02.086,AUTO,-35.3632929,149.1651954,34219,0.025487732142210007,0.012410538271069527,-2.2111754417419434,-0.27144795656204224,0.03419430926442146,0.04988430067896843,-21,-18,-979,-271,34,50,-63,-101,-47,7456.0
02:00:02.288,AUTO,-35.3632943,149.165193,34333,0.029691597446799278,0.022501584142446518,-2.202573299407959,0.34672102332115173,0.04163716733455658,0.00856392178684473,-20,11,-977,346,42,8,-55,-92,-42,7456.0
02:00:02.490,AUTO,-35.3632956,149.1651907,34433,0.03448167070746422,0.03164146468043327,-2.2010908126831055,0.4161515235900879,0.028367558494210243,-0.012003541924059391,-20,-7,-972,415,29,-11,-48,-81,-35,7456.0
02:00:02.692,AUTO,-35.3632956,149.1651907,34433,0.03448167070746422,0.03164146468043327,-2.2010908126831055,0.4161515235900879,0.028367558494210243,-0.012003541924059391,-20,-7,-972,415,29,-11,-48,-81,-35,7456.0
02:00:02.893,AUTO,-35.3632967,149.1651886,34516,0.028010329231619835,0.03843598812818527,-2.2028286457061768,-0.12660712003707886,0.02296648733317852,-0.014495514333248138,-16,-35,-983,-127,23,-14,-41,-69,-29,7456.0
02:00:03.095,AUTO,-35.3632977,149.1651869,34586,0.01921643130481243,0.04367754980921745,-2.2050180435180664,-0.5504077672958374,0.013292924501001835,-0.013200720772147179,-14,-41,-975,-551,14,-13,-33,-57,-23,7456.0
02:00:03.297,AUTO,-35.3632985,149.1651854,34639,0.017337942495942116,0.04897189885377884,-2.2072818279266357,-0.33927446603775024,0.020033398643136024,-0.009472917765378952,-11,-9,-985,-339,20,-9,-23,-46,-17,7456.0
02:00:03.499,AUTO,-35.3632985,149.1651854,34639,0.017337942495942116,0.04897189885377884,-2.2072818279266357,-0.33927446603775024,0.020033398643136024,-0.009472917765378952,-11,-9,-985,-339,20,-9,-23,-46,-17,7456.0
02:00:03.702,AUTO,-35.3632985,149.1651854,34639,0.017337942495942116,0.04897189885377884,-2.2072818279266357,-0.33927446603775024,0.020033398643136024,-0.009472917765378952,-11,-9,-985,-339,20,-9,-23,-46,-17,7456.0
02:00:03.905,AUTO,-35.3632985,149.1651854,34639,0.017337942495942116,0.04897189885377884,-2.2072818279266357,-0.33927446603775024,0.020033398643136024,-0.009472917765378952,-11,-9,-985,-339,20,-9,-23,-46,-17,7456.0
02:00:04.108,AUTO,-35.3632995,149.1651828,34702,0.019656743854284286,0.04548199474811554,-2.210979461669922,0.6899149417877197,-0.1006268709897995,-0.008010948076844215,-2,31,-1021,689,-100,-7,3,-12,0,7456.0
02:00:04.310,AUTO,-35.3632997,149.1651823,34700,0.016439273953437805,0.016769912093877792,-2.210963726043701,0.3340738117694855,-0.09195219725370407,0.006024572532624006,0,-1,-1001,332,-91,6,5,-5,2,7456.0
02:00:04.511,AUTO,-35.3632997,149.1651822,34691,0.004914822522550821,1.7286838556174189e-06,-2.211735725402832,-0.45114070177078247,-0.041066382080316544,-0.008568020537495613,0,-31,-999,-452,-40,-8,5,-3,3,7456.0
02:00:04.718,AUTO,-35.3632997,149.1651822,34691,0.004914822522550821,1.7286838556174189e-06,-2.211735725402832,-0.45114070177078247,-0.041066382080316544,-0.008568020537495613,0,-31,-999,-452,-40,-8,5,-3,3,7456.0
02:00:04.967,AUTO,-35.3632997,149.1651819,34670,-0.0037104857619851828,-0.015032490715384483,-2.2140657901763916,-0.6483839154243469,-0.0801529809832573,-0.024217898026108742,-1,-13,-998,-648,-79,-24,1,-4,3,7456.0
02:00:05.217,AUTO,-35.3632999,149.1651817,34662,0.0013670785119757056,-0.04462994635105133,-2.2159504890441895,-0.27567049860954285,-0.13874749839305878,-0.02375720627605915,-1,-13,-998,-648,-79,-24,-3,-8,1,7456.0
02:00:05.435,AUTO,-35.3632999,149.1651817,34662,0.0013670785119757056,-0.04462994635105133,-2.2159504890441895,-0.27567049860954285,-0.13874749839305878,-0.02375720627605915,-3,0,-1014,-275,-137,-23,-3,-8,1,7456.0
02:00:05.691,AUTO,-35.3632999,149.1651817,34662,0.0013670785119757056,-0.04462994635105133,-2.2159504890441895,-0.27567049860954285,-0.13874749839305878,-0.02375720627605915,-3,0,-1014,-275,-137,-23,-3,-8,1,7456.0
02:00:05.898,AUTO,-35.3632999,149.1651817,34662,0.0013670785119757056,-0.04462994635105133,-2.2159504890441895,-0.27567049860954285,-0.13874749839305878,-0.02375720627605915,-3,0,-1014,-275,-137,-23,-3,-8,1,7456.0
02:00:06.100,AUTO,-35.3633017,149.1651791,34718,0.01589551940560341,-0.10772176086902618,-2.2190637588500977,0.4951302707195282,0.04179741069674492,-0.004069123417139053,-16,8,-1064,494,42,-3,-43,-53,-19,7456.0
02:00:06.303,AUTO,-35.363303,149.1651773,34780,0.012442057020962238,-0.09266439825296402,-2.220745086669922,-0.09622140228748322,0.0520157627761364,-0.012845312245190144,-20,-26,-1033,-97,53,-12,-58,-68,-29,7456.0
02:00:06.504,AUTO,-35.3633045,149.1651752,34863,0.006615990772843361,-0.08166832476854324,-2.222032070159912,-0.35063013434410095,0.038541290909051895,-0.0032389964908361435,-23,-30,-1038,-351,39,-2,-70,-80,-37,152214.0
02:00:06.706,AUTO,-35.3633062,149.1651727,34966,0.015985216945409775,-0.07623180001974106,-2.2229347229003906,0.11213500797748566,0.01069450844079256,-0.008589343167841434,-25,-3,-1026,112,11,-8,-80,-91,-44,152214.0
02:00:06.908,AUTO,-35.3633062,149.1651727,34966,0.015985216945409775,-0.07623180001974106,-2.2229347229003906,0.11213500797748566,0.01069450844079256,-0.008589343167841434,-25,-3,-1026,112,11,-8,-80,-91,-44,152214.0
02:00:07.110,AUTO,-35.3633081,149.16517,35086,0.02547943778336048,-0.05643490329384804,-2.2237634658813477,0.34872135519981384,0.13966596126556396,-0.007153010461479425,-27,-3,-1031,348,140,-7,-87,-98,-51,152214.0
02:00:07.312,AUTO,-35.3633102,149.1651671,35222,0.026986101642251015,-0.016031980514526367,-2.2243545055389404,-0.07015816867351532,0.1572260856628418,-0.020162174478173256,-26,-30,-1012,-71,158,-20,-88,-100,-56,152214.0
02:00:07.514,AUTO,-35.3633102,149.1651671,35222,0.026986101642251015,-0.016031980514526367,-2.2243545055389404,-0.07015816867351532,0.1572260856628418,-0.020162174478173256,-26,-30,-1012,-71,158,-20,-88,-100,-56,152214.0
02:00:07.716,AUTO,-35.3633102,149.1651671,35222,0.026986101642251015,-0.016031980514526367,-2.2243545055389404,-0.07015816867351532,0.1572260856628418,-0.020162174478173256,-26,-30,-1012,-71,158,-20,-88,-100,-56,152214.0
02:00:07.918,AUTO,-35.3633102,149.1651671,35222,0.026986101642251015,-0.016031980514526367,-2.2243545055389404,-0.07015816867351532,0.1572260856628418,-0.020162174478173256,-26,-30,-1012,-71,158,-20,-88,-100,-56,152214.0
02:00:08.120,AUTO,-35.3633155,149.1651595,35652,0.03671550750732422,0.08107369393110275,-2.2257027626037598,0.38563376665115356,0.1118040606379509,-0.010178818367421627,-20,4,-980,384,112,-10,-58,-67,-51,152214.0
02:00:08.321,AUTO,-35.3633167,149.1651577,35773,0.02797357179224491,0.10839883238077164,-2.2257351875305176,-0.2792212963104248,0.09973297268152237,0.003018345683813095,-14,-33,-960,-280,100,3,-41,-47,-42,152214.0
02:00:08.523,AUTO,-35.3633175,149.1651565,35867,0.017973272129893303,0.10908669233322144,-2.226591110229492,-0.5157506465911865,-0.06333865970373154,-0.002639493439346552,-8,-25,-968,-516,-62,-2,-21,-26,-31,152214.0
02:00:08.726,AUTO,-35.3633178,149.1651559,35934,0.016276037320494652,0.08827043324708939,-2.226538896560669,0.022931905463337898,-0.07724471390247345,-0.007422712631523609,-4,11,-958,23,-76,-7,-4,-9,-20,152214.0
02:00:08.928,AUTO,-35.3633178,149.1651559,35934,0.016276037320494652,0.08827043324708939,-2.226538896560669,0.022931905463337898,-0.07724471390247345,-0.007422712631523609,-4,11,-958,23,-76,-7,-4,-9,-20,152214.0
02:00:09.130,AUTO,-35.3633177,149.1651556,35977,0.022013427689671516,0.07110971212387085,-2.2274820804595947,0.5627006888389587,-0.05647292733192444,0.0007095840992406011,0,33,-967,562,-55,0,8,3,-11,152214.0
02:00:09.332,AUTO,-35.3633174,149.1651557,35995,0.01600043848156929,0.04038592800498009,-2.2287588119506836,0.3453119993209839,-0.16542981564998627,0.021242478862404823,6,-2,-980,343,-164,21,16,13,-2,152214.0
02:00:09.534,AUTO,-35.3633174,149.1651557,35995,0.01600043848156929,0.04038592800498009,-2.2287588119506836,0.3453119993209839,-0.16542981564998627,0.021242478862404823,6,-2,-980,343,-164,21,16,13,-2,152214.0
02:00:09.736,AUTO,-35.3633174,149.1651557,35995,0.01600043848156929,0.04038592800498009,-2.2287588119506836,0.3453119993209839,-0.16542981564998627,0.021242478862404823,6,-2,-980,343,-164,21,16,13,-2,152214.0
02:00:09.938,AUTO,-35.3633174,149.1651557,35995,0.01600043848156929,0.04038592800498009,-2.2287588119506836,0.3453119993209839,-0.16542981564998627,0.021242478862404823,6,-2,-980,343,-164,21,16,13,-2,152214.0
02:00:10.140,AUTO,-35.3633165,149.1651564,35984,-0.01140515971928835,-0.028591280803084373,-2.229966402053833,-0.7195729613304138,-0.014866339042782784,-0.0037632337771356106,2,-19,-988,-720,-13,-3,8,10,4,152214.0
02:00:10.387,AUTO,-35.3633164,149.1651565,35971,-0.007210486102849245,-0.02908025123178959,-2.230674982070923,-0.08295878767967224,0.009923195466399193,0.0028332152869552374,0,18,-994,-82,10,2,2,5,5,152214.0
02:00:10.647,AUTO,-35.3633164,149.1651566,35960,0.0049034045077860355,-0.02878125198185444,-2.2317702770233154,0.6441423892974854,-0.04602498188614845,-0.015619264915585518,-1,39,-1007,644,-45,-15,-2,1,3,152214.0
02:00:10.958,AUTO,-35.3633165,149.1651566,35953,0.018912676721811295,-0.05850841477513313,-2.232166051864624,0.6105541586875916,-0.14236493408679962,0.008753065951168537,-2,11,-1021,609,-141,8,-10,-5,1,152214.0
02:00:11.257,AUTO,-35.3633176,149.1651557,35972,0.0108141228556633,-0.12345311045646667,-2.233701229095459,-0.23072707653045654,-0.10518426448106766,0.00814181100577116,-13,-30,-1036,-231,-104,8,-37,-37,-10,152214.0
02:00:11.481,AUTO,-35.3633176,149.1651557,35972,0.0108141228556633,-0.12345311045646667,-2.233701229095459,-0.23072707653045654,-0.10518426448106766,0.00814181100577116,-13,-30,-1036,-231,-104,8,-37,-37,-10,152214.0
02:00:11.684,AUTO,-35.3633176,149.1651557,35972,0.0108141228556633,-0.12345311045646667,-2.233701229095459,-0.23072707653045654,-0.10518426448106766,0.00814181100577116,-13,-30,-1036,-231,-104,8,-37,-37,-10,152214.0
02:00:11.886,AUTO,-35.3633176,149.1651557,35972,0.0108141228556633,-0.12345311045646667,-2.233701229095459,-0.23072707653045654,-0.10518426448106766,0.00814181100577116,-13,-30,-1036,-231,-104,8,-37,-37,-10,152214.0
02:00:12.092,AUTO,-35.3633221,149.1651507,36159,0.03090047836303711,-0.07345131784677505,-2.2384026050567627,0.2793833315372467,0.1829410344362259,0.012412946671247482,-24,7,-1029,279,183,12,-79,-89,-37,154957.0
02:00:12.294,AUTO,-35.363324,149.1651483,36262,0.04269794002175331,-0.019683485850691795,-2.239328384399414,0.2756497859954834,0.21736940741539001,-0.015308205969631672,-28,-10,-1018,274,218,-15,-81,-93,-43,154957.0
02:00:12.495,AUTO,-35.3633259,149.1651459,36376,0.03809823840856552,0.02804671786725521,-2.239408254623413,-0.36487841606140137,0.16772514581680298,-0.0054479241371154785,-25,-37,-1002,-365,168,-5,-74,-88,-45,154957.0
02:00:12.697,AUTO,-35.3633259,149.1651459,36376,0.03809823840856552,0.02804671786725521,-2.239408254623413,-0.36487841606140137,0.16772514581680298,-0.0054479241371154785,-25,-37,-1002,-365,168,-5,-74,-88,-45,154957.0
02:00:12.899,AUTO,-35.3633276,149.1651437,36492,0.036251384764909744,0.06595798581838608,-2.238905191421509,-0.24356842041015625,0.14735011756420135,0.011934353969991207,-22,-12,-986,-243,148,11,-60,-76,-43,154957.0
02:00:13.101,AUTO,-35.3633289,149.1651419,36597,0.041257020086050034,0.09818020462989807,-2.238340139389038,0.48569875955581665,0.12298602610826492,0.00047460716450586915,-15,11,-977,485,123,0,-42,-59,-37,154957.0
