time_stamp,MODE,xacc,yacc,zacc,xgyro,ygyro,zgyro,roll,pitch,yaw,rollspeed,pitchspeed,yawspeed,lat,lon,relative_alt,vx,vy,vz,RTL_ALT
09:39:06,STABILIZE,0.0,1.0,-1000.0,0.0,0.0,0.0,0.0011617253767326474,0.0015827985480427742,0.026192517951130867,0.0004006775270681828,0.0003077261208090931,0.0023884910624474287,-35.3632621,149.1652375,0.0,-1.0,2.0,1.0,1500.0
09:39:12,STABILIZE,0.0,2.0,-1000.0,0.0,0.0,0.0,-0.0010451646521687508,0.0009551637922413647,0.02316748909652233,0.00013152073370292783,0.0002490612387191504,0.0018065576441586018,-35.3632621,149.1652375,0.0,-1.0,1.0,2.0,1500.0
09:39:20,AUTO,0.0,1.5,-1000.0,0.5,1.0,1.0,-0.0005358565249480307,0.0009882100857794285,0.02138473279774189,0.00022109132260084152,0.00018170912517234683,0.001555328955873847,-35.3632622,149.1652375,2.5,-1.0,1.0,-0.5,136073.5
09:39:22,AUTO,0.0,1.5,-1000.0,0.0,1.0,0.5,-0.0001055734201145242,0.0012551623512990773,0.020953870378434658,0.00025390833616256714,0.0002378753270022571,0.0015228745178319514,-35.3632621,149.1652375,0.0,0.0,0.0,0.0,270647.0
09:39:23,AUTO,0.0,1.25,-1000.0,0.0,0.25,0.0,0.0001308639430135372,0.0015347460866905749,0.020663788076490164,0.00031645737180951983,0.0003028205392183736,0.0014944167050998658,-35.3632621,149.16523742500002,0.0,0.0,0.0,0.0,91903.0
09:39:24,AUTO,0.0,1.0,-1064.5,-1.5,3.0,0.0,0.001954166029463522,0.0009745772767928429,0.02038801647722721,-0.0023242161551024765,0.002962790400488302,0.0015272705350071192,-35.3632621,149.16523745,93.5,0.0,0.0,-35.0,91903.0
09:39:26,AUTO,0.0,-4.5,-1000.5,24.5,1.5,-12.0,0.048663996160030365,-0.005963341798633337,0.005743267480283976,0.02476013940759003,0.0008080312982201576,-0.011381983757019043,-35.363261800000004,149.1652387,2333.5,4.5,26.5,-146.5,144039.5
09:39:28,AUTO,2.0,-1.5,-1001.5,-1.5,-13.0,-17.5,-0.05550646781921387,0.001113644801080227,-0.08744300529360771,-0.0022330395877361298,-0.01413743628654629,-0.01729552331380546,-35.363261,149.1652459,5379.5,-2.5,1.5,-148.0,196176.0
09:39:29,AUTO,-5.5,9.0,-1001.75,61.0,7.75,0.75,-0.03449302422814071,-0.008546680328436196,-0.08970419876277447,0.060602798126637936,0.007660128365387209,0.0014445110864471644,-35.363261224999995,149.165243175,6915.75,-1.0,-50.75,-148.25,271491.0
09:39:30,AUTO,-5.5,10.5,-1003.5,64.5,11.5,3.5,0.02929187286645174,0.0034194389590993524,-0.08785375580191612,0.06445149518549442,0.011386062018573284,0.004257844295352697,-35.363261449999996,149.1652372,8464.0,-3.0,-44.5,-151.0,271491.0
09:39:32,AUTO,2.5,-3.0,-1002.0,-29.0,-4.5,-15.0,-0.004756447393447161,-0.0037277761148288846,-0.09180447086691856,-0.030191995669156313,-0.00529292513965629,-0.015247161034494638,-35.363262399999996,149.16523585,11562.5,-2.5,15.5,-149.0,241449.0
09:39:34,AUTO,-1.0,0.0,-1000.0,12.0,7.0,-19.0,0.004840101231820881,0.0030163484043441713,-0.1376214697957039,0.01221087435260415,0.0069942891132086515,-0.018759232945740223,-35.36326205,149.16523610000002,14677.5,3.0,-5.0,-151.5,211407.0
09:39:35,AUTO,-0.5,0.0,-999.75,1.0,1.0,-12.5,0.009874350856989622,0.006394719472154975,-0.15457619726657867,0.0005093454819871113,0.0007373735716100782,-0.012434212490916252,-35.363261725,149.165235575,16233.25,0.25,-0.25,-151.75,38905.0
09:39:36,AUTO,0.0,0.0,-1000.0,-2.0,0.0,-13.0,0.007305040722712874,0.005548609886318445,-0.16812121868133545,-0.003145000198855996,-0.0006840850110165775,-0.012833822052925825,-35.3632616,149.16523554999998,17790.5,-1.5,4.0,-152.0,38905.0
09:39:38,AUTO,0.5,8.0,-968.5,58.5,-11.5,188.0,-0.014923062175512314,0.009881186299026012,-0.021777339279651642,0.05798354046419263,-0.01196332648396492,0.18920069374144077,-35.3632626,149.16523395000002,20797.0,-22.0,-26.0,-128.5,73963.5
09:39:40,AUTO,0.5,-7.0,-975.5,-40.5,31.0,-2.0,0.029804726131260395,-0.012141579922172241,0.04925411194562912,-0.04165507107973099,0.03033886756747961,-0.0018577500595711172,-35.3632641,149.16523315,22686.5,13.5,34.0,-60.0,109022.0
09:39:41,AUTO,0.25,-8.75,-977.0,-17.5,12.25,-0.5,-0.002950072957901284,0.010846654186025262,0.046811316162347794,-0.01884339819662273,0.012112431926652789,-0.00019609733135439456,-35.363262524999996,149.16523694999998,23185.25,15.5,33.0,-36.75,97204.0
09:39:42,AUTO,1.0,2.0,-948.5,22.5,33.5,-4.5,-0.01965318527072668,0.01796072954311967,0.04311329312622547,0.022213671822100878,0.03263176715699956,-0.0045550246722996235,-35.363261449999996,149.16523945,23418.5,5.0,14.5,-8.5,97204.0
09:39:44,AUTO,8.5,8.0,-1018.0,234.5,2.5,330.0,0.08314945548772812,0.014777254313230515,0.09416340477764606,0.2330908477306366,0.0016158036887645721,0.3299071507062763,-35.363262649999996,149.16524105000002,23214.0,-21.5,40.5,4.5,66891.0
09:39:46,AUTO,-30.5,-30.0,-1010.5,372.5,-1.5,706.5,0.10356821119785309,-0.13800161704421043,1.3928279876708984,0.3718104213476181,-0.0024603726342320442,0.7075304687023163,-35.3632698,149.1652686,23202.5,-66.5,234.0,-2.0,36578.0
09:39:47,AUTO,-73.75,-40.5,-1005.0,14.25,-9.5,213.75,0.03293478395789862,-0.1827617958188057,1.9358343482017517,0.013377179391682148,-0.010813022148795426,0.21385523141361773,-35.363277475,149.165300075,23219.5,-100.5,346.0,-4.75,3253.0
09:39:48,AUTO,-96.0,-45.5,-1003.0,-30.0,9.0,-51.5,0.04654792137444019,-0.18194632977247238,1.9242078065872192,-0.03183718165382743,0.008214753121137619,-0.05182058579521254,-35.36328835,149.16534430000002,23263.0,-131.5,443.0,-8.0,3253.0
09:39:50,AUTO,-117.5,-70.5,-994.0,7.0,29.5,-2.5,0.06969359517097473,-0.139397531747818,1.9095683097839355,0.006054080091416836,0.028682058211416006,-0.0026103389100171626,-35.36331635,149.16545680000002,23479.5,-172.0,548.5,-12.0,84820.0
09:39:52,AUTO,-124.0,-70.5,-994.0,34.0,25.5,-2.0,0.0715431272983551,-0.09302576258778572,1.9055134654045105,0.03365578642114997,0.02451685257256031,-0.0016592249157838523,-35.3633485,149.16558120000002,23716.5,-178.0,557.0,-9.5,166387.0
09:39:53,AUTO,-116.5,-68.5,-993.5,1.25,56.75,-3.0,0.0704704001545906,-0.0553780859336257,1.9038701355457306,0.00027050147764384747,0.05641616275534034,-0.0030318498611450195,-35.36336435,149.165641825,23818.5,-167.75,527.5,-9.5,193129.0
09:39:54,AUTO,-99.0,-69.0,-994.5,-73.5,48.5,-2.0,0.06564139761030674,-0.002269576769322157,1.9036921858787537,-0.07519177719950676,0.047754162922501564,-0.0016989569121506065,-35.363378749999995,149.1656971,23917.5,-146.5,461.0,-7.0,193129.0
09:39:56,AUTO,-53.0,-34.0,-1004.0,183.5,10.5,-5.5,0.042969753965735435,0.07405851781368256,1.9005331993103027,0.18241135030984879,0.010226586542557925,-0.005386422388255596,-35.3634002,149.16577745,23959.5,-80.5,248.0,3.0,145099.5
09:39:58,AUTO,-14.5,6.0,-1003.0,326.5,-15.0,0.0,0.022376290056854486,0.05690722540020943,1.8977215886116028,0.32565370202064514,-0.01680730562657118,0.00017450330778956413,-35.363408899999996,149.1658108,23945.0,-23.5,64.0,0.5,97070.0
09:39:59,AUTO,-4.5,-9.0,-999.75,-171.25,-14.25,-1.5,0.007093835607520305,0.04068225249648094,1.8958804607391357,-0.17239334154874086,-0.01588642317801714,-0.0014586133474949747,-35.36341002500001,149.16581582499998,23951.0,-7.75,14.25,0.5,84934.0
09:40:00,AUTO,-0.5,12.5,-1003.0,206.5,-22.5,-2.0,0.004622331587597728,0.01833438570611179,1.8943235874176025,0.20532137155532837,-0.024380679242312908,-0.0018959803273901343,-35.3634101,149.1658168,23957.5,-1.0,-6.5,0.5,84934.0
09:40:02,RTL,0.0,12.0,-1027.5,223.5,4.0,-1.0,-0.0014534385409206152,0.010622914880514145,1.8923507928848267,0.22137273848056793,0.0032085446873679757,-0.0013564584078267217,-35.36341045,149.1658168,24009.5,2.0,-7.0,-12.5,113478.0
09:40:04,RTL,0.0,1.0,-1042.5,27.0,5.0,-2.0,-0.001574715250171721,0.00930177140980959,1.8905030488967896,0.02606388833373785,0.0036184934433549643,-0.001948167511727661,-35.3634108,149.16581674999998,25083.0,7.0,-8.5,-99.5,142022.0
09:40:05,RTL,0.0,0.5,-1024.0,25.0,-2.5,-1.25,0.004208289145026356,0.00645712879486382,1.8886562287807465,0.024342049058759585,-0.004472675849683583,-0.001380530839014682,-35.36341075,149.16581664999998,26315.25,5.75,-8.0,-139.25,227905.0
09:40:06,RTL,1.0,-2.5,-1000.5,40.0,-9.0,-6.0,0.04478605557233095,-0.0038436810136772692,1.888023316860199,0.039759472012519836,-0.010985353961586952,-0.006045392714440823,-35.3634114,149.16581630000002,27818.5,-18.0,-9.5,-149.0,227905.0
09:40:08,RTL,0.0,2.5,-1004.5,21.0,-6.5,-19.5,-0.06661013141274452,0.0032274544137180783,1.80784273147583,0.01988375000655651,-0.008162198646459728,-0.019809842575341463,-35.3634157,149.165815,30864.0,17.0,-1.5,-149.0,120091.5
09:40:10,RTL,-1.5,9.5,-1000.0,21.5,-41.5,47.5,0.04050669353455305,-0.00398898427374661,1.8076900839805603,0.02058151364326477,-0.043112987419590354,0.04787797655444592,-35.3634079,149.1658152,33967.0,27.0,-6.5,-151.5,12278.0
09:40:11,RTL,-0.25,-2.0,-999.5,-50.75,20.0,-2.5,0.01837004005210474,-0.033160265535116196,1.8446334302425385,-0.05244173435494304,0.0183700080960989,-0.002717813360504806,-35.3634069,149.165814775,35527.0,-14.75,5.75,-149.25,271556.0
09:40:12,RTL,-3.5,-3.0,-1002.0,3.5,27.5,-51.0,-0.006180885247886181,0.006040252163074911,1.7962514162063599,0.00201437808573246,0.02613996108993888,-0.05141104757785797,-35.36340785,149.16581655,37071.0,-10.5,17.5,-151.0,271556.0
09:40:14,RTL,0.5,0.0,-1000.0,1.5,-6.5,-6.5,0.009164432063698769,0.011758337263017893,1.7463650107383728,0.00042040657717734575,-0.008320839609950781,-0.007050068816170096,-35.363408,149.16581825,40194.5,-4.0,-6.0,-152.0,264467.0
09:40:16,RTL,1.0,0.0,-1000.0,1.0,0.5,-22.0,0.0004836929074372165,-0.0002896840487665031,1.7152600288391113,-0.0006542921182699502,-0.0011209372314624488,-0.023056576028466225,-35.36340865,149.16581655,43309.5,-6.5,-6.0,-152.0,257378.0
09:40:17,RTL,0.25,0.0,-1000.0,3.5,3.25,-25.5,0.0010105782785103656,0.0004432338555488968,1.688753604888916,0.0027464093291200697,0.0021575961727648973,-0.02647646563127637,-35.36340895,149.16581612500002,44872.75,-4.5,-1.5,-152.0,228131.0
09:40:18,RTL,0.0,0.0,-1000.0,4.0,3.0,-22.5,0.0028920104959979653,0.002766898483969271,1.6618472933769226,0.0032637533731758595,0.001492247509304434,-0.023535624146461487,-35.363409149999995,149.1658161,46432.0,-3.5,0.0,-152.0,228131.0
09:40:20,RTL,0.0,0.0,-1000.0,0.0,1.5,-18.5,0.0025696064112707973,0.0035207365872338414,1.615964412689209,-0.001037551643094048,0.0003679837682284415,-0.019614488817751408,-35.363409450000006,149.165816,49550.0,-4.0,-1.0,-152.0,118459.5
09:40:22,RTL,0.0,0.0,-999.5,0.5,0.0,26.0,0.0040453498950228095,0.004674130119383335,1.6216905117034912,-0.0008550823549740016,-0.0012972024851478636,0.025928973220288754,-35.36340985,149.1658157,52663.0,-5.5,-3.0,-152.0,8788.0
09:40:23,RTL,0.25,0.0,-1000.5,0.25,-0.75,28.25,0.0010535829060245305,0.002857885672710836,1.647990196943283,-0.0010789554216898978,-0.0023986047599464655,0.02830262202769518,-35.363410175,149.165815375,54210.0,-5.0,-2.5,-152.0,101307.0
09:40:24,RTL,0.0,0.0,-1000.0,4.5,2.0,24.5,0.0005747394898207858,0.0020116197410970926,1.6714727282524109,0.0034345739986747503,0.0007193487253971398,0.02390488237142563,-35.363410349999995,149.1658152,55765.0,-3.0,-1.0,-152.0,101307.0
09:40:26,RTL,0.0,0.0,-1000.0,2.0,1.5,15.5,0.002234863815829158,0.002246802789159119,1.707249939441681,0.0007428672979585826,2.3244880139827728e-05,0.015363713260740042,-35.363410349999995,149.16581524999998,58874.5,-0.5,0.0,-152.0,98409.0
09:40:28,RTL,0.0,0.0,-999.5,0.0,2.0,13.5,0.0032140114344656467,0.003314304049126804,1.7342223525047302,-0.0022015187423676252,0.0010196997318416834,0.013023993466049433,-35.36341015,149.16581555,61981.5,-1.0,0.0,-152.0,95511.0
09:40:29,RTL,0.0,0.0,-999.75,2.5,1.25,11.75,0.0029763763886876404,0.0035268592764623463,1.7450153827667236,0.0013598516234196723,-0.00031827506609261036,0.011283816769719124,-35.3634101,149.1658157,63531.75,-1.0,0.0,-152.0,150351.0
09:40:30,RTL,0.0,0.0,-1000.0,1.5,3.0,9.0,0.0029488576110452414,0.003434878191910684,1.7545343041419983,0.0005308203399181366,0.0015356832300312817,0.008652349468320608,-35.3634101,149.1658158,65085.5,-2.0,0.0,-152.0,150351.0
09:40:32,RTL,0.0,0.0,-1000.0,2.5,2.0,8.0,0.0027378228260204196,0.0034699568059295416,1.769669532775879,0.0015558622544631362,0.00042908528121188283,0.007637938018888235,-35.36341,149.1658159,68189.5,-2.0,-1.0,-152.0,131138.5
09:40:34,RTL,0.0,0.0,-999.5,2.0,2.0,6.0,0.002532163169234991,0.0032368444371968508,1.7822639346122742,0.0009550777031108737,0.000729634368326515,0.005744566908106208,-35.36341,149.1658159,71294.5,-2.0,-1.0,-152.0,111926.0
09:40:35,RTL,0.0,0.0,-1000.25,3.0,1.5,6.5,0.0025535448803566396,0.0033641086192801595,1.7879742681980133,0.0014322350034490228,0.00045832182513549924,0.005937740672379732,-35.36341,149.1658159,72849.5,-1.5,-1.0,-152.0,217339.0
09:40:36,RTL,0.0,0.0,-999.5,1.5,1.5,8.0,0.0025203716941177845,0.0032726617064327,1.7933039665222168,0.0003873205278068781,0.0002503237337805331,0.006894552847370505,-35.36341,149.1658159,74402.5,-1.0,-1.0,-152.0,217339.0
09:40:38,RTL,0.0,0.0,-999.5,1.0,1.0,7.0,0.0021975882118567824,0.0036516640102490783,1.80361407995224,-0.0003085159114561975,-0.00040802237344905734,0.006116359960287809,-35.36341,149.165816,77508.0,-1.0,-1.0,-152.0,233254.5
09:40:40,RTL,0.0,0.0,-999.5,2.0,1.5,7.0,0.0023370799608528614,0.0034914668649435043,1.8117579817771912,0.00045727193355560303,0.00018398649990558624,0.006633115233853459,-35.36341,149.165816,80618.5,-1.0,-1.0,-152.0,249170.0
09:40:41,RTL,0.0,0.0,-999.75,2.75,1.25,6.75,0.0024511608062312007,0.003446843649726361,1.8156321048736572,0.0014976995589677244,-5.4116128012537956e-05,0.0058581201592460275,-35.36341,149.165816,82167.5,-1.0,-1.0,-152.0,152747.0
09:40:42,RTL,0.0,0.0,-999.5,1.5,3.0,5.0,0.0024420955451205373,0.003568061743862927,1.8190665245056152,-4.572095349431038e-05,0.0012690143194049597,0.003939899965189397,-35.36341,149.165816,83720.5,-1.0,-1.0,-152.0,152747.0
09:40:44,RTL,0.0,0.0,-1000.0,0.5,1.0,5.0,0.00234870205167681,0.003455828409641981,1.8255428075790405,-0.0011809366988018155,-0.00035946210846304893,0.003784396219998598,-35.36341,149.165816,86826.0,-1.0,-1.0,-152.0,103502.0
09:40:46,RTL,0.0,0.0,-1000.0,2.5,1.5,5.0,0.0023573681246489286,0.0036113878013566136,1.8308029770851135,0.0015092352405190468,0.0003665632102638483,0.004017073893919587,-35.36341,149.165816,89939.5,-1.0,-1.0,-152.0,54257.0
09:40:47,RTL,0.0,0.0,-1000.0,2.0,1.0,4.25,0.0027876789099536836,0.003466234018560499,1.8332682847976685,0.00031320544076152146,-0.0009458468412049115,0.003154060570523143,-35.36341,149.165816,91493.5,-1.0,-1.75,-152.0,258173.0
09:40:48,RTL,0.0,0.0,-999.5,2.0,3.0,6.0,0.0026151760248467326,0.003514335723593831,1.8356949090957642,0.000813321559689939,0.0013416383299045265,0.004869570257142186,-35.36341,149.165816,93048.5,-1.0,-1.0,-152.0,258173.0
09:40:50,RTL,0.0,0.0,-1000.0,1.5,2.0,4.5,0.001972772413864732,0.0039667991222813725,1.839945912361145,-0.00019977515330538154,0.0008562761940993369,0.0035839180927723646,-35.36341,149.165816,96152.5,-1.0,-2.0,-152.0,224414.5
09:40:52,RTL,0.0,0.0,-1000.0,2.0,1.5,4.5,0.001731373369693756,0.0038260917644947767,1.8432539701461792,0.0004464008961804211,-0.0008001407841220498,0.003514230018481612,-35.36341,149.165816,99259.0,-0.5,-2.0,-152.0,190656.0
09:40:53,RTL,0.0,0.0,-1000.0,1.5,1.0,3.25,0.0019393721304368228,0.0035456560435704887,1.845588058233261,0.0002517134416848421,-0.0006210744613781571,0.002252801408758387,-35.36341,149.165816,100816.25,0.0,-2.0,-152.0,6166.0
09:40:54,RTL,0.0,0.0,-999.0,1.0,1.0,5.5,0.0020277657313272357,0.003219121601432562,1.8473236560821533,-0.0006265024421736598,-0.0005751547287218273,0.004669067449867725,-35.36341,149.165816,102367.5,0.0,-1.5,-152.0,6166.0
09:40:56,RTL,0.0,0.0,-1000.5,1.5,1.5,2.5,0.0024479167768731713,0.0035183305153623223,1.8500719666481018,-0.0005418346263468266,-9.593856520950794e-05,0.0018750778981484473,-35.36341,149.165816,105474.0,-1.0,-1.0,-152.0,123168.5
09:40:58,RTL,0.0,0.0,-999.5,0.5,1.5,2.5,0.0022295706439763308,0.0035508759319782257,1.8523527383804321,-0.0016158460639417171,0.000198861351236701,0.0013646496227011085,-35.36341,149.165816,108581.5,-1.0,-1.5,-152.0,240171.0
09:40:59,RTL,0.0,0.0,-999.5,1.75,2.25,3.25,0.0022627642611041665,0.0037270630709826946,1.8534491658210754,0.00040721683762967587,0.0008877047512214631,0.0019887626986019313,-35.36341,149.165816,110138.0,-1.0,-1.5,-152.0,21257.0
09:41:00,RTL,0.0,0.0,-1000.0,3.0,1.5,3.0,0.0022904090583324432,0.003609305014833808,1.85458904504776,0.0012318557128310204,0.00011629168875515461,0.001700360735412687,-35.36341,149.165816,111693.5,-1.0,-2.0,-152.0,21257.0
09:41:02,RTL,0.0,0.0,-1000.0,2.0,0.5,4.0,0.0023573891958221793,0.004089840222150087,1.8561177849769592,0.0004752167733386159,-0.0005874306079931557,0.002954048104584217,-35.36341,149.165816,114796.0,-1.0,-2.0,-152.0,103933.5
09:41:04,RTL,0.0,0.0,-1000.0,0.5,1.0,2.0,0.0016028659301809967,0.0037405270850285888,1.8579925298690796,-0.0015169053804129362,-0.00047185528092086315,0.0007159192464314401,-35.36341,149.165816,117902.0,-0.5,-2.0,-152.0,186610.0
09:41:05,RTL,0.0,0.0,-1000.25,2.75,1.75,2.5,0.0019445709476713091,0.0038420305936597288,1.8585063517093658,0.0006872385856695473,-0.00011029138113372028,0.0010375605197623372,-35.36341,149.165816,119460.75,0.0,-2.0,-152.0,36859.0
09:41:06,RTL,0.0,0.0,-1000.0,2.5,1.0,2.5,0.002097809105180204,0.003630084334872663,1.8591638207435608,0.0006427165353670716,-0.00046565086813643575,0.001362996466923505,-35.36341,149.165816,121016.5,0.0,-2.0,-152.0,36859.0
09:41:08,RTL,0.0,0.0,-1000.5,3.0,0.0,3.0,0.002020282205194235,0.0033211236586794257,1.8604798316955566,0.0012762933620251715,-0.0016416569706052542,0.0016662624548189342,-35.36341,149.165816,124126.0,0.0,-1.0,-152.0,73896.0
09:41:10,RTL,0.0,0.0,-999.5,0.0,2.0,3.0,0.0023319347528740764,0.0035409744596108794,1.8622297644615173,-0.0020523093407973647,-0.0003167495015077293,0.0016068483819253743,-35.36341,149.165816,127230.5,-1.0,-2.0,-152.0,110933.0
09:41:11,RTL,0.0,0.0,-1000.25,2.75,2.75,2.5,0.0023298660526052117,0.0036278876359574497,1.8625305891036987,0.0007992701721377671,0.0007501196232624352,0.0010490980639588088,-35.36341,149.165816,128784.25,-1.0,-1.0,-152.0,121712.0
09:41:12,RTL,0.0,0.0,-1000.0,0.5,1.5,2.5,0.0021742088720202446,0.0037266782019287348,1.862751305103302,-0.0016395701677538455,-0.0006690266309306026,0.0008215148118324578,-35.36341,149.165816,130337.0,-1.0,-1.5,-152.0,121712.0
09:41:14,RTL,0.0,0.0,-1000.0,2.5,2.0,3.0,0.0022931252606213093,0.003820260288193822,1.8635907173156738,0.0008071827469393611,0.00042482285061851144,0.001130511169321835,-35.36341,149.165816,133446.5,-1.0,-2.0,-152.0,178825.5
09:41:16,RTL,0.0,0.0,-1000.0,1.0,1.0,3.5,0.0018262984813190997,0.004084100713953376,1.864087700843811,-0.0007490278221666813,-0.0012468415079638362,0.0023089313181117177,-35.36341,149.1658161,136551.5,-0.5,-2.0,-152.0,235939.0
09:41:17,RTL,0.0,0.0,-999.5,1.0,2.0,1.75,0.001873195607913658,0.0038681236910633743,1.8645765781402588,-0.0009330322791356593,0.00016416891594417393,0.00021663540974259377,-35.36341,149.1658161,138104.5,0.0,-2.0,-152.0,54880.0
09:41:18,RTL,0.0,0.0,-1000.0,3.5,1.5,3.0,0.0020870184525847435,0.003762375097721815,1.8646954894065857,0.0019050840055570006,-0.00033295300090685487,0.0016746666515246034,-35.36341,149.1658161,139660.5,0.0,-2.0,-152.0,54880.0
09:41:20,RTL,0.0,0.0,-999.5,2.0,1.0,3.5,0.002101974212564528,0.0038134886417537928,1.8653002381324768,0.00019324175082147121,-0.0007012161077000201,0.0020520652178674936,-35.36341,149.1658161,142768.0,0.0,-2.0,-152.0,170654.0
09:41:22,RTL,0.0,0.0,-999.5,3.5,3.5,3.5,0.002390438225120306,0.0034691235050559044,1.8657203912734985,0.0013892576098442078,0.0015685176476836205,0.0018602203344926238,-35.36341,149.1658161,145875.0,-1.0,-1.0,-152.0,286428.0
09:41:23,RTL,0.0,0.0,-1000.0,2.5,2.0,1.5,0.0022575916373170912,0.003695429360959679,1.8657467663288116,0.0005832446040585637,0.00022499857004731894,0.00014600460417568684,-35.36341,149.1658161,147436.5,-1.0,-1.5,-152.0,215250.0
09:41:24,RTL,0.0,0.0,-1000.0,0.0,1.0,2.5,0.0022166173439472914,0.003614874090999365,1.866089105606079,-0.0017885160050354898,-0.0010261572897434235,0.001249265973456204,-35.36341,149.1658161,148986.0,-1.0,-2.0,-152.0,215250.0
09:41:26,RTL,0.0,0.0,-1000.0,1.5,0.5,2.5,0.0021697274642065167,0.0036791071761399508,1.8670995831489563,-0.0005457155639305711,-0.0012863040901720524,0.0008194484980776906,-35.36341,149.1658161,152096.5,-1.0,-2.0,-152.0,120326.5
09:41:28,RTL,0.0,0.0,-1000.5,3.0,2.0,2.5,0.0021584267960861325,0.004088066518306732,1.867294728755951,0.0005145289469510317,-0.00020981079433113337,0.0005790188442915678,-35.36341,149.1658161,155203.5,-1.0,-2.0,-152.0,25403.0
09:41:29,RTL,0.0,0.0,-1000.25,2.75,1.75,2.0,0.0017606121255084872,0.004122823127545416,1.8672545850276947,0.0005546488100662827,-0.0004890113777946681,0.00018313451437279582,-35.36341,149.1658161,156756.0,-0.25,-2.0,-152.0,95820.0
09:41:30,RTL,0.0,0.0,-999.5,1.0,1.5,2.5,0.0019303178996779025,0.0038784858770668507,1.8672354221343994,-0.0012411722564138472,-0.0006937646539881825,0.0008365029934793711,-35.36341,149.1658161,158309.5,0.0,-2.0,-152.0,95820.0
09:41:32,RTL,4.0,2.0,-998.0,-2.5,40.0,1.5,0.00026202062144875526,0.05319905839860439,1.8676433563232422,-0.005425053299404681,0.03818792290985584,2.5642162654548883e-05,-35.36340975,149.16581474999998,161403.0,6.5,-29.0,-150.0,62489.0
09:41:34,RTL,32.5,12.0,-951.0,-27.5,12.0,271.0,-0.026749014388769865,0.16471631452441216,2.016065537929535,-0.030544614885002375,0.009156422689557076,0.26958222314715385,-35.36340505,149.165796,164273.5,62.0,-164.0,-115.5,29158.0
09:41:35,RTL,61.0,16.0,-939.75,86.5,-85.25,191.75,0.044679167069261894,0.14382965862751007,2.3363667130470276,0.08438920928165317,-0.08819514489732683,0.1901726797223091,-35.363397,149.16577315,165167.75,115.75,-261.0,-52.75,75395.0
09:41:36,RTL,81.5,-4.0,-954.5,-82.5,51.0,19.0,0.09109877794981003,0.14683344215154648,2.422013521194458,-0.08507881127297878,0.048854611814022064,0.016476747579872608,-35.36338725,149.1657394,165395.5,99.5,-350.0,2.0,75395.0
09:41:38,RTL,131.0,-12.0,-1019.0,-133.0,5.0,-24.0,0.02084510214626789,0.1924910545349121,2.3889009952545166,-0.13712100684642792,0.002688840962946415,-0.026889316737651825,-35.3633722,149.1656641,165084.0,121.0,-495.0,12.0,174759.5
09:41:40,RTL,135.0,13.5,-993.5,-118.0,-27.0,-45.5,-0.017887105233967304,0.15304552763700485,2.3028169870376587,-0.12112799473106861,-0.030656510964035988,-0.048155998811125755,-35.36334455,149.165547,165007.5,179.0,-567.0,-6.0,274124.0
09:41:41,RTL,134.0,22.0,-990.75,-57.25,-26.0,-34.75,-0.02755178790539503,0.13023868389427662,2.2550588250160217,-0.05973575171083212,-0.02883883158210665,-0.03756699804216623,-35.36332395,149.165469625,165045.0,182.0,-563.5,-4.0,242215.0
09:41:42,RTL,135.0,50.0,-1006.0,283.5,-37.0,-0.5,-0.0371085349470377,0.09277145937085152,2.2310951948165894,0.2803914397954941,-0.04042888060212135,-0.0027053768280893564,-35.36331165,149.16542379999999,165060.0,176.5,-548.0,-6.5,242215.0
09:41:44,RTL,97.5,24.5,-1003.5,-473.5,-58.5,-14.0,-0.06599238887429237,-0.0031719892285764217,2.1774872541427612,-0.4780697897076607,-0.06182036176323891,-0.01617274060845375,-35.36328295,149.165318,165078.0,130.5,-404.5,0.0,225088.5
09:41:46,RTL,42.5,47.5,-1005.0,608.5,-20.5,3.5,-0.040275173261761665,-0.056950727477669716,2.1421316862106323,0.6047983318567276,-0.023408127017319202,0.0017137065879069269,-35.36326605,149.16525515,165019.5,60.0,-182.0,0.0,207962.0
09:41:47,RTL,16.0,11.25,-1006.5,81.75,21.25,-14.0,-0.020886731101199985,-0.03818474803119898,2.122467875480652,0.07822323590517044,0.01873282971791923,-0.01681956951506436,-35.36326175,149.16523935,164998.25,28.25,-76.25,-2.0,277410.0
09:41:48,RTL,6.5,-27.0,-994.5,-396.5,24.5,-15.5,-0.01104146707803011,-0.02775519248098135,2.1115459203720093,-0.39907680451869965,0.02186966873705387,-0.01829486107453704,-35.36326055,149.16523519999998,165000.0,15.0,-37.5,-3.0,277410.0
09:41:50,RTL,-0.5,14.5,-993.0,87.0,10.5,-4.0,-0.005975715699605644,0.015549160540103912,2.0891202688217163,0.08309796452522278,0.007243550382554531,-0.007019424112513661,-35.3632608,149.1652337,165026.5,1.5,-5.5,-1.5,237426.0
09:41:52,RTL,-2.0,-23.0,-1002.5,-206.0,11.0,-5.5,0.0008133178343996406,0.0008939023900893517,2.074418306350708,-0.20794885605573654,0.007725195726379752,-0.008541792398318648,-35.3632615,149.16523425,165042.5,5.0,4.0,-0.5,197442.0
09:41:53,RTL,-2.0,-12.0,-1000.0,-86.5,6.0,-2.5,0.0035980403168878183,0.005494801444001496,2.0663349628448486,-0.08919225627323613,0.002732770750299096,-0.005244199885055423,-35.363261675000004,149.16523562499998,165046.25,2.0,3.75,0.0,201455.0
09:41:54,RTL,-1.0,29.0,-1002.5,424.0,5.5,-2.0,0.0056720177381066605,0.0063468890730291605,2.0617982149124146,0.4205276519060135,0.002804415882565081,-0.005502438871189952,-35.3632617,149.16523635,165049.0,0.0,1.5,0.0,201455.0
09:41:56,RTL,-0.5,-15.0,-916.0,423.5,4.0,-4.0,0.018123561050742865,0.006277852924540639,2.051567792892456,0.42325203120708466,0.0008657376747578382,-0.007036793511360884,-35.3632619,149.1652374,164756.5,0.0,-2.0,63.0,154895.0
09:41:58,RTL,-0.5,37.5,-1043.0,1355.5,4.5,4.0,0.03229388501495123,0.00452449731528759,2.042214870452881,1.35359126329422,0.0007873896975070238,0.0018200520426034927,-35.36326135,149.16523825000002,162685.0,-3.5,-6.0,105.0,108335.0
09:41:59,RTL,0.0,30.0,-998.0,1233.0,6.75,-0.25,0.03799500968307257,0.005254723597317934,2.036758303642273,1.2310981154441833,0.0032425622339360416,-0.003158069506753236,-35.363260825,149.165238725,161379.25,-9.25,-9.25,98.75,260832.0
09:42:00,RTL,2.0,34.0,-1048.0,1319.5,9.0,1.5,0.035322342067956924,0.0075432551093399525,2.0332711935043335,1.3170836567878723,0.005516394739970565,-0.001251569832675159,-35.36326085,149.1652389,160610.0,-12.5,-10.0,101.0,260832.0
09:42:02,RTL,4.0,-15.0,-978.5,566.5,2.5,-4.0,0.010826592333614826,0.009670516476035118,2.027266025543213,0.5657005608081818,-0.0017642213497310877,-0.00731656514108181,-35.3632627,149.16523805,158580.5,-0.5,-5.5,100.0,213588.0
09:42:04,RTL,2.0,-43.5,-995.5,42.5,1.0,-6.5,-0.020712340250611305,0.007618166506290436,2.019868850708008,0.041933849453926086,-0.0028914344729855657,-0.009252168820239604,-35.363265049999995,149.16523645,156530.5,21.0,3.0,103.5,166344.0
09:42:05,RTL,1.5,5.75,-975.0,952.5,5.25,-0.75,-0.009870319277979434,0.007320294855162501,2.0164427757263184,0.9522596895694733,0.0014301846385933459,-0.003576078568585217,-35.363265825,149.165235875,155272.25,31.0,8.75,101.75,22365.0
09:42:06,RTL,0.0,6.5,-1011.5,892.5,5.0,1.0,-0.013545149937272072,0.005949285347014666,2.014124870300293,0.8922433257102966,0.0008183389436453581,-0.0010357061983086169,-35.363266249999995,149.16523565,154508.0,36.0,11.5,101.5,22365.0
09:42:08,RTL,-6.0,-19.5,-1004.0,293.5,7.0,19.0,0.013502913061529398,-0.0011267232184763998,2.0087730884552,0.29455701261758804,0.002932910108938813,0.017160421703010798,-35.363264400000006,149.1652364,152440.0,34.5,10.0,102.0,68444.5
09:42:10,RTL,-2.0,28.5,-987.5,1265.0,11.5,-1.0,0.03465546853840351,0.00468310178257525,2.0052883625030518,1.264490008354187,0.007450881181284785,-0.003798117279075086,-35.363261800000004,149.16523834999998,150405.5,4.5,-1.5,100.0,114524.0
09:42:11,RTL,0.25,46.25,-992.5,1388.0,8.75,4.25,0.025961989536881447,0.008943252032622695,2.0024529099464417,1.386908769607544,0.00484137237071991,0.0015253467136062682,-35.36326175,149.1652387,149131.0,-3.5,-7.25,99.5,61563.0
09:42:12,RTL,-1.0,37.5,-1007.5,1331.0,0.0,1.5,0.021574461832642555,0.007893107365816832,2.0008620023727417,1.3305565118789673,-0.0038038970669731498,-0.001282143872231245,-35.363262,149.1652387,148367.0,-2.5,-8.5,100.5,61563.0
09:42:14,RTL,-1.0,-18.0,-980.0,487.5,5.5,0.0,0.042884957045316696,0.001612476073205471,1.9977633357048035,0.48820072412490845,0.0011602910235524178,-0.00280306045897305,-35.36326055,149.16523899999999,146316.5,-8.0,-10.5,102.0,96388.5
09:42:16,RTL,0.5,-74.5,-948.0,-834.0,2.0,-7.0,0.014490834902971983,0.007509615272283554,1.9950438737869263,-0.8340780735015869,-0.003025222569704056,-0.010238048387691379,-35.3632603,149.16523925,144282.5,-18.5,-13.0,101.0,131214.0
09:42:18,RTL,5.0,-67.5,-998.5,-1407.0,1.0,3.0,-0.018686913885176182,0.008362408261746168,1.9929903745651245,-1.4099199175834656,-0.004140785662457347,0.0004200822440907359,-35.36326185,149.16523845,142248.0,-9.0,-9.0,100.0,274879.0
09:42:20,RTL,0.5,2.0,-1022.5,-530.5,3.0,-2.5,-0.028336752206087112,0.00413779413793236,1.9907334446907043,-0.5351253896951675,-0.0013215120416134596,-0.005865525454282761,-35.36326335,149.1652372,140202.0,7.0,-1.0,99.0,274879.0
09:42:21,RTL,-2.5,-3.0,-1005.5,-950.5,3.5,0.25,-0.020752334035933018,-0.001102751659345813,1.9897122085094452,-0.9549477249383926,-0.0009548902162350714,-0.002890727249905467,-35.3632629,149.16523717500002,138907.25,9.5,0.0,99.0,97631.0
09:42:22,RTL,-3.0,10.0,-1018.0,-661.5,7.0,-2.5,-0.0016133536555571482,-0.0022226058645173907,1.988806962966919,-0.6666503399610519,0.002227580873295665,-0.005015430506318808,-35.36326185,149.1652376,138147.0,4.0,0.0,95.5,97631.0
09:42:24,RTL,0.0,20.5,-1049.0,-605.5,5.5,2.5,-0.01206438522785902,0.005583108402788639,1.986668348312378,-0.6102530658245087,0.0013539250940084457,-0.0006223029922693968,-35.36326115,149.16523834999998,136096.0,-11.5,-6.0,96.0,60855.0
09:42:26,RTL,1.0,30.0,-987.5,-289.0,7.5,1.0,-0.008425454143434763,0.005076055182144046,1.9855841994285583,-0.2949122413992882,0.00309128244407475,-0.0018225339008495212,-35.363261449999996,149.1652383,134051.5,-8.5,-6.5,95.5,60855.0
09:42:27,RTL,0.0,68.75,-1009.75,1036.5,4.25,7.25,0.0036704684716823976,0.0036898149410262704,1.9849224090576172,1.0321692526340485,0.00017023051623255014,0.004808671539649367,-35.3632619,149.165238,132784.0,-6.75,-6.0,96.25,58843.0
09:42:28,RTL,-2.0,67.0,-1026.0,1355.5,-0.5,0.0,0.017866402864456177,0.001702778972685337,1.9839511513710022,1.3522751331329346,-0.005443957750685513,-0.0028324576560407877,-35.3632619,149.1652379,132021.0,-4.5,-5.0,96.0,58843.0
09:42:30,RTL,-2.0,42.0,-1019.5,1230.5,1.0,1.5,0.0502335149794817,-0.0008687506197020411,1.9831585884094238,1.2279186248779297,-0.004047734197229147,-0.0016670199111104012,-35.363259799999994,149.16523875000001,129996.5,-17.0,-8.5,100.0,86112.0
09:42:32,RTL,0.0,18.0,-1014.0,1099.5,12.5,16.5,0.0362184289842844,0.005534399533644319,1.982454001903534,1.0973970293998718,0.007469726959243417,0.013842929620295763,-35.36325945,149.1652393,127969.0,-31.0,-14.0,104.0,86112.0
09:42:33,RTL,2.0,12.0,-1011.5,962.25,3.5,5.5,0.028906826861202717,0.006559775909408927,1.9820241630077362,0.9596384763717651,-0.0008768970146775246,0.0030051135108806193,-35.3632603,149.16523895,126692.75,-24.5,-12.25,100.0,41261.0
09:42:34,RTL,2.5,-31.5,-984.5,414.0,4.5,0.0,0.01788944099098444,0.0064468777272850275,1.9807056188583374,0.4130653440952301,-0.00043661845847964287,-0.002655247109942138,-35.36326105,149.1652386,125923.5,-18.5,-10.0,101.0,41261.0
09:42:36,RTL,3.5,-68.5,-986.5,-793.5,1.5,-6.0,-0.013439541682600975,0.0071191859897226095,1.9809345602989197,-0.795291543006897,-0.0037445230409502983,-0.009828931652009487,-35.36326325,149.1652374,123872.0,3.0,-1.5,101.5,210416.0
09:42:38,RTL,1.5,-74.0,-984.0,-1331.0,0.0,8.0,-0.04326275363564491,0.00583265908062458,1.9812976717948914,-1.3333892822265625,-0.0057993552181869745,0.005269706773106009,-35.36326545,149.16523615,121828.5,24.5,7.0,98.0,210416.0
09:42:39,RTL,-1.75,-38.25,-1002.25,-1256.5,2.5,0.25,-0.04792300518602133,0.0025390332157257944,1.9805574119091034,-1.2605093717575073,-0.002387605723924935,-0.002740729076322168,-35.3632659,149.165235725,120565.5,35.25,11.0,99.75,148821.0
09:42:40,RTL,-5.0,-19.0,-1008.0,-1111.5,-4.0,10.0,-0.033300602808594704,-0.0013550292496802285,1.9793230891227722,-1.1162011325359344,-0.009934843983501196,0.0075392520520836115,-35.36326525,149.16523595,119802.5,34.5,10.5,100.5,148821.0
09:42:42,RTL,-6.5,40.5,-1044.0,11.0,7.5,-3.5,0.01843271777033806,-0.003821518737822771,1.9797675609588623,0.005042128264904022,0.0029800976626574993,-0.006449941545724869,-35.3632611,149.165238,117756.0,5.5,0.5,99.5,16939.0
09:42:44,RTL,0.5,48.0,-1004.0,87.0,9.5,5.5,0.023104701191186905,0.0053170230239629745,1.979743778705597,0.0809117779135704,0.00467991828918457,0.002946911030448973,-35.3632587,149.1652398,115732.0,-31.0,-14.5,101.0,16939.0
09:42:45,RTL,1.75,49.75,-993.5,382.0,7.75,7.0,0.012463032267987728,0.008260292699560523,1.978928416967392,0.37566959857940674,0.002659466932527721,0.004388711415231228,-35.363259325,149.16523977499997,114469.75,-33.0,-17.0,100.25,34382.0
09:42:46,RTL,3.0,44.5,-986.5,163.0,-1.0,9.5,-0.004443645244464278,0.009306156076490879,1.980167806148529,0.15649153292179108,-0.006514918291941285,0.0069239812437444925,-35.36326015,149.16523940000002,113702.5,-29.5,-16.0,102.5,34382.0
09:42:48,RTL,1.5,42.0,-1001.0,1292.5,1.5,9.5,0.017859897576272488,0.0035703236935660243,1.979651689529419,1.2891367673873901,-0.0032656341791152954,0.00706336204893887,-35.363261949999995,149.16523805,111652.5,-8.5,-8.0,103.5,5687.0
09:42:50,RTL,0.0,39.5,-1042.0,1238.5,4.0,8.5,0.01914211083203554,0.0023177602561190724,1.9795625805854797,1.2347464561462402,-0.0007394177373498678,0.005393162136897445,-35.363262,149.1652377,109606.0,-2.5,-3.0,101.0,5687.0
09:42:51,RTL,-1.25,10.75,-982.75,985.0,10.25,9.75,0.024678572546690702,0.0022701212437823415,1.9796231091022491,0.982555016875267,0.005008862819522619,0.006672399293165654,-35.363262075,149.1652377,108330.5,-1.5,-2.0,101.5,77876.0
09:42:52,RTL,-1.5,1.5,-1013.0,766.5,0.0,12.5,0.027180265635252,0.00010537931666476652,1.9786884784698486,0.7646674811840057,-0.005248653469607234,0.009907650295644999,-35.36326185,149.1652377,107560.5,-1.5,-2.0,100.5,77876.0
09:42:54,RTL,0.0,-69.0,-1017.0,-1269.5,9.5,-1.5,0.010110784322023392,0.002501591807231307,1.978575348854065,-1.2734532952308655,0.004818236688151956,-0.005616668378934264,-35.36326045,149.16523855,105513.0,-13.5,-6.0,100.5,28440.0
09:42:56,RTL,2.5,-56.0,-1030.0,-1297.5,3.5,3.5,-0.03361013624817133,0.009110050741583109,1.9776249527931213,-1.3028950095176697,-0.0015193154104053974,0.0006291578756645322,-35.36326245,149.16523795,103472.0,-6.5,-4.5,100.0,28440.0
09:42:57,RTL,0.5,-58.75,-1027.0,-1382.0,3.0,-0.5,-0.03169857989996672,0.0045419903472065926,1.9783262610435486,-1.3872411251068115,-0.002391757443547249,-0.0037723567802459,-35.3632634,149.1652373,102196.0,6.75,-0.75,99.0,155462.0
09:42:58,RTL,-0.5,-44.5,-987.5,-1299.0,4.5,9.0,-0.030794057995080948,0.002460767515003681,1.9791028499603271,-1.3047754764556885,-0.0010476557072252035,0.005739200045354664,-35.3632636,149.1652371,101434.5,11.5,0.5,99.0,155462.0
09:43:00,RTL,-0.5,6.5,-991.5,-703.0,5.5,0.0,-0.023120283149182796,0.0019293317454867065,1.9782472252845764,-0.710210770368576,0.0007227608002722263,-0.003416686085984111,-35.363263149999995,149.1652371,99392.5,10.0,2.0,101.0,288820.0
09:43:02,RTL,-1.0,69.5,-1010.5,1149.0,3.5,-1.0,0.01602769549936056,0.0012745667481794953,1.9779956936836243,1.1430124640464783,-0.0013227695599198341,-0.004712576977908611,-35.36326185,149.16523775000002,97350.5,0.0,-1.0,98.5,288820.0
09:43:03,RTL,-1.25,47.25,-1027.25,1276.5,4.5,2.5,0.030113188549876213,0.002024763118242845,1.9782264530658722,1.271828830242157,-0.0011229404481127858,-0.0007824448985047638,-35.363261225,149.165238125,96069.25,-6.25,-3.75,97.25,284892.0
09:43:04,RTL,-1.5,26.0,-1005.5,1178.5,5.0,1.0,0.03514100797474384,0.002524782088585198,1.9781479835510254,1.1752668023109436,-0.00018856138922274113,-0.002267084550112486,-35.3632611,149.16523825000002,95302.5,-8.5,-5.0,99.5,284892.0
09:43:06,RTL,3.0,-43.5,-977.0,95.0,10.0,5.0,0.018505106680095196,0.00637924880720675,1.9782360792160034,0.09190976619720459,0.0047499435022473335,0.0017987758619710803,-35.3632613,149.16523834999998,93280.5,-10.0,-5.5,101.0,28065.0
09:43:08,RTL,4.0,-80.0,-977.0,-1323.0,7.5,-6.5,-0.0312988068908453,0.007919426076114178,1.9778998494148254,-1.3269726634025574,0.0019200800452381372,-0.010473098140209913,-35.363263599999996,149.1652372,91232.0,5.0,0.0,102.5,28065.0
09:43:09,RTL,3.25,-75.5,-974.0,-956.25,0.0,0.5,-0.033537833485752344,0.005298728472553194,1.9776986837387085,-0.9590302556753159,-0.005532986018806696,-0.0029953409684821963,-35.363265175,149.165236175,89966.25,22.75,7.0,101.0,16473.0
09:43:10,RTL,2.5,-63.5,-1000.0,-1237.5,2.0,5.0,-0.04883016087114811,0.0042162383906543255,1.9785199761390686,-1.2413704991340637,-0.0038029863499104977,0.0017924599815160036,-35.3632658,149.1652358,89204.0,31.0,10.5,100.0,16473.0
09:43:12,RTL,-2.0,-56.5,-939.5,-1495.0,3.5,5.0,-0.03394775278866291,-0.0006729406595695764,1.9788606762886047,-1.4988324642181396,-0.0018783449195325375,0.001806961139664054,-35.3632653,149.16523575000002,87163.5,36.5,14.0,103.0,113058.0
09:43:14,RTL,-2.5,34.0,-1017.5,-61.0,6.5,-8.0,-0.02446286752820015,0.003179323044605553,1.9773580431938171,-0.06623419374227524,0.0010507360566407442,-0.011881337035447359,-35.3632643,149.16523654999997,85109.5,24.5,8.5,99.0,113058.0
09:43:15,RTL,-4.0,76.5,-999.75,1124.75,7.0,0.0,0.004681281046941876,0.0014809180574957281,1.9776044487953186,1.120310217142105,0.001554783433675766,-0.0036670920671895146,-35.363263275,149.16523717500002,83833.25,16.75,4.25,100.5,69535.0
09:43:16,RTL,-2.5,80.5,-1002.5,1336.5,6.5,3.5,0.0152974515222013,0.0010643950081430376,1.978559136390686,1.3333535194396973,0.0007802862673997879,0.00018933939281851053,-35.3632627,149.16523745,83064.0,11.0,1.5,100.0,69535.0
09:43:18,RTL,-2.0,23.0,-976.5,1075.0,4.5,0.5,0.03978096693754196,-0.0004827591619687155,1.9779772758483887,1.0735065340995789,-0.0009289515437558293,-0.0023194896057248116,-35.363260749999995,149.16523845,81037.0,-5.5,-4.5,101.0,18329.0
09:43:20,RTL,2.5,-55.5,-966.0,-215.0,11.5,7.5,0.030159488320350647,0.0057730101980268955,1.978083848953247,-0.2164132073521614,0.006229019723832607,0.004188416060060263,-35.36325965,149.1652392,79027.0,-23.5,-10.5,105.5,18329.0
09:43:21,RTL,2.75,-62.75,-1002.0,-633.25,3.0,1.0,0.0004850351615459658,0.007709405152127147,1.9780279099941254,-0.6346958130598068,-0.0027228165417909622,-0.002749069419223815,-35.363261225,149.165238525,77755.0,-17.25,-9.0,103.5,269324.0
09:43:22,RTL,0.0,-62.0,-1042.0,-602.0,1.5,5.0,-0.0003623771026468603,0.004828156903386116,1.978471040725708,-0.6036137640476227,-0.004102764651179314,0.0018229526467621326,-35.3632619,149.1652381,76983.0,-8.0,-6.5,104.5,269324.0
09:43:24,RTL,-1.0,-73.0,-979.0,-1278.5,1.5,6.0,0.0038705369224771857,-0.0001943467796081677,1.977994680404663,-1.2805940508842468,-0.0041934793116524816,0.0031240014359354973,-35.3632616,149.16523795,74919.5,-3.0,-3.5,103.0,44234.0
09:43:26,RTL,0.0,-64.0,-982.5,-1435.5,15.0,2.0,0.008796820882707834,0.002754293498583138,1.9783610701560974,-1.4396043419837952,0.009852535324171185,-0.0020459305960685015,-35.3632599,149.1652387,72878.0,-18.5,-7.5,100.0,44234.0
09:43:27,RTL,1.5,-72.75,-1003.0,-1351.25,7.0,-1.25,0.00017534320068079978,0.0056778243742883205,1.9783715307712555,-1.355082631111145,0.0014915175852365792,-0.00522723572794348,-35.36326042499999,149.16523875000001,71592.0,-19.5,-8.75,99.5,160488.0
09:43:28,RTL,0.5,-77.0,-1006.5,-1415.5,6.5,-1.5,-0.013783251866698265,0.007060640258714557,1.9788556098937988,-1.419169545173645,0.0012945691123604774,-0.005197970662266016,-35.3632611,149.1652385,70825.0,-16.0,-8.0,99.0,160488.0
09:43:30,RTL,1.0,-49.0,-1017.0,-1304.5,3.5,1.0,-0.032748615369200706,0.0044666072353720665,1.979052722454071,-1.3096460103988647,-0.0020295719150453806,-0.0031702419510111213,-35.363263149999995,149.16523734999998,68781.0,2.0,-1.5,99.5,111313.0
09:43:32,RTL,0.5,-22.0,-1006.0,-1057.0,4.0,-0.5,-0.027956699021160603,0.0013325436157174408,1.978766143321991,-1.0631828606128693,-0.001556358765810728,-0.004289119620807469,-35.3632634,149.1652368,66748.5,11.0,3.0,99.5,111313.0
09:43:33,RTL,-0.25,43.5,-987.25,85.75,7.0,2.5,-0.02052034717053175,0.0017309042741544545,1.9785761833190918,0.07929229829460382,0.0013892288552597165,-0.0012918391730636358,-35.363263425,149.1652367,65469.0,10.5,4.0,100.25,278919.0
09:43:34,RTL,-0.5,69.0,-974.0,836.0,3.0,12.0,-0.0162048302590847,0.002028296876233071,1.9781153798103333,0.8297983407974243,-0.0027497410774230957,0.008868393022567034,-35.3632636,149.1652366,64705.5,10.5,4.5,100.5,278919.0
09:43:36,RTL,-1.5,72.5,-1008.0,1373.5,5.5,4.0,0.008717558579519391,-0.0010746553307399154,1.9785646796226501,1.3688923120498657,-0.0002176729030907154,0.0007826341316103935,-35.3632631,149.1652368,62668.5,11.0,5.0,99.0,110752.0
09:43:38,RTL,1.0,52.0,-1034.5,1414.0,12.0,7.0,0.012342287693172693,0.0029564478900283575,1.9794129133224487,1.4105011820793152,0.006836445303633809,0.003958208952099085,-35.3632625,149.1652372,60628.0,3.0,3.0,102.0,110752.0
09:43:39,RTL,0.5,54.25,-1020.0,1334.0,1.5,2.25,-0.004299419611925259,0.004761820542626083,1.9783332645893097,1.3302720785140991,-0.00407407630700618,-0.0013407815131358802,-35.363263425,149.16523695,59364.75,6.75,3.5,99.5,91586.0
09:43:40,RTL,0.5,48.5,-1051.0,1432.5,3.0,5.0,-0.0032034205505624413,0.004494288470596075,1.9783250093460083,1.4288895726203918,-0.0028450360987335443,0.0016833182889968157,-35.363263950000004,149.16523675000002,58599.0,13.0,5.0,100.5,91586.0
09:43:42,RTL,-0.5,-7.0,-981.5,609.0,6.5,7.5,0.013684045523405075,-0.00035426105750957504,1.9786942601203918,0.6081010699272156,0.0009400923736393452,0.00407229014672339,-35.36326355,149.1652367,56573.0,17.5,7.0,103.0,192681.0
09:43:44,RTL,0.5,-35.0,-1004.0,105.0,6.0,5.0,-0.0018054473912343383,0.002618356025777757,1.9783289432525635,0.1042248010635376,0.00030694599263370037,0.0014866311103105545,-35.36326355,149.16523665,54528.0,13.5,7.0,103.5,192681.0
09:43:45,RTL,-0.75,-40.75,-984.5,-133.5,3.75,5.75,0.0017901851533679292,-0.0001224115076183807,1.9785709381103516,-0.13386227563023567,-0.00220642052590847,0.002019675448536873,-35.363263625,149.1652366,53246.75,15.5,6.75,103.25,156511.0
09:43:46,RTL,-3.5,-62.0,-952.0,-742.5,3.0,7.0,0.00021268031559884548,-0.002062373619992286,1.9790558218955994,-0.7433876991271973,-0.0021031725918874145,0.0034804583992809057,-35.3632632,149.16523675000002,52496.0,15.0,6.0,101.0,156511.0
09:43:48,RTL,-1.5,-73.0,-977.0,-1103.0,1.0,8.0,0.014899170491844416,-0.0011141668364871293,1.9783239364624023,-1.1040990352630615,-0.004829301265999675,0.005021840101107955,-35.363260749999995,149.16523805,50439.5,-5.5,-0.5,101.5,111545.0
09:43:50,RTL,0.0,-41.5,-993.0,-1232.5,3.0,2.0,-0.008263527881354094,0.002087813161779195,1.979078233242035,-1.2362109422683716,-0.002038944512605667,-0.0021354295313358307,-35.3632606,149.1652384,48390.0,-15.0,-5.0,100.0,111545.0
09:43:51,RTL,-1.0,-30.0,-1019.5,-1092.75,9.0,3.0,-0.007335712667554617,0.0009575227231835015,1.9780086874961853,-1.0975099802017212,0.0038275012047961354,-0.0007848085951991379,-35.363260675,149.1652383,47116.25,-15.25,-5.75,100.75,244410.0
09:43:52,RTL,0.0,-23.0,-968.0,-1127.5,8.5,0.5,-0.0012535588903119788,0.0006083332700654864,1.9784876704216003,-1.1324502825737,0.0028636574279516935,-0.003777231788262725,-35.3632605,149.1652384,46346.0,-15.0,-5.5,103.5,244410.0
09:43:54,RTL,1.0,2.5,-976.5,-676.5,5.0,9.0,-0.016461281571537256,0.002563870861195028,1.979482352733612,-0.6822949796915054,-0.0004919683560729027,0.005583939608186483,-35.3632614,149.16523775000002,44296.0,-13.5,-3.0,100.5,144007.0
09:43:56,RTL,-1.0,73.0,-986.0,961.5,3.5,5.5,0.002137377508915961,-0.0005537470860872418,1.9790465831756592,0.9563421905040741,-0.0018078959546983242,0.0014812513254582882,-35.36326235,149.1652372,42250.5,-2.5,0.0,101.0,144007.0
09:43:57,RTL,-2.0,80.0,-994.25,1087.25,4.75,1.25,0.01704279868863523,-0.0028218203224241734,1.97860449552536,1.0818329006433487,-0.0005020430544391274,-0.002576797967776656,-35.363261375,149.165237475,40979.75,-5.25,-0.5,101.0,255616.0
09:43:58,RTL,-2.0,80.5,-976.5,1374.5,8.5,0.5,0.026437836699187756,-0.0023544756695628166,1.9787976741790771,1.3694509863853455,0.0031816503033041954,-0.0032355713192373514,-35.3632607,149.16523784999998,40209.5,-10.5,-1.5,100.0,255616.0
09:44:00,RTL,0.5,52.0,-1014.0,1403.5,4.0,1.0,0.028542576357722282,0.0023770096013322473,1.97866553068161,1.399612843990326,-0.0011849339352920651,-0.002629910013638437,-35.363260350000004,149.1652384,38183.0,-19.5,-6.0,101.0,236241.0
09:44:02,RTL,0.5,6.0,-1001.0,834.0,5.0,3.5,0.028588841669261456,0.0017948536551557481,1.9787532687187195,0.8316851556301117,-7.035327143967152e-06,7.516983896493912e-05,-35.3632607,149.1652383,36142.0,-16.0,-6.0,103.0,236241.0
09:44:03,RTL,1.25,-59.5,-979.75,-557.75,7.75,6.75,0.013539615873014554,0.0019572032906580716,1.978650450706482,-0.5602396428585052,0.0024196632439270616,0.0025713122449815273,-35.363260925000006,149.1652381,34863.5,-13.0,-4.25,101.75,163521.0
09:44:04,RTL,3.0,-56.0,-1026.0,-411.5,7.0,8.0,0.007843118160963058,0.004188778577372432,1.9781336188316345,-0.41406330466270447,0.0018887596670538187,0.004275706363841891,-35.3632614,149.1652379,34085.5,-11.0,-3.0,103.5,163521.0
09:44:06,RTL,3.0,-73.5,-950.5,-742.0,0.5,-4.5,-0.02137527707964182,0.005320593016222119,1.9787565469741821,-0.7445069551467896,-0.005251303780823946,-0.008988332469016314,-35.363264,149.1652366,32041.5,9.5,4.5,99.0,209673.0
09:44:08,RTL,-2.5,-66.0,-987.0,-1412.0,4.0,3.5,-0.032674338668584824,-0.001319754694122821,1.9792098999023438,-1.4155205488204956,-0.001131328521296382,-0.0004396622534841299,-35.363264650000005,149.1652359,30010.5,25.5,10.5,100.5,209673.0
09:44:09,RTL,-3.25,-49.25,-1009.0,-1311.75,6.0,-0.75,-0.01863208902068436,-0.002692309964913875,1.9795777797698975,-1.3159283995628357,0.0004923370433971286,-0.004915966652333736,-35.363263524999994,149.165236375,28733.25,19.75,10.0,99.5,286973.0
09:44:10,RTL,-2.0,-14.0,-1012.0,-999.5,8.5,1.5,-0.01152349729090929,-0.0022916494635865092,1.9790588021278381,-1.0053008794784546,0.0030758276116102934,-0.002045244676992297,-35.363262750000004,149.16523675000002,27978.5,13.0,7.5,101.0,286973.0
09:44:12,RTL,0.0,60.0,-1010.0,661.0,5.0,0.5,-0.00784502481110394,0.0016864511999301612,1.9792885184288025,0.655523270368576,-0.00017255591228604317,-0.0030942345038056374,-35.363262250000005,149.1652372,25938.5,0.0,2.0,102.0,59981.0
09:44:14,RTL,0.5,68.0,-1013.0,1009.0,3.5,1.5,-0.006477398565039039,0.0024645888479426503,1.979405403137207,1.0036000311374664,-0.002297003520652652,-0.0026319753378629684,-35.363262750000004,149.165237,23897.0,1.5,3.0,100.0,59981.0
09:44:15,RTL,-0.5,72.25,-1015.0,1192.0,-5.0,-1.75,-0.006365383451338857,-0.0008509244071319699,1.979032576084137,1.1872723996639252,-0.011120300274342299,-0.005797459161840379,-35.363263350000004,149.1652366,22626.0,8.0,5.0,99.75,13161.0
09:44:16,RTL,-3.5,51.0,-1004.0,1387.0,3.0,10.0,0.018985091242939234,-0.004382976796478033,1.9786690473556519,1.3834705352783203,-0.002439974807202816,0.006270311772823334,-35.363262750000004,149.16523665,21864.5,10.0,6.0,100.0,13161.0
09:44:18,RTL,-1.0,21.5,-979.0,1091.5,11.5,8.5,0.03178853541612625,0.0009173611106234603,1.9795702695846558,1.0899862051010132,0.006477731047198176,0.004971375456079841,-35.363261050000006,149.1652376,19812.0,-8.0,0.5,100.5,238635.0
09:44:20,RTL,0.0,-70.0,-1014.0,-886.5,1.0,2.0,0.0011788696283474565,0.003716261824592948,1.978877305984497,-0.888596385717392,-0.004013990517705679,-0.0020641006994992495,-35.36326165,149.1652378,17774.5,-3.5,0.0,101.0,238635.0
09:44:21,RTL,1.0,-71.75,-984.75,-1059.0,1.5,2.75,-0.008401378523558378,0.004828700330108404,1.9795465171337128,-1.0611332952976227,-0.003995920182205737,-0.0009473011596128345,-35.363262175,149.16523775000002,16489.75,-1.5,-0.75,99.0,88040.0
09:44:22,RTL,-0.5,-81.0,-967.0,-1173.0,-3.5,-4.5,-0.008503339253365993,0.002559675252996385,1.979705274105072,-1.1752948760986328,-0.009511093841865659,-0.00867144949734211,-35.3632624,149.16523765,15723.5,1.5,0.0,102.5,88040.0
09:44:24,RTL,0.5,-67.5,-1012.0,-1429.0,7.0,1.5,-0.01645390735939145,0.001966490934137255,1.9795380234718323,-1.43251234292984,0.001872167456895113,-0.0023089597234502435,-35.3632625,149.1652373,13676.0,2.5,1.0,98.0,139139.0
09:44:26,RTL,-0.5,-10.5,-1072.5,-727.5,10.0,-2.5,-0.033506523817777634,0.002664256375283003,1.9794145226478577,-0.7326549589633942,0.005290716653689742,-0.0066969606559723616,-35.363263849999996,149.16523645,11673.5,11.5,6.0,77.0,139139.0
09:44:27,RTL,2.0,-16.0,-1013.75,-29.25,3.5,4.25,-0.021991800982505083,0.0033174302661791444,1.9784744679927826,-0.03125705569982529,-0.0014814935275353491,0.0008081280975602567,-35.363264725,149.16523602499998,11100.25,20.5,10.0,22.5,265801.0
09:44:28,RTL,0.0,1.5,-987.5,-342.5,4.5,0.5,-0.040006352588534355,0.002598063671030104,1.9786454439163208,-0.3466736972332001,-0.0005733418511226773,-0.0029376301681622863,-35.36326525,149.16523575000002,10923.0,25.5,11.5,24.5,265801.0
09:44:30,RTL,-0.5,38.5,-1007.5,578.0,2.5,0.5,-0.010662866523489356,-0.001656897715292871,1.97872656583786,0.5749743953347206,-0.0022738417610526085,-0.002876691403798759,-35.36326475,149.16523575000002,10294.0,29.0,14.0,32.0,286006.0
09:44:32,RTL,-1.5,40.5,-1007.0,697.0,7.5,6.0,0.002152579603716731,-0.002497577923350036,1.9795843958854675,0.6948655247688293,0.002818197477608919,0.0025300472043454647,-35.3632635,149.16523625000002,9595.5,18.5,11.5,32.0,286006.0
09:44:33,RTL,-1.0,-24.25,-1009.75,-573.75,6.75,3.0,-0.007994219253305346,-0.0014655369304819033,1.9789018630981445,-0.5751771492650732,0.0020415442995727062,-0.00027219561161473393,-35.363262825,149.165236675,9166.0,10.75,8.5,30.0,45384.0
09:44:34,RTL,-0.5,40.5,-1016.0,516.5,5.0,0.5,-0.001582324388436973,-0.000734104251023382,1.9789380431175232,0.5138770788908005,-2.6731519028544426e-05,-0.0031119430204853415,-35.3632626,149.1652368,8907.5,6.0,6.5,28.5,45384.0
09:44:36,RTL,0.0,-23.5,-988.5,-291.5,7.5,1.5,0.0006638227496296167,-7.447415191563778e-05,1.9793471693992615,-0.2923288531601429,0.0027330087032169104,-0.0013695390662178397,-35.363262,149.1652373,8875.5,1.5,4.0,-7.5,126247.0
09:44:38,RTL,0.5,9.5,-999.5,399.5,3.5,4.5,-0.001401578076183796,0.0006631117430515587,1.9793801307678223,0.3990398645401001,-0.0011038396041840315,0.001167945796623826,-35.36326255,149.16523705,8919.0,2.0,4.0,-2.5,126247.0
09:44:39,RTL,0.0,5.25,-1024.75,143.25,2.25,2.0,-0.004983847991297807,-0.0002603298198664561,1.9791847169399261,0.14238429442048073,-0.002356451004743576,-0.0015711573068983853,-35.3632629,149.1652367,8777.5,5.0,5.5,5.25,90456.0
09:44:40,RTL,0.0,5.0,-995.5,-295.0,5.0,0.0,-0.017092025838792324,-0.0012782696285285056,1.9788891673088074,-0.2977381106466055,0.0005025349091738462,-0.0032689865911379457,-35.3632629,149.1652366,8767.0,6.0,6.0,-3.0,90456.0
09:44:42,RTL,0.0,14.5,-1008.5,488.0,1.0,4.5,0.00513071590103209,-0.0009175145532935858,1.979442834854126,0.48784318566322327,-0.003654214320704341,0.0012945092748850584,-35.3632628,149.1652366,8793.0,6.5,7.0,-2.0,136896.0
09:44:44,RTL,-1.0,-25.5,-992.0,-522.0,8.5,3.5,0.00014068814925849438,-0.0010577993816696107,1.9792003631591797,-0.5232519209384918,0.0039784833788871765,0.0006224646931514144,-35.36326215,149.165237,8798.0,3.0,5.5,-1.0,136896.0
09:44:45,RTL,-0.25,0.5,-987.75,-106.25,4.75,2.5,0.0028759873239323497,-0.00014630149235017598,1.97953200340271,-0.10733497375622392,0.00043127633398398757,-0.0005924083525314927,-35.36326185,149.1652373,8805.5,-1.25,2.5,0.0,229333.0
09:44:46,RTL,-0.5,24.5,-938.0,788.5,7.0,7.5,0.019277147948741913,-4.483510565478355e-05,1.9792748093605042,0.7881570160388947,0.002629507565870881,0.004232447827234864,-35.3632616,149.16523745,8740.0,-3.0,1.0,27.0,229333.0
09:44:48,RTL,0.0,-35.0,-994.5,-263.5,2.0,2.5,0.00835669890511781,0.0006731470348313451,1.9787803888320923,-0.26315682381391525,-0.0027060718275606632,-0.0007484635571017861,-35.3632614,149.1652376,7924.5,-5.5,0.0,35.0,252274.0
09:44:50,RTL,0.5,-32.0,-996.0,-471.0,0.0,-0.5,0.0008478269446641207,0.0016571122105233371,1.9789289832115173,-0.4712718054652214,-0.004596133483573794,-0.004024284542538226,-35.3632619,149.1652375,7229.5,-4.0,0.0,32.5,252274.0
09:44:51,RTL,-1.25,11.25,-993.25,350.75,0.25,2.0,0.01201610139105469,-0.0011311740381643176,1.979059249162674,0.349947489798069,-0.004570047603920102,-0.001238393597304821,-35.363261725,149.165237525,6807.5,-3.0,0.0,32.0,246561.0
09:44:52,RTL,-1.0,-24.0,-1000.0,-741.5,4.5,4.0,0.005252180155366659,-0.0019118387717753649,1.9792641997337341,-0.7435057163238525,0.0003730736207216978,0.000771569786593318,-35.36326115,149.1652377,6551.0,-5.5,-0.5,32.5,246561.0
09:44:54,RTL,0.0,-18.0,-1001.5,-638.5,5.5,2.0,0.003177442355081439,0.0014701842446811497,1.9795966148376465,-0.6412501931190491,0.0009969666134566069,-0.0020883390679955482,-35.36326045,149.1652382,5868.5,-16.5,-4.0,32.0,137624.0
09:44:56,RTL,1.5,-27.5,-994.5,-768.5,5.0,0.5,-0.010599634842947125,0.0037795461248606443,1.9797673225402832,-0.770883172750473,0.0008324130903929472,-0.0026431811274960637,-35.36326165,149.1652378,5192.5,-9.5,-2.5,32.5,137624.0
09:44:57,RTL,0.5,-26.0,-1003.25,-204.0,2.0,2.75,-0.0013908852124586701,0.0013271013740450144,1.979692816734314,-0.2052082158625126,-0.0021759080700576305,-0.0006687899585813284,-35.363262225,149.16523740000002,4764.0,-2.0,-0.25,32.5,281965.0
09:44:58,RTL,1.5,8.5,-996.5,-227.5,6.5,3.0,-0.011677050031721592,0.0015330290189012885,1.9796361923217773,-0.23075483739376068,0.0027048676274716854,1.7189187929034233e-05,-35.3632625,149.1652371,4504.0,0.0,1.0,33.0,281965.0
09:45:00,RTL,0.5,14.0,-984.5,-168.0,5.0,-1.0,-0.02556532248854637,0.002279910142533481,1.9789101481437683,-0.17114827781915665,0.0007136710919439793,-0.0049325451254844666,-35.36326375,149.16523635,3836.0,10.0,6.5,33.0,64221.0
09:45:02,RTL,0.0,31.5,-991.0,202.0,3.0,-0.5,-0.014804267790168524,-0.000298763501632493,1.979512870311737,0.1988929882645607,-0.0013827122747898102,-0.004290168988518417,-35.3632638,149.16523625000002,3152.5,16.0,9.0,33.5,64221.0
09:45:03,RTL,-0.75,-21.5,-998.0,-569.75,4.75,4.5,-0.012600340996868908,-0.0017953539500012994,1.9796670973300934,-0.5715156625956297,0.00027259811758995056,0.0018529694061726332,-35.3632634,149.16523635000001,2730.0,14.25,8.75,33.25,166421.0
09:45:04,RTL,-1.5,47.0,-1006.0,635.0,5.0,0.0,0.0005018700758228078,-0.0019745249883271754,1.9796121716499329,0.6330187022686005,0.00102903856895864,-0.0040492943953722715,-35.363262950000006,149.16523654999997,2472.0,10.0,7.5,33.0,166421.0
09:45:06,RTL,-1.5,36.0,-988.0,162.5,4.0,4.0,0.015626185107976198,-0.0030221076449379325,1.979652762413025,0.16019872203469276,-0.00036261253990232944,0.0011373923625797033,-35.363260999999994,149.1652377,1783.5,-4.0,0.5,33.0,189679.0
09:45:08,RTL,-0.5,1.5,-1008.5,-358.0,7.5,1.5,0.016005673445761204,-1.8048689526040107e-05,1.9798740148544312,-0.3605636842548847,0.0032606066670268774,-0.0016643708804622293,-35.36325965,149.1652386,1107.5,-21.5,-5.5,31.5,189679.0
09:45:09,RTL,1.0,-25.5,-1001.75,-299.5,6.0,2.25,0.012743504368700087,0.003711368888616562,1.9797578752040863,-0.30093999952077866,0.002093761577270925,-0.0010128709254786372,-35.36326005,149.165238625,683.25,-23.25,-7.0,32.25,284778.0
09:45:10,RTL,1.5,30.0,-988.0,78.5,3.5,0.5,-0.002461350173689425,0.004353593569248915,1.9797528982162476,0.07530177384614944,-0.00042955437675118446,-0.0020443176617845893,-35.3632607,149.16523834999998,426.5,-21.5,-7.0,33.0,284778.0
09:45:12,RTL,2.5,-17.5,-983.0,-5.0,1.0,2.0,-0.013182719703763723,-0.0024141098838299513,1.9756555557250977,-0.006634415127336979,-0.003085506265051663,-0.0006150056142359972,-35.3632603,149.16523884999998,101.5,21.5,16.5,0.0,42941.0
09:45:14,RTL,0.0,0.0,-1000.0,2.0,2.0,2.0,-0.004277413012459874,-0.0034094888251274824,1.9749008417129517,0.0011842477833852172,-0.0016903690993785858,-0.0006600642809644341,-35.36326,149.1652391,69.5,13.0,14.0,0.0,42941.0
09:45:16,RTL,0.0,0.0,-1000.0,2.0,2.0,2.0,0.002739845192991197,-0.00364025158341974,1.9745675325393677,0.00138906977372244,-0.0015207044780254364,-0.0006760390242561698,-35.36326055,149.1652389,19.5,0.5,8.5,1.0,42941.0
09:45:18,RTL,0.0,0.0,-1000.0,2.0,2.0,2.0,0.006336313206702471,-0.0033788878936320543,1.9742178320884705,0.0013563213869929314,-0.0014728070236742496,-0.0005707173841074109,-35.363261249999994,149.1652385,0.0,-8.5,4.0,1.0,42941.0
