time_stamp,MODE,lat,lon,relative_alt,roll,pitch,yaw,rollspeed,pitchspeed,yawspeed,xacc,yacc,zacc,xgyro,ygyro,zgyro,vx,vy,vz,chan4_raw,RTL_ALT
14:03:51.036,STABILIZE,-35.3632621,149.1652375,0,-0.00021092414681334049,0.0015801010886207223,0.027353079989552498,0.00021952758834231645,0.0002897157974075526,0.0024456700775772333,0,1,-1000,0,0,0,-1,2,1,1500,1500.0
14:03:51.239,STABILIZE,-35.3632621,149.1652375,0,-0.00021092414681334049,0.0015801010886207223,0.027353079989552498,0.00021952758834231645,0.0002897157974075526,0.0024456700775772333,0,2,-1000,0,0,0,-1,2,1,1500,1500.0
14:03:51.440,STABILIZE,-35.3632621,149.1652375,0,-0.00021092414681334049,0.0015801010886207223,0.027353079989552498,0.00021952758834231645,0.0002897157974075526,0.0024456700775772333,0,1,-1000,0,0,0,-1,2,1,1500,1500.0
14:03:51.642,STABILIZE,-35.3632621,149.1652375,0,-0.00021092414681334049,0.0015801010886207223,0.027353079989552498,0.00021952758834231645,0.0002897157974075526,0.0024456700775772333,0,1,-1000,0,0,0,-1,2,1,1500,1500.0
14:03:51.849,STABILIZE,-35.3632621,149.1652375,0,-0.00021092414681334049,0.0015801010886207223,0.027353079989552498,0.00021952758834231645,0.0002897157974075526,0.0024456700775772333,0,1,-1000,0,0,0,-1,2,1,1500,1500.0
14:03:52.053,STABILIZE,-35.3632621,149.1652375,0,-0.00021092414681334049,0.0015801010886207223,0.027353079989552498,0.00021952758834231645,0.0002897157974075526,0.0024456700775772333,0,1,-1000,0,0,0,-1,2,1,1500,1500.0
14:03:52.256,STABILIZE,-35.3632621,149.1652375,0,-0.00021092414681334049,0.0015801010886207223,0.027353079989552498,0.00021952758834231645,0.0002897157974075526,0.0024456700775772333,0,1,-1000,0,0,0,-1,2,1,1500,1500.0
14:03:52.458,STABILIZE,-35.3632621,149.1652375,0,-0.00021092414681334049,0.0015801010886207223,0.027353079989552498,0.00021952758834231645,0.0002897157974075526,0.0024456700775772333,0,1,-1000,0,0,0,-1,2,1,1500,1500.0
14:03:52.662,STABILIZE,-35.3632621,149.1652375,0,-0.00021092414681334049,0.0015801010886207223,0.027353079989552498,0.00021952758834231645,0.0002897157974075526,0.0024456700775772333,0,1,-1000,0,0,0,-1,2,1,1500,1500.0
14:03:52.868,STABILIZE,-35.3632621,149.1652375,0,-0.00021092414681334049,0.0015801010886207223,0.027353079989552498,0.00021952758834231645,0.0002897157974075526,0.0024456700775772333,0,1,-1000,0,0,0,-1,2,1,1500,1500.0
14:03:53.090,STABILIZE,-35.3632621,149.1652375,0,-0.00021092414681334049,0.0015801010886207223,0.027353079989552498,0.00021952758834231645,0.0002897157974075526,0.0024456700775772333,0,1,-1000,0,0,0,-1,2,1,1500,1500.0
14:03:53.293,STABILIZE,-35.3632622,149.1652375,0,-0.0007707288023084402,0.001119038905017078,0.025964215397834778,0.00030233358847908676,0.00024260208010673523,0.0020411985460668802,0,1,-1000,0,0,0,-1,0,-3,1500,1500.0
14:03:53.498,STABILIZE,-35.3632622,149.1652375,0,-0.000709765125066042,0.0010790192754939198,0.025866549462080002,0.0002256737498100847,0.0002756333560682833,0.002092626877129078,0,1,-1000,0,0,0,-1,0,-2,1500,1500.0
14:03:53.700,STABILIZE,-35.3632622,149.1652375,0,-0.000709765125066042,0.0010790192754939198,0.025866549462080002,0.0002256737498100847,0.0002756333560682833,0.002092626877129078,0,1,-1000,0,0,0,-1,0,-2,1500,1500.0
14:03:53.911,STABILIZE,-35.3632622,149.1652375,0,-0.000709765125066042,0.0010790192754939198,0.025866549462080002,0.0002256737498100847,0.0002756333560682833,0.002092626877129078,0,1,-1000,0,0,0,-1,0,-2,1500,1500.0
14:03:54.123,STABILIZE,-35.3632622,149.1652375,0,-0.000709765125066042,0.0010790192754939198,0.025866549462080002,0.0002256737498100847,0.0002756333560682833,0.002092626877129078,0,1,-1000,0,0,0,-1,0,-2,1500,1500.0
14:03:54.328,STABILIZE,-35.3632622,149.1652375,0,-0.000709765125066042,0.0010790192754939198,0.025866549462080002,0.0002256737498100847,0.0002756333560682833,0.002092626877129078,0,1,-1000,0,0,0,-1,0,-2,1500,1500.0
14:03:54.529,STABILIZE,-35.3632622,149.1652375,0,-0.000709765125066042,0.0010790192754939198,0.025866549462080002,0.0002256737498100847,0.0002756333560682833,0.002092626877129078,0,1,-1000,0,0,0,-1,0,-2,1500,1500.0
14:03:54.732,STABILIZE,-35.3632622,149.1652375,0,-0.000709765125066042,0.0010790192754939198,0.025866549462080002,0.0002256737498100847,0.0002756333560682833,0.002092626877129078,0,1,-1000,0,0,0,-1,0,-2,1500,1500.0
14:03:54.934,STABILIZE,-35.3632622,149.1652375,0,-0.000709765125066042,0.0010790192754939198,0.025866549462080002,0.0002256737498100847,0.0002756333560682833,0.002092626877129078,0,1,-1000,0,0,0,-1,0,-2,1500,1500.0
14:03:55.144,STABILIZE,-35.3632622,149.1652375,4,-0.0005505274166353047,0.0009294749470427632,0.024816587567329407,0.0002685891813598573,0.0003153921279590577,0.0018712274031713605,0,2,-1000,0,0,0,-1,1,-2,1500,1500.0
14:03:55.347,STABILIZE,-35.3632622,149.1652375,4,-0.0005505274166353047,0.0009294749470427632,0.024816587567329407,0.0002685891813598573,0.0003153921279590577,0.0018712274031713605,0,1,-1000,0,0,0,-1,1,-1,1500,1500.0
14:03:55.549,STABILIZE,-35.3632622,149.1652375,4,-0.0005505274166353047,0.0009294749470427632,0.024816587567329407,0.0002685891813598573,0.0003153921279590577,0.0018712274031713605,0,1,-1000,0,0,0,-1,1,-1,1500,1500.0
14:03:55.752,STABILIZE,-35.3632622,149.1652375,4,-0.0005505274166353047,0.0009294749470427632,0.024816587567329407,0.0002685891813598573,0.0003153921279590577,0.0018712274031713605,0,1,-1000,0,0,0,-1,1,-1,1500,1500.0
14:03:55.953,STABILIZE,-35.3632622,149.1652375,4,-0.0005505274166353047,0.0009294749470427632,0.024816587567329407,0.0002685891813598573,0.0003153921279590577,0.0018712274031713605,0,1,-1000,0,0,0,-1,1,-1,1500,1500.0
14:03:56.155,STABILIZE,-35.3632622,149.1652375,4,-0.0005505274166353047,0.0009294749470427632,0.024816587567329407,0.0002685891813598573,0.0003153921279590577,0.0018712274031713605,0,1,-1000,0,0,0,-1,1,-1,1500,1500.0
14:03:56.357,STABILIZE,-35.3632622,149.1652375,4,-0.0005505274166353047,0.0009294749470427632,0.024816587567329407,0.0002685891813598573,0.0003153921279590577,0.0018712274031713605,0,1,-1000,0,0,0,-1,1,-1,1500,1500.0
14:03:56.559,STABILIZE,-35.3632622,149.1652375,4,-0.0005505274166353047,0.0009294749470427632,0.024816587567329407,0.0002685891813598573,0.0003153921279590577,0.0018712274031713605,0,1,-1000,0,0,0,-1,1,-1,1500,1500.0
14:03:56.761,STABILIZE,-35.3632622,149.1652375,4,-0.0005505274166353047,0.0009294749470427632,0.024816587567329407,0.0002685891813598573,0.0003153921279590577,0.0018712274031713605,0,1,-1000,0,0,0,-1,1,-1,1500,1500.0
14:03:56.966,STABILIZE,-35.3632622,149.1652375,4,-0.0005505274166353047,0.0009294749470427632,0.024816587567329407,0.0002685891813598573,0.0003153921279590577,0.0018712274031713605,0,1,-1000,0,0,0,-1,1,-1,1500,1500.0
14:03:57.179,STABILIZE,-35.3632622,149.1652375,2,-0.0007070936844684184,0.0009116338915191591,0.024061022326350212,0.00031368661439046264,0.0002600322477519512,0.0018530398374423385,0,1,-1000,0,1,1,-1,1,0,1500,1500.0
14:03:57.382,STABILIZE,-35.3632622,149.1652375,2,-0.0007070936844684184,0.0009116338915191591,0.024061022326350212,0.00031368661439046264,0.0002600322477519512,0.0018530398374423385,0,1,-1000,0,0,0,-1,1,0,1500,1500.0
14:03:57.587,STABILIZE,-35.3632622,149.1652375,2,-0.0007070936844684184,0.0009116338915191591,0.024061022326350212,0.00031368661439046264,0.0002600322477519512,0.0018530398374423385,0,1,-1000,0,0,0,-1,1,0,1500,1500.0
14:03:57.792,STABILIZE,-35.3632622,149.1652375,2,-0.0007070936844684184,0.0009116338915191591,0.024061022326350212,0.00031368661439046264,0.0002600322477519512,0.0018530398374423385,0,1,-1000,0,0,0,-1,1,0,1500,1500.0
14:03:57.997,STABILIZE,-35.3632622,149.1652375,2,-0.0007070936844684184,0.0009116338915191591,0.024061022326350212,0.00031368661439046264,0.0002600322477519512,0.0018530398374423385,0,1,-1000,0,0,0,-1,1,0,1500,1500.0
14:03:58.199,STABILIZE,-35.3632622,149.1652375,2,-0.0007070936844684184,0.0009116338915191591,0.024061022326350212,0.00031368661439046264,0.0002600322477519512,0.0018530398374423385,0,1,-1000,0,0,0,-1,1,0,1500,1500.0
14:03:58.406,STABILIZE,-35.3632622,149.1652375,2,-0.0007070936844684184,0.0009116338915191591,0.024061022326350212,0.00031368661439046264,0.0002600322477519512,0.0018530398374423385,0,1,-1000,0,0,0,-1,1,0,1500,1500.0
14:03:58.608,STABILIZE,-35.3632622,149.1652375,2,-0.0007070936844684184,0.0009116338915191591,0.024061022326350212,0.00031368661439046264,0.0002600322477519512,0.0018530398374423385,0,1,-1000,0,0,0,-1,1,0,1500,1500.0
14:03:58.817,STABILIZE,-35.3632622,149.1652375,2,-0.0007070936844684184,0.0009116338915191591,0.024061022326350212,0.00031368661439046264,0.0002600322477519512,0.0018530398374423385,0,1,-1000,0,0,0,-1,1,0,1500,1500.0
14:03:59.023,STABILIZE,-35.3632622,149.1652375,0,-0.000868998933583498,0.0009302246035076678,0.023380499333143234,0.0002661349717527628,0.00018929335055872798,0.001811646856367588,0,1,-1000,0,0,0,-1,1,0,1500,1500.0
14:03:59.226,STABILIZE,-35.3632622,149.1652375,0,-0.00045493588550016284,0.000937597535084933,0.02319946140050888,0.0002948574838228524,0.00024197186576202512,0.0016829755622893572,0,1,-1000,0,0,0,-1,3,2,1500,1500.0
14:03:59.427,STABILIZE,-35.3632622,149.1652375,0,-0.00045493588550016284,0.000937597535084933,0.02319946140050888,0.0002948574838228524,0.00024197186576202512,0.0016829755622893572,0,1,-1000,0,0,0,-1,3,2,1500,1500.0
14:03:59.629,STABILIZE,-35.3632622,149.1652375,0,-0.00045493588550016284,0.000937597535084933,0.02319946140050888,0.0002948574838228524,0.00024197186576202512,0.0016829755622893572,0,1,-1000,0,0,0,-1,3,2,1500,1500.0
14:03:59.833,STABILIZE,-35.3632622,149.1652375,0,-0.00045493588550016284,0.000937597535084933,0.02319946140050888,0.0002948574838228524,0.00024197186576202512,0.0016829755622893572,0,1,-1000,0,0,0,-1,3,2,1500,1500.0
14:04:00.038,STABILIZE,-35.3632622,149.1652375,0,-0.00045493588550016284,0.000937597535084933,0.02319946140050888,0.0002948574838228524,0.00024197186576202512,0.0016829755622893572,0,1,-1000,0,0,0,-1,3,2,1500,1500.0
14:04:00.242,STABILIZE,-35.3632622,149.1652375,0,-0.00045493588550016284,0.000937597535084933,0.02319946140050888,0.0002948574838228524,0.00024197186576202512,0.0016829755622893572,0,1,-1000,0,0,0,-1,3,2,1500,1500.0
14:04:00.447,STABILIZE,-35.3632622,149.1652375,0,-0.00045493588550016284,0.000937597535084933,0.02319946140050888,0.0002948574838228524,0.00024197186576202512,0.0016829755622893572,0,1,-1000,0,0,0,-1,3,2,1500,1500.0
14:04:04.230,STABILIZE,-35.3632622,149.1652375,0,-0.00045493588550016284,0.000937597535084933,0.02319946140050888,0.0002948574838228524,0.00024197186576202512,0.0016829755622893572,0,1,-1000,0,0,0,-1,3,2,1500,1500.0
14:04:04.434,STABILIZE,-35.3632622,149.1652375,0,-0.00045493588550016284,0.000937597535084933,0.02319946140050888,0.0002948574838228524,0.00024197186576202512,0.0016829755622893572,0,1,-1000,0,0,0,-1,3,2,1500,1500.0
14:04:04.636,STABILIZE,-35.3632622,149.1652375,0,-0.00045493588550016284,0.000937597535084933,0.02319946140050888,0.0002948574838228524,0.00024197186576202512,0.0016829755622893572,0,1,-1000,0,0,0,-1,3,2,1500,1500.0
14:04:04.837,STABILIZE,-35.3632622,149.1652376,0,-0.0010058308253064752,0.0009641441865824163,0.022631485015153885,0.0003912558895535767,0.0002778333146125078,0.001707947114482522,0,1,-1000,0,1,0,-1,2,2,1500,1500.0
14:04:05.040,AUTO,-35.3632622,149.1652375,0,-0.0010662577114999294,0.0009724113042466342,0.022566404193639755,0.00019339026766829193,0.00019166123820468783,0.0016050131525844336,0,1,-1000,0,1,0,-1,1,1,1500,1500.0
14:04:05.241,AUTO,-35.3632622,149.1652375,0,-0.0010662577114999294,0.0009724113042466342,0.022566404193639755,0.00019339026766829193,0.00019166123820468783,0.0016050131525844336,0,1,-1000,0,1,0,-1,1,1,1500,1500.0
14:04:05.444,AUTO,-35.3632622,149.1652375,0,-0.0010662577114999294,0.0009724113042466342,0.022566404193639755,0.00019339026766829193,0.00019166123820468783,0.0016050131525844336,0,1,-1000,0,1,0,-1,1,1,1500,1500.0
14:04:05.649,AUTO,-35.3632622,149.1652375,0,-0.0010662577114999294,0.0009724113042466342,0.022566404193639755,0.00019339026766829193,0.00019166123820468783,0.0016050131525844336,0,1,-1000,0,1,0,-1,1,1,1500,1500.0
14:04:05.852,AUTO,-35.3632622,149.1652375,0,-0.0010662577114999294,0.0009724113042466342,0.022566404193639755,0.00019339026766829193,0.00019166123820468783,0.0016050131525844336,0,1,-1000,0,1,0,-1,1,1,1500,1500.0
14:04:06.055,AUTO,-35.3632622,149.1652375,0,-0.0010662577114999294,0.0009724113042466342,0.022566404193639755,0.00019339026766829193,0.00019166123820468783,0.0016050131525844336,0,1,-1000,0,1,0,-1,1,1,1500,1500.0
14:04:06.260,AUTO,-35.3632622,149.1652375,0,-0.0010662577114999294,0.0009724113042466342,0.022566404193639755,0.00019339026766829193,0.00019166123820468783,0.0016050131525844336,0,1,-1000,0,1,0,-1,1,1,1500,1500.0
14:04:06.464,AUTO,-35.3632622,149.1652375,0,-0.0010662577114999294,0.0009724113042466342,0.022566404193639755,0.00019339026766829193,0.00019166123820468783,0.0016050131525844336,0,1,-1000,0,1,0,-1,1,1,1500,1500.0
14:04:06.670,AUTO,-35.3632622,149.1652375,0,-0.0010662577114999294,0.0009724113042466342,0.022566404193639755,0.00019339026766829193,0.00019166123820468783,0.0016050131525844336,0,1,-1000,0,1,0,-1,1,1,1500,1500.0
14:04:06.878,AUTO,-35.3632622,149.1652375,3,-0.0008675598655827343,0.0010432676644995809,0.02230449579656124,0.0001744891342241317,0.0003163761575706303,0.0016075093299150467,0,16,-977,0,0,0,0,1,2,1500,1500.0
14:04:07.092,AUTO,-35.3632622,149.1652375,0,-0.0007808601367287338,0.0012050541117787361,0.02212008647620678,0.0002632379764690995,0.00031128147384151816,0.0014961033593863249,0,2,-1000,0,1,0,0,0,2,1500,1500.0
14:04:07.297,AUTO,-35.3632622,149.1652375,0,-0.0007808601367287338,0.0012050541117787361,0.02212008647620678,0.0002632379764690995,0.00031128147384151816,0.0014961033593863249,0,2,-1000,0,1,0,0,0,2,1500,1500.0
14:04:07.501,AUTO,-35.3632622,149.1652375,0,-0.0007808601367287338,0.0012050541117787361,0.02212008647620678,0.0002632379764690995,0.00031128147384151816,0.0014961033593863249,0,2,-1000,0,1,0,0,0,2,1500,1500.0
14:04:07.706,AUTO,-35.3632622,149.1652375,0,-0.0007808601367287338,0.0012050541117787361,0.02212008647620678,0.0002632379764690995,0.00031128147384151816,0.0014961033593863249,0,2,-1000,0,1,0,0,0,2,1500,1500.0
14:04:07.910,AUTO,-35.3632622,149.1652375,0,-0.0007808601367287338,0.0012050541117787361,0.02212008647620678,0.0002632379764690995,0.00031128147384151816,0.0014961033593863249,0,2,-1000,0,1,0,0,0,2,1500,1500.0
14:04:08.119,AUTO,-35.3632622,149.1652375,0,-0.0007808601367287338,0.0012050541117787361,0.02212008647620678,0.0002632379764690995,0.00031128147384151816,0.0014961033593863249,0,2,-1000,0,1,0,0,0,2,1500,1500.0
14:04:08.322,AUTO,-35.3632622,149.1652375,0,-0.0007808601367287338,0.0012050541117787361,0.02212008647620678,0.0002632379764690995,0.00031128147384151816,0.0014961033593863249,0,2,-1000,0,1,0,0,0,2,1500,1500.0
14:04:08.524,AUTO,-35.3632622,149.1652375,0,-0.0007808601367287338,0.0012050541117787361,0.02212008647620678,0.0002632379764690995,0.00031128147384151816,0.0014961033593863249,0,2,-1000,0,1,0,0,0,2,1500,1500.0
14:04:08.727,AUTO,-35.3632622,149.1652375,0,-0.0007808601367287338,0.0012050541117787361,0.02212008647620678,0.0002632379764690995,0.00031128147384151816,0.0014961033593863249,0,2,-1000,0,1,0,0,0,2,1500,1500.0
14:04:08.930,AUTO,-35.3632622,149.1652375,0,-0.0007808601367287338,0.0012050541117787361,0.02212008647620678,0.0002632379764690995,0.00031128147384151816,0.0014961033593863249,0,2,-1000,0,1,0,0,0,2,1500,1500.0
14:04:09.137,AUTO,-35.3632622,149.1652375,0,-0.0007808601367287338,0.0012050541117787361,0.02212008647620678,0.0002632379764690995,0.00031128147384151816,0.0014961033593863249,0,2,-1000,0,1,0,0,0,2,1500,1500.0
14:04:09.342,AUTO,-35.3632622,149.1652374,0,-0.0004204986325930804,0.0017455591587349772,0.021599290892481804,0.00032439871574752033,0.00031763321021571755,0.0015577314188703895,0,2,-1000,0,0,0,0,0,1,1500,1500.0
14:04:09.545,AUTO,-35.3632622,149.1652374,77,0.004533875733613968,-0.000687961932271719,0.02154817245900631,-0.014664804562926292,0.00010958238271996379,0.002560173626989126,0,-1,-1140,-14,0,1,0,0,-44,1500,1500.0
14:04:09.751,AUTO,-35.3632622,149.1652374,77,0.004533875733613968,-0.000687961932271719,0.02154817245900631,-0.014664804562926292,0.00010958238271996379,0.002560173626989126,0,-1,-1140,-14,0,1,0,0,-44,1500,1500.0
14:04:09.957,AUTO,-35.3632622,149.1652374,77,0.004533875733613968,-0.000687961932271719,0.02154817245900631,-0.014664804562926292,0.00010958238271996379,0.002560173626989126,0,-1,-1140,-14,0,1,0,0,-44,1500,1500.0
14:04:10.163,AUTO,-35.3632622,149.1652374,77,0.004533875733613968,-0.000687961932271719,0.02154817245900631,-0.014664804562926292,0.00010958238271996379,0.002560173626989126,0,-1,-1140,-14,0,1,0,0,-44,1500,1500.0
14:04:10.365,AUTO,-35.3632622,149.1652374,77,0.004533875733613968,-0.000687961932271719,0.02154817245900631,-0.014664804562926292,0.00010958238271996379,0.002560173626989126,0,-1,-1140,-14,0,1,0,0,-44,1500,1500.0
14:04:10.570,AUTO,-35.3632622,149.1652374,77,0.004533875733613968,-0.000687961932271719,0.02154817245900631,-0.014664804562926292,0.00010958238271996379,0.002560173626989126,0,-1,-1140,-14,0,1,0,0,-44,1500,1500.0
14:04:10.778,AUTO,-35.3632622,149.1652374,77,0.004533875733613968,-0.000687961932271719,0.02154817245900631,-0.014664804562926292,0.00010958238271996379,0.002560173626989126,0,-1,-1140,-14,0,1,0,0,-44,1500,1500.0
14:04:10.981,AUTO,-35.3632622,149.1652374,77,0.004533875733613968,-0.000687961932271719,0.02154817245900631,-0.014664804562926292,0.00010958238271996379,0.002560173626989126,0,-1,-1140,-14,0,1,0,0,-44,1500,1500.0
14:04:11.182,AUTO,-35.3632622,149.1652374,77,0.004533875733613968,-0.000687961932271719,0.02154817245900631,-0.014664804562926292,0.00010958238271996379,0.002560173626989126,0,-1,-1140,-14,0,1,0,0,-44,1500,1500.0
14:04:11.387,AUTO,-35.3632621,149.1652375,1175,0.014050764963030815,0.000498456705827266,0.02126738429069519,0.047530397772789,-0.006770355626940727,0.001747306203469634,0,0,-1030,47,-6,1,0,2,-141,1500,1500.0
14:04:11.593,AUTO,-35.3632617,149.1652391,2706,0.057684239000082016,-0.004550568759441376,-0.012292781844735146,-0.06142614781856537,0.07033562660217285,-0.08512220531702042,2,-5,-999,38,-11,3,6,34,-148,1500,1500.0
14:04:11.794,AUTO,-35.3632615,149.1652402,3092,0.057684239000082016,-0.004550568759441376,-0.012292781844735146,-0.06142614781856537,0.07033562660217285,-0.08512220531702042,1,-9,-990,-61,70,-85,9,46,-147,1500,1500.0
14:04:11.997,AUTO,-35.3632615,149.1652402,3092,0.057684239000082016,-0.004550568759441376,-0.012292781844735146,-0.06142614781856537,0.07033562660217285,-0.08512220531702042,1,-9,-990,-61,70,-85,9,46,-147,1500,1500.0
14:04:12.203,AUTO,-35.3632615,149.1652402,3092,0.057684239000082016,-0.004550568759441376,-0.012292781844735146,-0.06142614781856537,0.07033562660217285,-0.08512220531702042,1,-9,-990,-61,70,-85,9,46,-147,1500,1500.0
14:04:12.409,AUTO,-35.3632615,149.1652402,3092,0.057684239000082016,-0.004550568759441376,-0.012292781844735146,-0.06142614781856537,0.07033562660217285,-0.08512220531702042,1,-9,-990,-61,70,-85,9,46,-147,1500,1500.0
14:04:12.612,AUTO,-35.3632615,149.1652402,3092,0.057684239000082016,-0.004550568759441376,-0.012292781844735146,-0.06142614781856537,0.07033562660217285,-0.08512220531702042,1,-9,-990,-61,70,-85,9,46,-147,1500,1500.0
14:04:12.814,AUTO,-35.3632615,149.1652402,3092,0.057684239000082016,-0.004550568759441376,-0.012292781844735146,-0.06142614781856537,0.07033562660217285,-0.08512220531702042,1,-9,-990,-61,70,-85,9,46,-147,1500,1500.0
14:04:13.015,AUTO,-35.3632615,149.1652402,3092,0.057684239000082016,-0.004550568759441376,-0.012292781844735146,-0.06142614781856537,0.07033562660217285,-0.08512220531702042,1,-9,-990,-61,70,-85,9,46,-147,1500,1500.0
14:04:13.219,AUTO,-35.3632615,149.1652402,3092,0.057684239000082016,-0.004550568759441376,-0.012292781844735146,-0.06142614781856537,0.07033562660217285,-0.08512220531702042,1,-9,-990,-61,70,-85,9,46,-147,1500,1500.0
14:04:13.425,AUTO,-35.3632615,149.1652402,3092,0.057684239000082016,-0.004550568759441376,-0.012292781844735146,-0.06142614781856537,0.07033562660217285,-0.08512220531702042,1,-9,-990,-61,70,-85,9,46,-147,1500,1500.0
14:04:13.629,AUTO,-35.3632609,149.1652463,5154,-0.051856037229299545,0.005971514154225588,-0.0887921005487442,-0.06315869092941284,-0.03850064054131508,-0.00941946730017662,3,-4,-998,-63,-38,-9,-4,14,-149,1500,1500.0
14:04:13.833,AUTO,-35.3632611,149.1652455,6314,-0.0615040585398674,-0.01095091924071312,-0.09013613313436508,0.05395250767469406,-0.0001563715049996972,-0.0020403065718710423,-2,5,-1001,54,0,-2,-2,-36,-149,1500,1500.0
14:04:14.035,AUTO,-35.3632611,149.1652455,6314,-0.0615040585398674,-0.01095091924071312,-0.09013613313436508,0.05395250767469406,-0.0001563715049996972,-0.0020403065718710423,-2,5,-1001,54,0,-2,-2,-36,-149,1500,1500.0
14:04:14.243,AUTO,-35.3632611,149.1652455,6314,-0.0615040585398674,-0.01095091924071312,-0.09013613313436508,0.05395250767469406,-0.0001563715049996972,-0.0020403065718710423,-2,5,-1001,54,0,-2,-2,-36,-149,1500,1500.0
14:04:14.451,AUTO,-35.3632611,149.1652455,6314,-0.0615040585398674,-0.01095091924071312,-0.09013613313436508,0.05395250767469406,-0.0001563715049996972,-0.0020403065718710423,-2,5,-1001,54,0,-2,-2,-36,-149,1500,1500.0
14:04:14.654,AUTO,-35.3632611,149.1652455,6314,-0.0615040585398674,-0.01095091924071312,-0.09013613313436508,0.05395250767469406,-0.0001563715049996972,-0.0020403065718710423,-2,5,-1001,54,0,-2,-2,-36,-149,1500,1500.0
14:04:14.857,AUTO,-35.3632611,149.1652455,6314,-0.0615040585398674,-0.01095091924071312,-0.09013613313436508,0.05395250767469406,-0.0001563715049996972,-0.0020403065718710423,-2,5,-1001,54,0,-2,-2,-36,-149,1500,1500.0
14:04:15.063,AUTO,-35.3632614,149.1652375,8410,0.023127656430006027,0.003096130210906267,-0.09106367826461792,0.06573889404535294,0.013931389898061752,0.0037493216805160046,-7,12,-1004,66,14,3,-3,-51,-153,1835,1500.0
14:04:15.265,AUTO,-35.3632614,149.1652375,8410,0.023127656430006027,0.003096130210906267,-0.09106367826461792,0.06573889404535294,0.013931389898061752,0.0037493216805160046,-7,12,-1004,66,14,3,-3,-51,-153,1835,1500.0
14:04:15.467,AUTO,-35.3632614,149.1652375,8410,0.023127656430006027,0.003096130210906267,-0.09106367826461792,0.06573889404535294,0.013931389898061752,0.0037493216805160046,-7,12,-1004,66,14,3,-3,-51,-153,1835,1500.0
14:04:15.669,AUTO,-35.3632614,149.1652375,8410,0.023127656430006027,0.003096130210906267,-0.09106367826461792,0.06573889404535294,0.013931389898061752,0.0037493216805160046,-7,12,-1004,66,14,3,-3,-51,-153,1835,1500.0
14:04:15.872,AUTO,-35.3632614,149.1652375,8410,0.023127656430006027,0.003096130210906267,-0.09106367826461792,0.06573889404535294,0.013931389898061752,0.0037493216805160046,-7,12,-1004,66,14,3,-3,-51,-153,1835,1500.0
14:04:16.073,AUTO,-35.3632614,149.1652375,8410,0.023127656430006027,0.003096130210906267,-0.09106367826461792,0.06573889404535294,0.013931389898061752,0.0037493216805160046,-7,12,-1004,66,14,3,-3,-51,-153,1835,1500.0
14:04:16.276,AUTO,-35.3632607,149.1652317,10085,0.013620283454656601,-0.02974429726600647,0.8200794458389282,0.04270534962415695,-0.007692035753279924,0.7208857536315918,-1,9,-1003,42,-7,720,18,-32,-145,1835,1500.0
14:04:16.477,AUTO,-35.3632603,149.1652309,10459,0.01596464402973652,-0.036951322108507156,1.000217318534851,0.03020915575325489,-0.02316943369805813,0.7293291687965393,0,8,-1000,30,-22,729,19,-22,-145,1835,1500.0
14:04:16.680,AUTO,-35.3632599,149.1652304,10837,0.015499182976782322,-0.04585668817162514,1.1851392984390259,0.027767732739448547,-0.023357946425676346,0.7597053647041321,0,5,-997,28,-22,759,19,-11,-145,1835,1500.0
14:04:16.882,AUTO,-35.3632599,149.1652304,10837,0.015499182976782322,-0.04585668817162514,1.1851392984390259,0.027767732739448547,-0.023357946425676346,0.7597053647041321,0,5,-997,28,-22,759,19,-11,-145,1835,1500.0
14:04:17.085,AUTO,-35.3632595,149.1652302,11208,0.012309631332755089,-0.05380290746688843,1.378901720046997,0.02630353718996048,-0.019338181242346764,0.7880775928497314,-1,4,-998,26,-18,787,18,1,-144,1835,1500.0
14:04:17.295,AUTO,-35.3632595,149.1652302,11208,0.012309631332755089,-0.05380290746688843,1.378901720046997,0.02630353718996048,-0.019338181242346764,0.7880775928497314,-1,4,-998,26,-18,787,18,1,-144,1835,1500.0
14:04:17.504,AUTO,-35.3632595,149.1652302,11208,0.012309631332755089,-0.05380290746688843,1.378901720046997,0.02630353718996048,-0.019338181242346764,0.7880775928497314,-1,4,-998,26,-18,787,18,1,-144,1835,1500.0
14:04:17.734,AUTO,-35.3632595,149.1652302,11208,0.012309631332755089,-0.05380290746688843,1.378901720046997,0.02630353718996048,-0.019338181242346764,0.7880775928497314,-1,4,-998,26,-18,787,18,1,-144,1835,1500.0
14:04:17.954,AUTO,-35.3632595,149.1652302,11208,0.012309631332755089,-0.05380290746688843,1.378901720046997,0.02630353718996048,-0.019338181242346764,0.7880775928497314,-1,4,-998,26,-18,787,18,1,-144,1835,1500.0
14:04:18.203,AUTO,-35.3632595,149.1652302,11208,0.012309631332755089,-0.05380290746688843,1.378901720046997,0.02630353718996048,-0.019338181242346764,0.7880775928497314,-1,4,-998,26,-18,787,18,1,-144,1835,1500.0
14:04:18.415,AUTO,-35.3632595,149.1652302,11208,0.012309631332755089,-0.05380290746688843,1.378901720046997,0.02630353718996048,-0.019338181242346764,0.7880775928497314,-1,4,-998,26,-18,787,18,1,-144,1835,1500.0
14:04:18.619,AUTO,-35.3632595,149.1652302,11208,0.012309631332755089,-0.05380290746688843,1.378901720046997,0.02630353718996048,-0.019338181242346764,0.7880775928497314,-1,4,-998,26,-18,787,18,1,-144,1835,1500.0
14:04:18.823,AUTO,-35.3632586,149.1652312,12166,0.0064229718409478664,-0.05846560001373291,1.8888983726501465,0.04240039363503456,0.014772378839552402,0.7858840823173523,-6,2,-1000,43,15,785,10,34,-143,1835,1500.0
14:04:19.026,AUTO,-35.3632594,149.1652375,14067,0.04247194156050682,-0.031209107488393784,2.4374828338623047,0.024525603279471397,0.05339653789997101,0.047004688531160355,-13,-1,-994,25,54,46,-32,49,-150,1500,1500.0
14:04:19.231,AUTO,-35.3632594,149.1652375,14067,0.04247194156050682,-0.031209107488393784,2.4374828338623047,0.024525603279471397,0.05339653789997101,0.047004688531160355,-13,-1,-994,25,54,46,-32,49,-150,1500,1500.0
14:04:19.435,AUTO,-35.3632594,149.1652375,14067,0.04247194156050682,-0.031209107488393784,2.4374828338623047,0.024525603279471397,0.05339653789997101,0.047004688531160355,-13,-1,-994,25,54,46,-32,49,-150,1500,1500.0
14:04:19.640,AUTO,-35.3632594,149.1652375,14067,0.04247194156050682,-0.031209107488393784,2.4374828338623047,0.024525603279471397,0.05339653789997101,0.047004688531160355,-13,-1,-994,25,54,46,-32,49,-150,1500,1500.0
14:04:19.842,AUTO,-35.3632594,149.1652375,14067,0.04247194156050682,-0.031209107488393784,2.4374828338623047,0.024525603279471397,0.05339653789997101,0.047004688531160355,-13,-1,-994,25,54,46,-32,49,-150,1500,1500.0
14:04:20.046,AUTO,-35.3632594,149.1652375,14067,0.04247194156050682,-0.031209107488393784,2.4374828338623047,0.024525603279471397,0.05339653789997101,0.047004688531160355,-13,-1,-994,25,54,46,-32,49,-150,1500,1500.0
14:04:20.255,AUTO,-35.3632594,149.1652375,14067,0.04247194156050682,-0.031209107488393784,2.4374828338623047,0.024525603279471397,0.05339653789997101,0.047004688531160355,-13,-1,-994,25,54,46,-32,49,-150,1500,1500.0
14:04:20.461,AUTO,-35.3632594,149.1652375,14067,0.04247194156050682,-0.031209107488393784,2.4374828338623047,0.024525603279471397,0.05339653789997101,0.047004688531160355,-13,-1,-994,25,54,46,-32,49,-150,1500,1500.0
14:04:20.667,AUTO,-35.3632594,149.1652375,14067,0.04247194156050682,-0.031209107488393784,2.4374828338623047,0.024525603279471397,0.05339653789997101,0.047004688531160355,-13,-1,-994,25,54,46,-32,49,-150,1500,1500.0
14:04:20.872,AUTO,-35.3632594,149.1652375,14067,0.04247194156050682,-0.031209107488393784,2.4374828338623047,0.024525603279471397,0.05339653789997101,0.047004688531160355,-13,-1,-994,25,54,46,-32,49,-150,1500,1500.0
14:04:21.084,AUTO,-35.3632646,149.1652398,16789,0.03543658182024956,0.08000052720308304,2.310710906982422,0.02483946457505226,0.0015888328198343515,-0.1756114959716797,5,-5,-996,25,2,-175,-15,-40,-150,1500,1500.0
14:04:21.287,AUTO,-35.3632651,149.1652366,17551,0.04068738594651222,0.06482423841953278,2.235973834991455,0.006354935467243195,-0.07685703039169312,-0.07771643996238708,14,-6,-1000,6,-76,-77,-7,-74,-148,1500,1500.0
14:04:21.492,AUTO,-35.3632651,149.1652366,17551,0.04068738594651222,0.06482423841953278,2.235973834991455,0.006354935467243195,-0.07685703039169312,-0.07771643996238708,14,-6,-1000,6,-76,-77,-7,-74,-148,1500,1500.0
14:04:21.694,AUTO,-35.3632651,149.1652366,17551,0.04068738594651222,0.06482423841953278,2.235973834991455,0.006354935467243195,-0.07685703039169312,-0.07771643996238708,14,-6,-1000,6,-76,-77,-7,-74,-148,1500,1500.0
14:04:21.897,AUTO,-35.3632651,149.1652366,17551,0.04068738594651222,0.06482423841953278,2.235973834991455,0.006354935467243195,-0.07685703039169312,-0.07771643996238708,14,-6,-1000,6,-76,-77,-7,-74,-148,1500,1500.0
14:04:22.102,AUTO,-35.3632651,149.1652366,17551,0.04068738594651222,0.06482423841953278,2.235973834991455,0.006354935467243195,-0.07685703039169312,-0.07771643996238708,14,-6,-1000,6,-76,-77,-7,-74,-148,1500,1500.0
14:04:22.310,AUTO,-35.3632651,149.1652366,17551,0.04068738594651222,0.06482423841953278,2.235973834991455,0.006354935467243195,-0.07685703039169312,-0.07771643996238708,14,-6,-1000,6,-76,-77,-7,-74,-148,1500,1500.0
14:04:22.513,AUTO,-35.3632651,149.1652366,17551,0.04068738594651222,0.06482423841953278,2.235973834991455,0.006354935467243195,-0.07685703039169312,-0.07771643996238708,14,-6,-1000,6,-76,-77,-7,-74,-148,1500,1500.0
14:04:22.717,AUTO,-35.3632651,149.1652366,17551,0.04068738594651222,0.06482423841953278,2.235973834991455,0.006354935467243195,-0.07685703039169312,-0.07771643996238708,14,-6,-1000,6,-76,-77,-7,-74,-148,1500,1500.0
14:04:22.922,AUTO,-35.3632651,149.1652366,17551,0.04068738594651222,0.06482423841953278,2.235973834991455,0.006354935467243195,-0.07685703039169312,-0.07771643996238708,14,-6,-1000,6,-76,-77,-7,-74,-148,1500,1500.0
14:04:23.124,AUTO,-35.3632651,149.1652366,17551,0.04068738594651222,0.06482423841953278,2.235973834991455,0.006354935467243195,-0.07685703039169312,-0.07771643996238708,14,-6,-1000,6,-76,-77,-7,-74,-148,1500,1500.0
14:04:23.327,AUTO,-35.3632651,149.1652366,17551,0.04068738594651222,0.06482423841953278,2.235973834991455,0.006354935467243195,-0.07685703039169312,-0.07771643996238708,14,-6,-1000,6,-76,-77,-7,-74,-148,1500,1500.0
14:04:23.531,AUTO,-35.3632662,149.1652253,19386,-0.03787248209118843,-0.025251585990190506,2.1993913650512695,-0.06992795318365097,-0.06024286523461342,-0.015004877001047134,21,-4,-1009,-69,-59,-15,-10,-72,-153,1500,1500.0
14:04:23.737,AUTO,-35.3632663,149.1652217,20955,-0.09066183865070343,-0.06685306131839752,2.1931025981903076,-0.040600258857011795,-0.023544076830148697,0.0044524772092700005,5,0,-1000,-47,-31,-5,11,14,-152,1500,1500.0
14:04:23.942,AUTO,-35.3632654,149.1652238,21718,-0.08619263023138046,-0.07253637164831161,2.1940062046051025,0.05686254799365997,0.017570720985531807,0.000599498744122684,-12,6,-998,57,18,0,29,66,-148,1500,1500.0
14:04:24.145,AUTO,-35.3632654,149.1652238,21718,-0.08619263023138046,-0.07253637164831161,2.1940062046051025,0.05686254799365997,0.017570720985531807,0.000599498744122684,-12,6,-998,57,18,0,29,66,-148,1500,1500.0
14:04:24.350,AUTO,-35.3632654,149.1652238,21718,-0.08619263023138046,-0.07253637164831161,2.1940062046051025,0.05686254799365997,0.017570720985531807,0.000599498744122684,-12,6,-998,57,18,0,29,66,-148,1500,1500.0
14:04:24.557,AUTO,-35.3632654,149.1652238,21718,-0.08619263023138046,-0.07253637164831161,2.1940062046051025,0.05686254799365997,0.017570720985531807,0.000599498744122684,-12,6,-998,57,18,0,29,66,-148,1500,1500.0
14:04:24.760,AUTO,-35.3632654,149.1652238,21718,-0.08619263023138046,-0.07253637164831161,2.1940062046051025,0.05686254799365997,0.017570720985531807,0.000599498744122684,-12,6,-998,57,18,0,29,66,-148,1500,1500.0
14:04:24.963,AUTO,-35.3632654,149.1652238,21718,-0.08619263023138046,-0.07253637164831161,2.1940062046051025,0.05686254799365997,0.017570720985531807,0.000599498744122684,-12,6,-998,57,18,0,29,66,-148,1500,1500.0
14:04:25.168,AUTO,-35.3632654,149.1652238,21718,-0.08619263023138046,-0.07253637164831161,2.1940062046051025,0.05686254799365997,0.017570720985531807,0.000599498744122684,-12,6,-998,57,18,0,29,66,-148,1500,1500.0
14:04:25.375,AUTO,-35.3632654,149.1652238,21718,-0.08619263023138046,-0.07253637164831161,2.1940062046051025,0.05686254799365997,0.017570720985531807,0.000599498744122684,-12,6,-998,57,18,0,29,66,-148,1500,1500.0
14:04:25.609,AUTO,-35.3632654,149.1652238,21718,-0.08619263023138046,-0.07253637164831161,2.1940062046051025,0.05686254799365997,0.017570720985531807,0.000599498744122684,-12,6,-998,57,18,0,29,66,-148,1500,1500.0
14:04:25.887,AUTO,-35.3632654,149.1652238,21718,-0.08619263023138046,-0.07253637164831161,2.1940062046051025,0.05686254799365997,0.017570720985531807,0.000599498744122684,-12,6,-998,57,18,0,29,66,-148,1500,1500.0
14:04:26.093,AUTO,-35.3632571,149.1652466,24704,0.04429941624403,0.041331660002470016,2.193793535232544,0.07045146822929382,0.05825571343302727,0.0024193464778363705,-20,14,-1010,70,59,1,49,80,-158,1500,1500.0
14:04:26.348,AUTO,-35.3632571,149.1652466,24704,0.04429941624403,0.041331660002470016,2.193793535232544,0.07045146822929382,0.05825571343302727,0.0024193464778363705,-20,14,-1010,70,59,1,49,80,-158,1500,1500.0
14:04:26.557,AUTO,-35.3632571,149.1652466,24704,0.04429941624403,0.041331660002470016,2.193793535232544,0.07045146822929382,0.05825571343302727,0.0024193464778363705,-20,14,-1010,70,59,1,49,80,-158,1500,1500.0
14:04:26.768,AUTO,-35.3632571,149.1652466,24704,0.04429941624403,0.041331660002470016,2.193793535232544,0.07045146822929382,0.05825571343302727,0.0024193464778363705,-20,14,-1010,70,59,1,49,80,-158,1500,1500.0
14:04:26.969,AUTO,-35.3632571,149.1652466,24704,0.04429941624403,0.041331660002470016,2.193793535232544,0.07045146822929382,0.05825571343302727,0.0024193464778363705,-20,14,-1010,70,59,1,49,80,-158,1500,1500.0
14:04:27.170,AUTO,-35.3632571,149.1652466,24704,0.04429941624403,0.041331660002470016,2.193793535232544,0.07045146822929382,0.05825571343302727,0.0024193464778363705,-20,14,-1010,70,59,1,49,80,-158,1500,1500.0
14:04:27.377,AUTO,-35.3632571,149.1652466,24704,0.04429941624403,0.041331660002470016,2.193793535232544,0.07045146822929382,0.05825571343302727,0.0024193464778363705,-20,14,-1010,70,59,1,49,80,-158,1500,1500.0
14:04:27.579,AUTO,-35.3632535,149.1652511,26269,0.05108952149748802,-0.000382494879886508,2.4771647453308105,-0.04674866795539856,-0.10489785671234131,0.7404832243919373,0,7,-999,-46,-104,740,26,-2,-144,1801,1500.0
14:04:27.787,AUTO,-35.3632529,149.1652507,27377,0.03072485513985157,-0.06583377718925476,3.044370651245117,0.030998757109045982,-0.014791040681302547,0.77113276720047,0,-2,-1000,31,-14,770,-14,-18,-145,1801,1500.0
14:04:28.002,AUTO,-35.3632529,149.1652507,27377,0.03072485513985157,-0.06583377718925476,3.044370651245117,0.030998757109045982,-0.014791040681302547,0.77113276720047,0,-2,-1000,31,-14,770,-14,-18,-145,1801,1500.0
14:04:28.203,AUTO,-35.3632529,149.1652507,27377,0.03072485513985157,-0.06583377718925476,3.044370651245117,0.030998757109045982,-0.014791040681302547,0.77113276720047,0,-2,-1000,31,-14,770,-14,-18,-145,1801,1500.0
14:04:28.420,AUTO,-35.3632529,149.1652507,27377,0.03072485513985157,-0.06583377718925476,3.044370651245117,0.030998757109045982,-0.014791040681302547,0.77113276720047,0,-2,-1000,31,-14,770,-14,-18,-145,1801,1500.0
14:04:28.628,AUTO,-35.3632529,149.1652507,27377,0.03072485513985157,-0.06583377718925476,3.044370651245117,0.030998757109045982,-0.014791040681302547,0.77113276720047,0,-2,-1000,31,-14,770,-14,-18,-145,1801,1500.0
14:04:28.835,AUTO,-35.3632529,149.1652507,27377,0.03072485513985157,-0.06583377718925476,3.044370651245117,0.030998757109045982,-0.014791040681302547,0.77113276720047,0,-2,-1000,31,-14,770,-14,-18,-145,1801,1500.0
14:04:29.047,AUTO,-35.3632591,149.1652449,29500,0.05810518562793732,-0.02849360927939415,-2.2156693935394287,0.06656794250011444,0.09302288293838501,0.7051572203636169,-18,-8,-1006,67,94,704,-57,-69,-144,1801,1500.0
14:04:29.249,AUTO,-35.3632591,149.1652449,29500,0.05810518562793732,-0.02849360927939415,-2.2156693935394287,0.06656794250011444,0.09302288293838501,0.7051572203636169,-18,-8,-1006,67,94,704,-57,-69,-144,1801,1500.0
14:04:29.451,AUTO,-35.3632591,149.1652449,29500,0.05810518562793732,-0.02849360927939415,-2.2156693935394287,0.06656794250011444,0.09302288293838501,0.7051572203636169,-18,-8,-1006,67,94,704,-57,-69,-144,1801,1500.0
14:04:29.655,AUTO,-35.3632591,149.1652449,29500,0.05810518562793732,-0.02849360927939415,-2.2156693935394287,0.06656794250011444,0.09302288293838501,0.7051572203636169,-18,-8,-1006,67,94,704,-57,-69,-144,1801,1500.0
14:04:29.858,AUTO,-35.3632591,149.1652449,29500,0.05810518562793732,-0.02849360927939415,-2.2156693935394287,0.06656794250011444,0.09302288293838501,0.7051572203636169,-18,-8,-1006,67,94,704,-57,-69,-144,1801,1500.0
14:04:30.060,AUTO,-35.3632591,149.1652449,29500,0.05810518562793732,-0.02849360927939415,-2.2156693935394287,0.06656794250011444,0.09302288293838501,0.7051572203636169,-18,-8,-1006,67,94,704,-57,-69,-144,1801,1500.0
14:04:30.283,AUTO,-35.3632591,149.1652449,29500,0.05810518562793732,-0.02849360927939415,-2.2156693935394287,0.06656794250011444,0.09302288293838501,0.7051572203636169,-18,-8,-1006,67,94,704,-57,-69,-144,1801,1500.0
14:04:30.578,AUTO,-35.3632615,149.1652396,30481,0.08298827707767487,-0.0077176280319690704,-1.896411657333374,0.03653038293123245,0.04621708765625954,0.3112073540687561,-18,-8,-1006,67,94,704,-21,-83,-152,1801,1500.0
14:04:30.786,AUTO,-35.3632602,149.1652308,32032,0.05332295596599579,0.07537171989679337,-1.7825928926467896,-0.08136474341154099,0.13582025468349457,-0.07392535358667374,-5,-19,-1008,-80,136,-74,49,-66,-152,1500,1500.0
14:04:31.004,AUTO,-35.363259,149.1652292,32419,0.03263666480779648,0.10635492950677872,-1.8054741621017456,-0.06518462300300598,0.1062990352511406,-0.10797768831253052,0,-18,-1008,-64,107,-108,60,-44,-152,1500,1500.0
14:04:31.222,AUTO,-35.363259,149.1652292,32419,0.03263666480779648,0.10635492950677872,-1.8054741621017456,-0.06518462300300598,0.1062990352511406,-0.10797768831253052,0,-18,-1008,-64,107,-108,60,-44,-152,1500,1500.0
14:04:31.448,AUTO,-35.363259,149.1652292,32419,0.03263666480779648,0.10635492950677872,-1.8054741621017456,-0.06518462300300598,0.1062990352511406,-0.10797768831253052,0,-18,-1008,-64,107,-108,60,-44,-152,1500,1500.0
14:04:31.676,AUTO,-35.363259,149.1652292,32419,0.03263666480779648,0.10635492950677872,-1.8054741621017456,-0.06518462300300598,0.1062990352511406,-0.10797768831253052,0,-18,-1008,-64,107,-108,60,-44,-152,1500,1500.0
14:04:31.932,AUTO,-35.363259,149.1652292,32419,0.03263666480779648,0.10635492950677872,-1.8054741621017456,-0.06518462300300598,0.1062990352511406,-0.10797768831253052,0,-18,-1008,-64,107,-108,60,-44,-152,1500,1500.0
14:04:32.137,AUTO,-35.363259,149.1652292,32419,0.03263666480779648,0.10635492950677872,-1.8054741621017456,-0.06518462300300598,0.1062990352511406,-0.10797768831253052,0,-18,-1008,-64,107,-108,60,-44,-152,1500,1500.0
14:04:32.351,AUTO,-35.363259,149.1652292,32419,0.03263666480779648,0.10635492950677872,-1.8054741621017456,-0.06518462300300598,0.1062990352511406,-0.10797768831253052,0,-18,-1008,-64,107,-108,60,-44,-152,1500,1500.0
14:04:32.552,AUTO,-35.363259,149.1652292,32419,0.03263666480779648,0.10635492950677872,-1.8054741621017456,-0.06518462300300598,0.1062990352511406,-0.10797768831253052,0,-18,-1008,-64,107,-108,60,-44,-152,1500,1500.0
14:04:32.755,AUTO,-35.3632503,149.1652335,34700,-0.07440517842769623,-0.012170558795332909,-1.8632173538208008,-0.022297335788607597,-0.11451134085655212,-0.0191224105656147,17,3,-1011,-21,-113,-19,32,64,-151,1500,1500.0
14:04:32.958,AUTO,-35.3632496,149.1652369,35473,-0.08147488534450531,-0.059392161667346954,-1.8694028854370117,-0.003908042795956135,-0.08321653306484222,-0.015864819288253784,11,8,-1004,-3,-82,-15,-8,51,-153,1500,1500.0
14:04:33.161,AUTO,-35.3632496,149.1652369,35473,-0.08147488534450531,-0.059392161667346954,-1.8694028854370117,-0.003908042795956135,-0.08321653306484222,-0.015864819288253784,11,8,-1004,-3,-82,-15,-8,51,-153,1500,1500.0
14:04:33.366,AUTO,-35.3632496,149.1652369,35473,-0.08147488534450531,-0.059392161667346954,-1.8694028854370117,-0.003908042795956135,-0.08321653306484222,-0.015864819288253784,11,8,-1004,-3,-82,-15,-8,51,-153,1500,1500.0
14:04:33.572,AUTO,-35.3632496,149.1652369,35473,-0.08147488534450531,-0.059392161667346954,-1.8694028854370117,-0.003908042795956135,-0.08321653306484222,-0.015864819288253784,11,8,-1004,-3,-82,-15,-8,51,-153,1500,1500.0
14:04:33.774,AUTO,-35.3632496,149.1652369,35473,-0.08147488534450531,-0.059392161667346954,-1.8694028854370117,-0.003908042795956135,-0.08321653306484222,-0.015864819288253784,11,8,-1004,-3,-82,-15,-8,51,-153,1500,1500.0
14:04:33.981,AUTO,-35.3632496,149.1652369,35473,-0.08147488534450531,-0.059392161667346954,-1.8694028854370117,-0.003908042795956135,-0.08321653306484222,-0.015864819288253784,11,8,-1004,-3,-82,-15,-8,51,-153,1500,1500.0
14:04:34.185,AUTO,-35.3632496,149.1652369,35473,-0.08147488534450531,-0.059392161667346954,-1.8694028854370117,-0.003908042795956135,-0.08321653306484222,-0.015864819288253784,11,8,-1004,-3,-82,-15,-8,51,-153,1500,1500.0
14:04:34.387,AUTO,-35.3632496,149.1652369,35473,-0.08147488534450531,-0.059392161667346954,-1.8694028854370117,-0.003908042795956135,-0.08321653306484222,-0.015864819288253784,11,8,-1004,-3,-82,-15,-8,51,-153,1500,1500.0
14:04:34.588,AUTO,-35.3632496,149.1652369,35473,-0.08147488534450531,-0.059392161667346954,-1.8694028854370117,-0.003908042795956135,-0.08321653306484222,-0.015864819288253784,11,8,-1004,-3,-82,-15,-8,51,-153,1500,1500.0
14:04:34.791,AUTO,-35.3632496,149.1652369,35473,-0.08147488534450531,-0.059392161667346954,-1.8694028854370117,-0.003908042795956135,-0.08321653306484222,-0.015864819288253784,11,8,-1004,-3,-82,-15,-8,51,-153,1500,1500.0
14:04:34.995,AUTO,-35.3632522,149.1652396,36629,-0.052589479833841324,-0.09255994856357574,-1.8758060932159424,0.066301129758358,0.006156326271593571,-0.0034729393664747477,-7,11,-1000,66,6,-3,-69,7,-151,1500,1500.0
14:04:35.198,AUTO,-35.3632624,149.1652363,38536,0.027024585753679276,-0.04063046723604202,-1.8786909580230713,0.05826826021075249,0.06265151500701904,0.0003068834776058793,-25,6,-1007,59,63,0,-92,-53,-152,1500,1500.0
14:04:35.401,AUTO,-35.3632645,149.1652348,38924,0.04113965108990669,-0.0245837215334177,-1.8785359859466553,0.05636615678668022,0.06436801701784134,0.0003017642302438617,-24,5,-1007,57,65,0,-84,-57,-154,1500,1500.0
14:04:35.603,AUTO,-35.3632645,149.1652348,38924,0.04113965108990669,-0.0245837215334177,-1.8785359859466553,0.05636615678668022,0.06436801701784134,0.0003017642302438617,-24,5,-1007,57,65,0,-84,-57,-154,1500,1500.0
14:04:35.807,AUTO,-35.3632645,149.1652348,38924,0.04113965108990669,-0.0245837215334177,-1.8785359859466553,0.05636615678668022,0.06436801701784134,0.0003017642302438617,-24,5,-1007,57,65,0,-84,-57,-154,1500,1500.0
14:04:36.011,AUTO,-35.3632645,149.1652348,38924,0.04113965108990669,-0.0245837215334177,-1.8785359859466553,0.05636615678668022,0.06436801701784134,0.0003017642302438617,-24,5,-1007,57,65,0,-84,-57,-154,1500,1500.0
14:04:36.216,AUTO,-35.3632645,149.1652348,38924,0.04113965108990669,-0.0245837215334177,-1.8785359859466553,0.05636615678668022,0.06436801701784134,0.0003017642302438617,-24,5,-1007,57,65,0,-84,-57,-154,1500,1500.0
14:04:36.420,AUTO,-35.3632645,149.1652348,38924,0.04113965108990669,-0.0245837215334177,-1.8785359859466553,0.05636615678668022,0.06436801701784134,0.0003017642302438617,-24,5,-1007,57,65,0,-84,-57,-154,1500,1500.0
14:04:40.203,AUTO,-35.3632645,149.1652348,38924,0.04113965108990669,-0.0245837215334177,-1.8785359859466553,0.05636615678668022,0.06436801701784134,0.0003017642302438617,-24,5,-1007,57,65,0,-84,-57,-154,1500,1500.0
14:04:40.409,AUTO,-35.3632645,149.1652348,38924,0.04113965108990669,-0.0245837215334177,-1.8785359859466553,0.05636615678668022,0.06436801701784134,0.0003017642302438617,-24,5,-1007,57,65,0,-84,-57,-154,1500,1500.0
14:04:40.614,AUTO,-35.3632645,149.1652348,38924,0.04113965108990669,-0.0245837215334177,-1.8785359859466553,0.05636615678668022,0.06436801701784134,0.0003017642302438617,-24,5,-1007,57,65,0,-84,-57,-154,1500,1500.0
14:04:40.824,AUTO,-35.3632683,149.1652309,39867,0.07044710963964462,0.012700432911515236,-1.8787744045257568,0.03450251743197441,0.06629101932048798,-0.012507490813732147,-20,0,-1005,35,67,-12,-49,-58,-157,1500,1500.0
14:04:41.027,AUTO,-35.3632695,149.1652256,41451,0.0791337713599205,0.07846891134977341,-1.915546178817749,-0.0347323976457119,0.07589685171842575,-0.09638018906116486,-3,-9,-995,-34,76,-96,34,-28,-153,1500,1500.0
14:04:41.229,AUTO,-35.3632673,149.1652248,42216,0.04320929944515228,0.1261020004749298,-1.983052372932434,-0.04185561090707779,0.06338345259428024,-0.1503322422504425,9,-9,-998,-41,64,-150,74,6,-148,1500,1500.0
14:04:41.431,AUTO,-35.3632673,149.1652248,42216,0.04320929944515228,0.1261020004749298,-1.983052372932434,-0.04185561090707779,0.06338345259428024,-0.1503322422504425,9,-9,-998,-41,64,-150,74,6,-148,1500,1500.0
14:04:41.635,AUTO,-35.3632673,149.1652248,42216,0.04320929944515228,0.1261020004749298,-1.983052372932434,-0.04185561090707779,0.06338345259428024,-0.1503322422504425,9,-9,-998,-41,64,-150,74,6,-148,1500,1500.0
14:04:41.837,AUTO,-35.3632673,149.1652248,42216,0.04320929944515228,0.1261020004749298,-1.983052372932434,-0.04185561090707779,0.06338345259428024,-0.1503322422504425,9,-9,-998,-41,64,-150,74,6,-148,1500,1500.0
14:04:42.040,AUTO,-35.3632673,149.1652248,42216,0.04320929944515228,0.1261020004749298,-1.983052372932434,-0.04185561090707779,0.06338345259428024,-0.1503322422504425,9,-9,-998,-41,64,-150,74,6,-148,1500,1500.0
14:04:42.253,AUTO,-35.3632673,149.1652248,42216,0.04320929944515228,0.1261020004749298,-1.983052372932434,-0.04185561090707779,0.06338345259428024,-0.1503322422504425,9,-9,-998,-41,64,-150,74,6,-148,1500,1500.0
14:04:42.456,AUTO,-35.3632673,149.1652248,42216,0.04320929944515228,0.1261020004749298,-1.983052372932434,-0.04185561090707779,0.06338345259428024,-0.1503322422504425,9,-9,-998,-41,64,-150,74,6,-148,1500,1500.0
14:04:42.668,AUTO,-35.3632673,149.1652248,42216,0.04320929944515228,0.1261020004749298,-1.983052372932434,-0.04185561090707779,0.06338345259428024,-0.1503322422504425,9,-9,-998,-41,64,-150,74,6,-148,1500,1500.0
14:04:42.870,AUTO,-35.3632673,149.1652248,42216,0.04320929944515228,0.1261020004749298,-1.983052372932434,-0.04185561090707779,0.06338345259428024,-0.1503322422504425,9,-9,-998,-41,64,-150,74,6,-148,1500,1500.0
14:04:43.073,AUTO,-35.3632533,149.1652325,44958,-0.09062586724758148,-0.04706195741891861,-1.95462167263031,-0.08556494861841202,-0.05961620435118675,0.007229703478515148,21,-2,-1010,-94,-69,12,44,38,-155,1500,1500.0
14:04:43.276,AUTO,-35.3632526,149.1652343,45742,-0.11385171115398407,-0.0658293068408966,-1.9541151523590088,0.038608841598033905,-0.012192836031317711,-0.01010028924793005,5,5,-1003,39,-11,-10,-17,26,-153,1464,1500.0
14:04:43.483,AUTO,-35.3632526,149.1652343,45742,-0.11385171115398407,-0.0658293068408966,-1.9541151523590088,0.038608841598033905,-0.012192836031317711,-0.01010028924793005,5,5,-1003,39,-11,-10,-17,26,-153,1464,1500.0
14:04:43.703,AUTO,-35.3632526,149.1652343,45742,-0.11385171115398407,-0.0658293068408966,-1.9541151523590088,0.038608841598033905,-0.012192836031317711,-0.01010028924793005,5,5,-1003,39,-11,-10,-17,26,-153,1464,1500.0
14:04:43.906,AUTO,-35.3632526,149.1652343,45742,-0.11385171115398407,-0.0658293068408966,-1.9541151523590088,0.038608841598033905,-0.012192836031317711,-0.01010028924793005,5,5,-1003,39,-11,-10,-17,26,-153,1464,1500.0
14:04:44.109,AUTO,-35.3632526,149.1652343,45742,-0.11385171115398407,-0.0658293068408966,-1.9541151523590088,0.038608841598033905,-0.012192836031317711,-0.01010028924793005,5,5,-1003,39,-11,-10,-17,26,-153,1464,1500.0
14:04:44.312,AUTO,-35.3632526,149.1652343,45742,-0.11385171115398407,-0.0658293068408966,-1.9541151523590088,0.038608841598033905,-0.012192836031317711,-0.01010028924793005,5,5,-1003,39,-11,-10,-17,26,-153,1464,1500.0
14:04:44.515,AUTO,-35.3632526,149.1652343,45742,-0.11385171115398407,-0.0658293068408966,-1.9541151523590088,0.038608841598033905,-0.012192836031317711,-0.01010028924793005,5,5,-1003,39,-11,-10,-17,26,-153,1464,1500.0
14:04:44.720,AUTO,-35.3632526,149.1652343,45742,-0.11385171115398407,-0.0658293068408966,-1.9541151523590088,0.038608841598033905,-0.012192836031317711,-0.01010028924793005,5,5,-1003,39,-11,-10,-17,26,-153,1464,1500.0
14:04:44.925,AUTO,-35.3632526,149.1652343,45742,-0.11385171115398407,-0.0658293068408966,-1.9541151523590088,0.038608841598033905,-0.012192836031317711,-0.01010028924793005,5,5,-1003,39,-11,-10,-17,26,-153,1464,1500.0
14:04:45.140,AUTO,-35.3632581,149.165236,47189,-0.06405937671661377,-0.04896727204322815,-1.9683791399002075,0.002044506836682558,0.10554593056440353,-0.058978378772735596,-17,15,-995,2,106,-58,-103,4,-146,1464,1500.0
14:04:45.343,AUTO,-35.3632691,149.1652378,48670,-0.009298549965023994,0.059292443096637726,-2.1113786697387695,0.3698880970478058,0.15656815469264984,-0.3344528079032898,-23,19,-997,16,143,-176,-122,41,-140,1464,1500.0
14:04:45.555,AUTO,-35.3632691,149.1652378,48670,-0.009298549965023994,0.059292443096637726,-2.1113786697387695,0.3698880970478058,0.15656815469264984,-0.3344528079032898,-27,24,-966,370,157,-334,-122,41,-140,1464,1500.0
14:04:45.765,AUTO,-35.3632691,149.1652378,48670,-0.009298549965023994,0.059292443096637726,-2.1113786697387695,0.3698880970478058,0.15656815469264984,-0.3344528079032898,-27,24,-966,370,157,-334,-122,41,-140,1464,1500.0
14:04:45.968,AUTO,-35.3632691,149.1652378,48670,-0.009298549965023994,0.059292443096637726,-2.1113786697387695,0.3698880970478058,0.15656815469264984,-0.3344528079032898,-27,24,-966,370,157,-334,-122,41,-140,1464,1500.0
14:04:46.176,AUTO,-35.3632691,149.1652378,48670,-0.009298549965023994,0.059292443096637726,-2.1113786697387695,0.3698880970478058,0.15656815469264984,-0.3344528079032898,-27,24,-966,370,157,-334,-122,41,-140,1464,1500.0
14:04:46.378,AUTO,-35.3632691,149.1652378,48670,-0.009298549965023994,0.059292443096637726,-2.1113786697387695,0.3698880970478058,0.15656815469264984,-0.3344528079032898,-27,24,-966,370,157,-334,-122,41,-140,1464,1500.0
14:04:46.582,AUTO,-35.3632691,149.1652378,48670,-0.009298549965023994,0.059292443096637726,-2.1113786697387695,0.3698880970478058,0.15656815469264984,-0.3344528079032898,-27,24,-966,370,157,-334,-122,41,-140,1464,1500.0
14:04:46.788,AUTO,-35.3632691,149.1652378,48670,-0.009298549965023994,0.059292443096637726,-2.1113786697387695,0.3698880970478058,0.15656815469264984,-0.3344528079032898,-27,24,-966,370,157,-334,-122,41,-140,1464,1500.0
14:04:46.992,AUTO,-35.3632691,149.1652378,48670,-0.009298549965023994,0.059292443096637726,-2.1113786697387695,0.3698880970478058,0.15656815469264984,-0.3344528079032898,-27,24,-966,370,157,-334,-122,41,-140,1464,1500.0
14:04:47.195,AUTO,-35.3632694,149.165243,50037,0.05368616804480553,-0.011992644518613815,-2.3760972023010254,-0.5093514919281006,-0.09420625120401382,0.05281688645482063,19,-18,-960,-509,-93,53,94,-12,-38,1500,1500.0
14:04:47.398,AUTO,-35.3632656,149.1652417,50177,-0.008923458866775036,-0.03165396302938461,-2.352417230606079,0.2387237399816513,-0.01446460746228695,0.04553486779332161,15,19,-985,247,-13,45,82,-31,-18,1500,1500.0
14:04:47.600,AUTO,-35.3632656,149.1652417,50177,-0.008923458866775036,-0.03165396302938461,-2.352417230606079,0.2387237399816513,-0.01446460746228695,0.04553486779332161,15,19,-985,247,-13,45,82,-31,-18,1500,1500.0
14:04:47.805,AUTO,-35.3632656,149.1652417,50177,-0.008923458866775036,-0.03165396302938461,-2.352417230606079,0.2387237399816513,-0.01446460746228695,0.04553486779332161,15,19,-985,247,-13,45,82,-31,-18,1500,1500.0
14:04:48.007,AUTO,-35.3632656,149.1652417,50177,-0.008923458866775036,-0.03165396302938461,-2.352417230606079,0.2387237399816513,-0.01446460746228695,0.04553486779332161,15,19,-985,247,-13,45,82,-31,-18,1500,1500.0
14:04:48.212,AUTO,-35.3632656,149.1652417,50177,-0.008923458866775036,-0.03165396302938461,-2.352417230606079,0.2387237399816513,-0.01446460746228695,0.04553486779332161,15,19,-985,247,-13,45,82,-31,-18,1500,1500.0
14:04:48.414,AUTO,-35.3632656,149.1652417,50177,-0.008923458866775036,-0.03165396302938461,-2.352417230606079,0.2387237399816513,-0.01446460746228695,0.04553486779332161,15,19,-985,247,-13,45,82,-31,-18,1500,1500.0
14:04:48.618,AUTO,-35.3632656,149.1652417,50177,-0.008923458866775036,-0.03165396302938461,-2.352417230606079,0.2387237399816513,-0.01446460746228695,0.04553486779332161,15,19,-985,247,-13,45,82,-31,-18,1500,1500.0
14:04:48.820,AUTO,-35.3632656,149.1652417,50177,-0.008923458866775036,-0.03165396302938461,-2.352417230606079,0.2387237399816513,-0.01446460746228695,0.04553486779332161,15,19,-985,247,-13,45,82,-31,-18,1500,1500.0
14:04:49.026,AUTO,-35.3632656,149.1652417,50177,-0.008923458866775036,-0.03165396302938461,-2.352417230606079,0.2387237399816513,-0.01446460746228695,0.04553486779332161,15,19,-985,247,-13,45,82,-31,-18,1500,1500.0
14:04:49.232,AUTO,-35.3632609,149.1652381,50242,-0.027662629261612892,-0.012268172577023506,-2.3137588500976562,0.2594805657863617,0.022469574585556984,0.0054147690534591675,4,-20,-972,252,23,5,28,-28,4,1500,1500.0
14:04:49.437,AUTO,-35.363261,149.165237,50062,-0.06372664868831635,0.002287917537614703,-2.3074686527252197,-0.7839328050613403,0.015344375744462013,0.011978685855865479,-6,-19,-1028,-781,16,12,-24,9,13,1500,1500.0
14:04:49.662,AUTO,-35.363261,149.165237,50062,-0.06372664868831635,0.002287917537614703,-2.3074686527252197,-0.7839328050613403,0.015344375744462013,0.011978685855865479,-6,-19,-1028,-781,16,12,-24,9,13,1500,1500.0
14:04:49.896,AUTO,-35.363261,149.165237,50062,-0.06372664868831635,0.002287917537614703,-2.3074686527252197,-0.7839328050613403,0.015344375744462013,0.011978685855865479,-6,-19,-1028,-781,16,12,-24,9,13,1500,1500.0
14:04:50.167,AUTO,-35.363261,149.165237,50062,-0.06372664868831635,0.002287917537614703,-2.3074686527252197,-0.7839328050613403,0.015344375744462013,0.011978685855865479,-6,-19,-1028,-781,16,12,-24,9,13,1500,1500.0
14:04:50.371,AUTO,-35.363261,149.165237,50062,-0.06372664868831635,0.002287917537614703,-2.3074686527252197,-0.7839328050613403,0.015344375744462013,0.011978685855865479,-6,-19,-1028,-781,16,12,-24,9,13,1500,1500.0
14:04:50.581,AUTO,-35.363261,149.165237,50062,-0.06372664868831635,0.002287917537614703,-2.3074686527252197,-0.7839328050613403,0.015344375744462013,0.011978685855865479,-6,-19,-1028,-781,16,12,-24,9,13,1500,1500.0
14:04:50.795,AUTO,-35.363261,149.165237,50062,-0.06372664868831635,0.002287917537614703,-2.3074686527252197,-0.7839328050613403,0.015344375744462013,0.011978685855865479,-6,-19,-1028,-781,16,12,-24,9,13,1500,1500.0
14:04:50.998,AUTO,-35.363261,149.165237,50062,-0.06372664868831635,0.002287917537614703,-2.3074686527252197,-0.7839328050613403,0.015344375744462013,0.011978685855865479,-6,-19,-1028,-781,16,12,-24,9,13,1500,1500.0
14:04:51.203,AUTO,-35.363261,149.165237,50062,-0.06372664868831635,0.002287917537614703,-2.3074686527252197,-0.7839328050613403,0.015344375744462013,0.011978685855865479,-6,-19,-1028,-781,16,12,-24,9,13,1500,1500.0
14:04:51.405,AUTO,-35.3632673,149.1652441,49953,-0.057974811643362045,-0.02256493829190731,-2.7326982021331787,0.5603761076927185,-0.04181381314992905,-0.8160710334777832,-8,50,-976,860,-56,-863,-57,70,-1,1500,1500.0
14:04:51.607,AUTO,-35.3632702,149.1652486,49950,-0.06964083015918732,-0.0658211037516594,-3.1159849166870117,-0.25866222381591797,-0.037070684134960175,-0.7121449112892151,-28,-19,-986,-265,-35,-711,-73,97,-2,1500,1500.0
14:04:51.818,AUTO,-35.3632702,149.1652486,49950,-0.06964083015918732,-0.0658211037516594,-3.1159849166870117,-0.25866222381591797,-0.037070684134960175,-0.7121449112892151,-28,-19,-986,-265,-35,-711,-73,97,-2,1500,1500.0
14:04:52.024,AUTO,-35.3632702,149.1652486,49950,-0.06964083015918732,-0.0658211037516594,-3.1159849166870117,-0.25866222381591797,-0.037070684134960175,-0.7121449112892151,-28,-19,-986,-265,-35,-711,-73,97,-2,1500,1500.0
14:04:52.234,AUTO,-35.3632702,149.1652486,49950,-0.06964083015918732,-0.0658211037516594,-3.1159849166870117,-0.25866222381591797,-0.037070684134960175,-0.7121449112892151,-28,-19,-986,-265,-35,-711,-73,97,-2,1500,1500.0
14:04:52.438,AUTO,-35.3632702,149.1652486,49950,-0.06964083015918732,-0.0658211037516594,-3.1159849166870117,-0.25866222381591797,-0.037070684134960175,-0.7121449112892151,-28,-19,-986,-265,-35,-711,-73,97,-2,1500,1500.0
14:04:52.643,AUTO,-35.3632702,149.1652486,49950,-0.06964083015918732,-0.0658211037516594,-3.1159849166870117,-0.25866222381591797,-0.037070684134960175,-0.7121449112892151,-28,-19,-986,-265,-35,-711,-73,97,-2,1500,1500.0
14:04:52.851,AUTO,-35.3632702,149.1652486,49950,-0.06964083015918732,-0.0658211037516594,-3.1159849166870117,-0.25866222381591797,-0.037070684134960175,-0.7121449112892151,-28,-19,-986,-265,-35,-711,-73,97,-2,1500,1500.0
14:04:53.053,AUTO,-35.3632702,149.1652486,49950,-0.06964083015918732,-0.0658211037516594,-3.1159849166870117,-0.25866222381591797,-0.037070684134960175,-0.7121449112892151,-28,-19,-986,-265,-35,-711,-73,97,-2,1500,1500.0
14:04:53.258,AUTO,-35.3632702,149.1652486,49950,-0.06964083015918732,-0.0658211037516594,-3.1159849166870117,-0.25866222381591797,-0.037070684134960175,-0.7121449112892151,-28,-19,-986,-265,-35,-711,-73,97,-2,1500,1500.0
14:04:53.460,AUTO,-35.3632861,149.1652747,49930,0.037185125052928925,-0.1686418205499649,2.1778225898742676,-0.34923049807548523,-0.020736325532197952,-0.04751361161470413,-54,-46,-1005,-345,-19,-47,-163,218,0,1500,1500.0
14:04:53.663,AUTO,-35.3632943,149.1652882,49921,0.058915939182043076,-0.16604091227054596,2.20194673538208,0.4272466003894806,-0.003446965478360653,0.0495208203792572,-65,-33,-1002,427,-2,49,-197,260,-1,1500,1500.0
14:04:53.865,AUTO,-35.3632943,149.1652882,49921,0.058915939182043076,-0.16604091227054596,2.20194673538208,0.4272466003894806,-0.003446965478360653,0.0495208203792572,-65,-33,-1002,427,-2,49,-197,260,-1,1500,1500.0
14:04:54.073,AUTO,-35.3632943,149.1652882,49921,0.058915939182043076,-0.16604091227054596,2.20194673538208,0.4272466003894806,-0.003446965478360653,0.0495208203792572,-65,-33,-1002,427,-2,49,-197,260,-1,1500,1500.0
14:04:54.286,AUTO,-35.3632943,149.1652882,49921,0.058915939182043076,-0.16604091227054596,2.20194673538208,0.4272466003894806,-0.003446965478360653,0.0495208203792572,-65,-33,-1002,427,-2,49,-197,260,-1,1500,1500.0
14:04:54.497,AUTO,-35.3632943,149.1652882,49921,0.058915939182043076,-0.16604091227054596,2.20194673538208,0.4272466003894806,-0.003446965478360653,0.0495208203792572,-65,-33,-1002,427,-2,49,-197,260,-1,1500,1500.0
14:04:54.741,AUTO,-35.3632943,149.1652882,49921,0.058915939182043076,-0.16604091227054596,2.20194673538208,0.4272466003894806,-0.003446965478360653,0.0495208203792572,-65,-33,-1002,427,-2,49,-197,260,-1,1500,1500.0
14:04:54.948,AUTO,-35.3632943,149.1652882,49921,0.058915939182043076,-0.16604091227054596,2.20194673538208,0.4272466003894806,-0.003446965478360653,0.0495208203792572,-65,-33,-1002,427,-2,49,-197,260,-1,1500,1500.0
14:04:55.151,AUTO,-35.3633128,149.1653182,49910,-0.031639277935028076,-0.19288486242294312,2.7378432750701904,-0.09971747547388077,-0.0337819904088974,0.7971272468566895,-92,-36,-1001,-170,-26,921,-258,328,-1,1872,1500.0
14:04:55.356,AUTO,-35.3633321,149.1653485,49891,-0.14061793684959412,-0.15817059576511383,-2.9770753383636475,-0.19475997984409332,-0.002720561344176531,0.739321768283844,-105,36,-1003,-194,-1,739,-313,386,0,1872,1500.0
