time_stamp,RTL_ALT,roll,pitch,yaw,rollspeed,pitchspeed,yawspeed,lat,lon,relative_alt,vx,vy,vz,xacc,yacc,zacc,xgyro,ygyro,zgyro,MODE
01:35:20,1500.0,-0.0007771543751005083,0.0010019440669566393,0.021973494440317154,0.0002564812311902642,0.00028381627635098994,0.0014424909022636712,-35.3632622,149.1652375,3.0,-1.0,1.5,0.0,0.0,1.0,-1000.0,0.5,0.5,0.0,AUTO
01:35:22,1500.0,-0.0005509022739715874,0.0014149865601211786,0.021465551108121872,0.00023286926443688571,0.00028614900656975806,0.0014536113594658673,-35.3632621,149.1652375,3.5,0.0,0.0,0.0,0.0,1.0,-1000.0,1.0,0.0,0.5,AUTO
01:35:23,230200.0,0.0006625097677215308,0.0008754182490520179,0.02107600960880518,0.002662771730683744,-0.0024103034375002608,0.00137041621201206,-35.3632621,149.1652375,16.25,0.0,0.0,-11.0,0.0,0.75,-1062.75,2.75,-1.75,0.25,AUTO
01:35:24,230200.0,0.001999492582399398,0.0007966042030602694,0.020984257571399212,-0.0010011528502218425,0.0038896166952326894,0.001514563598902896,-35.3632621,149.1652375,322.5,0.0,0.0,-87.0,0.0,0.0,-1116.0,-0.5,4.0,1.0,AUTO
01:35:26,230200.0,0.05274233594536781,0.0020386534743010998,-0.01895068516023457,-0.07354562822729349,0.06174994166940451,-0.07293326780200005,-35.3632615,149.16524025,3154.0,8.5,48.0,-146.0,2.0,-9.0,-991.5,-72.5,62.0,-73.0,AUTO
01:35:28,131210.0,-0.06512157618999481,-0.011998687405139208,-0.08978276699781418,0.04681587405502796,-0.0008858197834342718,-0.0014483330451184884,-35.36326115,149.16524575,6214.0,-2.5,-30.0,-149.0,-1.5,3.5,-1002.5,47.5,-0.5,-1.5,AUTO
01:35:30,131210.0,0.0635572075843811,0.009623432531952858,-0.08771962672472,0.044227125123143196,0.01330644660629332,-0.00624195602722466,-35.363261550000004,149.1652345,9477.5,-5.5,-18.5,-153.5,-2.5,5.0,-999.5,44.5,13.5,-6.5,AUTO
01:35:32,131210.0,-0.015526705731948217,-0.005473604115347068,-0.10393180698156357,-0.002163692901376635,0.0009436475423475107,-0.02159877059360345,-35.3632624,149.16523656666666,12379.333333333334,-0.3333333333333333,9.333333333333334,-151.66666666666666,1.3333333333333333,-2.0,-1001.6666666666666,-1.6666666666666667,1.6666666666666667,-21.333333333333332,AUTO
01:35:33,1641.0,0.0019811616657534614,0.001528431283077225,-0.13768264651298523,0.013667648425325751,0.008010500227101147,-0.022047429345548153,-35.363262150000004,149.1652364,14519.25,3.25,-5.5,-153.0,-1.25,0.0,-1000.0,14.0,8.25,-22.25,AUTO
01:35:34,1641.0,0.009131120517849922,0.0055946651846170425,-0.15240200608968735,0.002727718325331807,0.002668859320692718,-0.01603418355807662,-35.36326185,149.1652358,15690.5,1.5,-3.0,-153.0,-1.5,0.0,-999.0,2.5,3.0,-15.5,AUTO
01:35:36,1641.0,0.00479719415307045,0.004679020959883928,-0.18091882020235062,-0.001985394861549139,-0.0017827461706474423,-0.014577765017747879,-35.3632616,149.16523575000002,18806.5,-2.5,5.0,-153.0,0.0,0.0,-1000.0,-0.5,-0.5,-14.5,AUTO
01:35:38,1641.0,0.0020565841890250645,0.0034265535262723765,-0.2152879387140274,0.0007253236447771391,0.0005238883701773981,-0.020119725416104,-35.3632617,149.16523636666668,21733.0,-3.0,4.0,-153.0,0.0,0.0,-999.6666666666666,1.3333333333333333,1.0,-20.0,AUTO
01:35:39,20690.0,0.0023628679919056594,0.002731387736275792,-0.24203906580805779,0.0007169673917815089,-0.0007198703824542463,-0.01934978272765875,-35.3632618,149.16523665,23873.25,-2.0,3.0,-153.0,0.0,0.0,-1000.0,1.25,0.25,-19.25,AUTO
01:35:40,20690.0,-0.002905839355662465,0.0031806877814233303,-0.25518421828746796,-0.029221988341305405,0.006682020495645702,-0.009412488259840757,-35.36326185,149.1652367,25040.5,-2.0,1.5,-152.5,0.0,0.0,-998.0,-28.5,7.0,-10.0,AUTO
01:35:42,20690.0,0.008888293989002705,0.0007714162347838283,-0.216781884431839,-0.008872177684679627,0.00033044227166101336,0.02332063391804695,-35.3632624,149.16523669999998,28148.0,-2.0,6.5,-153.0,0.0,-0.5,-999.5,-7.5,1.0,22.5,AUTO
01:35:44,27193.5,-0.0003079252104119708,0.0016384792591755588,-0.18003447353839874,0.0006561589737733206,-0.0006428003349962333,0.01856946013867855,-35.3632624,149.1652378,31059.666666666668,0.0,5.0,-153.0,0.0,-0.6666666666666666,-1000.0,0.6666666666666666,0.3333333333333333,17.666666666666668,AUTO
01:35:46,33697.0,0.001655425022666653,0.0012122854823246598,-0.15046645204226175,0.0018582319219907124,0.0010028021254887183,0.013435896175603071,-35.3632623,149.165238,34172.333333333336,0.0,0.0,-153.0,0.0,0.0,-1000.3333333333334,2.6666666666666665,1.3333333333333333,12.666666666666666,AUTO
01:35:48,33697.0,0.0026199623631934323,0.0012775209033861756,-0.12850071489810944,0.00227451134317865,0.001731988585864504,0.011507516726851463,-35.3632622,149.16523773333336,37272.333333333336,0.0,0.0,-153.0,0.0,0.0,-999.6666666666666,3.0,2.3333333333333335,10.666666666666666,AUTO
01:35:49,8674.0,0.0025582686066627502,0.001641449014035364,-0.1176696593562762,-0.0016289269551634789,0.00019225092061484853,0.009090368325511614,-35.3632621,149.16523753333334,39210.333333333336,0.0,0.0,-153.0,0.0,0.0,-999.3333333333334,-0.3333333333333333,0.6666666666666666,8.333333333333334,AUTO
01:35:50,8674.0,0.002433682015786568,0.001403024575362603,-0.1119816650946935,-0.0003280929134537776,0.0001427298023675879,0.0064831517326335115,-35.3632621,149.1652375,40374.666666666664,0.0,0.0,-153.0,0.0,0.0,-999.6666666666666,0.3333333333333333,0.6666666666666666,6.333333333333333,AUTO
01:35:52,8674.0,0.0019810146186500788,0.0015099779314671953,-0.09854639321565628,0.0004049266766135891,6.056373240426183e-05,0.006540681545933087,-35.363262,149.1652374,43487.0,-1.0,0.0,-153.0,0.0,0.0,-1000.0,0.6666666666666666,0.6666666666666666,6.0,AUTO
01:35:54,11796.0,-0.025042553044234712,0.006396486423909664,0.2598825991153717,0.09818818420171738,-0.16221906493107477,0.16667099172870317,-35.363263333333336,149.16523543333335,46366.0,-28.666666666666668,-35.0,-106.33333333333333,2.6666666666666665,8.666666666666666,-945.6666666666666,98.66666666666667,-160.66666666666666,166.33333333333334,AUTO
01:35:56,11796.0,0.023412795116504032,-0.010059377003926784,0.25322603682676953,-0.10143336902062099,0.036462067936857544,-0.030955733731389046,-35.36326353333333,149.16523370000002,47725.333333333336,19.333333333333332,27.666666666666668,-38.333333333333336,-2.6666666666666665,-10.333333333333334,-976.3333333333334,-100.0,37.0,-30.0,AUTO
01:35:58,11796.0,-0.03991361459096273,0.023341223791552086,0.1976939688126246,0.11912376185258229,-0.06057039275765419,-0.023702270661791165,-35.3632611,149.1652387,47969.666666666664,-1.3333333333333333,3.0,15.0,3.0,24.333333333333332,-986.6666666666666,121.0,-59.333333333333336,-23.0,AUTO
01:35:59,35603.0,-0.06188895180821419,-0.05463391045729319,0.172898069024086,-0.1835921804110209,-0.026971727299193542,-0.07699967889736097,-35.3632605,149.16523873333333,47821.666666666664,35.333333333333336,-39.666666666666664,6.666666666666667,-3.6666666666666665,-32.0,-995.6666666666666,-183.66666666666666,-25.0,-76.33333333333333,AUTO
01:36:00,35603.0,-0.06545890743533771,-0.10609469066063563,-0.15123400340477625,0.03558683395385742,-0.039064122984806694,-0.7161205212275187,-35.363257299999994,149.16523746666667,47757.0,83.0,-74.33333333333333,9.333333333333334,-14.666666666666666,2.0,-1007.0,36.333333333333336,-37.333333333333336,-715.6666666666666,AUTO
01:36:02,35603.0,-0.009551742735008398,-0.21327325205008188,-0.39067040880521137,0.3461408043901126,-0.030759319352606933,-0.048238360633452736,-35.3632308,149.16521863333332,47326.333333333336,258.0,-205.0,35.0,-62.666666666666664,-11.0,-995.6666666666666,346.0,-29.333333333333332,-47.666666666666664,AUTO
01:36:04,35603.0,0.06904046734174092,-0.2123140792051951,-0.4279777705669403,-0.23394394231339297,0.0459316149353981,-0.01991279950986306,-35.36317056666667,149.16516933333332,46355.666666666664,446.6666666666667,-290.0,57.666666666666664,-112.66666666666667,-66.33333333333333,-992.0,-234.66666666666666,46.0,-19.333333333333332,AUTO
01:36:05,87259.0,0.08433280388514201,-0.16894241670767465,-0.43542566895484924,-0.3127893656492233,0.027545091696083546,0.017126327690978844,-35.363116866666665,149.16512923333332,45535.666666666664,513.3333333333334,-308.3333333333333,64.0,-122.66666666666667,-93.0,-985.6666666666666,-314.0,28.0,17.0,AUTO
01:36:06,87259.0,0.09742213040590286,-0.15158538023630777,-0.4426322778065999,0.4054107666015625,0.029908856997887295,-0.02268952860807379,-35.3630816,149.16510350000001,44992.333333333336,532.6666666666666,-312.6666666666667,66.66666666666667,-121.0,-60.666666666666664,-980.0,404.3333333333333,30.0,-22.333333333333332,AUTO
01:36:08,87259.0,0.10484048227469127,-0.11954629172881444,-0.45126359661420185,-0.3719787398974101,0.03998488436142603,0.02143867127597332,-35.36298513333333,149.16503296666667,43474.333333333336,536.6666666666666,-299.6666666666667,66.33333333333333,-122.66666666666667,-105.0,-998.0,-372.6666666666667,40.0,20.666666666666668,AUTO
01:36:10,53011.5,0.0970475897192955,-0.016539584534863632,-0.4587427079677582,-0.5478111992900571,0.05842190235853195,0.04194668556253115,-35.362894833333335,149.16496899999999,42131.333333333336,452.6666666666667,-246.33333333333334,53.0,-100.33333333333333,-125.0,-1006.0,-550.0,58.333333333333336,42.0,AUTO
01:36:12,18764.0,0.029417554537455242,0.0561930276453495,-0.4705541928609212,-0.0135684534907341,-0.010234714796145758,-0.011561405301714936,-35.36282933333333,149.16492636666666,41147.333333333336,256.3333333333333,-142.0,28.666666666666668,-52.333333333333336,-21.666666666666668,-1001.0,-13.0,-9.666666666666666,-10.666666666666666,AUTO
01:36:14,18764.0,0.012978867472459873,0.03662611171603203,-0.4770035445690155,-0.05790537719925245,-0.026613106951117516,-0.004233037121593952,-35.36280093333334,149.16490736666665,40725.333333333336,73.0,-58.333333333333336,4.666666666666667,-19.0,-0.3333333333333333,-1013.6666666666666,-57.666666666666664,-25.666666666666668,-3.3333333333333335,AUTO
01:36:15,105879.0,0.03813770661751429,0.0137270987033844,-0.48123059670130414,0.7617080609003702,-0.01425685298939546,-0.0038685322118302188,-35.362797066666666,149.16490196666666,40691.0,22.333333333333332,-19.666666666666668,-2.0,-8.333333333333334,29.666666666666668,-1020.3333333333334,761.3333333333334,-13.333333333333334,-2.6666666666666665,AUTO
01:36:16,105879.0,0.03349225968122482,0.0022456077858805656,-0.48425575097401935,-0.1147858997186025,-0.0202694417287906,0.0009896236782272656,-35.36279686666666,149.1649002,40712.0,9.0,-3.0,-3.3333333333333335,-3.6666666666666665,-16.333333333333332,-986.3333333333334,-115.66666666666667,-19.333333333333332,1.3333333333333333,AUTO
01:36:18,105879.0,0.006536131647105019,-0.00366777191326643,-0.4886788030465444,-0.35601887355248135,0.024799399621163804,-0.004586161269495885,-35.3627962,149.1648994,40749.0,12.666666666666666,6.666666666666667,-3.6666666666666665,0.0,-22.0,-1010.6666666666666,-356.3333333333333,25.0,-3.3333333333333335,RTL
01:36:20,105879.0,0.006778553516293566,-0.006955139494190614,-0.4960496127605438,0.05957881361246109,-0.0063216001726686954,-0.0002299716773753365,-35.36279533333334,149.16490003333334,41468.666666666664,-0.6666666666666666,2.3333333333333335,-81.66666666666667,0.0,4.333333333333333,-1048.6666666666667,59.666666666666664,-5.333333333333333,0.3333333333333333,RTL
01:36:21,32194.0,0.024288791542251904,-0.0124016044040521,-0.4999733765920003,0.0378880025818944,-0.0018063856453712408,0.0008946078984687725,-35.362795866666666,149.16489966666668,43027.666666666664,1.3333333333333333,4.666666666666667,-139.33333333333334,-1.3333333333333333,1.0,-1027.6666666666667,37.0,-1.3333333333333333,1.3333333333333333,RTL
01:36:22,32194.0,0.057897161692380905,-0.015161643115182718,-0.5012794534365336,0.0464090829094251,-0.004524446480597059,0.0023062153874586024,-35.362795766666665,149.1648997,44149.0,13.666666666666666,19.666666666666668,-147.33333333333334,-0.3333333333333333,-1.0,-1002.3333333333334,46.0,-3.6666666666666665,3.0,RTL
01:36:24,32194.0,-0.0627718244989713,0.0014762122882530093,-0.5859046777089437,0.013096672172347704,-0.01056079069773356,-0.023052120581269264,-35.36279166666667,149.16490443333333,47181.333333333336,-2.6666666666666665,8.0,-147.66666666666666,0.6666666666666666,-1.6666666666666667,-1004.3333333333334,13.333333333333334,-9.333333333333334,-21.333333333333332,RTL
01:36:26,114122.0,0.048096327732006706,0.002248838854332765,-0.5944450497627258,0.04142203259592255,-0.01980996395771702,0.028198201209306717,-35.36279726666666,149.164898,50274.0,-36.333333333333336,-7.333333333333333,-151.0,-2.3333333333333335,10.0,-1000.6666666666666,41.333333333333336,-19.333333333333332,29.0,RTL
01:36:28,114122.0,0.0023614707364079854,-0.0032703238151346645,-0.5705518126487732,-0.02066734809583674,0.0566897081832091,-0.07918087641398112,-35.36279666666667,149.16489703333332,53371.666666666664,31.666666666666668,4.666666666666667,-149.0,-5.0,-6.666666666666667,-1004.0,-19.666666666666668,57.0,-77.33333333333333,RTL
01:36:30,114122.0,0.019996508955955505,0.012896161836882433,-0.6438993016878763,0.000627512422700723,-0.012749028392136097,-0.002319265389814973,-35.3627946,149.164895,56500.0,-8.666666666666666,16.0,-151.0,1.0,0.0,-998.6666666666666,1.3333333333333333,-11.666666666666666,-0.6666666666666666,RTL
01:36:31,56626.0,0.011536486136416594,-0.0040298251357550425,-0.652230699857076,-0.006618507827321689,-0.009251981352766355,-0.013986352986345688,-35.36279536666667,149.16489650000003,58442.0,-8.0,23.666666666666668,-151.0,3.0,0.0,-1000.0,-5.333333333333333,-7.666666666666667,-12.0,RTL
01:36:32,56626.0,0.007478032571574052,-0.009508287534117699,-0.6664741436640421,-0.00040817503274107975,-0.0024504133810599646,-0.022999858483672142,-35.3627957,149.16489760000002,59613.333333333336,-5.0,19.0,-151.0,2.6666666666666665,0.0,-1000.6666666666666,0.3333333333333333,-1.3333333333333333,-21.0,RTL
01:36:34,56626.0,0.01351788081228733,-0.0065920292399823666,-0.7237098415692648,0.005225297800886135,0.004283892301221688,-0.02780299571653207,-35.362796133333326,149.1648984,62730.666666666664,0.0,9.0,-152.0,0.0,0.0,-1000.0,5.666666666666667,5.0,-25.666666666666668,RTL
01:36:36,48208.0,0.012613326931993166,-0.003981337184086442,-0.7746936480204264,-0.00025280673677722615,0.0013166565913707018,-0.02203399936358134,-35.3627961,149.16489863333334,65858.33333333333,2.0,11.0,-152.0,0.0,0.0,-1000.0,1.0,1.6666666666666667,-20.333333333333332,RTL
01:36:38,48208.0,0.012753706114987532,-0.002166928335403403,-0.8007862567901611,0.00031416948574284714,0.001433894659082095,0.018515486891071003,-35.3627959,149.1648992,68965.33333333333,1.0,11.333333333333334,-151.0,0.0,0.0,-999.3333333333334,2.0,2.3333333333333335,19.666666666666668,RTL
01:36:40,48208.0,0.00804690814887484,-0.00740331644192338,-0.7522198160489401,-0.0014012949541211128,-0.0007886827612916628,0.025505177055795986,-35.3627958,149.1649003,72068.0,1.0,9.666666666666666,-151.33333333333334,0.3333333333333333,0.0,-1000.3333333333334,0.3333333333333333,0.3333333333333333,26.666666666666668,RTL
01:36:41,29540.0,0.0079267006367445,-0.008236232834557692,-0.7254357735315958,0.0002175006472195188,0.00010892836144194007,0.020189921061197918,-35.362795733333336,149.1649005,74010.66666666667,1.0,5.0,-152.0,0.0,0.0,-1000.0,1.6666666666666667,1.3333333333333333,21.333333333333332,RTL
01:36:42,29540.0,0.008415424264967442,-0.008358302215735117,-0.7118679086367289,-0.0006903802277520299,0.00048791176717107493,0.01800583302974701,-35.3627958,149.1649005,75180.0,0.6666666666666666,3.3333333333333335,-152.0,0.0,0.0,-1000.0,1.0,2.0,19.333333333333332,RTL
01:36:44,29540.0,0.009153465119500956,-0.00822150738288959,-0.6819315950075785,0.0006786122297247251,0.0003857685951516032,0.012928692934413752,-35.362795733333336,149.1649004,78286.33333333333,1.0,1.6666666666666667,-152.0,0.0,0.0,-1000.0,1.6666666666666667,1.6666666666666667,14.333333333333334,RTL
01:36:46,169068.0,0.008944984215001265,-0.007551260602970918,-0.6604745785395304,-0.0011724158345411222,0.0001797848381102085,0.01070856861770153,-35.3627957,149.16490016666668,81390.33333333333,0.0,2.0,-152.0,0.0,0.0,-1000.0,0.3333333333333333,1.3333333333333333,11.666666666666666,RTL
01:36:48,169068.0,0.008780457079410553,-0.007598938109974067,-0.6442890763282776,-0.0003926365946729978,-0.0005917678160282472,0.007444633015741904,-35.3627956,149.16490006666666,84496.66666666667,0.0,2.0,-152.0,0.0,0.0,-1000.3333333333334,1.3333333333333333,0.6666666666666666,8.666666666666666,RTL
01:36:50,169068.0,0.008700278277198473,-0.007858375397821268,-0.6312086780865988,-0.0007645096241806945,0.0007195508029932777,0.0070172495519121485,-35.3627956,149.1649,87607.0,0.0,2.0,-152.0,0.0,0.0,-1000.0,1.0,2.0,8.333333333333334,RTL
01:36:51,70325.0,0.009473897206286589,-0.007326136343181133,-0.6238737106323242,0.0010472582459139328,0.001080485254836579,0.00658250196526448,-35.3627956,149.16489986666667,89543.66666666667,0.0,2.3333333333333335,-152.0,0.0,0.0,-1000.0,2.0,2.3333333333333335,7.666666666666667,RTL
01:36:52,70325.0,0.009045251024266085,-0.007235448186596234,-0.619780162970225,-3.183617567022642e-05,-9.206298273056746e-05,0.007533531170338392,-35.3627956,149.1648998,90707.66666666667,0.0,3.0,-152.0,0.0,0.0,-1000.0,1.3333333333333333,1.3333333333333333,8.666666666666666,RTL
01:36:54,70325.0,0.008572100972135862,-0.007793373428285122,-0.6098984281222025,-0.0005979895358905196,-0.0010905983702590067,0.004120998705426852,-35.3627956,149.1648998,93814.0,0.0,3.0,-152.0,0.0,0.0,-1000.0,1.0,0.3333333333333333,5.333333333333333,RTL
01:36:56,70325.0,0.008897801861166954,-0.008210227203865847,-0.6011677980422974,0.0001656905903170506,0.000592609285376966,0.004627765777210395,-35.3627956,149.1648999,96923.66666666667,0.0,2.0,-152.0,0.0,0.0,-1000.0,1.6666666666666667,1.6666666666666667,5.666666666666667,RTL
01:36:57,49500.0,0.009147601823012034,-0.008238348178565502,-0.5963956514994303,-0.0019258398873110612,0.0011683678021654487,0.0037844274193048477,-35.3627956,149.1648998,98864.33333333333,0.0,2.0,-152.0,0.0,0.0,-999.6666666666666,0.0,2.3333333333333335,5.0,RTL
01:36:58,49500.0,0.008964505977928638,-0.007921996836860975,-0.5939118266105652,0.0007708739334096512,0.001503644627518952,0.003311955564034482,-35.3627956,149.1648998,100029.33333333333,0.0,2.0,-152.0,0.0,0.0,-1000.0,2.0,3.0,4.666666666666667,RTL
01:37:00,49500.0,0.009363746270537376,-0.007777355300883452,-0.586544136206309,-0.001140649973725279,0.00045515340752899647,0.0027364749306192,-35.3627956,149.1648998,103144.0,0.0,3.0,-152.0,0.0,0.0,-999.6666666666666,0.6666666666666666,2.0,4.333333333333333,RTL
01:37:02,45019.5,0.008760015169779459,-0.007444810898353656,-0.5808117389678955,-0.00016803282778710127,0.0001628695366283258,0.002680442916850249,-35.3627956,149.1648998,106246.66666666667,0.0,3.0,-152.0,0.0,0.0,-1000.0,1.3333333333333333,1.6666666666666667,4.0,RTL
01:37:04,40539.0,0.008551973228653273,-0.00804165843874216,-0.5760210752487183,0.0023505781621982655,0.0007021482257793347,0.0026076671201735735,-35.3627956,149.1648999,109356.66666666667,0.0,2.0,-152.0,0.0,0.0,-1000.3333333333334,4.0,2.3333333333333335,4.0,RTL
01:37:06,40539.0,0.008715428101519743,-0.008001956467827162,-0.5714502135912577,0.0005870127740005652,0.0003867760533466935,0.0033418388726810613,-35.3627956,149.1648999,112463.33333333333,0.0,2.0,-152.0,0.0,0.0,-1000.0,2.3333333333333335,1.6666666666666667,4.666666666666667,RTL
01:37:07,72412.0,0.008787676692008972,-0.008094101212918758,-0.5692426562309265,0.0006726580516745647,-0.00022334807241956392,0.002727155340835452,-35.3627956,149.1648999,114407.0,0.0,2.0,-152.0,0.0,0.0,-1000.0,2.3333333333333335,1.3333333333333333,4.0,RTL
01:37:08,72412.0,0.008965626979867617,-0.00820655096322298,-0.567955474058787,-0.0003204012367253502,0.00019825754376749197,0.0013971785859515269,-35.3627956,149.1648999,115573.66666666667,0.0,2.0,-152.0,0.0,0.0,-1000.0,1.3333333333333333,2.0,2.6666666666666665,RTL
01:37:10,72412.0,0.00922495840738217,-0.007826707946757475,-0.5646429061889648,0.0016117099827776353,0.0018447110584626596,0.0020723065827041864,-35.3627956,149.1648999,118679.0,0.0,2.0,-152.0,0.0,0.0,-999.6666666666666,3.3333333333333335,3.6666666666666665,3.6666666666666665,RTL
01:37:12,40066.0,0.00893102524181207,-0.007784806191921234,-0.5614098509152731,0.0002895235860099395,0.002150097473834952,0.0028355526737868786,-35.3627956,149.1648999,121783.33333333333,0.0,3.0,-152.0,0.0,0.0,-999.6666666666666,1.6666666666666667,4.0,4.666666666666667,RTL
01:37:14,40066.0,0.008050229400396347,-0.008192432733873526,-0.5590457916259766,0.0012240067590028048,-0.0007359522860497236,0.002673136303201318,-35.3627956,149.1648999,125051.0,0.0,2.0,-152.0,0.0,0.0,-999.6666666666666,3.0,0.6666666666666666,4.333333333333333,RTL
01:37:16,40066.0,0.00855986929188172,-0.008322754564384619,-0.5563567082087199,-9.359791874885559e-07,0.00041468410442272824,0.0013962121059497197,-35.3627956,149.1648999,128155.33333333333,0.0,2.0,-152.0,0.0,0.0,-1000.0,1.5,1.75,3.0,RTL
01:37:17,7710.0,0.008465289138257504,-0.00811576439688603,-0.5552052060763041,0.0006248199691375097,-0.00029274689344068366,0.002132407001530131,-35.3627956,149.1648999,130096.33333333333,0.0,2.0,-152.0,0.0,0.0,-1000.0,2.0,1.6666666666666667,4.0,RTL
01:37:18,7710.0,0.008443412370979786,-0.008067921424905459,-0.5546649098396301,-2.8706621378660202e-05,4.690198693424463e-05,0.0015920948547621567,-35.3627956,149.1648999,131261.33333333334,0.0,2.0,-152.0,0.0,0.0,-999.6666666666666,2.0,2.0,3.0,RTL
01:37:20,7710.0,0.008794579965372881,-0.00776044512167573,-0.5528880755106608,0.0010138480768849452,0.0008041109734525284,-0.00013530642415086427,-35.3627956,149.1648999,134372.33333333334,0.0,2.0,-152.0,0.0,0.0,-1000.3333333333334,3.0,2.6666666666666665,1.6666666666666667,RTL
01:37:22,5378.0,0.008812835129598776,-0.008278397222359976,-0.5515794555346171,0.0008920864202082157,0.00046304652156929177,0.0017413074771563213,-35.3627956,149.1648999,137281.75,0.0,2.0,-152.0,0.0,0.0,-1000.0,2.0,2.25,3.25,RTL
01:37:24,5378.0,0.00844596109042565,-0.00799038199086984,-0.5506702264149984,-0.0002459305493781964,-0.0004337896825745702,0.0005565039270247022,-35.3627956,149.1648999,140594.0,0.0,2.0,-152.0,0.0,0.0,-1000.0,1.6666666666666667,1.3333333333333333,2.6666666666666665,RTL
01:37:26,5378.0,0.00807756744325161,-0.007824798269818226,-0.5494389136632284,-0.0013602929345021646,-0.0006723456317558885,0.0006405700696632266,-35.3627956,149.1648999,143695.66666666666,0.0,2.0,-152.0,0.0,0.0,-999.6666666666666,0.6666666666666666,1.3333333333333333,2.3333333333333335,RTL
01:37:27,73269.0,0.008381926454603672,-0.008209619671106339,-0.5488041639328003,0.0012345529006173213,0.000312857407455643,0.0007209967200954756,-35.3627956,149.1648999,145634.66666666666,0.0,2.0,-152.0,0.0,0.0,-1000.0,3.3333333333333335,2.3333333333333335,2.3333333333333335,RTL
01:37:28,73269.0,0.008324378790954748,-0.008175839049120745,-0.5484060645103455,-0.0012441204550365608,-0.0006209766337027153,0.0005918243744721016,-35.3627956,149.1648999,146799.0,0.0,2.0,-152.0,0.0,0.0,-1000.0,1.0,1.6666666666666667,2.0,RTL
01:37:30,73269.0,0.008328959966699282,-0.007955968379974365,-0.5476510326067606,-0.0005525549252827963,-9.390894168366988e-05,0.0005345819517970085,-35.3627956,149.1648999,149913.33333333334,0.0,2.0,-152.0,0.0,0.0,-1000.0,1.3333333333333333,2.0,2.3333333333333335,RTL
01:37:32,46321.0,0.008408452849835157,-0.008259643102064729,-0.5463875085115433,2.1709478460252285e-05,0.0001725180190987885,0.000820719898911193,-35.3627956,149.1648999,152829.75,0.0,2.0,-152.0,0.0,0.0,-999.75,2.25,2.0,2.5,RTL
01:37:33,46321.0,0.008256129610041777,-0.008090372197329998,-0.5460510849952698,0.0003420261588568489,-4.8338823641339936e-05,0.0012384486229469378,-35.3627956,149.1648999,154962.0,0.0,2.0,-152.0,0.0,0.0,-1000.0,2.6666666666666665,2.0,3.3333333333333335,RTL
01:37:34,46321.0,0.008513948569695154,-0.008537693259616693,-0.5458577473958334,0.0015569156191001337,-0.00032910883116225403,0.0006208959966897964,-35.3627956,149.1648999,156126.66666666666,0.0,2.0,-152.0,0.0,0.0,-1000.0,3.6666666666666665,2.0,2.3333333333333335,RTL
01:37:36,46321.0,0.00834085171421369,-0.008062988830109438,-0.5453348755836487,0.0016078201588243246,0.0008006700469801823,0.0014621381803105276,-35.3627956,149.1648999,159234.0,0.0,2.0,-152.0,0.0,0.0,-1000.0,3.6666666666666665,3.0,3.3333333333333335,RTL
01:37:37,22540.0,0.008530369338889917,-0.008233378330866495,-0.5449895660082499,0.0004304073906193177,0.0007517854683101177,0.0004816264845430851,-35.3627956,149.1648999,161176.0,0.0,2.0,-152.0,0.0,0.0,-999.6666666666666,2.6666666666666665,3.0,2.3333333333333335,RTL
01:37:38,22540.0,0.00821003100524346,-0.007819919070849815,-0.5449721415837606,-0.00017742812633514404,0.00051410763990134,-3.945245407521725e-05,-35.3627956,149.1648999,162341.0,0.0,2.0,-152.0,0.0,0.0,-1000.0,2.0,2.6666666666666665,2.0,RTL
01:37:40,22540.0,0.008206056120495001,-0.008093489333987236,-0.5447372794151306,0.0010714901145547628,1.0625692084431648e-05,-0.000655020276705424,-35.3627956,149.1648999,165451.66666666666,0.0,1.6666666666666667,-152.0,0.0,0.0,-1000.0,3.3333333333333335,2.3333333333333335,1.3333333333333333,RTL
01:37:42,76733.0,0.008171330904588103,-0.008074028883129358,-0.5442433059215546,0.00042916674283333123,0.0013117057969793677,0.0018422051216475666,-35.3627956,149.1648999,168359.75,0.0,1.25,-152.0,0.0,0.0,-999.75,2.5,3.5,3.5,RTL
01:37:44,76733.0,0.00823207168529431,-0.008149522046248118,-0.5440637667973837,0.00028568094906707603,-0.0002445136196911335,0.0013865723740309477,-35.3627956,149.1648999,171670.66666666666,0.0,1.0,-152.0,0.0,0.0,-1000.3333333333334,2.3333333333333335,2.0,3.0,RTL
01:37:46,76733.0,0.008132833987474442,-0.008833471064766249,-0.544060468673706,0.0009699003615727028,-0.0003917901000628869,0.00045871043888231117,-35.3627956,149.1649,174772.66666666666,0.0,1.0,-152.0,0.0,0.0,-999.75,3.25,2.25,2.5,RTL
01:37:47,10989.0,0.0075812493450939655,0.0279572078337272,-0.5424546400705973,-0.0027467821103831134,0.04720118269324303,0.00010196647296349208,-35.36279583333333,149.16490016666668,176705.66666666666,-11.333333333333334,8.333333333333334,-150.33333333333334,1.0,0.0,-999.0,0.3333333333333333,49.333333333333336,1.6666666666666667,RTL
01:37:48,10989.0,0.004231169664611419,0.05651706332961718,-0.5422463417053223,-0.007633268677939971,0.03221542201936245,0.0014452715404331684,-35.36279746666667,149.1649014666667,177852.66666666666,-40.333333333333336,26.333333333333332,-148.0,7.333333333333333,3.0,-996.6666666666666,-4.333333333333333,34.333333333333336,3.3333333333333335,RTL
01:37:51,10989.0,0.08042758206526439,0.11319197217623393,0.010103297109405199,0.016141599044203758,0.03752950198637942,0.07425086076060931,-35.36284486666667,149.164932,181248.33333333334,-295.6666666666667,157.0,-13.666666666666666,76.33333333333333,5.666666666666667,-943.6666666666666,18.666666666666668,40.333333333333336,76.33333333333333,RTL
01:37:53,24395.0,0.030597143496076267,0.19512813289960226,0.00909459978962938,-0.0850534588098526,-2.7502886950969696e-05,-0.04056972141067187,-35.3629086,149.16498466666664,180915.33333333334,-440.0,284.0,15.666666666666666,124.66666666666667,1.6666666666666667,-1020.6666666666666,-82.33333333333333,3.3333333333333335,-37.666666666666664,RTL
01:37:55,37801.0,-0.008917676052078605,0.15274415165185928,-0.07499326020479202,-0.04463968053460121,-0.04937109723687172,-0.0437204223126173,-35.36299725,149.16505115,180854.5,-543.0,309.5,-4.5,143.0,24.0,-995.0,-42.0,-46.0,-40.5,RTL
01:37:57,37801.0,-0.01896083913743496,0.10333587974309921,-0.15266277641057968,0.05132211744785309,-0.03503992594778538,-0.015937793534249067,-35.36309555,149.1651182,180933.5,-532.5,313.5,0.0,136.5,38.5,-995.5,54.0,-32.0,-12.5,RTL
01:37:58,94810.0,-0.02723176497966051,0.07037656754255295,-0.17546123638749123,0.03086535446345806,-0.051963127218186855,-0.013569001574069262,-35.363130525,149.16514235,180963.25,-502.5,300.5,-0.25,131.5,36.25,-992.0,33.75,-48.5,-10.75,RTL
01:37:59,94810.0,-0.05187162384390831,0.008330765878781676,-0.20832648128271103,-0.4527454078197479,-0.044566163793206215,-0.027630395255982876,-35.36318305,149.16517875,180996.5,-418.5,257.5,4.0,111.0,25.0,-987.0,-448.5,-41.5,-24.5,RTL
01:38:01,94810.0,-0.031820228323340416,-0.059394437819719315,-0.24767477065324783,-0.19691135734319687,-0.01448480086401105,0.012716648168861866,-35.36324125,149.16521799999998,180930.0,-215.0,146.0,6.0,56.5,28.0,-1001.0,-192.5,-11.5,15.5,RTL
01:38:03,61198.5,-0.01606592256575823,-0.05182194523513317,-0.27541370689868927,0.175383061170578,0.012382026296108961,-0.0002620259765535593,-35.3632641,149.16523525000002,180896.5,-48.5,49.5,4.0,16.0,25.5,-1002.5,180.0,14.5,3.0,RTL
01:38:05,27587.0,0.02242438867688179,-0.015722943004220724,-0.29586032032966614,0.6271778792142868,0.03364858962595463,-0.009791050804778934,-35.3632672,149.1652384,180902.5,9.0,7.0,2.5,-0.5,16.5,-997.0,630.0,36.0,-6.0,RTL
01:38:07,27587.0,0.023277727887034416,-0.015977927949279547,-0.31201671063899994,0.49937109649181366,0.0036642327904701233,-0.015084357000887394,-35.3632664,149.16523845,180898.0,14.5,4.5,1.5,0.5,4.0,-1005.0,503.0,5.5,-11.5,RTL
01:38:08,19819.0,0.004653736206819303,-0.010687293484807014,-0.31840427964925766,-0.05383908748626709,0.003814578347373754,-0.009070633794181049,-35.36326555,149.165238725,180899.0,16.5,1.5,1.25,-0.25,-3.75,-1000.0,-49.75,6.0,-5.25,RTL
01:38:09,19819.0,-0.0061943711480125785,-0.006417115684598684,-0.32633084058761597,-0.5649574100971222,-0.004511031089350581,-0.005543840350583196,-35.3632642,149.1652391,180896.0,11.5,-3.5,1.5,-2.0,-26.0,-998.5,-560.5,-2.0,-1.5,RTL
01:38:11,19819.0,0.027810363098978996,-0.011080083902925253,-0.3366573303937912,0.23264411836862564,-0.005372412968426943,-0.007862950442358851,-35.36326375,149.1652365,180840.5,6.5,2.5,24.5,-4.5,35.5,-925.0,238.0,-2.5,-4.0,RTL
01:38:13,80993.0,0.04832626134157181,-0.004962434526532888,-0.34632790088653564,0.06652024388313293,-0.004796604916919023,-0.011203838512301445,-35.363263950000004,149.1652334,179166.0,16.0,31.0,112.5,0.5,-37.0,-1044.5,69.5,-2.5,-7.5,RTL
01:38:15,142167.0,0.035213371738791466,-0.003791973227635026,-0.3560912162065506,0.8751850724220276,-0.002511601080186665,0.0028894952265545726,-35.3632632,149.1652349,177025.5,11.5,27.5,101.0,1.5,7.0,-1023.5,879.0,0.0,5.5,RTL
01:38:17,142167.0,0.021706718020141125,-0.008671529591083527,-0.3645271062850952,0.9901602864265442,-0.005593729438260198,0.024208299349993467,-35.3632632,149.16523585,174946.5,9.0,18.0,94.0,0.5,65.5,-1033.5,997.0,-3.0,27.0,RTL
01:38:18,21185.0,0.011106442427262664,-0.007986671873368323,-0.36665815860033035,0.041228555142879486,-0.0015473760722670704,0.005338683957234025,-35.363263275,149.165235625,174187.75,10.0,17.25,98.0,-0.5,39.25,-966.25,48.5,0.75,8.0,RTL
01:38:19,21185.0,-0.002492295898264274,-0.0039293934823945165,-0.37060704827308655,-0.738655149936676,0.000710200285539031,-0.000920488266274333,-35.36326305,149.16523595,172907.5,10.5,16.0,94.5,1.5,-8.5,-1020.0,-730.5,2.5,1.5,RTL
01:38:21,21185.0,-0.02093617618083954,-0.0035490693990141153,-0.37661971151828766,-0.5631554126739502,0.00041300011798739433,-0.00938364991452545,-35.36326215,149.1652382,170854.5,2.0,0.5,99.0,1.5,6.5,-974.0,-555.0,2.5,-6.5,RTL
01:38:23,21185.0,0.026226636953651905,-0.0087094665504992,-0.38150453567504883,-0.08782269060611725,-0.0006252150633372366,-0.0007569881854578853,-35.363262250000005,149.16523845,168818.5,-0.5,-8.0,98.0,-0.5,-37.5,-981.5,-84.0,1.0,2.0,RTL
01:38:24,160776.0,0.03014946263283491,-0.009899698896333575,-0.3837892711162567,0.5424707010388374,-0.005030369968153536,-0.0017427888815291226,-35.36326244999999,149.16523792499999,168061.5,0.0,-5.5,95.5,-2.0,-9.0,-981.25,546.5,-2.25,1.25,RTL
01:38:25,160776.0,0.047317881137132645,-0.012239723466336727,-0.3866312950849533,0.06283296644687653,0.0002625006018206477,-0.0007135713240131736,-35.3632632,149.16523585,166676.0,4.5,4.5,100.0,-4.5,-41.5,-1004.5,66.5,2.5,2.0,RTL
01:38:27,160776.0,0.06712929904460907,-0.003765309927985072,-0.3888886123895645,1.3792057037353516,0.0014664360787719488,-0.003958039218559861,-35.363264,149.1652324,164637.0,17.5,35.0,92.5,0.0,59.0,-1033.0,1386.5,3.5,-1.0,RTL
01:38:28,128776.0,0.018531811190769076,-0.0006492677921414725,-0.3904287815093994,-0.46461161971092224,0.0030037903343327343,-0.004269082215614617,-35.363263700000005,149.165232575,163878.5,18.25,40.25,96.75,0.0,6.75,-975.0,-455.75,4.5,-1.0,RTL
01:38:29,128776.0,-0.0029537974623963237,0.0018122016335837543,-0.39154526591300964,-1.2468552589416504,0.0035888879792764783,-0.008486890699714422,-35.363263,149.165234,162626.5,13.5,34.0,97.5,3.0,-40.5,-953.5,-1238.5,5.5,-4.5,RTL
01:38:31,128776.0,-0.029188244603574276,-0.0008561026188544929,-0.39468954503536224,-0.8135206699371338,-0.00023785571102052927,0.003891776083037257,-35.36326185,149.1652378,160578.0,0.5,7.5,96.0,3.5,-14.5,-993.5,-804.0,1.5,6.5,RTL
01:38:33,128776.0,-0.028970571234822273,-0.003228789079003036,-0.39799587428569794,-0.9081826508045197,-0.006264101364649832,-0.009371524094603956,-35.3632609,149.1652413,158576.0,-10.0,-22.5,100.5,1.0,-73.5,-1022.5,-902.0,-4.0,-6.5,RTL
01:38:34,81500.0,-0.03167271660640836,-0.007101995521225035,-0.39959263801574707,-1.123401328921318,-0.0070878787082619965,-0.004481709678657353,-35.363260925,149.165241725,157826.0,-13.0,-30.75,103.5,1.0,-65.25,-995.75,-1117.25,-5.0,-1.5,RTL
01:38:35,81500.0,-0.007720313034951687,-0.005553107475861907,-0.3995946794748306,-0.272575244307518,-0.0013216488296166062,-0.003024620935320854,-35.363261,149.1652417,156562.0,-11.5,-33.0,109.0,0.0,-49.5,-992.0,-267.5,0.5,0.0,RTL
01:38:37,81500.0,-0.0020169918425381184,-0.004678482073359191,-0.401082381606102,1.0524888932704926,0.0016594653716310859,-0.003024126752279699,-35.3632608,149.1652417,154522.5,-13.5,-35.5,102.5,0.5,27.0,-1058.5,1057.5,3.5,0.0,RTL
01:38:39,54348.0,-0.052268343046307564,-0.0012114327400922775,-0.4034651219844818,-0.6051659286022186,-0.007753813173621893,0.019943609833717346,-35.3632603,149.1652426,152459.5,-18.0,-41.5,103.5,0.0,9.5,-1006.0,-598.0,-5.5,22.5,RTL
01:38:41,27196.0,-0.025341052561998367,-0.011822325643151999,-0.4059077799320221,-1.3298588395118713,0.0007918678456917405,-0.009515561745502055,-35.36326085,149.16524170000002,150400.5,-20.5,-43.0,101.5,-6.5,-46.5,-1026.0,-1325.5,3.0,-6.5,RTL
01:38:43,27196.0,0.047541188076138496,-0.007251148112118244,-0.4076114594936371,1.210797667503357,0.012961283093318343,0.008695353753864765,-35.3632626,149.16523690000002,148353.5,-0.5,-9.5,102.5,0.5,28.0,-1033.5,1214.0,14.5,12.0,RTL
01:38:44,103625.0,0.03406894812360406,-0.0033600305614527315,-0.4065869152545929,1.3018575608730316,0.008556800719816238,0.00043746939627453685,-35.363262675,149.1652362,147603.75,2.5,1.25,100.25,-0.25,60.25,-1020.75,1306.5,10.25,3.5,RTL
01:38:45,103625.0,0.002341174753382802,-0.001617735659237951,-0.4064789414405823,0.5514696091413498,-0.0010973066091537476,0.0029366695089265704,-35.36326235,149.16523660000001,146338.0,3.0,7.0,106.5,0.5,53.0,-1053.5,557.5,1.0,6.0,RTL
01:38:47,103625.0,-0.014016445726156235,-0.004494909662753344,-0.40708258748054504,-0.5468532741069794,-0.00012055633123964071,0.00266147218644619,-35.3632622,149.1652374,144306.5,1.0,3.0,104.5,-0.5,16.5,-978.5,-540.5,1.0,5.5,RTL
01:38:49,175758.0,0.05091376416385174,-0.01018350524827838,-0.40963345766067505,-0.10015086829662323,-0.0010997055214829743,-0.00579903949983418,-35.3632631,149.16523565,142244.5,2.0,4.0,103.0,-2.0,-42.5,-976.5,-97.5,0.5,-2.0,RTL
01:38:51,247891.0,0.03727375157177448,0.0024194277939386666,-0.4082424193620682,0.671622633934021,0.006912919576279819,-0.004402377991937101,-35.36326295,149.16523495,140223.0,11.5,21.5,106.0,5.0,2.0,-986.0,674.5,8.5,-1.5,RTL
01:38:53,247891.0,-0.06240093149244785,0.0025494906585663557,-0.4096963256597519,-1.1583253145217896,-0.011593849398195744,-0.006238975096493959,-35.36326065,149.16524075,138136.5,-7.0,-9.0,101.0,5.0,-31.0,-1116.0,-1152.5,-9.0,-2.5,RTL
01:38:54,103830.0,-0.04847521893680096,-0.003278772283010767,-0.40938737988471985,-1.3200716376304626,-0.009560038335621357,-0.0028042452759109437,-35.363260475,149.16524197500001,137392.25,-13.5,-24.5,97.25,1.5,-47.75,-986.5,-1315.25,-7.0,0.25,RTL
01:38:55,103830.0,-0.023067821748554707,-0.00755665241740644,-0.4093349575996399,-0.743766188621521,0.0011259710881859064,-0.0073366244323551655,-35.36326065,149.1652427,136137.5,-17.0,-40.5,103.0,0.0,-64.5,-976.5,-741.5,2.5,-3.5,RTL
01:38:57,103830.0,-0.028061648830771446,-0.0036357968347147107,-0.4093780815601349,-0.7333718538284302,0.0033741549123078585,-0.00508269970305264,-35.36326045,149.165243,134066.5,-17.0,-45.0,102.0,0.0,-61.5,-1031.0,-731.5,5.0,-2.0,RTL
01:38:59,119656.0,-0.05863881856203079,-0.0027258333284407854,-0.4110235273838043,-0.1116192415356636,-0.006846325937658548,0.004674830590374768,-35.3632598,149.16524405,132006.5,-21.0,-48.0,101.0,-1.5,34.0,-1021.5,-107.0,-4.0,7.5,RTL
01:39:01,135482.0,0.002662059909198433,-0.016019395552575588,-0.41068893671035767,-0.39756664633750916,0.0002510335179977119,0.0042401127284392715,-35.36326175,149.16523995,129962.5,-16.0,-36.5,96.5,-7.5,28.5,-999.5,-394.0,2.0,7.5,RTL
01:39:03,135482.0,0.028035475872457027,-0.005560304736718535,-0.41048066318035126,-1.1790612637996674,3.517430741339922e-05,-0.0023711129324510694,-35.36326325,149.16523465,127914.5,5.5,8.5,94.0,-4.0,-60.0,-1005.0,-1605.0,-1.0,3.0,RTL
01:39:04,152279.0,0.04406993091106415,-0.0058182369684800506,-0.41143081337213516,-0.7082825154066086,-0.0016959692002274096,-0.00327874009963125,-35.3632635,149.165233575,127167.25,7.75,17.5,97.5,-4.4,-60.8,-999.6,-716.8,1.4,0.0,RTL
01:39:05,152279.0,0.0748278945684433,-0.006036308128386736,-0.41028667986392975,0.6628425419330597,-0.002961773192510009,-0.006545335345435888,-35.36326405,149.1652317,125898.5,14.5,36.5,102.0,-2.5,-15.5,-974.0,663.0,-0.5,-3.0,RTL
01:39:07,152279.0,0.06377670541405678,-0.0024220868945121765,-0.4106047749519348,0.8884027898311615,0.00132174656027928,-0.010252055246382952,-35.36326425,149.16523089999998,123892.0,21.5,53.5,103.5,-0.5,12.0,-984.5,889.5,3.0,-6.5,RTL
01:39:09,105942.0,0.035606082528829575,0.0024629796389490366,-0.4100297689437866,0.8363485932350159,-0.0003853099187836051,-0.010695138946175575,-35.3632635,149.1652324,121842.0,19.0,52.0,96.0,2.0,58.0,-1143.0,842.0,1.0,-7.0,RTL
01:39:11,59605.0,0.013276896439492702,-0.0003981475019827485,-0.4114617556333542,0.4641037657856941,-0.0037184013053774834,0.008487351122312248,-35.3632628,149.1652348,120181.0,10.0,33.0,102.5,1.0,51.0,-1056.0,470.0,-1.5,11.5,RTL
01:39:13,59605.0,-0.001406390219926834,-0.0032580579863861203,-0.4106098711490631,-0.8177695497870445,0.0024752389872446656,-0.0010472083231434226,-35.363262649999996,149.16523610000002,118136.0,6.0,17.5,95.5,0.5,-13.5,-970.5,-811.0,5.0,2.0,RTL
01:39:14,1245.0,0.002700798329897225,-0.0030772348982281983,-0.41102053970098495,-1.2633240818977356,-0.002040750812739134,-0.0018126398790627718,-35.363262575,149.165236425,117112.75,3.25,11.5,98.75,0.25,-70.75,-1010.5,-1258.75,0.25,1.25,RTL
01:39:15,1245.0,0.010891612968407571,-0.0028426615754142404,-0.41092050075531006,-0.9289320111274719,0.0038956529460847378,0.0009409774793311954,-35.3632625,149.16523654999997,116096.0,2.5,9.0,98.5,1.0,-64.5,-986.5,-925.0,6.0,4.0,RTL
01:39:17,1245.0,-0.002259539905935526,0.0025189556763507426,-0.41056329011917114,-0.09881618246436119,-0.0018367930315434933,-0.006171983201056719,-35.36326165,149.16523845,114050.5,0.0,1.0,101.0,4.5,-48.0,-1001.0,-95.0,0.5,-2.5,RTL
01:39:19,22562.0,0.0029083043918944895,-0.005701571702957153,-0.4119125306606293,0.8988479673862457,-0.007220449624583125,0.004237739834934473,-35.36326095,149.16524084999998,112011.0,-12.5,-23.0,94.0,1.0,16.5,-1059.5,902.5,-4.5,7.0,RTL
01:39:21,43879.0,0.0350453145802021,-0.00894927280023694,-0.4112270623445511,1.2993857264518738,0.00017805211246013641,-0.0012012943625450134,-35.36326195,149.16523895,109967.5,-7.5,-19.0,99.0,-0.5,37.5,-979.0,1302.5,2.5,2.5,RTL
01:39:23,43879.0,0.020004188641905785,-0.0037812344962731004,-0.4106242060661316,1.1494953632354736,-0.0016155194025486708,0.004571456927806139,-35.363262250000005,149.1652376,107925.5,0.0,-1.0,97.0,-0.5,60.5,-1103.0,1154.5,0.5,8.0,RTL
01:39:24,102781.0,-0.011515045422129333,-0.0057333524455316365,-0.41160259395837784,-1.0135422255843878,-0.008758081181440502,0.0022677744273096323,-35.363262225,149.165237475,106900.25,0.0,0.5,99.5,-3.5,-9.0,-1055.75,-1008.25,-6.5,6.0,RTL
01:39:25,102781.0,0.02569079853128642,-0.01080394210293889,-0.41178733110427856,-1.2262871265411377,9.768339805305004e-05,0.005697222892194986,-35.363263,149.16523565,105900.5,0.5,4.5,95.5,-5.0,-60.0,-935.5,-1222.5,2.5,9.0,RTL
01:39:27,102781.0,0.06315658800303936,-0.004546714073512703,-0.41077709197998047,-0.21387195959687233,0.007373844622634351,-0.00149352359585464,-35.36326445,149.16523135,103871.5,19.0,39.5,98.0,0.5,-50.0,-985.5,-209.5,9.0,2.0,RTL
01:39:29,66822.5,0.02778382203541696,0.003936839522793889,-0.4100509434938431,0.6379693150520325,0.005307577783241868,-0.003760421765036881,-35.36326315,149.16523354999998,101820.0,17.0,41.0,109.5,4.0,24.0,-987.0,644.5,7.0,0.0,RTL
01:39:31,30864.0,-0.03915113024413586,0.0013560063671320677,-0.4098829925060272,-1.1308262646198273,-0.006427440675906837,-0.0034752562642097473,-35.363261699999995,149.16523805000003,99790.5,3.5,11.5,100.0,3.5,-31.0,-981.0,-1123.0,-4.0,0.0,RTL
01:39:33,30864.0,-0.023693242110311985,0.0029154696385376155,-0.4094762057065964,-0.28415417671203613,0.0090634950902313,-0.012320435489527881,-35.363260499999996,149.165242,97751.0,-10.0,-25.0,102.0,7.0,-47.5,-943.5,-280.0,10.5,-8.5,RTL
01:39:34,59492.0,-0.045662290416657925,0.00543646450387314,-0.4093324914574623,1.3099534213542938,-0.0040014105616137385,0.0001305433688685298,-35.36325935,149.16524499999997,96740.75,-18.25,-42.5,101.0,6.75,44.25,-1013.75,1314.5,-1.5,3.75,RTL
01:39:35,59492.0,-0.0517855416983366,-0.0030574527918361127,-0.4108111560344696,1.3810397386550903,-0.00975390977691859,0.008177474956028163,-35.3632588,149.165247,95735.5,-30.5,-65.5,99.5,0.0,76.0,-963.5,1386.0,-7.5,11.0,RTL
01:39:37,59492.0,-0.014287572354078293,-0.015073703601956367,-0.40942034125328064,0.4584245691075921,-0.0009419876150786877,-0.0006885863840579987,-35.363260600000004,149.16524370000002,93687.0,-25.5,-63.0,100.0,-6.5,68.5,-981.5,463.0,1.0,3.0,RTL
01:39:39,59492.0,0.012304887022764888,-0.008383289910852909,-0.409195214509964,-1.0863134860992432,0.0025349428760819137,0.003518116194754839,-35.36326225,149.165238,91632.0,-6.5,-23.0,99.0,-4.5,-43.5,-1021.5,-1083.0,4.5,7.5,RTL
01:39:40,19257.0,0.02747783623635769,-0.0027591465623117983,-0.40942199528217316,-0.3387452643364668,0.0013988169957883656,-0.009819570172112435,-35.363262524999996,149.1652366,90604.25,-0.25,-6.25,102.25,0.75,-51.25,-989.5,-337.75,3.25,-5.5,RTL
01:39:41,19257.0,0.023286502808332443,-0.0011361372016835958,-0.40845783054828644,0.3955754190683365,-0.002917984966188669,0.0019050631672143936,-35.3632622,149.1652368,89601.0,0.0,0.5,98.5,0.5,-22.0,-974.5,396.0,-0.5,5.5,RTL
01:39:43,19257.0,0.01478192675858736,-0.004178565694019198,-0.4088674336671829,-0.06346002966165543,-0.000496477005071938,-0.002248008968308568,-35.3632621,149.16523745,87561.5,-2.0,-1.5,100.0,0.0,-38.5,-1022.0,-62.5,2.0,2.0,RTL
01:39:45,148775.5,-0.004510249011218548,-0.0049977791495621204,-0.4099510759115219,0.46982160210609436,-0.004182740580290556,-0.002558187348768115,-35.363262,149.1652382,85518.0,-1.5,-3.0,98.5,0.5,43.0,-960.5,474.0,-1.5,1.0,RTL
01:39:47,278294.0,0.01060230191797018,-0.012101346161216497,-0.40897946059703827,-1.1792701482772827,0.001824449165724218,0.0018078561406582594,-35.36326315,149.16523610000002,83487.0,3.0,3.5,102.0,-3.5,-15.0,-954.0,-1175.0,3.5,5.5,RTL
01:39:49,278294.0,0.04014703631401062,-0.004967593005858362,-0.40881606936454773,-0.8772813379764557,0.0016765255713835359,-0.007019280456006527,-35.36326375,149.16523365,81415.5,14.0,23.5,96.0,1.0,-63.5,-1040.0,-875.0,3.5,-2.5,RTL
01:39:50,56234.0,0.04064004635438323,-0.0004077023986610584,-0.40764155238866806,0.25206660479307175,-0.004873386409599334,-0.008685452514328063,-35.36326335,149.16523425,80392.0,15.0,27.5,99.25,4.0,-33.75,-985.75,253.75,-2.25,-4.5,RTL
01:39:51,56234.0,0.010438629244163167,-0.0011823092791019008,-0.40832728147506714,-0.3027259409427643,-0.0036721613723784685,-0.007935408968478441,-35.363262649999996,149.1652359,79315.0,9.5,20.5,102.0,1.0,-55.0,-978.0,-301.0,-1.0,-3.5,RTL
01:39:53,56234.0,0.035074857994914055,-0.010101617779582739,-0.4094078093767166,-0.33267632871866226,-0.005045654717832804,-0.002908882685005665,-35.36326305,149.1652359,77194.5,5.0,10.5,101.0,-0.5,-45.0,-996.0,-330.0,-2.5,1.0,RTL
01:39:55,56234.0,0.05285410024225712,-0.005798176862299442,-0.40777893364429474,1.499675691127777,0.004787624813616276,0.0019531419966369867,-35.36326365,149.1652342,75165.0,14.0,25.0,101.0,0.0,56.0,-1022.0,1504.0,6.5,5.5,RTL
01:39:56,4344.0,0.03007898712530732,-0.0023461708042304963,-0.4076799154281616,1.097298115491867,0.00437074457295239,0.006015836028382182,-35.363263350000004,149.16523455,74145.25,14.75,27.5,97.25,0.25,67.25,-1002.75,1103.0,6.25,9.5,RTL
01:39:57,4344.0,0.021630735602229834,-0.002621767169330269,-0.40827977657318115,0.5437580533325672,-0.0003171938005834818,0.003007803112268448,-35.3632631,149.16523485,73131.0,11.5,25.5,97.0,-2.5,53.0,-1053.5,550.0,2.0,7.0,RTL
01:39:59,4344.0,0.02215380221605301,-0.0049530197866261005,-0.40751563012599945,-0.21925890445709229,0.0007258770056068897,0.004807726014405489,-35.3632634,149.1652341,71114.0,12.5,28.0,99.5,0.0,29.5,-960.5,-211.5,2.5,8.5,RTL
01:40:01,151775.0,0.007887034909799695,-0.0004532981984084472,-0.4078623801469803,-0.8451938331127167,-0.005342615302652121,-0.03344013635069132,-35.36326265,149.1652359,69041.0,9.5,20.5,98.5,3.5,-57.0,-1058.0,-840.5,-2.5,-28.5,RTL
01:40:03,299206.0,-0.014691154472529888,-0.002270872122608125,-0.4072755128145218,-0.2815416753292084,-0.00353823509067297,-0.001263703452423215,-35.363261550000004,149.16523945,66994.0,-1.5,-4.0,101.0,3.0,-31.5,-1048.0,-277.5,-0.5,2.5,RTL
01:40:05,299206.0,0.0035943326220149174,-0.013617957942187786,-0.40818773210048676,0.42740756273269653,-0.004002799745649099,0.0022156494669616222,-35.36326205,149.16523955,64949.5,-7.0,-19.0,102.0,-2.0,29.5,-1042.5,434.5,-1.5,6.5,RTL
01:40:06,154478.0,0.007290324094356038,-0.011778837069869041,-0.4076806977391243,-1.2339138835668564,-0.0004455018788576126,-0.00325875380076468,-35.363262750000004,149.16523784999998,63939.0,0.75,-10.5,95.5,-1.25,-40.5,-1013.0,-1227.5,1.5,0.5,RTL
01:40:07,154478.0,-0.004336929647251964,-0.005454875994473696,-0.40760786831378937,-1.4622812867164612,0.012656495906412601,-0.008833212777972221,-35.363262750000004,149.16523745,62940.0,4.5,-2.5,95.5,-0.5,-74.5,-953.5,-1456.5,14.0,-4.0,RTL
01:40:09,154478.0,-0.010507505852729082,-0.003545933635905385,-0.4073338955640793,-1.3766435980796814,0.0007693441584706306,-0.007071600994095206,-35.363262250000005,149.1652378,60908.5,0.5,-5.0,100.5,1.0,-66.5,-1021.5,-1371.0,2.5,-3.0,RTL
01:40:11,82364.5,-0.01874506293097511,-0.0016857790178619325,-0.40825916826725006,0.7687282562255859,-0.0025075585581362247,-0.00444740429520607,-35.3632613,149.16524005000002,58867.0,-4.0,-13.0,103.0,2.0,35.0,-988.0,774.5,-0.5,-0.5,RTL
01:40:13,10251.0,-0.008865501877153292,-0.008298600791022182,-0.40800291299819946,0.4551806002855301,-0.0008947448804974556,0.009343973128125072,-35.3632614,149.1652403,56867.0,-9.5,-23.0,101.0,-1.0,53.5,-1032.0,461.5,1.0,12.5,RTL
01:40:15,10251.0,-0.0058770927134901285,-0.005610510474070907,-0.4071180522441864,-0.6396025121212006,0.0034474728163331747,-0.004553884733468294,-35.363261949999995,149.16523884999998,54813.5,-3.5,-15.0,104.0,0.0,-23.5,-1015.5,-634.5,5.5,-0.5,RTL
01:40:16,93200.0,0.013429210521280766,-0.0030106311314739287,-0.40687114745378494,0.6340308226644993,0.001355492218863219,-0.0029732462717220187,-35.363261800000004,149.1652391,53783.75,-3.25,-14.5,100.5,0.75,-6.5,-980.75,636.75,3.0,1.0,RTL
01:40:17,93200.0,-0.0017356048338115215,-0.0014849621802568436,-0.40670345723629,1.314458429813385,0.00015860766870900989,0.0020665826741605997,-35.36326135,149.16523995,52765.5,-5.0,-15.5,103.0,0.0,52.0,-1047.5,1318.0,1.5,5.5,RTL
01:40:19,93200.0,-0.002799761336063966,-0.0045939055271446705,-0.40751948952674866,1.1482601165771484,-0.002485260833054781,0.00165084027685225,-35.36326065,149.1652417,50714.5,-14.5,-31.5,103.0,-1.0,24.0,-1029.5,1150.5,-1.0,5.0,RTL
01:40:21,171309.5,-0.0038117264630272985,-0.00993619579821825,-0.4071047902107239,-0.09464603662490845,-0.0006737150251865387,-0.009018709068186581,-35.36326155,149.16523999999998,48651.0,-12.0,-28.5,100.0,-3.5,32.5,-1069.5,-90.5,1.5,-5.0,RTL
01:40:23,249419.0,-0.0082552470266819,-0.005451545701362193,-0.4069841504096985,-1.2004044353961945,-0.003033761342521757,0.0035574862267822027,-35.36326235,149.1652375,46618.5,-0.5,-7.0,96.5,0.0,-36.5,-1050.5,-1196.5,-1.0,7.0,RTL
01:40:25,249419.0,-0.012305192649364471,-0.004493107553571463,-0.4059238135814667,0.009196758270263672,0.0019148834981024265,0.008363261353224516,-35.36326185,149.16523855,44575.0,-2.0,-6.0,102.0,-0.5,19.5,-913.0,13.0,3.5,12.0,RTL
01:40:26,242853.0,-0.02193507645279169,-0.005860461969859898,-0.4074569642543793,-0.8486078977584839,-0.006438307464122772,0.019934761570766568,-35.3632618,149.165238675,43549.25,-3.0,-7.75,98.0,-0.25,-8.25,-990.5,-844.0,-4.5,23.5,RTL
01:40:27,242853.0,-0.010526215768550173,-0.007176878629252315,-0.4066798686981201,-1.1142967343330383,-0.0010024523362517357,0.002184028853662312,-35.36326205,149.16523805,42542.5,-2.5,-8.0,99.0,-0.5,-19.0,-974.5,-1110.0,0.5,5.5,RTL
01:40:29,242853.0,-0.0034382501617074013,-0.006924490910023451,-0.4074675142765045,-0.5057894513010979,0.0011963306460529566,-0.003780841827392578,-35.3632625,149.16523705,40494.0,1.5,0.5,101.0,-3.5,14.5,-962.5,-501.5,3.0,0.0,RTL
01:40:31,134626.0,0.03330182656645775,-0.014121194370090961,-0.4073817729949951,-0.771525502204895,-0.00704153859987855,0.010444754734635353,-35.3632637,149.1652343,38835.0,6.0,13.0,99.0,-6.0,15.0,-978.0,-766.0,-5.0,14.0,RTL
01:40:33,26399.0,0.027383258566260338,-0.0037030719686299562,-0.405431404709816,-1.3473164439201355,0.0023450491717085242,-0.004373659496195614,-35.36326445,149.165232,36835.0,23.0,40.5,98.5,0.5,-48.0,-1008.5,-1342.5,3.5,-0.5,RTL
01:40:35,26399.0,0.01797918602824211,-0.0013721802388317883,-0.40638934075832367,-0.6573283225297928,-0.006220485316589475,-0.011083530262112617,-35.363263149999995,149.16523475,34769.5,14.0,29.0,103.0,2.0,-70.0,-995.5,-654.5,-4.0,-7.5,RTL
01:40:36,21340.0,0.017180199967697263,-0.003148069605231285,-0.4065399691462517,1.167049054056406,-0.0037052164843771607,0.004094529605936259,-35.363262775,149.1652362,33500.25,9.5,19.5,99.5,3.5,71.0,-995.25,1172.0,-1.5,7.75,RTL
01:40:37,21340.0,0.003964229137636721,-0.0044249966740608215,-0.4057442992925644,0.5632309466600418,0.0036170954699628055,0.012775015085935593,-35.36326255,149.16523695,32750.5,6.5,12.0,97.5,1.5,56.0,-1004.0,569.0,4.5,16.0,RTL
01:40:39,21340.0,-0.016102996189147234,-0.0050169299356639385,-0.4064510464668274,-0.6735537946224213,0.004532045917585492,-0.0013500257628038526,-35.363262250000005,149.1652383,30734.5,1.5,-1.5,102.0,1.0,1.5,-990.0,-667.0,5.5,1.5,RTL
01:40:41,21340.0,-0.022428120020776987,-0.0039118940476328135,-0.40658317506313324,-1.2479968070983887,-0.0016091353027150035,-0.01355261355638504,-35.363261550000004,149.16523990000002,28689.5,-5.0,-15.5,104.5,0.0,-67.5,-1020.0,-1245.5,0.0,-9.5,RTL
01:40:42,110466.0,0.014375729253515601,-0.003991639940068126,-0.40674133598804474,0.7540443390607834,-0.0007978159992489964,-0.010360925691202283,-35.363261475,149.165239875,27421.5,-6.5,-19.25,102.5,1.25,0.5,-1000.25,756.0,0.75,-6.75,RTL
01:40:43,110466.0,0.006183393765240908,-0.0005048680031904951,-0.4062962234020233,0.8346477746963501,0.0070104035548865795,0.001675439183600247,-35.3632612,149.16524040000002,26662.5,-6.5,-20.5,104.0,3.0,-3.5,-982.5,836.5,8.5,5.0,RTL
01:40:45,110466.0,-0.014636569656431675,-0.003287075785920024,-0.40670788288116455,0.05115015059709549,-0.0014960928820073605,0.005617474089376628,-35.3632603,149.16524235,24599.5,-18.5,-38.5,103.0,-0.5,-35.5,-981.5,52.0,0.0,8.5,RTL
01:40:47,148498.0,0.01427400391548872,-0.008419216610491276,-0.4058545231819153,1.4248676896095276,0.011932153720408678,-8.310005068778992e-05,-35.363261050000006,149.16524090000001,22534.5,-14.5,-30.0,98.5,-2.5,67.5,-974.0,1426.5,13.0,3.0,RTL
01:40:49,186530.0,0.05220554955303669,-0.015392808709293604,-0.40695489943027496,0.9261805713176727,0.0024758758954703808,-0.01044086692854762,-35.36326325,149.16523519999998,20498.5,-1.5,-1.5,99.5,-8.5,80.5,-990.0,930.0,4.0,-6.5,RTL
01:40:51,186530.0,0.06152685359120369,-0.005247010150924325,-0.4062153249979019,-0.07729944586753845,0.014199444092810154,-0.004904415691271424,-35.3632651,149.16522924999998,18470.0,26.0,54.5,102.0,-1.5,39.0,-956.5,-71.5,15.5,-1.5,RTL
01:40:52,26656.0,0.060781304724514484,0.00036620050377678126,-0.40407269448041916,-0.28199489414691925,0.0024243781808763742,0.0025782929733395576,-35.36326465,149.16522975,17205.75,28.5,63.0,101.75,4.25,-71.5,-944.25,-279.0,3.5,5.75,RTL
01:40:53,26656.0,0.03459229692816734,0.0011492175981402397,-0.4046914726495743,-0.41038455069065094,-0.004724226659163833,-0.01042612548917532,-35.36326405,149.16523130000002,16452.5,25.0,58.5,103.5,4.5,-65.5,-977.5,-407.0,-2.5,-6.5,RTL
01:40:55,26656.0,0.03605160489678383,-0.0032849281560629606,-0.4046564996242523,1.0584250092506409,-0.006656546960584819,-0.006400203797966242,-35.3632633,149.1652342,14380.5,14.5,36.5,102.5,3.5,19.0,-1005.0,1062.5,-4.5,-3.0,RTL
01:40:57,52543.5,0.014864586759358644,-0.006237586494535208,-0.4046022742986679,-0.07953670620918274,0.0015753471525385976,0.007136821048334241,-35.363263450000005,149.16523495,12339.0,13.0,25.0,104.5,1.5,33.0,-966.5,-72.0,3.0,10.0,RTL
01:40:59,78431.0,0.01880069961771369,-0.00620176550000906,-0.40440666675567627,0.3140759505331516,-0.0023901222739368677,-0.0005893938941881061,-35.3632629,149.16523665,11107.0,8.5,12.0,23.0,1.0,-3.5,-1002.5,319.5,-1.0,2.5,RTL
01:41:01,78431.0,0.025112077593803406,-0.006489077815786004,-0.4044392704963684,0.9904347658157349,0.0028262794949114323,-0.0009930500527843833,-35.36326285,149.1652369,10541.0,6.5,7.5,35.5,0.0,32.0,-995.0,996.5,4.0,2.0,RTL
01:41:02,45677.0,0.01674677454866469,-0.0033604748896323144,-0.40469997376203537,0.7023494131863117,8.560001151636243e-05,-0.001941955415531993,-35.363262524999996,149.165237275,10098.25,4.5,4.25,35.0,0.75,18.0,-995.25,707.75,1.5,1.5,RTL
01:41:03,45677.0,0.0005574293900281191,-0.0034663674887269735,-0.4049307107925415,-0.7025296092033386,-0.0005154438840691,-0.003016707138158381,-35.36326235,149.16523755,9846.5,2.5,1.5,33.5,-0.5,-47.0,-994.5,-696.5,0.5,0.5,RTL
01:41:05,45677.0,0.0030170425307005644,-0.004641637206077576,-0.4045637249946594,-0.6236532032489777,-0.0019306897302158177,-0.002999245305545628,-35.3632621,149.1652381,9152.0,-0.5,-4.0,34.0,0.5,-46.0,-990.0,-617.5,-1.0,0.0,RTL
01:41:07,78275.5,-0.0047607458545826375,0.000258187843428459,-0.40399685502052307,0.5398896932601929,0.0024149392265826464,-0.0021905996836721897,-35.3632615,149.1652393,8691.5,-2.5,-8.5,-5.5,3.0,19.0,-1029.5,545.5,4.0,1.0,RTL
01:41:09,110874.0,-0.017820950597524643,-0.003401721944101155,-0.40497952699661255,0.2958356367889792,-0.0008702999912202358,-0.00597776472568512,-35.36326055,149.165242,8796.0,-14.5,-32.0,-1.0,1.5,1.5,-996.0,300.0,0.5,-2.0,RTL
01:41:11,110874.0,-0.0027450794586911798,-0.008272023871541023,-0.4043606370687485,0.04358001798391342,0.003617672045947984,-0.0005294376751407981,-35.3632611,149.16524099999998,8797.0,-15.0,-35.0,0.0,-3.5,-9.0,-996.5,47.5,4.5,2.5,RTL
01:41:12,100562.0,0.004149425731156953,-0.00798684824258089,-0.40467140823602676,-0.5153006091713905,0.0009412512008566409,0.0028462567133828998,-35.3632618,149.165238925,8795.5,-8.5,-21.5,0.0,-2.5,-6.75,-999.25,-510.0,2.25,5.75,RTL
01:41:13,100562.0,0.020705300383269787,-0.00510989804752171,-0.40448321402072906,0.5949675440788269,0.00392356957308948,-0.0021245155949145555,-35.363262,149.1652381,8791.5,-4.5,-11.5,0.0,-1.5,24.5,-1003.5,599.5,4.5,1.0,RTL
01:41:15,100562.0,0.006626223505008966,-0.005556476768106222,-0.4048869162797928,-0.04761345684528351,0.0009874049574136734,0.0032775476574897766,-35.36326205,149.1652374,8153.0,-2.5,-3.5,37.0,-1.5,23.5,-998.5,-42.0,2.5,5.5,RTL
01:41:17,76036.0,0.029782275669276714,-0.005893344758078456,-0.40524521470069885,-0.1389104425907135,0.0017097023082897067,0.0009659962961450219,-35.36326255,149.16523615,7440.0,1.5,6.0,34.0,-0.5,-26.0,-976.5,-135.5,3.0,3.5,RTL
01:41:19,51510.0,0.016092105768620968,-0.00415043078828603,-0.40413063764572144,-0.48908813297748566,0.001824852079153061,-0.004686196334660053,-35.363262750000004,149.16523604999998,6722.5,5.5,10.5,32.5,0.5,-44.0,-983.5,-485.0,3.5,-1.0,RTL
01:41:21,51510.0,-0.006723078491631895,-0.0022399427252821624,-0.40447181463241577,0.5222583264112473,0.0002966435858979821,0.0016049044206738472,-35.36326205,149.16523815,6018.5,1.0,1.0,29.0,1.5,38.5,-1011.5,528.0,1.0,4.0,RTL
01:41:22,41802.0,0.0006674614269286394,-0.00426114909350872,-0.40413666516542435,0.666521929204464,-0.0006324847345240414,-3.1857925932854414e-05,-35.36326175,149.165239025,5611.0,-2.25,-7.75,30.25,1.25,36.0,-1002.75,671.0,0.25,2.5,RTL
01:41:23,41802.0,-0.005615150439552963,-0.004817912355065346,-0.40476715564727783,-0.10095248930156231,-0.006173095433041453,-0.006539238151162863,-35.36326165,149.1652396,5374.5,-3.5,-12.0,33.5,1.0,-30.0,-988.5,-97.5,-4.5,-2.5,RTL
01:41:25,41802.0,-0.0026797122845891863,-0.0050862261559814215,-0.4045487493276596,0.8732775151729584,0.0015321692917495966,0.0009135801810771227,-35.36326135,149.16524055000002,4707.5,-7.0,-21.5,35.0,0.5,34.5,-1022.5,877.0,2.5,3.5,RTL
01:41:27,52046.5,-0.025077584199607372,-0.006758473115041852,-0.40502072870731354,-0.7912587225437164,-0.0018096715211868286,0.0010892513673752546,-35.3632611,149.16524125,4044.0,-11.0,-31.0,35.5,-1.5,-23.5,-999.0,-787.0,-0.5,3.5,RTL
01:41:29,62291.0,0.003147997136693448,-0.007978637469932437,-0.4048905372619629,0.0024652481079101562,0.0012314923224039376,0.0011134468950331211,-35.363261550000004,149.16524005,3354.0,-8.5,-25.5,34.5,-2.5,-20.0,-990.0,4.5,2.0,3.5,RTL
01:41:31,62291.0,0.022553788498044014,-0.006817055633291602,-0.405254527926445,0.9804825186729431,0.0016700428095646203,-0.0028212000615894794,-35.363262250000005,149.1652378,2673.5,-1.5,-9.0,36.0,-1.0,47.0,-1004.5,983.5,3.0,0.0,RTL
01:41:32,146973.0,0.02531390218064189,-0.0065623135305941105,-0.40501105785369873,0.4798679733648896,0.0009126107324846089,0.00037368794437497854,-35.363262500000005,149.1652369,2246.25,1.0,-0.25,35.25,-1.5,8.5,-995.0,481.5,1.75,3.0,RTL
01:41:33,146973.0,0.01830759784206748,-0.008167946711182594,-0.40488407015800476,-0.7719934284687042,-0.0013466498348861933,-0.0013898461475037038,-35.3632627,149.1652364,1993.5,1.5,2.0,34.5,-1.0,-42.0,-1012.0,-769.0,0.0,1.0,RTL
01:41:35,146973.0,0.02788211591541767,-0.003815813921391964,-0.40410448610782623,0.1327269896864891,0.0024872077046893537,-0.00033362937392666936,-35.3632628,149.1652358,1303.5,6.0,10.5,34.5,0.0,-22.0,-1001.5,134.5,3.0,2.0,RTL
01:41:37,104625.5,0.007968856953084469,-0.0038193411892279983,-0.40438638627529144,0.13677121233195066,-0.0027891065692529082,0.0009212188888341188,-35.3632627,149.1652361,610.5,5.0,11.0,34.5,0.5,24.5,-1021.0,141.0,-1.5,4.0,RTL
01:41:39,62278.0,0.020957617089152336,-0.00038932409370318055,-0.4060613512992859,-0.0012368098832666874,0.0011814272729679942,-0.0005322443321347237,-35.3632627,149.16523795,26.0,-8.0,37.5,8.0,0.0,0.0,-1000.0,2.0,2.0,1.5,RTL
01:41:41,62278.0,0.009839759673923254,-0.00295264960732311,-0.40296556055545807,-0.0017292809206992388,0.000980788201559335,-0.00038352259434759617,-35.3632628,149.16523825000002,0.0,0.0,16.5,5.5,0.5,0.0,-1000.0,2.0,2.0,2.0,RTL
01:41:42,593.0,0.004864955437369645,-0.003136688726954162,-0.40163086354732513,-0.0018198151956312358,0.0009129636164288968,-0.0004144595004618168,-35.3632627,149.165237575,0.0,-0.25,3.25,4.0,0.25,0.0,-1000.0,2.0,2.0,1.75,RTL
