time_stamp,RTL_ALT,roll,pitch,yaw,rollspeed,pitchspeed,yawspeed,lat,lon,relative_alt,vx,vy,vz,xacc,yacc,zacc,xgyro,ygyro,zgyro,MODE
18:38:46,203117.0,-0.0013439101167023182,0.000999355223029852,0.02148456871509552,3.928341902792454e-05,0.000287228322122246,0.001671352656558156,-35.3632621,149.1652375,0.0,-1.0,0.0,0.0,0.0,1.0,-1000.0,1.0,0.0,0.0,STABILIZE
18:38:50,203117.0,-0.001171794137917459,0.0009813412907533348,0.020922506228089333,0.00021991183166392148,0.0002463241689838469,0.0015491165686398745,-35.3632622,149.1652375,10.5,-1.0,0.0,-1.0,0.0,1.5,-1000.0,0.0,0.5,0.0,AUTO
18:38:52,203117.0,-0.0005656122812069952,0.0013647072482854128,0.02054799720644951,0.0002510891354177147,0.00036320279468782246,0.0014677493600174785,-35.3632621,149.1652375,8.5,0.0,0.0,0.0,0.0,1.5,-1000.0,0.5,0.0,1.0,AUTO
18:38:53,176810.0,0.00102562244865112,0.0010088839189847931,0.02026342088356614,0.003087654637056403,-0.003003542253281921,0.0015913544339127839,-35.3632621,149.1652375,23.0,0.0,0.0,-10.25,0.0,0.75,-1053.5,3.0,-2.25,0.25,AUTO
18:38:54,176810.0,0.0027714805910363793,0.0006333093042485416,0.020090866833925247,-0.002751382766291499,0.003475086879916489,0.0026776494923979044,-35.3632621,149.1652375,307.5,0.0,0.5,-85.5,0.0,-0.5,-1119.5,-2.0,3.5,2.0,AUTO
18:38:56,176810.0,0.05188770033419132,0.0012920666486024857,-0.017562045948579907,-0.07095970399677753,0.060529425740242004,-0.07247770391404629,-35.3632615,149.16524040000002,3122.5,9.0,47.0,-147.0,1.5,-9.0,-991.5,-70.0,60.5,-72.0,AUTO
18:38:58,103333.5,-0.07704145833849907,0.018375773914158344,-0.11763226985931396,0.05001714453101158,0.0012205823877593502,-0.04305451549589634,-35.36326,149.16524605,6181.0,-3.5,-33.5,-149.0,-3.0,3.0,-1002.5,50.0,1.5,-43.0,AUTO
18:39:00,29857.0,0.04387597180902958,0.0074195172637701035,-0.12132107466459274,-0.014787676744163036,-0.08966662921011448,0.08630815893411636,-35.363265049999995,149.1652337,9260.0,-46.5,-30.5,-152.5,2.0,12.5,-998.0,-14.0,-88.5,85.5,AUTO
18:39:02,29857.0,0.016921929316595197,-0.04791688080877066,-0.02965572802349925,-0.15623188018798828,0.13905613124370575,-0.11661307513713837,-35.363264400000006,149.16523640000003,12342.5,71.0,54.0,-143.5,-7.5,-17.0,-1001.5,-154.5,139.0,-116.5,AUTO
18:39:04,4962.0,-0.044198768213391304,0.062041375786066055,-0.23627066612243652,0.05226791091263294,0.004957054974511266,-0.03507925756275654,-35.3632559,149.1652392,15442.5,-14.0,-29.0,-152.5,-3.5,3.5,-1000.0,52.5,5.5,-35.0,AUTO
18:39:06,4962.0,0.04020579159259796,-0.030283041764050722,-0.20007732510566711,-0.03128563892096281,-0.15164121985435486,0.12798281386494637,-35.3632662,149.16523585,18527.5,-67.5,28.0,-151.5,14.0,8.0,-1006.5,-29.5,-150.5,127.0,AUTO
18:39:08,4962.0,-0.06421220488846302,-0.023611048236489296,-0.1890062913298607,0.030851240269839764,0.05962265655398369,-0.07500394061207771,-35.363260749999995,149.1652387,21566.5,92.5,-44.0,-148.5,-21.0,-6.0,-1008.0,31.5,59.5,-75.0,AUTO
18:39:09,6724.0,-0.008197122573619708,0.053346483036875725,-0.24331587180495262,0.05661859083920717,0.06016120687127113,-0.02027179067954421,-35.363252599999996,149.16522845,23493.25,37.75,-81.25,-154.75,-18.5,6.0,-1007.25,56.75,60.5,-20.0,AUTO
18:39:10,6724.0,0.03635198064148426,0.08835849165916443,-0.2523048371076584,0.06481778249144554,0.02665413450449705,-0.0068586659617722034,-35.36325145,149.16522225,24683.0,-19.0,-53.0,-155.5,-10.0,10.5,-1003.0,65.5,27.0,-6.5,AUTO
18:39:12,6724.0,0.07080230489373207,-0.05963366851210594,-0.19078471511602402,-0.15992657840251923,-0.1803339198231697,0.15586262941360474,-35.3632626,149.1652311,27701.0,-52.0,139.5,-141.0,35.5,-13.0,-1013.5,-158.5,-178.5,155.0,AUTO
18:39:14,6724.0,-0.13377701491117477,0.02222720254212618,-0.37735801935195923,0.07328302599489689,0.0668312069028616,-0.0446938406676054,-35.36325935,149.16524470000002,30737.5,11.5,-70.5,-147.0,-13.0,2.5,-1002.0,74.0,67.0,-44.5,AUTO
18:39:15,18704.0,-0.038702573627233505,0.06975122665365537,-0.4086816608905792,0.0970643162727356,0.03256129163006941,-0.0035295470152050257,-35.363263499999995,149.16523006666668,32534.666666666668,-88.0,-119.66666666666667,-145.0,-11.333333333333334,29.333333333333332,-1007.3333333333334,97.33333333333333,33.0,-3.3333333333333335,AUTO
18:39:16,18704.0,0.03771441429853439,0.0809280773003896,-0.40678122639656067,0.10584608465433121,-0.004244873921076457,0.008624897726501027,-35.3632712,149.16522153333335,33654.0,-134.66666666666666,-73.33333333333333,-149.0,-2.3333333333333335,37.0,-1010.6666666666666,106.33333333333333,-3.0,7.666666666666667,AUTO
18:39:18,18704.0,0.1582879771788915,-0.09772181262572606,-0.3444613218307495,-0.016583002482851345,-0.14427579194307327,0.09063501531879108,-35.363291933333336,149.1652308666667,36679.666666666664,-22.333333333333332,163.0,-140.66666666666666,27.666666666666668,-15.0,-996.6666666666666,-15.333333333333334,-142.66666666666666,90.0,AUTO
18:39:20,63908.0,-0.20061604430278143,0.19155081609884897,-0.22209280729293823,0.19379717111587524,0.1773464617629846,0.42609163622061413,-35.363266100000004,149.1652516,39096.666666666664,140.66666666666666,-96.0,-93.0,-39.0,-16.666666666666668,-976.0,194.66666666666666,178.0,426.0,AUTO
18:39:22,109112.0,0.10461355497439702,-0.032374673833449684,-0.1509747157494227,0.5758087957898775,-0.06734900486965974,-0.015181856695562601,-35.363264199999996,149.1652333,39529.666666666664,-12.666666666666666,-3.6666666666666665,17.666666666666668,1.0,20.0,-980.6666666666666,576.3333333333334,-66.33333333333333,-14.333333333333334,AUTO
18:39:24,109112.0,-0.026239002123475075,-0.022520074620842934,-0.18081848323345184,0.5767923295497894,-0.02510881641258796,-0.009227748067739109,-35.36326046666667,149.16523856666666,39202.0,41.666666666666664,2.3333333333333335,2.3333333333333335,-6.0,17.333333333333332,-1012.6666666666666,577.6666666666666,-23.666666666666668,-8.333333333333334,AUTO
18:39:26,51051.0,0.01917372519771258,-0.043188357104857765,-0.5291077891985575,-0.12686202923456827,0.046334720527132355,0.03907873543600241,-35.3632503,149.16522916666668,39065.666666666664,86.33333333333333,-73.0,6.666666666666667,-26.333333333333332,-27.0,-998.0,-126.33333333333333,46.666666666666664,39.0,AUTO
18:39:28,51051.0,0.01383603325424095,0.0031421564053744078,-0.530215342839559,-0.5958693424860636,0.02619573473930359,-0.0069662330982585745,-35.36323503333333,149.16521303333334,38852.666666666664,84.66666666666667,-54.666666666666664,7.666666666666667,-20.666666666666668,-44.666666666666664,-1004.3333333333334,-594.6666666666666,26.333333333333332,-5.666666666666667,AUTO
18:39:30,86711.0,-0.013448692237337431,-0.04316535855953892,-0.5450834234555563,-0.5907129347324371,-0.13731401413679123,0.002325499119857947,-35.363224333333335,149.1652053,38698.666666666664,40.0,-33.333333333333336,2.3333333333333335,-8.666666666666666,-34.333333333333336,-996.3333333333334,-589.6666666666666,-136.33333333333334,2.3333333333333335,AUTO
18:39:32,122371.0,0.01759568291405837,-0.02220536155315737,-0.5570504069328308,-0.0010025749603907268,0.05496609707673391,-0.01419522613286972,-35.36321133333333,149.16519163333334,38543.0,96.33333333333333,-78.0,6.666666666666667,-24.333333333333332,0.6666666666666666,-995.0,1.3333333333333333,55.666666666666664,-13.333333333333334,AUTO
18:39:34,122371.0,0.00533842365257442,0.030424463873108227,-0.5676513314247131,0.408786008755366,-0.23314319054285684,-0.031905230755607285,-35.363195166666664,149.1651776,38340.666666666664,51.666666666666664,-35.333333333333336,4.0,-8.666666666666666,19.0,-1001.6666666666666,411.0,-232.0,-31.0,AUTO
18:39:36,9753.0,0.015121107610563437,0.03880840974549452,-0.5750551422437032,0.43866748983661336,0.2244068682193756,-0.02340860354403655,-35.36317686666666,149.16516343333333,38107.333333333336,126.33333333333333,-121.66666666666667,7.333333333333333,-36.0,-20.333333333333332,-1017.3333333333334,438.3333333333333,224.33333333333334,-22.333333333333332,AUTO
18:39:38,9753.0,0.006340176274534315,0.015489003931482634,-0.5850237210591634,-0.39930784702301025,0.09855622549851735,-0.013003258965909481,-35.36315726666667,149.16514576666665,37856.666666666664,106.66666666666667,-110.0,8.666666666666666,-30.333333333333332,-43.333333333333336,-1005.0,-399.6666666666667,98.66666666666667,-12.333333333333334,AUTO
18:39:40,9753.0,0.02119641254345576,-0.039271759490172066,-0.5910444060961405,-0.3692028572161992,-0.29313042263189953,-0.025696853175759315,-35.36313703333333,149.1651246,37586.333333333336,103.33333333333333,-93.33333333333333,12.666666666666666,-32.333333333333336,-17.666666666666668,-992.6666666666666,-368.0,-292.3333333333333,-24.666666666666668,AUTO
18:39:41,20356.0,0.04145969202121099,0.015492202869306007,-0.5953328808148702,-0.45657523969809216,0.027392235894997913,-0.033554743975400925,-35.36312253333333,149.16510883333333,37385.666666666664,149.0,-108.33333333333333,12.0,-38.333333333333336,-35.0,-1003.0,-455.6666666666667,27.333333333333332,-32.333333333333336,AUTO
18:39:42,20356.0,0.04672002171476682,-0.11356969426075618,-0.5988389253616333,0.4188099304835002,-0.01996607581774394,-0.03392259473912418,-35.3631133,149.16509956666667,37258.0,159.66666666666666,-102.66666666666667,20.333333333333332,-40.333333333333336,-3.3333333333333335,-1004.0,419.0,-19.333333333333332,-33.0,AUTO
18:39:44,20356.0,0.03652986139059067,-0.048719219863414764,-0.6013223727544149,-0.2846706211566925,0.3118212471405665,-0.02675100974738598,-35.36308553333333,149.16507420000002,36889.0,181.66666666666666,-109.33333333333333,18.666666666666668,-44.666666666666664,-45.0,-1017.0,-284.3333333333333,311.6666666666667,-26.0,AUTO
18:39:46,20356.0,0.030788491169611614,0.051683428386847176,-0.6058545907338461,-0.3782768100500107,0.10523736476898193,-0.025740464838842552,-35.363057733333335,149.16505000000004,36534.333333333336,159.0,-95.33333333333333,12.666666666666666,-37.333333333333336,-28.666666666666668,-1011.0,-376.3333333333333,105.0,-25.0,AUTO
18:39:47,49840.0,0.02547921674946944,-0.022153105586767197,-0.6078285574913025,-0.37229402363300323,0.3200157682100932,-0.036193847423419356,-35.36304203333333,149.16503673333332,36317.0,153.33333333333334,-97.33333333333333,15.333333333333334,-37.333333333333336,-52.0,-1010.0,-371.6666666666667,319.6666666666667,-35.333333333333336,AUTO
18:39:48,49840.0,0.024073120206594467,-0.002400792514284452,-0.6110251148541769,0.29736297329266864,-0.305558979511261,-0.04306792840361595,-35.36303323333333,149.16502923333334,36220.0,115.66666666666667,-70.33333333333333,13.0,-27.0,9.666666666666666,-991.0,299.3333333333333,-304.6666666666667,-42.0,AUTO
18:39:50,49840.0,0.021036020790537197,-0.10693105248113473,-0.6144290169080099,0.4407513365149498,-0.29521170755227405,-0.01951802269710849,-35.36301016666667,149.16500946666667,35917.666666666664,125.0,-88.0,16.666666666666668,-29.0,-5.0,-995.0,441.6666666666667,-294.6666666666667,-18.0,AUTO
18:39:52,49840.0,0.025091600293914478,-0.10732339074214299,-0.6173651218414307,-0.17283138632774353,-0.10075139005978902,0.019102858069042366,-35.36298396666667,149.1649856,35569.333333333336,140.33333333333334,-105.66666666666667,20.0,-35.333333333333336,-40.0,-996.0,-172.0,-100.33333333333333,19.333333333333332,AUTO
18:39:53,140573.0,0.04080945625901222,0.022150152673323948,-0.617035984992981,0.542784295976162,-0.24546044444044432,0.030329902035494644,-35.36296803333334,149.16497053333333,35362.0,117.66666666666667,-84.33333333333333,13.333333333333334,-28.333333333333332,-12.0,-992.3333333333334,543.0,-245.0,31.333333333333332,AUTO
18:39:54,140573.0,0.015534601484735807,-0.05871018270651499,-0.6190853317578634,-0.41940386158724624,0.19306747615337372,0.005922472104430199,-35.3629599,149.16496333333333,35233.666666666664,133.33333333333334,-93.33333333333333,15.0,-34.0,-34.666666666666664,-1013.0,-417.6666666666667,193.0,6.666666666666667,AUTO
18:39:56,140573.0,0.023308126255869865,-0.003837172252436479,-0.6220269799232483,0.4679885345200698,0.2523655022184054,0.009833928818504015,-35.36293713333333,149.16494360000002,34941.0,143.66666666666666,-108.66666666666667,12.0,-37.666666666666664,3.6666666666666665,-1020.0,470.0,252.33333333333334,11.0,AUTO
18:39:58,140573.0,0.05325474590063095,0.033512169417614736,-0.6238377491633097,0.5230549722909927,0.0740682731072108,0.01585194142535329,-35.362913,149.1649196333333,34633.0,145.0,-102.66666666666667,12.666666666666666,-36.333333333333336,-15.333333333333334,-1001.6666666666666,523.3333333333334,74.0,17.333333333333332,AUTO
18:39:59,95890.0,0.03025454158584277,0.025892900303006172,-0.622260570526123,-0.360403115550677,0.17321868489185968,-0.005012281859914462,-35.3628989,149.16490596666668,34432.333333333336,125.33333333333333,-74.33333333333333,12.0,-31.0,-20.666666666666668,-1007.0,-358.0,173.0,-4.0,AUTO
18:40:00,95890.0,0.03965959201256434,-0.007143788660566012,-0.6236173311869303,0.5081437875827154,-0.1758754998445511,-0.004761098728825648,-35.36289213333333,149.16489979999997,34346.0,96.0,-47.0,10.666666666666666,-21.666666666666668,0.6666666666666666,-998.6666666666666,509.6666666666667,-175.0,-3.6666666666666665,AUTO
18:40:02,95890.0,0.027790457631150883,0.0008965444188409796,-0.625387986501058,-0.3893059988816579,0.03717424254864454,0.0038220417918637395,-35.36287433333333,149.164884,34118.333333333336,99.66666666666667,-53.333333333333336,9.666666666666666,-22.333333333333332,-42.666666666666664,-1001.0,-388.3333333333333,37.0,4.666666666666667,AUTO
18:40:04,95890.0,0.017128604153792065,0.04433580612142881,-0.6244120399157206,-0.2604523201783498,-0.030596508644521236,-0.00838448452608039,-35.362864300000005,149.16487436666668,33981.333333333336,26.0,7.666666666666667,1.6666666666666667,-4.666666666666667,-6.0,-1009.0,-257.3333333333333,-30.0,-7.333333333333333,AUTO
18:40:05,98379.0,0.01725142542272806,-0.003503989273061355,-0.6260487039883932,-0.3724455734093984,-0.030859488993883133,-0.007733030244708061,-35.3628645,149.16487373333334,33975.333333333336,9.333333333333334,25.333333333333332,-0.6666666666666666,-0.3333333333333333,-14.333333333333334,-1000.0,-369.0,-30.333333333333332,-6.666666666666667,AUTO
18:40:06,98379.0,0.028762759019931156,-0.014951702828208605,-0.6287357012430826,0.3827194630478819,0.0025007110089063644,0.00021629322630663714,-35.36286473333333,149.16487363333331,33983.333333333336,17.666666666666668,21.333333333333332,-0.6666666666666666,-1.6666666666666667,12.666666666666666,-1005.6666666666666,385.6666666666667,2.6666666666666665,0.6666666666666666,RTL
18:40:08,98379.0,0.009282396951069435,0.011816497581700483,-0.6295562187830607,-0.10616935292879741,-0.0013529595841343205,0.006039653439074755,-35.362863,149.16487306666667,34107.333333333336,17.666666666666668,21.0,-27.333333333333332,0.0,-7.0,-1038.6666666666667,-102.33333333333333,-1.0,6.333333333333333,RTL
18:40:10,98379.0,-0.0027516576616714397,0.0048180376179516315,-0.6298821171124777,-0.018703320994973183,-0.0004842258640564978,0.001977238842907051,-35.362862,149.1648746333333,35457.333333333336,2.0,12.666666666666666,-89.66666666666667,1.0,-2.6666666666666665,-1006.0,-15.0,0.0,2.6666666666666665,RTL
18:40:11,146437.0,-0.005078587991495927,0.004226906845966975,-0.6302162408828735,0.00178158904115359,0.0007315846742130816,4.2205695838977895e-05,-35.3628617,149.16487543333332,36589.666666666664,-1.6666666666666667,5.0,-81.66666666666667,0.3333333333333333,-1.3333333333333333,-982.6666666666666,5.333333333333333,1.0,0.6666666666666666,RTL
18:40:12,146437.0,-0.005333527612189452,0.004192586988210678,-0.6305007338523865,-0.016033032288153965,0.0019731857270623245,-0.00027113054723789293,-35.36286153333334,149.1648756333333,37165.333333333336,-3.6666666666666665,1.3333333333333333,-64.66666666666667,0.0,-2.0,-971.6666666666666,-12.333333333333334,2.0,0.3333333333333333,RTL
18:40:14,146437.0,-0.008917047215315202,0.006382949184626341,-0.6304814418156942,-0.46688492596149445,0.002824368110547463,-0.0024396738735958934,-35.36286123333333,149.1648759,37877.0,-7.666666666666667,-2.0,-2.3333333333333335,0.0,-23.666666666666668,-970.6666666666666,-463.0,2.6666666666666665,-1.3333333333333333,RTL
18:40:16,146437.0,-0.009714880958199501,0.004578328380982081,-0.6315312385559082,-0.40774161865313846,-0.0013464193131464224,0.0008689183741807938,-35.36286126666666,149.16487586666668,37848.666666666664,-9.666666666666666,-2.3333333333333335,-10.0,0.3333333333333333,-15.666666666666666,-1033.6666666666667,-403.6666666666667,-0.3333333333333333,1.6666666666666667,RTL
18:40:17,187055.0,-0.005878744491686423,0.002519565246378382,-0.631874700387319,-0.10048977037270863,-0.0009723489638417959,3.4747334818045296e-05,-35.362861466666665,149.1648759,38263.666666666664,-8.666666666666666,-2.0,-50.333333333333336,0.0,-2.0,-1015.0,-97.0,0.0,1.0,RTL
18:40:18,187055.0,-0.0038970818277448416,0.0007773169539480781,-0.6323395570119222,-0.10972565412521362,-0.00216894579352811,0.0008171743635709087,-35.36286166666667,149.16487586666668,38654.333333333336,-7.666666666666667,-2.3333333333333335,-45.666666666666664,-0.3333333333333333,-6.666666666666667,-974.6666666666666,-106.33333333333333,-1.0,1.6666666666666667,RTL
18:40:20,187055.0,0.004205070436000824,0.0003886788687547475,-0.6327327688535055,0.4809238264958064,0.001596691746575137,0.0035350887725750604,-35.3628621,149.1648756333333,38958.666666666664,-2.6666666666666665,-1.0,3.6666666666666665,0.0,23.333333333333332,-1000.3333333333334,484.3333333333333,2.3333333333333335,4.333333333333333,RTL
18:40:22,187055.0,-0.002811867045238614,0.0021251883978645005,-0.6330620447794596,-0.10786628971497218,0.002407671883702278,0.00025652659436066944,-35.362862166666666,149.1648755,39245.333333333336,-1.0,0.0,-46.0,0.0,-5.666666666666667,-1030.0,-104.33333333333333,3.0,1.3333333333333333,RTL
18:40:23,150395.0,-0.006115932483226061,0.002355007454752922,-0.6334062417348226,0.048210968573888145,0.0007927844611306986,0.001011696256076296,-35.36286186666666,149.16487586666665,39950.0,-2.3333333333333335,-2.0,-40.333333333333336,0.0,-3.3333333333333335,-965.3333333333334,51.0,1.6666666666666667,2.0,RTL
18:40:24,150395.0,-0.0053640079374114675,0.0017814789122591417,-0.6332783301671346,0.2903543710708618,-0.0013621945399791002,0.0016934721109767754,-35.3628618,149.16487603333334,40157.0,-3.6666666666666665,-3.3333333333333335,-11.0,0.0,17.666666666666668,-965.3333333333334,293.6666666666667,-0.6666666666666666,2.6666666666666665,RTL
18:40:26,150395.0,-0.00201051631787171,0.0008804407358790437,-0.6339876651763916,0.08074638247489929,0.0004020568060999115,-0.00039008220968147117,-35.3628618,149.1648761,40166.0,-4.0,-4.666666666666667,-7.0,0.0,-4.666666666666667,-1032.3333333333333,82.66666666666667,1.0,1.3333333333333333,RTL
18:40:28,150395.0,-0.0053020060489264624,0.00037720631128953147,-0.6344636480013529,0.00043072303136189777,-0.0001654395212729772,-3.827033409227928e-05,-35.3628618,149.1648762,40938.0,-5.0,-6.0,-48.333333333333336,0.0,-0.6666666666666666,-980.3333333333334,3.0,0.6666666666666666,1.0,RTL
18:40:29,33277.0,1.0612828191369772e-05,0.0016143365840738018,-0.6342956821123759,0.13664264480272928,-0.0011775176196048658,0.0014659185738613207,-35.3628618,149.16487623333333,41303.0,-5.333333333333333,-6.666666666666667,-5.666666666666667,0.0,-3.6666666666666665,-977.0,138.66666666666666,-0.3333333333333333,2.3333333333333335,RTL
18:40:30,33277.0,-0.006881990372979392,0.0010464877705089748,-0.6344365477561951,-0.12283963958422343,-0.0014560349906484287,0.001717038918286562,-35.3628618,149.16487606666666,41307.666666666664,-4.666666666666667,-5.0,3.3333333333333335,-0.3333333333333333,7.666666666666667,-1003.6666666666666,-119.0,-0.6666666666666666,2.6666666666666665,RTL
18:40:32,33277.0,0.010589137362937132,-0.0006792012427467853,-0.6343891223271688,0.1681029200553894,0.0011022522036607068,0.0007964447528744737,-35.362862400000004,149.16487503333335,41524.0,-0.3333333333333333,0.3333333333333333,-40.0,-0.3333333333333333,6.666666666666667,-1035.6666666666667,170.66666666666666,1.6666666666666667,1.6666666666666667,RTL
18:40:34,33277.0,0.009721835299084583,0.0027582666371017694,-0.6342955827713013,0.18781516949335733,0.002118028273495535,-0.00011805010338624318,-35.362862666666665,149.16487453333332,42401.333333333336,3.3333333333333335,5.333333333333333,-15.666666666666666,0.0,-1.0,-955.3333333333334,190.0,2.6666666666666665,1.0,RTL
18:40:35,117086.0,0.0008813383368154367,0.0028965096765508256,-0.6345874269803365,0.2923344274361928,0.0011456555221229792,0.0038817402673885226,-35.3628624,149.1648749,42435.666666666664,2.3333333333333335,4.666666666666667,3.6666666666666665,0.0,16.333333333333332,-999.6666666666666,295.6666666666667,2.0,5.0,RTL
18:40:36,117086.0,-0.0075907917926087976,0.002690330147743225,-0.6347175041834513,-0.3934979736804962,-0.0003799428232014179,-0.001470466183188061,-35.3628622,149.16487530000003,42425.666666666664,0.3333333333333333,2.3333333333333335,-3.0,0.3333333333333333,-24.666666666666668,-1023.3333333333334,-391.0,0.3333333333333333,0.0,RTL
18:40:38,117086.0,-0.014283908531069756,0.0025470703840255737,-0.6352306803067526,-0.04885490487019221,-0.0001484065044981738,0.0010618662151197593,-35.3628616,149.16487643333332,43144.666666666664,-4.0,-4.666666666666667,-51.0,0.3333333333333333,-4.333333333333333,-987.0,-45.666666666666664,0.6666666666666666,2.6666666666666665,RTL
18:40:40,117086.0,-0.01242364151403308,0.0030088373459875584,-0.6347664992014567,0.39825961490472156,0.003161165009563168,3.290956374257803e-05,-35.36286116666667,149.16487716666666,43595.333333333336,-9.666666666666666,-12.333333333333334,3.6666666666666665,1.0,25.666666666666668,-993.0,401.6666666666667,3.6666666666666665,1.3333333333333333,RTL
18:40:41,40052.0,-0.02978762922187646,0.0037371222085009017,-0.6352979143460592,-0.4102746546268463,-0.000822204165160656,0.002885695934916536,-35.36286066666666,149.1648778,43578.666666666664,-14.0,-17.0,-6.0,0.0,-11.333333333333334,-1027.3333333333333,-407.6666666666667,0.0,4.0,RTL
18:40:42,40052.0,-0.020733904093503952,0.0026520104923595986,-0.6347909768422445,0.08471435308456421,0.0015688561058292787,-0.0014993663256367047,-35.36286046666667,149.16487816666668,43736.666666666664,-16.666666666666668,-20.0,-33.666666666666664,0.3333333333333333,-2.0,-1037.3333333333333,86.33333333333333,2.0,0.6666666666666666,RTL
18:40:44,40052.0,-0.01270148747911056,7.060956947195034e-05,-0.6349415977795919,0.1025706132253011,-0.0007382527304192384,0.002161410986445844,-35.3628606,149.16487823333333,44604.666666666664,-19.0,-24.666666666666668,-18.666666666666668,0.0,-4.333333333333333,-961.6666666666666,103.33333333333333,0.3333333333333333,3.3333333333333335,RTL
18:40:46,69832.0,-0.003039996139705181,-0.002098201308399439,-0.6355665922164917,-0.24847805003325144,-0.0004585754359140992,0.001963900673824052,-35.3628617,149.1648765,44644.666666666664,-11.0,-14.0,-1.3333333333333333,-2.3333333333333335,-1.0,-1022.3333333333334,-246.66666666666666,0.3333333333333333,3.6666666666666665,RTL
18:40:48,99612.0,0.01882870743672053,-0.0009158767449359099,-0.6359416246414185,-0.06876595815022786,0.001299155216353635,0.0029301089234650135,-35.362863133333335,149.16487396666668,45319.333333333336,3.0,4.0,-52.666666666666664,-1.6666666666666667,-1.0,-992.3333333333334,-67.33333333333333,2.0,4.333333333333333,RTL
18:40:50,99612.0,0.010184865134457747,0.0033382301529248557,-0.6358631451924642,-0.34806618094444275,0.0009418628566587964,0.0018753918120637536,-35.3628634,149.1648731,45838.0,10.666666666666666,16.333333333333332,2.3333333333333335,-0.3333333333333333,-11.666666666666666,-990.3333333333334,-345.6666666666667,2.0,4.0,RTL
18:40:51,8648.0,0.013206380885094404,0.003085662300388018,-0.6351754864056905,-0.09629930059115092,-0.0012394520454108715,-0.0013096635617936652,-35.362863266666665,149.16487323333334,45814.666666666664,10.0,17.0,-4.666666666666667,0.6666666666666666,-14.666666666666666,-1024.3333333333333,-95.0,0.0,0.6666666666666666,RTL
18:40:52,8648.0,0.009339327147851387,0.003303859926139315,-0.6347429951032003,0.16092940171559653,0.0005494629343350729,0.00019938789773732424,-35.36286306666667,149.1648736,45957.333333333336,9.666666666666666,17.0,-32.0,0.6666666666666666,7.666666666666667,-1035.0,163.33333333333334,1.3333333333333333,2.0,RTL
18:40:54,8648.0,0.007041271261793251,0.002707607423265775,-0.6351633866628011,0.3260102352748315,0.002594197013725837,0.0008297888174032172,-35.3628626,149.1648745,46891.666666666664,4.333333333333333,9.666666666666666,-27.0,0.0,13.333333333333334,-953.3333333333334,328.6666666666667,3.3333333333333335,2.3333333333333335,RTL
18:40:56,8648.0,0.002111527525509397,0.0014137006364762783,-0.6356271902720133,-0.38088670124610263,-0.0005915407479430238,-0.0008032474045952162,-35.3628625,149.1648748,46983.333333333336,2.0,5.666666666666667,1.6666666666666667,-0.3333333333333333,-22.333333333333332,-1010.0,-378.6666666666667,0.6666666666666666,1.0,RTL
18:40:57,62384.0,0.0053087046059469385,0.0013150087712953489,-0.6350816686948141,-0.00818138321240743,0.001994913793168962,-0.0010530326204995315,-35.3628625,149.1648749,47183.333333333336,2.0,5.0,-37.666666666666664,0.0,-5.0,-1041.0,-6.0,3.0,1.0,RTL
18:40:58,62384.0,0.0009454338190456232,0.0023951622812698283,-0.635746419429779,0.03165047367413839,0.0013546117503816883,-1.7872856309016545e-06,-35.362862433333326,149.16487503333335,47553.666666666664,1.6666666666666667,4.0,-54.666666666666664,0.0,-0.3333333333333333,-1006.0,34.0,1.6666666666666667,1.6666666666666667,RTL
18:41:00,62384.0,0.0030172940654059253,0.003461569935704271,-0.6355435053507487,0.211965541044871,-0.0010940397623926401,-0.0008878077690800031,-35.362862,149.1648755,48222.0,-1.0,0.3333333333333333,-0.6666666666666666,0.0,-3.3333333333333335,-975.3333333333334,213.33333333333334,0.3333333333333333,1.3333333333333333,RTL
18:41:02,62384.0,-0.002706792981674274,0.0011365405128647883,-0.6353286107381185,-0.17745153109232584,-0.0010317231644876301,0.0014842503393689792,-35.362862,149.1648756,48276.0,-2.3333333333333335,0.0,-23.333333333333332,0.0,-3.6666666666666665,-1043.0,-175.33333333333334,0.3333333333333333,3.3333333333333335,RTL
18:41:03,156866.0,0.006500088609755039,-0.00036009831334619474,-0.6359530886014303,0.05057260890801748,0.00017594809954365095,0.002336219884455204,-35.362862400000004,149.1648751,48830.666666666664,-0.6666666666666666,0.6666666666666666,-54.0,-1.3333333333333333,5.666666666666667,-1000.6666666666666,53.0,1.3333333333333333,4.0,RTL
18:41:04,156866.0,0.012585473246872425,-0.0006825109788527092,-0.635866622130076,-0.023773868878682453,-0.0011402887369816501,0.0009834601078182459,-35.3628627,149.1648746,49205.333333333336,1.0,3.6666666666666665,-37.666666666666664,-1.3333333333333333,4.333333333333333,-965.3333333333334,-20.666666666666668,0.3333333333333333,2.3333333333333335,RTL
18:41:06,156866.0,0.01825066702440381,0.001662930667710801,-0.635358969370524,-0.026381512482961018,0.0005021827528253198,0.00136956882973512,-35.362863233333336,149.1648736,49389.333333333336,8.333333333333334,12.333333333333334,3.6666666666666665,-0.3333333333333333,-11.0,-1000.0,-24.0,1.6666666666666667,3.0,RTL
18:41:08,156866.0,0.010039981609831253,0.0021388587386657796,-0.6354079643885294,0.08770658572514851,-0.0006105846259742975,-0.0006192535317192475,-35.3628631,149.1648738,49797.0,9.333333333333334,14.333333333333334,-50.0,0.3333333333333333,5.333333333333333,-1021.0,91.0,1.0,1.6666666666666667,RTL
18:41:09,32497.0,0.0040182615630328655,0.0029825462649265924,-0.635355810324351,-0.007274920741717021,0.0027217778842896223,-0.0005367458797991276,-35.3628627,149.16487446666667,50419.333333333336,6.333333333333333,10.0,-32.666666666666664,1.3333333333333333,-8.0,-957.6666666666666,-4.666666666666667,3.6666666666666665,1.3333333333333333,RTL
18:41:10,32497.0,-0.0044014248220870895,0.004133355803787708,-0.6351687510808309,0.16143720348676047,0.0010285285922388236,0.0015299415681511164,-35.3628624,149.16487496666664,50565.0,4.666666666666667,7.666666666666667,-5.0,1.0,15.0,-974.6666666666666,165.0,2.3333333333333335,3.3333333333333335,RTL
18:41:12,32497.0,-0.0034703626685465374,0.0028008417381594577,-0.6351909041404724,0.09436976909637451,-0.0006575085765992602,-0.0003478549576054017,-35.3628617,149.16487606666666,50577.333333333336,-3.3333333333333335,-1.6666666666666667,-13.0,0.0,-7.666666666666667,-1033.6666666666667,96.66666666666667,0.6666666666666666,1.3333333333333333,RTL
18:41:14,32497.0,-0.0060813647384444875,0.0015462577963868778,-0.635511060555776,0.13392866402864456,0.00224585656542331,0.0005835601283858219,-35.3628615,149.1648765,51455.666666666664,-6.333333333333333,-6.666666666666667,-47.666666666666664,0.0,3.6666666666666665,-974.3333333333334,136.33333333333334,3.3333333333333335,2.6666666666666665,RTL
18:41:15,125066.0,-8.985503033424418e-05,0.0028552447135249772,-0.6351176301638285,0.39136401067177456,-0.0002133457843835155,-0.00021740654483437538,-35.3628614,149.16487653333334,51789.0,-7.666666666666667,-8.333333333333334,-3.6666666666666665,0.0,10.0,-973.3333333333334,393.6666666666667,1.0,2.0,RTL
18:41:16,125066.0,-0.013263645271460215,0.0019136570626869798,-0.6356667280197144,-0.29426151017347973,-0.0007653999297569195,0.0011099368178596098,-35.362861466666665,149.16487646666667,51785.666666666664,-8.0,-8.0,4.0,-0.3333333333333333,-5.666666666666667,-988.3333333333334,-291.3333333333333,0.6666666666666666,3.3333333333333335,RTL
18:41:18,125066.0,0.0015971480558315914,0.0014543768872196476,-0.6355625589688619,0.0828950156768163,0.0010744834629197915,7.459893822669983e-07,-35.3628619,149.16487576666668,52045.0,-4.333333333333333,-3.3333333333333335,-43.0,0.0,2.0,-1031.3333333333333,85.0,2.3333333333333335,2.0,RTL
18:41:20,125066.0,0.005639948959772785,0.0013858218832562368,-0.6354285875956217,0.1252579241991043,0.0009387129296859106,-0.0018492404293889801,-35.362862033333336,149.16487556666667,52864.666666666664,-2.6666666666666665,-1.3333333333333333,-10.333333333333334,0.0,-4.0,-968.6666666666666,127.33333333333333,2.0,0.3333333333333333,RTL
18:41:21,75999.0,0.0046884644155701,0.001498173107393086,-0.6358058055241903,0.29049355785051983,-0.000574070067765812,0.0005059570539742708,-35.36286223333334,149.1648752,52871.0,-1.0,0.3333333333333333,3.0,-1.0,20.333333333333332,-1000.6666666666666,293.6666666666667,0.6666666666666666,2.3333333333333335,RTL
18:41:22,75999.0,0.005705785859997074,0.0005391690428950824,-0.6354953447977701,-0.28275109579165775,-0.0016054748169456918,0.0015499831254904468,-35.36286243333333,149.16487486666668,52886.0,-0.3333333333333333,2.0,-10.666666666666666,-1.3333333333333333,-14.0,-1028.6666666666667,-280.0,0.0,3.6666666666666665,RTL
18:41:24,75999.0,0.011666246689856052,0.0013610930958141882,-0.6361732284228007,-0.027004264295101166,-9.219313506036997e-05,0.0008076845357815424,-35.3628629,149.1648741,53731.666666666664,4.333333333333333,8.666666666666666,-53.0,-1.3333333333333333,-2.0,-982.3333333333334,-24.333333333333332,1.6666666666666667,3.0,RTL
18:41:26,75999.0,0.01214915094897151,0.0038066846318542957,-0.6354875763257345,0.17005711793899536,0.0018497280931721132,-0.0011187095660716295,-35.362862799999995,149.16487406666667,54163.666666666664,6.666666666666667,11.666666666666666,3.3333333333333335,0.3333333333333333,-8.666666666666666,-993.0,172.0,2.6666666666666665,1.0,RTL
18:41:27,158576.0,0.001661726428816716,0.004172853194177151,-0.6353984077771505,0.2663799673318863,-0.0009148145715395609,-0.0001881709322333336,-35.3628624,149.1648747,54166.0,3.3333333333333335,8.666666666666666,-13.0,0.6666666666666666,8.333333333333334,-1039.0,269.3333333333333,1.0,2.0,RTL
18:41:28,158576.0,-0.002890440712993344,0.002501774268845717,-0.6352418065071106,-0.04389382774631182,-0.0008316468447446823,-0.00030838511884212494,-35.3628622,149.16487503333335,54370.666666666664,0.6666666666666666,5.666666666666667,-41.333333333333336,0.3333333333333333,1.0,-1037.0,-40.0,0.6666666666666666,2.3333333333333335,RTL
18:41:30,158576.0,0.00507583306171,0.0008512090037887295,-0.635369618733724,0.09348630408445995,0.002131509555814167,0.002291398743788401,-35.36286233333333,149.1648751,55338.666666666664,0.0,2.6666666666666665,-24.666666666666668,0.0,8.0,-958.3333333333334,97.33333333333333,3.3333333333333335,4.333333333333333,RTL
18:41:33,109941.0,-0.011511908145621419,0.0037312699714675546,-0.6351543664932251,-0.09425913542509079,-0.00041957839857786894,-0.0024563880870118737,-35.362861550000005,149.16487619999998,55654.0,-4.0,-3.0,-43.0,0.0,-14.5,-1033.5,-91.5,1.5,0.0,RTL
18:41:35,61306.0,-0.013443675357848406,0.0006202144722919911,-0.6353249847888947,-0.5765787661075592,0.0004529661382548511,-0.00017977115930989385,-35.3628614,149.16487675000002,56583.5,-9.5,-10.0,-17.5,0.0,-28.0,-960.5,-573.5,2.0,2.0,RTL
18:41:37,61306.0,-0.0023136551026254892,0.0012903152965009212,-0.6352819502353668,0.47427789866924286,0.004677131772041321,0.004478950169868767,-35.3628616,149.1648763,56606.0,-6.0,-7.0,-2.0,-1.5,26.0,-1026.0,477.0,6.0,6.5,RTL
18:41:38,181210.0,-0.007721939356997609,0.0018807554733939469,-0.6351399570703506,-0.07102978508919477,0.002060103230178356,0.002457333728671074,-35.362861550000005,149.16487635000001,56728.25,-5.75,-7.0,-28.0,0.0,-2.25,-1038.25,-68.0,3.5,4.75,RTL
18:41:39,181210.0,-0.007426315802149475,0.002521584741771221,-0.635858416557312,0.06432130932807922,-0.0003594465088099241,0.0014063104754313827,-35.3628615,149.1648764,57305.5,-7.0,-7.0,-54.0,0.0,8.0,-992.5,67.0,1.0,4.0,RTL
18:41:41,181210.0,-0.004164720608969219,0.0010142758255824447,-0.6358171701431274,-0.5586045980453491,-0.0010660754051059484,0.002115095383487642,-35.36286185,149.16487575000002,57811.5,-5.5,-4.5,2.0,-1.0,-28.0,-991.5,-556.0,1.0,4.0,RTL
18:41:43,181210.0,0.0047871413407847285,0.0017246169736608863,-0.6353031694889069,0.26881280541419983,0.00443274702411145,0.001335021574050188,-35.3628623,149.1648751,57936.0,0.0,1.0,-32.5,-1.0,17.5,-1039.5,271.5,6.0,3.5,RTL
18:41:44,277256.0,0.001840643206378445,0.0010763622267404571,-0.6357889771461487,-0.09716610237956047,-0.0024438865948468447,-0.00012061570305377245,-35.362862375,149.164875025,58278.5,0.0,2.0,-49.25,0.0,-3.75,-1005.25,-94.25,-0.5,2.5,RTL
18:41:45,277256.0,0.004841688962187618,0.0011034392809960991,-0.6352082192897797,0.05759336054325104,0.000694251386448741,0.003978800610639155,-35.3628625,149.16487485,58831.5,0.5,3.0,-22.0,-0.5,18.0,-957.5,61.0,2.5,6.5,RTL
18:41:47,277256.0,0.013696912210434675,0.0024566592182964087,-0.635207861661911,0.5722788125276566,0.0019265117589384317,-0.0012091860407963395,-35.362862750000005,149.16487445,58877.0,5.0,8.0,1.5,0.0,16.5,-1024.0,574.5,3.5,1.5,RTL
18:41:49,277256.0,-0.008436737582087517,0.002621948951855302,-0.6358712017536163,-0.04351702332496643,-0.0007651310879737139,0.0013322497252374887,-35.3628621,149.16487545,59510.5,0.0,1.5,-53.5,0.0,1.0,-997.0,-40.5,0.5,3.5,RTL
18:41:50,113019.0,-0.003084429117734544,0.00146336285979487,-0.6354900896549225,0.014458976686000824,-0.0013491347199305892,0.0008229183731600642,-35.362862025000005,149.16487557499997,59863.0,-1.0,0.0,-34.75,0.0,1.25,-962.75,17.25,0.5,3.25,RTL
18:41:51,113019.0,-0.011146481614559889,0.0013494982267729938,-0.6354823708534241,-0.5788498222827911,-0.0005493240896612406,-0.0025794520042836666,-35.362862,149.1648756,60051.5,-1.5,-0.5,2.0,-1.0,-18.0,-992.5,-575.5,1.0,0.0,RTL
18:41:53,113019.0,4.0405255276709795e-05,0.0018701587687246501,-0.6349703073501587,0.35924316942691803,-0.0006944865453988314,-2.9229442588984966e-05,-35.362862,149.1648757,60154.5,-1.5,-1.0,-31.5,0.0,17.0,-1040.5,362.0,1.0,2.5,RTL
18:41:55,113019.0,0.01022809511050582,-0.0001688145348452963,-0.6356545090675354,0.4638718366622925,0.0018877395195886493,0.0021753980545327067,-35.362862250000006,149.16487535,61124.5,-1.5,0.0,-32.0,-1.0,18.5,-956.0,466.5,4.0,4.5,RTL
18:41:56,93449.0,0.00901820819126442,-0.00023165822040027706,-0.6356941312551498,-0.16195844113826752,0.001202729734359309,0.00047651753993704915,-35.362862575,149.16487477500002,61251.25,0.5,2.0,-5.0,-1.25,-1.5,-978.25,-159.0,2.75,3.25,RTL
18:41:57,93449.0,0.006503473618067801,0.0017825555405579507,-0.6356154084205627,-0.6072259247303009,-0.001075854292139411,0.0055288373259827495,-35.362863,149.1648741,61232.0,4.5,7.5,2.5,0.0,-27.5,-1004.0,-604.5,1.0,8.0,RTL
18:41:59,93449.0,0.01086279540322721,0.0025297956308349967,-0.6357219517230988,-0.018352925777435303,-0.00010535889305174351,-0.0009406666504219174,-35.3628629,149.164874,61772.5,6.0,11.0,-54.5,0.0,-7.0,-1005.0,-16.0,1.5,1.5,RTL
18:42:01,93449.0,0.016635815612971783,0.004297442035749555,-0.6351338624954224,0.4819451570510864,-0.0009224883979186416,-0.002423460828140378,-35.362862750000005,149.1648742,62448.0,5.5,10.5,-1.5,1.0,7.0,-982.5,484.5,1.0,1.0,RTL
18:42:02,146872.0,-0.0025523847725708038,0.004283044952899218,-0.6356399655342102,-0.2913382947444916,0.00023034971673041582,-0.0020879260264337063,-35.36286255,149.164874475,62433.25,4.0,9.25,3.5,1.25,-9.75,-1000.25,-287.25,2.25,0.75,RTL
18:42:03,146872.0,-0.009782761801034212,0.0025103515945374966,-0.6351660490036011,-0.34524911642074585,-0.004790971986949444,4.305236507207155e-05,-35.3628621,149.16487535,62495.0,0.0,3.5,-24.0,1.0,-17.0,-1038.5,-342.0,-1.5,3.0,RTL
18:42:05,146872.0,-0.005406843731179833,0.00044425732630770653,-0.6357589960098267,-0.28781819343566895,-0.0031150606810115278,0.0034293237840756774,-35.362862,149.1648758,63447.0,-2.0,-1.0,-40.0,0.0,-8.0,-961.0,-284.0,-1.0,6.0,RTL
18:42:07,83022.5,0.01280129887163639,0.0009136279986705631,-0.6356558799743652,0.48621517419815063,-0.0019282958819530904,0.0006752401823177934,-35.36286235,149.16487525000002,63637.5,0.0,1.0,4.0,-0.5,15.0,-1001.0,489.0,0.0,3.5,RTL
18:42:09,19173.0,0.016340254805982113,0.0014624977484345436,-0.635749876499176,0.19533702731132507,0.0028768517076969147,0.0012949906522408128,-35.3628629,149.16487404999998,64051.0,4.5,8.5,-52.5,-1.0,13.5,-1019.5,199.0,5.0,4.0,RTL
18:42:11,19173.0,0.0010037096217274666,0.004195896675810218,-0.6347877979278564,-0.21639596670866013,0.001270499313250184,0.00030718371272087097,-35.36286285,149.16487395000001,64881.0,6.5,12.5,-6.0,-0.5,7.0,-973.5,-211.5,3.5,3.5,RTL
18:42:12,172944.0,0.006826466851634905,0.0042888931930065155,-0.6349148899316788,0.28461936488747597,-0.0014324643707368523,-0.0004952469025738537,-35.362862625,149.16487427500002,64884.0,5.25,11.0,2.5,0.75,8.0,-998.5,288.0,0.5,2.25,RTL
18:42:13,172944.0,0.0003554026285807292,0.0032831133188058934,-0.6350730260213217,0.0695970853169759,-0.00016075621048609415,-0.00047547160647809505,-35.36286236666667,149.16487483333333,64886.333333333336,2.3333333333333335,7.333333333333333,-10.0,1.0,-3.6666666666666665,-1032.0,73.0,2.3333333333333335,2.6666666666666665,RTL
18:42:15,172944.0,0.0015954117479850538,0.0007389478851109743,-0.6356039345264435,0.2595088332891464,-0.00022587081184610724,0.0005292590940371156,-35.3628621,149.1648757,65813.5,-1.0,0.0,-50.5,0.5,7.5,-974.5,263.0,2.0,3.0,RTL
18:42:17,172944.0,-0.0014901218237355351,0.0013419903989415616,-0.6355413794517517,-0.130700521171093,0.002384263789281249,0.0030546154594048858,-35.3628622,149.1648755,66157.0,-0.5,-0.5,3.5,0.0,11.0,-998.5,-125.5,4.0,6.0,RTL
18:42:18,106565.0,0.0030447097960859537,0.002920194005127996,-0.6350601762533188,0.268188901245594,0.0011524296714924276,-0.0007904992671683431,-35.362862075,149.1648756,66137.5,-0.5,-0.5,-2.75,0.5,3.0,-1018.0,271.5,3.5,2.25,RTL
18:42:19,106565.0,-0.00841050548478961,0.003519451944157481,-0.6350826919078827,0.25743839889764786,0.0005785627290606499,0.000400317192543298,-35.3628616,149.1648763,66424.0,-3.0,-3.5,-46.0,2.0,6.0,-1031.5,260.5,2.5,3.0,RTL
18:42:21,106565.0,-0.001069978578016162,0.0007058464689180255,-0.6348288357257843,0.4906441569328308,0.0016408141236752272,0.0012477495474740863,-35.36286135,149.1648769,67319.5,-9.5,-11.0,-15.0,-0.5,15.0,-966.5,494.0,3.5,4.0,RTL
18:42:23,106565.0,0.01776711456477642,-0.0027170677203685045,-0.6357445120811462,0.029006585478782654,-0.005894466303288937,0.002674527815543115,-35.36286235,149.16487535,67334.0,-5.0,-4.0,-8.5,-3.0,-8.0,-1033.5,32.0,-3.0,5.5,RTL
18:42:24,23096.0,0.021415351424366236,-0.003422842128202319,-0.6352618038654327,0.01293972134590149,0.0012066317140124738,0.001138199062552303,-35.3628631,149.164874225,67511.75,1.0,2.5,-36.0,-3.25,8.25,-1039.25,16.75,3.5,4.0,RTL
18:42:25,23096.0,0.02955563459545374,-0.0002468195525580086,-0.6354450583457947,0.053347185254096985,0.0005508793983608484,-0.0009622913785278797,-35.362863950000005,149.16487275,68139.0,11.5,15.0,-51.5,-0.5,-3.0,-980.5,57.0,3.0,1.5,RTL
18:42:27,23096.0,0.010796480346471071,0.005899036768823862,-0.634708970785141,0.5685994476079941,0.003800664213486016,0.002552042482420802,-35.3628633,149.1648732,68538.0,14.5,20.5,3.5,1.5,27.0,-996.0,573.0,6.0,5.5,RTL
18:42:29,23096.0,-0.0013549195718951523,0.002753490232862532,-0.6347963809967041,-0.24099917709827423,-0.00040193478344008327,-0.0007081790827214718,-35.3628624,149.16487485,68743.0,2.5,8.0,-41.5,0.0,-15.0,-1039.0,-236.5,2.0,2.0,RTL
18:42:30,254959.0,-0.001100084831705317,0.0017991041822824627,-0.6350964903831482,-0.037261114455759525,-0.001338370842859149,0.0007120170630514622,-35.3628623,149.164875075,69132.0,1.0,5.5,-54.5,1.0,-0.5,-1000.25,-32.75,1.0,3.75,RTL
18:42:31,254959.0,-0.0031449359375983477,0.0015628922265022993,-0.6349573135375977,-0.37342575192451477,0.00246086239349097,0.00043816305696964264,-35.3628623,149.1648752,69693.5,0.0,2.5,-21.5,0.0,-14.0,-954.0,-368.0,4.5,3.5,RTL
18:42:33,254959.0,0.00437940466508735,0.0019538954948075116,-0.6351557075977325,0.5008155852556229,5.326827522367239e-05,0.0024904983583837748,-35.3628622,149.1648753,69729.0,0.0,1.5,-2.0,0.0,27.0,-1031.5,505.5,2.0,5.5,RTL
18:42:35,149046.0,0.010992003604769707,0.0004017756291432306,-0.6353002190589905,0.2309891302138567,-0.00027827604208141565,0.0013464121147990227,-35.3628627,149.1648745,70421.5,2.5,5.5,-57.0,-0.5,18.5,-998.5,235.5,2.0,4.5,RTL
18:42:37,43133.0,0.002022341708652675,0.0026098035741597414,-0.6351051032543182,-0.5754460096359253,-0.00029264739714562893,0.0013810268137603998,-35.3628629,149.164874,71028.5,6.0,10.5,1.0,0.0,-19.5,-984.5,-570.0,2.0,4.5,RTL
18:42:39,43133.0,-0.0031806133047211915,0.004613473545759916,-0.633804589509964,0.2759718745946884,0.00391752680297941,-0.00031322031281888485,-35.3628624,149.1648748,71128.5,4.5,9.0,-32.0,2.0,14.5,-1042.5,281.0,6.0,3.0,RTL
18:42:40,120617.0,-0.011757943429984152,0.005440616165287793,-0.6347091645002365,0.010344875510782003,-0.0006057191058062017,-0.0016524319653399289,-35.36286185,149.1648756,71465.75,0.5,3.5,-52.25,2.0,-2.75,-1018.0,15.0,2.0,1.75,RTL
18:42:41,120617.0,-0.02109339088201523,0.0038916112389415503,-0.6348480582237244,0.3527124300599098,-0.00099766009952873,0.0021842886926606297,-35.36286095,149.1648772,72099.0,-7.0,-6.5,-33.5,1.5,17.0,-959.5,357.0,1.0,5.5,RTL
18:42:43,120617.0,-0.0130615234375,0.0006830197235103697,-0.6349298655986786,-0.21183585654944181,-0.001694646431133151,-0.0014830942964181304,-35.362860749999996,149.16487784999998,72219.5,-16.0,-19.0,3.0,-1.0,-28.5,-1006.0,-208.5,1.0,2.5,RTL
18:42:45,120617.0,-0.005757095874287188,-0.0003271718160249293,-0.6352933347225189,-0.028791747987270355,0.0036073081428185105,0.0024187753442674875,-35.36286135,149.164877,72806.0,-11.5,-15.0,-55.0,-1.0,-7.5,-1003.0,-25.0,6.0,5.5,RTL
18:42:46,280925.0,-0.0032855335739441216,0.00018289476429345086,-0.6349191963672638,-0.0021612895652651787,0.001041776209603995,0.0006388902547769248,-35.362861575000004,149.164876625,73185.5,-9.0,-12.0,-40.5,-1.25,-0.5,-970.0,1.5,3.5,3.75,RTL
18:42:47,280925.0,0.01168008428066969,0.00015539811283815652,-0.6351916193962097,0.5781614184379578,-0.0003971740370616317,-0.0011213812977075577,-35.362861949999996,149.1648758,73434.5,-5.5,-6.5,0.0,-1.5,19.5,-984.0,581.5,2.0,2.5,RTL
18:42:49,280925.0,0.014692730270326138,-0.0008420355734415352,-0.6349816918373108,-0.2737272307276726,0.0022076754830777645,0.00117425003554672,-35.3628631,149.16487385,73508.5,3.0,6.5,-30.0,-2.0,-8.0,-1037.5,-269.0,5.0,4.5,RTL
18:42:51,280925.0,0.010851053521037102,0.0036856477381661534,-0.6345246732234955,-0.058120325207710266,0.0009525443892925978,0.003451795084401965,-35.36286335,149.16487315,74494.0,11.0,17.0,-37.5,0.0,6.0,-973.3333333333334,-23.333333333333332,5.0,5.666666666666667,RTL
18:42:52,291661.0,0.006245785858482122,0.0040379572892561555,-0.634439006447792,-0.17515842244029045,0.0003765316214412451,-0.0008746025268919766,-35.362863125000004,149.16487354999998,74654.0,10.25,16.25,-8.75,1.0,-14.0,-966.0,-85.0,3.6666666666666665,1.3333333333333333,RTL
18:42:53,291661.0,-0.002172928536310792,0.00424280168954283,-0.6343551874160767,-0.10850696265697479,-0.005105421063490212,-0.003164054825901985,-35.362862449999994,149.16487469999998,74650.0,5.0,10.0,2.5,2.0,-8.5,-991.5,-102.5,-1.0,3.5,RTL
18:42:55,291661.0,-0.008835247252136469,0.0020594700472429395,-0.634541779756546,0.12777305766940117,-0.00010092812590301037,-0.00025883305352181196,-35.3628618,149.164876,75108.0,-1.5,-0.5,-56.5,0.0,8.0,-1026.0,-35.0,1.0,3.0,RTL
18:42:57,291661.0,-0.0056876987412882345,0.00022127382423301847,-0.6348839203516642,0.11564013361930847,4.092200348774592e-05,0.002662129933014512,-35.36286176666667,149.16487636666668,75900.33333333333,-4.666666666666667,-4.666666666666667,-20.333333333333332,0.0,14.333333333333334,-966.0,120.33333333333333,3.0,6.333333333333333,RTL
18:42:58,70923.0,-0.0022722602006979287,0.000971647423284594,-0.634853258728981,-0.14365964732132852,-0.0018242954683955759,-0.0009245003457181156,-35.36286185,149.16487615,75990.0,-4.75,-5.75,2.75,-0.25,-10.5,-990.0,-139.5,1.25,2.5,RTL
18:42:59,70923.0,0.00914056203328073,-0.000673873902997002,-0.6350192129611969,0.029592737555503845,0.0015885706525295973,-0.002437973045744002,-35.36286215,149.16487565,75975.0,-2.5,-2.5,-9.5,0.0,-8.5,-1029.5,33.0,4.0,1.5,RTL
18:43:01,70923.0,0.01947803422808647,-0.0017292595002800226,-0.6349669694900513,0.07796315103769302,0.0012288703583180904,-0.0003833330702036619,-35.362863149999995,149.16487425000003,76806.5,4.0,4.5,-50.5,-0.6666666666666666,-5.0,-997.0,-33.0,2.3333333333333335,2.6666666666666665,RTL
18:43:03,70923.0,0.010182519598553577,0.001319173335408171,-0.6345201730728149,-0.02034606287876765,-0.00031216950931896764,0.002265440688158075,-35.3628632,149.16487400000003,77176.0,9.0,11.333333333333334,0.0,0.0,2.3333333333333335,-978.3333333333334,-15.666666666666666,2.6666666666666665,6.0,RTL
18:43:04,59617.0,0.009771373588591814,0.002055322576779872,-0.6350349485874176,0.1240406483411789,-0.0015103252953849733,-0.0025827091303654015,-35.36286296666666,149.1648742,77156.0,8.333333333333334,10.666666666666666,2.3333333333333335,0.0,7.0,-1011.0,336.6666666666667,2.6666666666666665,0.6666666666666666,RTL
18:43:05,59617.0,0.015479737892746925,-0.0008035507635213435,-0.6344369947910309,0.15503430366516113,-0.0005957991816103458,-0.0009656196925789118,-35.3628631,149.16487413333334,77318.66666666667,6.666666666666667,9.666666666666666,-30.0,0.0,-10.333333333333334,-1037.0,-59.0,1.0,2.6666666666666665,RTL
18:43:07,59617.0,0.012114892558505138,-6.983778924526025e-05,-0.6343494455019633,0.03443707277377447,0.003038722090423107,-0.0015712697058916092,-35.3628632,149.16487423333334,78170.33333333333,9.333333333333334,10.333333333333334,-25.0,0.6666666666666666,-9.666666666666666,-960.0,39.333333333333336,5.333333333333333,2.0,RTL
18:43:09,59617.0,0.0002801818773150444,0.002105153806041926,-0.6342211663722992,0.07003311812877655,-0.0020364548545330763,-0.00048408331349492073,-35.3628626,149.164875,78285.0,6.0,6.0,2.0,1.0,-1.5,-1002.0,75.0,0.5,4.0,RTL
18:43:10,33847.0,0.00035091329482384026,0.0007929145976959262,-0.6343021541833878,0.1724565103650093,8.242146577686071e-06,-0.0002006653812713921,-35.3628624,149.16487542500002,78357.0,3.0,2.5,-22.75,0.75,3.0,-1038.5,177.5,2.75,3.25,RTL
18:43:11,33847.0,-0.010308610275387764,0.00044927530689164996,-0.6347821354866028,-0.252773679792881,-0.00029321364127099514,0.00035666266921907663,-35.3628622,149.16487595,78766.5,1.0,-1.0,-51.0,0.5,-7.5,-1014.5,-246.5,2.0,4.0,RTL
18:43:13,33847.0,-0.007262320024892688,7.963620009832084e-05,-0.6345467865467072,-0.020479008555412292,-0.0019583002431318164,0.00013834377750754356,-35.3628619,149.1648764,79498.0,-2.0,-6.0,-7.0,0.0,-2.0,-971.0,-15.5,1.0,4.0,RTL
18:43:15,33847.0,-0.011424802476540208,0.001754377328325063,-0.6343076825141907,0.010794192552566528,0.0011306159431114793,0.0005773954326286912,-35.36286165,149.16487669999998,79554.0,-3.5,-8.0,-18.5,0.5,-2.0,-1020.5,16.0,3.5,4.0,RTL
18:43:16,204814.0,-0.017518200678750873,0.0018677347979974002,-0.6344921290874481,-0.005699177272617817,0.0003278703661635518,7.835926953703165e-05,-35.362861325,149.16487727499998,79911.5,-7.25,-12.0,-51.5,0.75,-0.75,-1020.5,-1.0,2.75,3.5,RTL
18:43:17,204814.0,-0.026551617309451103,0.0007754392936476506,-0.634791910648346,-0.10184444487094879,-0.0038674992392770946,0.0015231743454933167,-35.36286095,149.1648779,80442.0,-10.5,-17.0,-44.5,0.5,4.5,-971.0,-96.5,-1.0,5.0,RTL
18:43:19,204814.0,-0.011591597460210323,-0.0002905883302446455,-0.6349142789840698,-0.010352343320846558,-0.00021903379820287228,0.000302146770991385,-35.362861,149.16487769999998,80742.5,-14.0,-20.0,2.5,-0.5,2.0,-1011.5,-6.0,2.5,4.0,RTL
18:43:21,204814.0,-0.0074610042696197825,-0.00019745650934055448,-0.6347669561704,0.2683521608511607,0.0008895085969318947,-0.00022166936347881952,-35.3628614,149.16487713333333,81080.33333333333,-10.0,-15.333333333333334,-46.0,-0.6666666666666666,14.666666666666666,-1033.0,272.3333333333333,3.0,3.3333333333333335,RTL
18:43:22,63952.0,-0.010755691328085959,-0.000334100826876238,-0.6349646896123886,0.07563945464789867,0.00021635432494804263,0.0009273171308450401,-35.3628614,149.1648771,81667.5,-9.0,-14.25,-47.25,-0.25,4.5,-973.75,79.5,2.25,4.5,RTL
18:43:23,63952.0,-0.008073013188550249,-0.0004228555626468733,-0.6346493661403656,-0.07672394812107086,-0.004129298613406718,0.0004467060789465904,-35.362861550000005,149.16487684999998,81962.5,-8.5,-13.0,-11.5,-1.0,-4.0,-972.5,-73.0,-1.5,4.0,RTL
18:43:25,63952.0,0.006827436503954232,-0.0016738782287575305,-0.6345071196556091,-0.058566391468048096,0.00010919064516201615,0.00019994075410068035,-35.36286235,149.16487560000002,82018.0,-3.0,-5.5,-13.0,-1.0,-7.0,-1027.0,-55.5,2.5,3.5,RTL
18:43:27,63952.0,0.013258324470371008,-0.0004336318525020033,-0.6344458758831024,0.2349305795505643,0.0008985386230051517,-0.0012119993334636092,-35.36286285,149.16487465,82833.0,3.0,2.5,-48.0,0.5,9.0,-982.5,238.5,3.5,2.0,RTL
18:43:28,102004.0,0.005104496725834906,0.0006054687510186341,-0.6342920213937759,-0.15447640046477318,-0.0028135565225966275,-0.001318384543992579,-35.3628629,149.164874575,83184.75,5.0,4.75,-14.0,-0.25,-3.5,-970.75,-150.75,-0.25,2.25,RTL
18:43:29,102004.0,0.010171654867008328,-0.00041420498382649384,-0.6347857415676117,-0.004885852336883545,-0.00037368456833064556,-0.0011626798659563065,-35.36286295,149.1648744,83221.5,5.5,6.5,2.0,-0.5,5.0,-992.5,-1.5,2.0,2.0,RTL
18:43:31,102004.0,0.02036039810627699,-0.001825593993999064,-0.6343287825584412,0.016329780220985413,0.001334946951828897,-0.0007332164095714688,-35.3628636,149.1648735,83468.0,11.0,13.5,-40.0,-1.0,-3.5,-1026.5,20.5,3.5,3.0,RTL
18:43:33,102004.0,0.012881186325103045,0.00130543572595343,-0.6339338421821594,-0.01255105435848236,0.003998109023086727,-0.0006011598743498325,-35.3628636,149.1648735,84337.0,15.0,17.0,-18.0,0.5,-1.5,-966.0,-8.0,6.5,3.0,RTL
18:43:34,51870.0,0.0034485256765037775,0.0031221298268064857,-0.6342611163854599,-0.11089140921831131,0.00010590074816718698,-0.0007554256008006632,-35.362863100000006,149.16487417500002,84409.0,11.75,13.5,2.25,1.25,-11.5,-993.5,-106.5,2.5,3.0,RTL
18:43:35,51870.0,-0.0028325619641691446,0.0021384901483543217,-0.6343293190002441,0.15424294024705887,-0.0017561407294124365,0.00240054028108716,-35.3628626,149.164875,84393.5,6.5,8.0,-4.5,1.0,10.0,-1020.0,159.5,1.0,5.5,RTL
18:43:37,51870.0,0.008078704820945859,-0.001322345167864114,-0.6346659660339355,-0.06880365312099457,-0.004502377472817898,-0.00030260381754487753,-35.36286265,149.16487515,85057.0,3.0,3.0,-49.5,0.0,-12.5,-987.0,-64.5,-1.5,3.5,RTL
18:43:39,51870.0,-0.00327695335727185,0.0020697371219284832,-0.6341437697410583,0.007652908563613892,0.0006378954276442528,-0.0023228598292917013,-35.362862500000006,149.16487535,85532.0,4.5,2.5,1.5,0.0,0.5,-986.0,12.5,2.5,2.0,RTL
18:43:40,287855.0,-0.001398053951561451,0.001855675334809348,-0.6345344036817551,0.053771764039993286,-0.003981873829616234,-0.0011979748960584402,-35.36286215,149.164875775,85512.0,0.5,-0.25,-2.75,0.5,-9.25,-1023.75,58.0,-1.25,2.5,RTL
18:43:41,287855.0,-0.006958222482353449,-0.0005889969470445067,-0.6341951191425323,-0.13785288110375404,-0.003833070513792336,-0.00043352111242711544,-35.362862050000004,149.16487604999998,85719.0,-0.5,-2.5,-36.5,0.0,-3.5,-1032.0,-132.0,-1.0,3.0,RTL
18:43:43,287855.0,0.004499667324125767,-0.001125243550632149,-0.6345035433769226,0.11371517181396484,-0.0002419376978650689,-0.0006508491933345795,-35.36286235,149.16487575,86586.0,0.0,-2.5,-21.5,-0.5,0.5,-961.5,118.5,2.0,3.0,RTL
18:43:45,287855.0,0.010931684635579586,-0.0010702371364459395,-0.6343017518520355,0.027188614010810852,0.0014882860705256462,0.0013534461613744497,-35.36286285,149.16487475,86660.5,3.5,2.5,-4.5,-0.5,5.5,-1028.0,32.5,4.0,5.0,RTL
18:43:46,27745.0,0.011207892908714712,-0.0010782600002130494,-0.6338399946689606,0.057024650275707245,-0.002436521928757429,0.0006567399250343442,-35.3628631,149.16487442500002,86832.75,6.75,6.25,-35.5,-0.25,3.0,-1036.5,62.0,0.25,4.5,RTL
18:43:47,27745.0,0.0025597020285204053,0.00011969459592364728,-0.6342307925224304,-0.32199907302856445,0.0019624908454716206,-0.0016452624695375562,-35.362863000000004,149.1648745,87313.0,7.5,7.0,-51.5,-0.5,-15.5,-997.5,-316.5,4.0,2.0,RTL
18:43:49,27745.0,-0.006581751396879554,0.0013811029493808746,-0.6341254711151123,-0.03606456518173218,0.0008471375331282616,0.0014319814508780837,-35.3628625,149.1648753,87855.0,3.5,2.5,0.5,0.0,0.0,-991.0,-30.5,3.0,4.5,RTL
18:43:51,27745.0,-0.01005261461250484,0.0012392965727485716,-0.6339016258716583,-0.17092481069266796,-0.0011161603033542633,0.0011395742185413837,-35.3628621,149.164876,88012.5,1.0,-1.5,-33.5,0.5,-3.5,-1037.5,-165.5,1.0,4.5,RTL
18:43:52,111431.0,-0.0114943019580096,0.00022674864885630086,-0.6347382068634033,-0.04731724038720131,-0.003704574250150472,-0.0005804480751976371,-35.3628618,149.16487655,88484.75,-2.5,-5.75,-55.0,0.0,-1.75,-999.0,-41.75,-1.0,2.5,RTL
18:43:53,111431.0,-0.011133322957903147,-0.0015676377224735916,-0.6345416307449341,-0.16694387048482895,-0.0017686401261016726,0.001945372554473579,-35.362861800000005,149.1648766,88949.0,-4.0,-7.5,-30.5,-0.5,0.5,-965.0,-161.5,0.5,5.5,RTL
18:43:55,111431.0,0.004606067552231252,-0.0016757716657593846,-0.6347760260105133,-0.09201371669769287,-0.0028441163012757897,-0.002836561994627118,-35.3628624,149.16487560000002,89086.5,-0.5,-3.5,-0.5,-0.5,-2.5,-1016.0,-87.0,-0.5,0.5,RTL
18:43:57,111431.0,0.0059990838199155405,-0.000590131661738269,-0.6343191266059875,0.006693243980407715,0.001133612124249339,-0.0004803281044587493,-35.3628629,149.1648748,89651.0,4.5,3.0,-51.0,0.0,4.5,-1004.5,12.0,3.0,3.0,RTL
18:43:58,133561.0,0.005530319671379402,0.0001597721602593083,-0.6340740472078323,-0.08104047924280167,0.0006576477899216115,-0.00042437348747625947,-35.362862875000005,149.164874725,90123.0,5.0,4.0,-31.0,0.0,-6.0,-959.25,-76.25,2.5,3.25,RTL
18:43:59,133561.0,0.0005268027307465672,0.0016460236511193216,-0.6338748335838318,0.12093783915042877,0.000656372751109302,-0.002996236551553011,-35.36286265,149.16487505,90268.5,5.0,4.0,-1.0,1.0,3.5,-966.5,126.5,3.0,1.0,RTL
18:44:01,133561.0,-0.012363178422674537,0.0019361079903319478,-0.6336086988449097,0.1388346254825592,0.0002917101373896003,-0.00029991636984050274,-35.36286185,149.16487625,90356.5,-0.5,-2.0,-25.5,2.0,11.5,-1041.0,144.5,3.0,3.5,RTL
18:44:03,133561.0,-0.027007464319467545,0.0004263701630407013,-0.6343923807144165,-0.06909573078155518,0.00048624491319060326,0.0002369978465139866,-35.36286095,149.164878,91237.5,-10.0,-16.5,-34.0,0.0,-0.5,-970.5,-64.5,2.5,3.5,RTL
18:44:04,27124.0,-0.015891224844381213,-0.0007025564482319169,-0.6343099623918533,0.29216089472174644,-0.0005130808567628264,0.0002553919330239296,-35.362860875,149.164878275,91428.75,-13.0,-20.5,-1.75,-0.25,12.0,-981.75,296.5,1.75,3.5,RTL
18:44:05,27124.0,-0.01734840963035822,-0.001176563382614404,-0.6343971490859985,-0.0941840410232544,-0.005242617218755186,0.002462149946950376,-35.36286105000001,149.16487805,91414.0,-13.0,-21.0,2.0,0.0,3.5,-1006.0,-89.5,-2.5,5.5,RTL
18:44:07,27124.0,-0.004003020003437996,-0.0028004024643450975,-0.6344770193099976,0.3657721281051636,-0.0013393282424658537,-0.0008141554426401854,-35.3628614,149.1648774,91677.0,-12.0,-19.0,-44.0,-2.0,20.0,-1043.0,369.0,0.0,2.0,RTL
18:44:09,27124.0,0.004260147688910365,-3.6685989471152425e-05,-0.6338518559932709,-0.2696114704012871,0.0023246328346431255,-0.001762053812853992,-35.3628627,149.16487519999998,92587.5,0.5,-2.5,-4.5,-2.0,-15.5,-977.5,-265.0,5.0,1.5,RTL
18:44:10,46031.0,0.00783180122016347,0.00108158917282708,-0.6339928656816483,0.2877184972167015,0.0025433708215132356,-0.0007763190660625696,-35.3628626,149.16487505,92577.0,2.0,0.25,1.75,-0.25,5.25,-1007.5,291.25,4.5,2.5,RTL
18:44:11,46031.0,-0.001966865500435233,0.0012118121376261115,-0.6340268850326538,-0.18934494256973267,-0.0003851816290989518,-0.004195911111310124,-35.362862449999994,149.16487525000002,92672.0,1.5,0.5,-23.5,-0.5,-7.5,-1036.5,-185.5,1.0,-0.5,RTL
18:44:13,46031.0,0.0021475973771885037,-0.00031707599919172935,-0.6342660486698151,-0.16697143018245697,-0.0007477478357031941,-0.0011967954924330115,-35.3628624,149.16487525000002,93585.5,0.0,0.0,-39.0,-0.5,-16.5,-964.5,-163.5,1.5,2.0,RTL
18:44:15,46031.0,0.005863884463906288,0.0006034111138433218,-0.6341408789157867,0.10453009605407715,0.0019385360646992922,0.0007373595144599676,-35.3628625,149.164875,93821.0,2.0,2.5,3.0,0.0,18.0,-995.0,584.0,7.0,4.0,RTL
18:44:16,45007.0,0.005905127371079288,0.0008486239676130936,-0.6339806318283081,0.24871493875980377,0.00023667735513299704,-0.00012592657003551722,-35.3628625,149.16487505,93854.0,2.25,2.25,-15.0,0.0,6.2,-1032.8,128.6,1.8,3.2,RTL
18:44:17,45007.0,-0.002275094564538449,0.0007819837774150074,-0.6338954269886017,-0.16860731691122055,-0.0006269824225455523,-0.0009984676726162434,-35.362862449999994,149.16487525000002,94200.5,1.5,2.0,-47.0,0.5,-10.5,-1021.0,-165.0,1.0,2.0,RTL
18:44:19,45007.0,-0.0014122803695499897,0.0009679828945081681,-0.633990466594696,-0.016339927911758423,-0.0018029572092927992,0.0004565422423183918,-35.362862250000006,149.16487565,94993.5,0.0,-0.5,-10.5,0.5,-5.5,-973.5,-12.5,0.0,4.0,RTL
18:44:21,45007.0,0.004265108145773411,0.00017867099086288363,-0.6344314813613892,0.5957858562469482,0.000528132077306509,9.327172301709652e-05,-35.3628621,149.1648761,94990.0,-1.0,-3.0,2.0,0.0,14.0,-1026.0,599.0,2.0,3.0,RTL
18:44:22,73409.0,-0.0014626041054725647,-0.000762689532712102,-0.6339680552482605,0.01734232306480408,-0.000915413023903966,-0.00019577606581151487,-35.36286214,149.16487596,95255.8,-1.0,-3.6,-40.8,0.0,3.8,-1032.8,21.6,1.0,3.0,RTL
18:44:23,73409.0,0.004078563302755356,-0.0005243620253168046,-0.6344707012176514,0.3190320134162903,0.003461440559476614,-0.0017072054324671626,-35.3628622,149.1648759,95632.0,0.0,-3.0,-56.0,0.0,13.0,-1004.0,323.0,5.0,2.0,RTL
18:44:25,73409.0,0.00388392066815868,-0.0003132921119686216,-0.6340508759021759,0.04823616147041321,0.0040584244998171926,-0.0005161045119166374,-35.3628625,149.16487545,96235.0,1.0,0.0,2.0,-0.5,-1.0,-993.5,52.0,5.5,2.5,RTL
18:44:27,73409.0,0.003199640312232077,0.0009099026210606098,-0.6339837312698364,0.2643989473581314,0.0018834889633581042,0.0015872151125222445,-35.362862449999994,149.16487535,96468.5,2.5,1.0,-40.0,0.0,10.5,-1039.5,267.5,3.5,5.0,RTL
18:44:28,54699.0,-0.0019453445565886796,0.0005913915738346986,-0.6343782693147659,0.09874703409150243,-0.0004922506341245025,-0.0003612819709815085,-35.362862325,149.16487554999998,96970.5,0.5,0.0,-52.75,-0.25,3.75,-989.5,102.5,1.5,2.75,RTL
