time_stamp,MODE,lat,lon,relative_alt,roll,pitch,yaw,rollspeed,pitchspeed,yawspeed,xacc,yacc,zacc,xgyro,ygyro,zgyro,vx,vy,vz,RTL_ALT
19:19:37.521,STABILIZE,-35.3632621,149.1652374,0,-0.0001872547873063013,0.0015141215408220887,0.026588600128889084,0.00016766879707574844,0.00027100203442387283,0.0023660538718104362,0,1,-1000,0,0,0,-2,1,0,1500.0
19:19:37.724,STABILIZE,-35.3632621,149.1652374,0,-0.0001872547873063013,0.0015141215408220887,0.026588600128889084,0.00016766879707574844,0.00027100203442387283,0.0023660538718104362,0,1,-1000,0,0,0,-2,1,0,1500.0
19:19:37.926,STABILIZE,-35.3632621,149.1652374,0,-0.0001872547873063013,0.0015141215408220887,0.026588600128889084,0.00016766879707574844,0.00027100203442387283,0.0023660538718104362,0,1,-1000,0,0,0,-2,1,0,1500.0
19:19:38.130,STABILIZE,-35.3632621,149.1652374,0,-0.0001872547873063013,0.0015141215408220887,0.026588600128889084,0.00016766879707574844,0.00027100203442387283,0.0023660538718104362,0,1,-1000,0,0,0,-2,1,0,1500.0
19:19:38.332,STABILIZE,-35.3632621,149.1652374,0,-0.0001872547873063013,0.0015141215408220887,0.026588600128889084,0.00016766879707574844,0.00027100203442387283,0.0023660538718104362,0,1,-1000,0,0,0,-2,1,0,1500.0
19:19:38.533,STABILIZE,-35.3632621,149.1652374,0,-0.0001872547873063013,0.0015141215408220887,0.026588600128889084,0.00016766879707574844,0.00027100203442387283,0.0023660538718104362,0,1,-1000,0,0,0,-2,1,0,1500.0
19:19:38.736,STABILIZE,-35.3632621,149.1652374,0,-0.0001872547873063013,0.0015141215408220887,0.026588600128889084,0.00016766879707574844,0.00027100203442387283,0.0023660538718104362,0,1,-1000,0,0,0,-2,1,0,1500.0
19:19:38.938,STABILIZE,-35.3632621,149.1652374,0,-0.0001872547873063013,0.0015141215408220887,0.026588600128889084,0.00016766879707574844,0.00027100203442387283,0.0023660538718104362,0,1,-1000,0,0,0,-2,1,0,1500.0
19:19:39.144,STABILIZE,-35.3632621,149.1652374,0,-0.00039284583181142807,0.0013779085129499435,0.02618640474975109,9.359174873679876e-05,0.0002966675965581089,0.002200670773163438,0,2,-1000,0,0,0,-2,1,0,1500.0
19:19:39.348,STABILIZE,-35.3632622,149.1652374,0,-0.00044292345410212874,0.001222511869855225,0.025832856073975563,0.00029872957384213805,0.00016463396605104208,0.0021346460562199354,0,1,-1000,0,0,0,-1,0,-2,1500.0
19:19:39.550,STABILIZE,-35.3632622,149.1652374,0,-0.00040825302130542696,0.0011501441476866603,0.025668146088719368,0.00019733546650968492,0.00024700493668206036,0.0021220806520432234,0,1,-1000,0,0,0,-1,0,-2,1500.0
19:19:39.755,STABILIZE,-35.3632622,149.1652374,0,-0.00040825302130542696,0.0011501441476866603,0.025668146088719368,0.00019733546650968492,0.00024700493668206036,0.0021220806520432234,0,1,-1000,0,0,0,-1,0,-2,1500.0
19:19:39.957,STABILIZE,-35.3632622,149.1652374,0,-0.00040825302130542696,0.0011501441476866603,0.025668146088719368,0.00019733546650968492,0.00024700493668206036,0.0021220806520432234,0,1,-1000,0,0,0,-1,0,-2,1500.0
19:19:40.159,STABILIZE,-35.3632622,149.1652374,0,-0.00040825302130542696,0.0011501441476866603,0.025668146088719368,0.00019733546650968492,0.00024700493668206036,0.0021220806520432234,0,1,-1000,0,0,0,-1,0,-2,1500.0
19:19:40.361,STABILIZE,-35.3632622,149.1652374,0,-0.00040825302130542696,0.0011501441476866603,0.025668146088719368,0.00019733546650968492,0.00024700493668206036,0.0021220806520432234,0,1,-1000,0,0,0,-1,0,-2,1500.0
19:19:40.563,STABILIZE,-35.3632622,149.1652374,0,-0.00040825302130542696,0.0011501441476866603,0.025668146088719368,0.00019733546650968492,0.00024700493668206036,0.0021220806520432234,0,1,-1000,0,0,0,-1,0,-2,1500.0
19:19:40.766,STABILIZE,-35.3632622,149.1652374,0,-0.00040825302130542696,0.0011501441476866603,0.025668146088719368,0.00019733546650968492,0.00024700493668206036,0.0021220806520432234,0,1,-1000,0,0,0,-1,0,-2,1500.0
19:19:40.968,STABILIZE,-35.3632622,149.1652374,0,-0.00040825302130542696,0.0011501441476866603,0.025668146088719368,0.00019733546650968492,0.00024700493668206036,0.0021220806520432234,0,1,-1000,0,0,0,-1,0,-2,1500.0
19:19:41.170,STABILIZE,-35.3632622,149.1652374,0,-0.00040825302130542696,0.0011501441476866603,0.025668146088719368,0.00019733546650968492,0.00024700493668206036,0.0021220806520432234,0,1,-1000,0,0,0,-1,0,-2,1500.0
19:19:41.375,STABILIZE,-35.3632621,149.1652374,6,-0.0005083428113721311,0.0009308592416346073,0.02473633363842964,0.00029875716427341104,0.00023169838823378086,0.0019396848510950804,0,2,-1000,1,0,0,-1,1,-1,1500.0
19:19:41.584,STABILIZE,-35.3632621,149.1652374,6,-0.0005083428113721311,0.0009308592416346073,0.02473633363842964,0.00029875716427341104,0.00023169838823378086,0.0019396848510950804,0,2,-1000,1,0,0,-1,1,-1,1500.0
19:19:45.322,STABILIZE,-35.3632621,149.1652374,6,-0.0005083428113721311,0.0009308592416346073,0.02473633363842964,0.00029875716427341104,0.00023169838823378086,0.0019396848510950804,0,2,-1000,1,0,0,-1,1,-1,1500.0
19:19:45.524,STABILIZE,-35.3632621,149.1652374,6,-0.0005083428113721311,0.0009308592416346073,0.02473633363842964,0.00029875716427341104,0.00023169838823378086,0.0019396848510950804,0,2,-1000,1,0,0,-1,1,-1,1500.0
19:19:45.726,STABILIZE,-35.3632621,149.1652374,6,-0.0005083428113721311,0.0009308592416346073,0.02473633363842964,0.00029875716427341104,0.00023169838823378086,0.0019396848510950804,0,2,-1000,1,0,0,-1,1,-1,1500.0
19:19:45.928,STABILIZE,-35.3632621,149.1652374,6,-0.0005083428113721311,0.0009308592416346073,0.02473633363842964,0.00029875716427341104,0.00023169838823378086,0.0019396848510950804,0,2,-1000,1,0,0,-1,1,-1,1500.0
19:19:46.131,STABILIZE,-35.3632621,149.1652374,6,-0.0005083428113721311,0.0009308592416346073,0.02473633363842964,0.00029875716427341104,0.00023169838823378086,0.0019396848510950804,0,2,-1000,1,0,0,-1,1,-1,1500.0
19:19:46.332,STABILIZE,-35.3632621,149.1652374,6,-0.0005083428113721311,0.0009308592416346073,0.02473633363842964,0.00029875716427341104,0.00023169838823378086,0.0019396848510950804,0,2,-1000,1,0,0,-1,1,-1,1500.0
19:19:46.534,STABILIZE,-35.3632621,149.1652374,6,-0.0005083428113721311,0.0009308592416346073,0.02473633363842964,0.00029875716427341104,0.00023169838823378086,0.0019396848510950804,0,2,-1000,1,0,0,-1,1,-1,1500.0
19:19:46.736,STABILIZE,-35.3632621,149.1652375,6,-0.00043964030919596553,0.0009198387851938605,0.024344902485609055,0.00023352878633886576,0.00024043681332841516,0.0018211182905361056,0,2,-1000,0,0,1,-1,1,0,1500.0
19:19:46.941,STABILIZE,-35.3632621,149.1652375,4,-0.0005609072977676988,0.0009202725486829877,0.02391890063881874,0.00013820460299029946,0.00026566156884655356,0.0018172963755205274,0,1,-1000,0,0,1,-1,1,0,1500.0
19:19:47.144,STABILIZE,-35.3632621,149.1652375,4,-0.0005609072977676988,0.0009202725486829877,0.02391890063881874,0.00013820460299029946,0.00026566156884655356,0.0018172963755205274,0,1,-1000,0,0,1,-1,1,0,1500.0
19:19:47.346,STABILIZE,-35.3632621,149.1652375,4,-0.0005609072977676988,0.0009202725486829877,0.02391890063881874,0.00013820460299029946,0.00026566156884655356,0.0018172963755205274,0,1,-1000,0,0,1,-1,1,0,1500.0
19:19:47.548,STABILIZE,-35.3632621,149.1652375,4,-0.0005609072977676988,0.0009202725486829877,0.02391890063881874,0.00013820460299029946,0.00026566156884655356,0.0018172963755205274,0,1,-1000,0,0,1,-1,1,0,1500.0
19:19:47.750,STABILIZE,-35.3632621,149.1652375,4,-0.0005609072977676988,0.0009202725486829877,0.02391890063881874,0.00013820460299029946,0.00026566156884655356,0.0018172963755205274,0,1,-1000,0,0,1,-1,1,0,1500.0
19:19:47.952,STABILIZE,-35.3632621,149.1652375,4,-0.0005609072977676988,0.0009202725486829877,0.02391890063881874,0.00013820460299029946,0.00026566156884655356,0.0018172963755205274,0,1,-1000,0,0,1,-1,1,0,1500.0
19:19:48.153,STABILIZE,-35.3632621,149.1652375,4,-0.0005609072977676988,0.0009202725486829877,0.02391890063881874,0.00013820460299029946,0.00026566156884655356,0.0018172963755205274,0,1,-1000,0,0,1,-1,1,0,1500.0
19:19:48.355,STABILIZE,-35.3632621,149.1652375,4,-0.0005609072977676988,0.0009202725486829877,0.02391890063881874,0.00013820460299029946,0.00026566156884655356,0.0018172963755205274,0,1,-1000,0,0,1,-1,1,0,1500.0
19:19:48.557,STABILIZE,-35.3632621,149.1652375,4,-0.0005609072977676988,0.0009202725486829877,0.02391890063881874,0.00013820460299029946,0.00026566156884655356,0.0018172963755205274,0,1,-1000,0,0,1,-1,1,0,1500.0
19:19:48.761,STABILIZE,-35.3632621,149.1652375,4,-0.0005609072977676988,0.0009202725486829877,0.02391890063881874,0.00013820460299029946,0.00026566156884655356,0.0018172963755205274,0,1,-1000,0,0,1,-1,1,0,1500.0
19:19:48.963,STABILIZE,-35.3632621,149.1652375,4,-0.0005609072977676988,0.0009202725486829877,0.02391890063881874,0.00013820460299029946,0.00026566156884655356,0.0018172963755205274,0,1,-1000,0,0,1,-1,1,0,1500.0
19:19:49.166,STABILIZE,-35.3632621,149.1652375,4,-0.0005609072977676988,0.0009202725486829877,0.02391890063881874,0.00013820460299029946,0.00026566156884655356,0.0018172963755205274,0,1,-1000,0,0,1,-1,1,0,1500.0
19:19:49.369,STABILIZE,-35.3632621,149.1652375,4,-0.0005609072977676988,0.0009202725486829877,0.02391890063881874,0.00013820460299029946,0.00026566156884655356,0.0018172963755205274,0,1,-1000,0,0,1,-1,1,0,1500.0
19:19:49.575,STABILIZE,-35.3632621,149.1652375,4,-0.0005609072977676988,0.0009202725486829877,0.02391890063881874,0.00013820460299029946,0.00026566156884655356,0.0018172963755205274,0,1,-1000,0,0,1,-1,1,0,1500.0
19:19:49.778,STABILIZE,-35.3632621,149.1652375,4,-0.0005609072977676988,0.0009202725486829877,0.02391890063881874,0.00013820460299029946,0.00026566156884655356,0.0018172963755205274,0,1,-1000,0,0,1,-1,1,0,1500.0
19:19:49.981,STABILIZE,-35.3632621,149.1652375,4,-0.0005609072977676988,0.0009202725486829877,0.02391890063881874,0.00013820460299029946,0.00026566156884655356,0.0018172963755205274,0,1,-1000,0,0,1,-1,1,0,1500.0
19:19:50.183,STABILIZE,-35.3632621,149.1652375,4,-0.0005609072977676988,0.0009202725486829877,0.02391890063881874,0.00013820460299029946,0.00026566156884655356,0.0018172963755205274,0,1,-1000,0,0,1,-1,1,0,1500.0
19:19:50.386,STABILIZE,-35.3632621,149.1652375,4,-0.0005609072977676988,0.0009202725486829877,0.02391890063881874,0.00013820460299029946,0.00026566156884655356,0.0018172963755205274,0,1,-1000,0,0,1,-1,1,0,1500.0
19:19:50.590,STABILIZE,-35.3632621,149.1652375,4,-0.0005609072977676988,0.0009202725486829877,0.02391890063881874,0.00013820460299029946,0.00026566156884655356,0.0018172963755205274,0,1,-1000,0,0,1,-1,1,0,1500.0
19:19:50.794,STABILIZE,-35.3632621,149.1652375,4,-0.0005609072977676988,0.0009202725486829877,0.02391890063881874,0.00013820460299029946,0.00026566156884655356,0.0018172963755205274,0,1,-1000,0,0,1,-1,1,0,1500.0
19:19:50.997,STABILIZE,-35.3632621,149.1652375,4,-0.0005609072977676988,0.0009202725486829877,0.02391890063881874,0.00013820460299029946,0.00026566156884655356,0.0018172963755205274,0,1,-1000,0,0,1,-1,1,0,1500.0
19:19:51.198,STABILIZE,-35.3632621,149.1652375,4,-0.0005609072977676988,0.0009202725486829877,0.02391890063881874,0.00013820460299029946,0.00026566156884655356,0.0018172963755205274,0,1,-1000,0,0,1,-1,1,0,1500.0
19:19:51.400,STABILIZE,-35.3632621,149.1652375,4,-0.0005609072977676988,0.0009202725486829877,0.02391890063881874,0.00013820460299029946,0.00026566156884655356,0.0018172963755205274,0,1,-1000,0,0,1,-1,1,0,1500.0
19:19:51.601,STABILIZE,-35.3632621,149.1652375,4,-0.0005609072977676988,0.0009202725486829877,0.02391890063881874,0.00013820460299029946,0.00026566156884655356,0.0018172963755205274,0,1,-1000,0,0,1,-1,1,0,1500.0
19:19:51.803,STABILIZE,-35.3632621,149.1652375,4,-0.0005609072977676988,0.0009202725486829877,0.02391890063881874,0.00013820460299029946,0.00026566156884655356,0.0018172963755205274,0,1,-1000,0,0,1,-1,1,0,1500.0
19:19:52.005,STABILIZE,-35.3632621,149.1652375,4,-0.0005609072977676988,0.0009202725486829877,0.02391890063881874,0.00013820460299029946,0.00026566156884655356,0.0018172963755205274,0,1,-1000,0,0,1,-1,1,0,1500.0
19:19:52.207,STABILIZE,-35.3632621,149.1652375,4,-0.0005609072977676988,0.0009202725486829877,0.02391890063881874,0.00013820460299029946,0.00026566156884655356,0.0018172963755205274,0,1,-1000,0,0,1,-1,1,0,1500.0
19:19:52.410,STABILIZE,-35.3632621,149.1652375,4,-0.0005609072977676988,0.0009202725486829877,0.02391890063881874,0.00013820460299029946,0.00026566156884655356,0.0018172963755205274,0,1,-1000,0,0,1,-1,1,0,1500.0
19:19:52.612,STABILIZE,-35.3632621,149.1652375,4,-0.0005609072977676988,0.0009202725486829877,0.02391890063881874,0.00013820460299029946,0.00026566156884655356,0.0018172963755205274,0,1,-1000,0,0,1,-1,1,0,1500.0
19:19:52.815,STABILIZE,-35.3632621,149.1652375,4,-0.0005609072977676988,0.0009202725486829877,0.02391890063881874,0.00013820460299029946,0.00026566156884655356,0.0018172963755205274,0,1,-1000,0,0,1,-1,1,0,1500.0
19:19:53.016,STABILIZE,-35.3632621,149.1652375,4,-0.0005609072977676988,0.0009202725486829877,0.02391890063881874,0.00013820460299029946,0.00026566156884655356,0.0018172963755205274,0,1,-1000,0,0,1,-1,1,0,1500.0
19:19:53.218,STABILIZE,-35.3632621,149.1652375,0,-0.000739112903829664,0.0009603541111573577,0.02327643521130085,0.000199073925614357,0.000255952007137239,0.00171500607393682,0,1,-1000,0,0,0,-1,1,0,1500.0
19:19:53.420,STABILIZE,-35.3632621,149.1652375,0,-0.000739112903829664,0.0009603541111573577,0.02327643521130085,0.000199073925614357,0.000255952007137239,0.00171500607393682,0,1,-1000,0,0,0,-1,1,0,1500.0
19:19:53.622,AUTO,-35.3632621,149.1652375,484,0.001971252728253603,0.0012733160983771086,0.021660689264535904,-0.003721656044945121,0.002324010245501995,0.0020804316736757755,0,0,-1104,-3,2,1,0,0,-107,1500.0
19:19:53.824,AUTO,-35.3632621,149.1652375,484,0.001971252728253603,0.0012733160983771086,0.021660689264535904,-0.003721656044945121,0.002324010245501995,0.0020804316736757755,0,0,-1104,-3,2,1,0,0,-107,1500.0
19:19:54.024,AUTO,-35.3632621,149.1652375,484,0.001971252728253603,0.0012733160983771086,0.021660689264535904,-0.003721656044945121,0.002324010245501995,0.0020804316736757755,0,0,-1104,-3,2,1,0,0,-107,1500.0
19:19:54.232,AUTO,-35.3632621,149.1652375,484,0.001971252728253603,0.0012733160983771086,0.021660689264535904,-0.003721656044945121,0.002324010245501995,0.0020804316736757755,0,0,-1104,-3,2,1,0,0,-107,1500.0
19:19:54.433,AUTO,-35.3632621,149.1652375,484,0.001971252728253603,0.0012733160983771086,0.021660689264535904,-0.003721656044945121,0.002324010245501995,0.0020804316736757755,0,0,-1104,-3,2,1,0,0,-107,1500.0
19:19:54.636,AUTO,-35.3632621,149.1652375,484,0.001971252728253603,0.0012733160983771086,0.021660689264535904,-0.003721656044945121,0.002324010245501995,0.0020804316736757755,0,0,-1104,-3,2,1,0,0,-107,1500.0
19:19:54.838,AUTO,-35.363262,149.1652377,1807,0.03568663448095322,-0.0031593337189406157,0.021613536402583122,0.04480237513780594,-0.007847410626709461,0.0032500959932804108,0,-1,-1006,45,-7,2,1,12,-147,1500.0
19:19:55.040,AUTO,-35.3632619,149.1652381,2192,0.04647936671972275,-0.005394306033849716,0.0218048095703125,0.04204696789383888,-0.009349262341856956,0.003448129165917635,0,-3,-1002,42,-8,2,3,21,-148,1500.0
19:19:55.242,AUTO,-35.3632619,149.1652381,2192,0.04647936671972275,-0.005394306033849716,0.0218048095703125,0.04204696789383888,-0.009349262341856956,0.003448129165917635,0,-3,-1002,42,-8,2,3,21,-148,1500.0
19:19:55.446,AUTO,-35.3632619,149.1652381,2192,0.04647936671972275,-0.005394306033849716,0.0218048095703125,0.04204696789383888,-0.009349262341856956,0.003448129165917635,0,-3,-1002,42,-8,2,3,21,-148,1500.0
19:19:55.648,AUTO,-35.3632619,149.1652381,2192,0.04647936671972275,-0.005394306033849716,0.0218048095703125,0.04204696789383888,-0.009349262341856956,0.003448129165917635,0,-3,-1002,42,-8,2,3,21,-148,1500.0
19:19:55.849,AUTO,-35.3632619,149.1652381,2192,0.04647936671972275,-0.005394306033849716,0.0218048095703125,0.04204696789383888,-0.009349262341856956,0.003448129165917635,0,-3,-1002,42,-8,2,3,21,-148,1500.0
19:19:56.057,AUTO,-35.3632619,149.1652381,2192,0.04647936671972275,-0.005394306033849716,0.0218048095703125,0.04204696789383888,-0.009349262341856956,0.003448129165917635,0,-3,-1002,42,-8,2,3,21,-148,1500.0
19:19:56.259,AUTO,-35.363261,149.1652447,4320,-0.03703662380576134,0.04885561391711235,-0.1095806360244751,-0.024407105520367622,0.05242155119776726,-0.13627880811691284,5,-8,-1009,-23,52,-136,-6,40,-147,1500.0
19:19:56.461,AUTO,-35.3632611,149.1652456,4704,-0.048696376383304596,0.037220362573862076,-0.1195535883307457,-0.06281871348619461,-0.1101035624742508,0.0023918759543448687,6,-5,-1001,-62,-109,1,-16,28,-148,1500.0
19:19:56.662,AUTO,-35.3632611,149.1652456,4704,-0.048696376383304596,0.037220362573862076,-0.1195535883307457,-0.06281871348619461,-0.1101035624742508,0.0023918759543448687,6,-5,-1001,-62,-109,1,-16,28,-148,1500.0
19:19:56.864,AUTO,-35.3632615,149.1652462,5089,-0.06381461024284363,0.0051371376030147076,-0.10673689842224121,-0.05423493683338165,-0.13345898687839508,0.0638897642493248,6,-1,-1002,-53,-132,63,-20,13,-148,1500.0
19:19:57.065,AUTO,-35.3632619,149.1652463,5477,-0.07058893889188766,-0.022224269807338715,-0.08651980012655258,0.011339128948748112,-0.08009359985589981,0.05965458229184151,3,2,-1006,11,-79,59,-17,-4,-148,1500.0
19:19:57.267,AUTO,-35.3632619,149.1652463,5477,-0.07058893889188766,-0.022224269807338715,-0.08651980012655258,0.011339128948748112,-0.08009359985589981,0.05965458229184151,3,2,-1006,11,-79,59,-17,-4,-148,1500.0
19:19:57.477,AUTO,-35.3632619,149.1652463,5477,-0.07058893889188766,-0.022224269807338715,-0.08651980012655258,0.011339128948748112,-0.08009359985589981,0.05965458229184151,3,2,-1006,11,-79,59,-17,-4,-148,1500.0
19:19:57.680,AUTO,-35.3632619,149.1652463,5477,-0.07058893889188766,-0.022224269807338715,-0.08651980012655258,0.011339128948748112,-0.08009359985589981,0.05965458229184151,3,2,-1006,11,-79,59,-17,-4,-148,1500.0
19:19:57.889,AUTO,-35.3632619,149.1652463,5477,-0.07058893889188766,-0.022224269807338715,-0.08651980012655258,0.011339128948748112,-0.08009359985589981,0.05965458229184151,3,2,-1006,11,-79,59,-17,-4,-148,1500.0
19:19:58.160,AUTO,-35.3632619,149.1652463,5477,-0.07058893889188766,-0.022224269807338715,-0.08651980012655258,0.011339128948748112,-0.08009359985589981,0.05965458229184151,3,2,-1006,11,-79,59,-17,-4,-148,1500.0
19:19:58.385,AUTO,-35.3632619,149.1652463,5477,-0.07058893889188766,-0.022224269807338715,-0.08651980012655258,0.011339128948748112,-0.08009359985589981,0.05965458229184151,3,2,-1006,11,-79,59,-17,-4,-148,1500.0
19:19:58.628,AUTO,-35.3632619,149.1652463,5477,-0.07058893889188766,-0.022224269807338715,-0.08651980012655258,0.011339128948748112,-0.08009359985589981,0.05965458229184151,3,2,-1006,11,-79,59,-17,-4,-148,1500.0
19:19:58.858,AUTO,-35.3632616,149.1652384,8175,0.012553289532661438,-0.003762806998565793,-0.07350639253854752,0.05139234662055969,0.0337873250246048,-0.015562689863145351,-9,9,-1003,51,34,-16,14,-51,-150,1500.0
19:19:59.061,AUTO,-35.3632613,149.1652371,8565,0.02408258244395256,0.005504314787685871,-0.07883789390325546,0.04500080645084381,0.03752704709768295,-0.022923389449715614,-9,7,-1003,45,37,-23,13,-45,-151,1500.0
19:19:59.264,AUTO,-35.3632613,149.1652371,8565,0.02408258244395256,0.005504314787685871,-0.07883789390325546,0.04500080645084381,0.03752704709768295,-0.022923389449715614,-9,7,-1003,45,37,-23,13,-45,-151,1500.0
19:19:59.470,AUTO,-35.3632613,149.1652371,8565,0.02408258244395256,0.005504314787685871,-0.07883789390325546,0.04500080645084381,0.03752704709768295,-0.022923389449715614,-9,7,-1003,45,37,-23,13,-45,-151,1500.0
19:19:59.673,AUTO,-35.3632613,149.1652371,8565,0.02408258244395256,0.005504314787685871,-0.07883789390325546,0.04500080645084381,0.03752704709768295,-0.022923389449715614,-9,7,-1003,45,37,-23,13,-45,-151,1500.0
19:19:59.876,AUTO,-35.3632613,149.1652371,8565,0.02408258244395256,0.005504314787685871,-0.07883789390325546,0.04500080645084381,0.03752704709768295,-0.022923389449715614,-9,7,-1003,45,37,-23,13,-45,-151,1500.0
19:20:00.079,AUTO,-35.3632613,149.1652371,8565,0.02408258244395256,0.005504314787685871,-0.07883789390325546,0.04500080645084381,0.03752704709768295,-0.022923389449715614,-9,7,-1003,45,37,-23,13,-45,-151,1500.0
19:20:00.280,AUTO,-35.3632613,149.1652371,8565,0.02408258244395256,0.005504314787685871,-0.07883789390325546,0.04500080645084381,0.03752704709768295,-0.022923389449715614,-9,7,-1003,45,37,-23,13,-45,-151,1500.0
19:20:00.482,AUTO,-35.3632613,149.1652371,8565,0.02408258244395256,0.005504314787685871,-0.07883789390325546,0.04500080645084381,0.03752704709768295,-0.022923389449715614,-9,7,-1003,45,37,-23,13,-45,-151,1500.0
19:20:00.684,AUTO,-35.3632613,149.1652371,8565,0.02408258244395256,0.005504314787685871,-0.07883789390325546,0.04500080645084381,0.03752704709768295,-0.022923389449715614,-9,7,-1003,45,37,-23,13,-45,-151,1500.0
19:20:00.887,AUTO,-35.363261,149.1652341,10526,0.0339166633784771,0.01994326338171959,-0.10082391649484634,-0.0587601363658905,-0.04583323746919632,0.022766610607504845,2,0,-997,-58,-45,22,-13,9,-149,1500.0
19:20:01.090,AUTO,-35.3632619,149.1652351,11683,0.0008739595650695264,-0.002434951951727271,-0.08993073552846909,-0.030711553990840912,-0.01764053851366043,0.005557259079068899,5,-1,-1001,-30,-17,5,-12,17,-150,1500.0
19:20:01.291,AUTO,-35.3632619,149.1652351,11683,0.0008739595650695264,-0.002434951951727271,-0.08993073552846909,-0.030711553990840912,-0.01764053851366043,0.005557259079068899,5,-1,-1001,-30,-17,5,-12,17,-150,1500.0
19:20:01.495,AUTO,-35.3632619,149.1652351,11683,0.0008739595650695264,-0.002434951951727271,-0.08993073552846909,-0.030711553990840912,-0.01764053851366043,0.005557259079068899,5,-1,-1001,-30,-17,5,-12,17,-150,1500.0
19:20:01.697,AUTO,-35.3632619,149.1652351,11683,0.0008739595650695264,-0.002434951951727271,-0.08993073552846909,-0.030711553990840912,-0.01764053851366043,0.005557259079068899,5,-1,-1001,-30,-17,5,-12,17,-150,1500.0
19:20:01.899,AUTO,-35.3632619,149.1652351,11683,0.0008739595650695264,-0.002434951951727271,-0.08993073552846909,-0.030711553990840912,-0.01764053851366043,0.005557259079068899,5,-1,-1001,-30,-17,5,-12,17,-150,1500.0
19:20:02.101,AUTO,-35.3632619,149.1652351,11683,0.0008739595650695264,-0.002434951951727271,-0.08993073552846909,-0.030711553990840912,-0.01764053851366043,0.005557259079068899,5,-1,-1001,-30,-17,5,-12,17,-150,1500.0
19:20:02.305,AUTO,-35.3632619,149.1652351,11683,0.0008739595650695264,-0.002434951951727271,-0.08993073552846909,-0.030711553990840912,-0.01764053851366043,0.005557259079068899,5,-1,-1001,-30,-17,5,-12,17,-150,1500.0
19:20:02.508,AUTO,-35.3632619,149.1652351,11683,0.0008739595650695264,-0.002434951951727271,-0.08993073552846909,-0.030711553990840912,-0.01764053851366043,0.005557259079068899,5,-1,-1001,-30,-17,5,-12,17,-150,1500.0
19:20:02.709,AUTO,-35.3632619,149.1652351,11683,0.0008739595650695264,-0.002434951951727271,-0.08993073552846909,-0.030711553990840912,-0.01764053851366043,0.005557259079068899,5,-1,-1001,-30,-17,5,-12,17,-150,1500.0
19:20:02.911,AUTO,-35.3632619,149.1652351,11683,0.0008739595650695264,-0.002434951951727271,-0.08993073552846909,-0.030711553990840912,-0.01764053851366043,0.005557259079068899,5,-1,-1001,-30,-17,5,-12,17,-150,1500.0
19:20:03.114,AUTO,-35.3632624,149.1652363,14566,-0.0008306154049932957,-0.0033381287939846516,-0.1226261556148529,0.009941022843122482,0.007665949407964945,-0.023549653589725494,0,0,-1000,11,7,-24,3,-2,-152,1500.0
19:20:03.315,AUTO,-35.3632623,149.1652362,14957,0.0017208047211170197,-0.0013159720692783594,-0.12903834879398346,0.011546442285180092,0.008645400404930115,-0.025093773379921913,-2,0,-1000,12,8,-25,4,-3,-152,1500.0
19:20:03.516,AUTO,-35.3632623,149.1652362,14957,0.0017208047211170197,-0.0013159720692783594,-0.12903834879398346,0.011546442285180092,0.008645400404930115,-0.025093773379921913,-2,0,-1000,12,8,-25,4,-3,-152,1500.0
19:20:03.717,AUTO,-35.3632623,149.1652362,14957,0.0017208047211170197,-0.0013159720692783594,-0.12903834879398346,0.011546442285180092,0.008645400404930115,-0.025093773379921913,-2,0,-1000,12,8,-25,4,-3,-152,1500.0
19:20:03.919,AUTO,-35.3632623,149.1652362,14957,0.0017208047211170197,-0.0013159720692783594,-0.12903834879398346,0.011546442285180092,0.008645400404930115,-0.025093773379921913,-2,0,-1000,12,8,-25,4,-3,-152,1500.0
19:20:04.121,AUTO,-35.3632623,149.1652362,14957,0.0017208047211170197,-0.0013159720692783594,-0.12903834879398346,0.011546442285180092,0.008645400404930115,-0.025093773379921913,-2,0,-1000,12,8,-25,4,-3,-152,1500.0
19:20:04.325,AUTO,-35.3632623,149.1652362,14957,0.0017208047211170197,-0.0013159720692783594,-0.12903834879398346,0.011546442285180092,0.008645400404930115,-0.025093773379921913,-2,0,-1000,12,8,-25,4,-3,-152,1500.0
19:20:04.527,AUTO,-35.3632623,149.1652362,14957,0.0017208047211170197,-0.0013159720692783594,-0.12903834879398346,0.011546442285180092,0.008645400404930115,-0.025093773379921913,-2,0,-1000,12,8,-25,4,-3,-152,1500.0
19:20:04.728,AUTO,-35.3632623,149.1652362,14957,0.0017208047211170197,-0.0013159720692783594,-0.12903834879398346,0.011546442285180092,0.008645400404930115,-0.025093773379921913,-2,0,-1000,12,8,-25,4,-3,-152,1500.0
19:20:04.929,AUTO,-35.3632623,149.1652362,14957,0.0017208047211170197,-0.0013159720692783594,-0.12903834879398346,0.011546442285180092,0.008645400404930115,-0.025093773379921913,-2,0,-1000,12,8,-25,4,-3,-152,1500.0
19:20:05.134,AUTO,-35.3632616,149.1652356,17856,0.008268026635050774,0.007185961119830608,-0.16698715090751648,-0.003897635964676738,0.0001313896500505507,-0.015617179684340954,0,0,-999,-3,0,-16,0,3,-152,1500.0
19:20:05.335,AUTO,-35.3632616,149.1652356,17856,0.008268026635050774,0.007185961119830608,-0.16698715090751648,-0.003897635964676738,0.0001313896500505507,-0.015617179684340954,0,0,-999,-3,0,-16,0,3,-152,1500.0
19:20:05.555,AUTO,-35.3632616,149.1652356,17856,0.008268026635050774,0.007185961119830608,-0.16698715090751648,-0.003897635964676738,0.0001313896500505507,-0.015617179684340954,0,0,-999,-3,0,-16,0,3,-152,1500.0
19:20:05.772,AUTO,-35.3632616,149.1652356,17856,0.008268026635050774,0.007185961119830608,-0.16698715090751648,-0.003897635964676738,0.0001313896500505507,-0.015617179684340954,0,0,-999,-3,0,-16,0,3,-152,1500.0
19:20:05.976,AUTO,-35.3632616,149.1652356,17856,0.008268026635050774,0.007185961119830608,-0.16698715090751648,-0.003897635964676738,0.0001313896500505507,-0.015617179684340954,0,0,-999,-3,0,-16,0,3,-152,1500.0
19:20:06.193,AUTO,-35.3632616,149.1652356,17856,0.008268026635050774,0.007185961119830608,-0.16698715090751648,-0.003897635964676738,0.0001313896500505507,-0.015617179684340954,0,0,-999,-3,0,-16,0,3,-152,1500.0
19:20:06.427,AUTO,-35.3632616,149.1652356,17856,0.008268026635050774,0.007185961119830608,-0.16698715090751648,-0.003897635964676738,0.0001313896500505507,-0.015617179684340954,0,0,-999,-3,0,-16,0,3,-152,1500.0
19:20:06.631,AUTO,-35.3632616,149.1652356,17856,0.008268026635050774,0.007185961119830608,-0.16698715090751648,-0.003897635964676738,0.0001313896500505507,-0.015617179684340954,0,0,-999,-3,0,-16,0,3,-152,1500.0
19:20:06.834,AUTO,-35.3632616,149.1652356,17856,0.008268026635050774,0.007185961119830608,-0.16698715090751648,-0.003897635964676738,0.0001313896500505507,-0.015617179684340954,0,0,-999,-3,0,-16,0,3,-152,1500.0
19:20:07.036,AUTO,-35.3632615,149.1652357,19258,0.00542097445577383,0.005639434326440096,-0.17971692979335785,-0.0026260449085384607,-0.003106859279796481,-0.013988440856337547,0,-1,-1000,-2,-2,-14,-2,6,-152,1500.0
19:20:07.241,AUTO,-35.3632616,149.1652362,21212,0.0023277336731553078,0.0036271249409765005,-0.2005806565284729,-0.0005176656995899975,5.087006138637662e-05,-0.02075824700295925,0,0,-1000,0,0,-21,-3,5,-152,1500.0
19:20:07.443,AUTO,-35.3632616,149.1652362,21212,0.0023277336731553078,0.0036271249409765005,-0.2005806565284729,-0.0005176656995899975,5.087006138637662e-05,-0.02075824700295925,0,0,-1000,0,0,-21,-3,5,-152,1500.0
19:20:07.646,AUTO,-35.3632616,149.1652362,21212,0.0023277336731553078,0.0036271249409765005,-0.2005806565284729,-0.0005176656995899975,5.087006138637662e-05,-0.02075824700295925,0,0,-1000,0,0,-21,-3,5,-152,1500.0
19:20:07.850,AUTO,-35.3632616,149.1652362,21212,0.0023277336731553078,0.0036271249409765005,-0.2005806565284729,-0.0005176656995899975,5.087006138637662e-05,-0.02075824700295925,0,0,-1000,0,0,-21,-3,5,-152,1500.0
19:20:08.051,AUTO,-35.3632616,149.1652362,21212,0.0023277336731553078,0.0036271249409765005,-0.2005806565284729,-0.0005176656995899975,5.087006138637662e-05,-0.02075824700295925,0,0,-1000,0,0,-21,-3,5,-152,1500.0
19:20:08.253,AUTO,-35.3632616,149.1652362,21212,0.0023277336731553078,0.0036271249409765005,-0.2005806565284729,-0.0005176656995899975,5.087006138637662e-05,-0.02075824700295925,0,0,-1000,0,0,-21,-3,5,-152,1500.0
19:20:08.455,AUTO,-35.3632616,149.1652362,21212,0.0023277336731553078,0.0036271249409765005,-0.2005806565284729,-0.0005176656995899975,5.087006138637662e-05,-0.02075824700295925,0,0,-1000,0,0,-21,-3,5,-152,1500.0
19:20:08.657,AUTO,-35.3632616,149.1652362,21212,0.0023277336731553078,0.0036271249409765005,-0.2005806565284729,-0.0005176656995899975,5.087006138637662e-05,-0.02075824700295925,0,0,-1000,0,0,-21,-3,5,-152,1500.0
19:20:08.858,AUTO,-35.3632616,149.1652362,21212,0.0023277336731553078,0.0036271249409765005,-0.2005806565284729,-0.0005176656995899975,5.087006138637662e-05,-0.02075824700295925,0,0,-1000,0,0,-21,-3,5,-152,1500.0
19:20:09.061,AUTO,-35.3632618,149.1652367,24107,0.002069177571684122,0.002488073892891407,-0.23662367463111877,0.0007035424350760877,0.0021795560605823994,-0.02198871783912182,0,0,-999,1,2,-22,-2,3,-153,1500.0
19:20:09.264,AUTO,-35.3632618,149.1652367,24107,0.002069177571684122,0.002488073892891407,-0.23662367463111877,0.0007035424350760877,0.0021795560605823994,-0.02198871783912182,0,0,-999,1,2,-22,-2,3,-153,1500.0
19:20:09.465,AUTO,-35.3632618,149.1652367,24107,0.002069177571684122,0.002488073892891407,-0.23662367463111877,0.0007035424350760877,0.0021795560605823994,-0.02198871783912182,0,0,-999,1,2,-22,-2,3,-153,1500.0
19:20:09.671,AUTO,-35.3632618,149.1652367,24107,0.002069177571684122,0.002488073892891407,-0.23662367463111877,0.0007035424350760877,0.0021795560605823994,-0.02198871783912182,0,0,-999,1,2,-22,-2,3,-153,1500.0
19:20:09.890,AUTO,-35.3632618,149.1652367,24107,0.002069177571684122,0.002488073892891407,-0.23662367463111877,0.0007035424350760877,0.0021795560605823994,-0.02198871783912182,0,0,-999,1,2,-22,-2,3,-153,1500.0
19:20:10.105,AUTO,-35.3632618,149.1652367,24107,0.002069177571684122,0.002488073892891407,-0.23662367463111877,0.0007035424350760877,0.0021795560605823994,-0.02198871783912182,0,0,-999,1,2,-22,-2,3,-153,1500.0
19:20:10.340,AUTO,-35.3632618,149.1652367,24107,0.002069177571684122,0.002488073892891407,-0.23662367463111877,0.0007035424350760877,0.0021795560605823994,-0.02198871783912182,0,0,-999,1,2,-22,-2,3,-153,1500.0
19:20:10.544,AUTO,-35.3632618,149.1652367,24107,0.002069177571684122,0.002488073892891407,-0.23662367463111877,0.0007035424350760877,0.0021795560605823994,-0.02198871783912182,0,0,-999,1,2,-22,-2,3,-153,1500.0
19:20:10.769,AUTO,-35.363262,149.1652367,26135,0.00010120376100530848,0.005085415206849575,-0.24774950742721558,0.03921040892601013,-0.002004732610657811,0.016800252720713615,0,1,-1002,40,-1,16,-5,-3,-153,1500.0
19:20:10.971,AUTO,-35.3632621,149.1652365,26923,0.011670471169054508,0.00327557185664773,-0.2363305538892746,0.011377024464309216,-0.0034927292726933956,0.025957778096199036,0,1,-999,12,-2,25,-5,0,-153,1500.0
19:20:11.175,AUTO,-35.3632621,149.1652365,26923,0.011670471169054508,0.00327557185664773,-0.2363305538892746,0.011377024464309216,-0.0034927292726933956,0.025957778096199036,0,1,-999,12,-2,25,-5,0,-153,1500.0
19:20:11.377,AUTO,-35.3632621,149.1652365,26923,0.011670471169054508,0.00327557185664773,-0.2363305538892746,0.011377024464309216,-0.0034927292726933956,0.025957778096199036,0,1,-999,12,-2,25,-5,0,-153,1500.0
19:20:11.579,AUTO,-35.3632621,149.1652365,26923,0.011670471169054508,0.00327557185664773,-0.2363305538892746,0.011377024464309216,-0.0034927292726933956,0.025957778096199036,0,1,-999,12,-2,25,-5,0,-153,1500.0
19:20:11.784,AUTO,-35.3632621,149.1652365,26923,0.011670471169054508,0.00327557185664773,-0.2363305538892746,0.011377024464309216,-0.0034927292726933956,0.025957778096199036,0,1,-999,12,-2,25,-5,0,-153,1500.0
19:20:11.985,AUTO,-35.3632621,149.1652365,26923,0.011670471169054508,0.00327557185664773,-0.2363305538892746,0.011377024464309216,-0.0034927292726933956,0.025957778096199036,0,1,-999,12,-2,25,-5,0,-153,1500.0
19:20:12.187,AUTO,-35.3632621,149.1652365,26923,0.011670471169054508,0.00327557185664773,-0.2363305538892746,0.011377024464309216,-0.0034927292726933956,0.025957778096199036,0,1,-999,12,-2,25,-5,0,-153,1500.0
19:20:12.389,AUTO,-35.3632621,149.1652365,26923,0.011670471169054508,0.00327557185664773,-0.2363305538892746,0.011377024464309216,-0.0034927292726933956,0.025957778096199036,0,1,-999,12,-2,25,-5,0,-153,1500.0
19:20:12.591,AUTO,-35.3632621,149.1652365,26923,0.011670471169054508,0.00327557185664773,-0.2363305538892746,0.011377024464309216,-0.0034927292726933956,0.025957778096199036,0,1,-999,12,-2,25,-5,0,-153,1500.0
19:20:12.793,AUTO,-35.3632624,149.1652374,29882,0.001643146388232708,0.0018743746913969517,-0.1933879405260086,-0.004659998696297407,-0.0007416002918034792,0.019733654335141182,0,-1,-1001,-3,0,19,0,8,-152,1500.0
19:20:12.995,AUTO,-35.3632624,149.1652376,30272,0.0006292363977991045,0.0020019509829580784,-0.18857862055301666,-0.004450185690075159,0.0002599729341454804,0.019245831295847893,0,-1,-1000,-3,1,19,0,7,-152,1500.0
19:20:13.196,AUTO,-35.3632624,149.1652376,30272,0.0006292363977991045,0.0020019509829580784,-0.18857862055301666,-0.004450185690075159,0.0002599729341454804,0.019245831295847893,0,-1,-1000,-3,1,19,0,7,-152,1500.0
19:20:13.398,AUTO,-35.3632624,149.1652376,30272,0.0006292363977991045,0.0020019509829580784,-0.18857862055301666,-0.004450185690075159,0.0002599729341454804,0.019245831295847893,0,-1,-1000,-3,1,19,0,7,-152,1500.0
19:20:13.600,AUTO,-35.3632624,149.1652376,30272,0.0006292363977991045,0.0020019509829580784,-0.18857862055301666,-0.004450185690075159,0.0002599729341454804,0.019245831295847893,0,-1,-1000,-3,1,19,0,7,-152,1500.0
19:20:13.802,AUTO,-35.3632624,149.1652376,30272,0.0006292363977991045,0.0020019509829580784,-0.18857862055301666,-0.004450185690075159,0.0002599729341454804,0.019245831295847893,0,-1,-1000,-3,1,19,0,7,-152,1500.0
19:20:14.005,AUTO,-35.3632624,149.1652376,30272,0.0006292363977991045,0.0020019509829580784,-0.18857862055301666,-0.004450185690075159,0.0002599729341454804,0.019245831295847893,0,-1,-1000,-3,1,19,0,7,-152,1500.0
19:20:14.215,AUTO,-35.3632624,149.1652376,30272,0.0006292363977991045,0.0020019509829580784,-0.18857862055301666,-0.004450185690075159,0.0002599729341454804,0.019245831295847893,0,-1,-1000,-3,1,19,0,7,-152,1500.0
19:20:14.495,AUTO,-35.3632624,149.1652376,30272,0.0006292363977991045,0.0020019509829580784,-0.18857862055301666,-0.004450185690075159,0.0002599729341454804,0.019245831295847893,0,-1,-1000,-3,1,19,0,7,-152,1500.0
19:20:14.706,AUTO,-35.3632624,149.1652379,31436,-0.00055718730436638,0.0016532092122361064,-0.17526087164878845,-0.0017433523898944259,-0.0021921349689364433,0.01737367734313011,0,-1,-1000,-3,1,19,0,4,-153,1500.0
19:20:14.931,AUTO,-35.3632623,149.1652381,32996,0.00047929066931828856,0.0011056794319301844,-0.15955118834972382,-0.0006674396572634578,-0.0022793873213231564,0.014857573434710503,0,0,-1000,0,-1,14,0,1,-153,1500.0
19:20:15.137,AUTO,-35.3632623,149.1652381,33389,0.0008665469940751791,0.001101162051782012,-0.15580542385578156,0.001929489430040121,0.000837986299302429,0.01308624166995287,0,0,-1000,2,1,12,0,1,-153,1500.0
19:20:15.338,AUTO,-35.3632623,149.1652381,33389,0.0008665469940751791,0.001101162051782012,-0.15580542385578156,0.001929489430040121,0.000837986299302429,0.01308624166995287,0,0,-1000,2,1,12,0,1,-153,1500.0
19:20:15.540,AUTO,-35.3632623,149.1652381,33389,0.0008665469940751791,0.001101162051782012,-0.15580542385578156,0.001929489430040121,0.000837986299302429,0.01308624166995287,0,0,-1000,2,1,12,0,1,-153,1500.0
19:20:15.742,AUTO,-35.3632623,149.1652381,33389,0.0008665469940751791,0.001101162051782012,-0.15580542385578156,0.001929489430040121,0.000837986299302429,0.01308624166995287,0,0,-1000,2,1,12,0,1,-153,1500.0
19:20:15.943,AUTO,-35.3632623,149.1652381,33389,0.0008665469940751791,0.001101162051782012,-0.15580542385578156,0.001929489430040121,0.000837986299302429,0.01308624166995287,0,0,-1000,2,1,12,0,1,-153,1500.0
19:20:16.145,AUTO,-35.3632623,149.1652381,33389,0.0008665469940751791,0.001101162051782012,-0.15580542385578156,0.001929489430040121,0.000837986299302429,0.01308624166995287,0,0,-1000,2,1,12,0,1,-153,1500.0
19:20:16.349,AUTO,-35.3632623,149.1652381,33389,0.0008665469940751791,0.001101162051782012,-0.15580542385578156,0.001929489430040121,0.000837986299302429,0.01308624166995287,0,0,-1000,2,1,12,0,1,-153,1500.0
19:20:16.552,AUTO,-35.3632623,149.1652381,33389,0.0008665469940751791,0.001101162051782012,-0.15580542385578156,0.001929489430040121,0.000837986299302429,0.01308624166995287,0,0,-1000,2,1,12,0,1,-153,1500.0
19:20:16.754,AUTO,-35.3632622,149.1652379,36113,0.001914137159474194,0.0010656847152858973,-0.13416273891925812,0.002243829658254981,0.001102793263271451,0.01240702997893095,0,0,-1000,2,1,12,0,0,-153,1500.0
19:20:16.955,AUTO,-35.3632622,149.1652379,36113,0.001914137159474194,0.0010656847152858973,-0.13416273891925812,0.002243829658254981,0.001102793263271451,0.01240702997893095,0,0,-1000,2,1,12,0,0,-153,1500.0
19:20:17.158,AUTO,-35.3632622,149.1652379,36503,0.0019107817206531763,0.00103967625182122,-0.13159094750881195,0.0014298822497949004,-0.00043101306073367596,0.009471443481743336,0,0,-1001,2,0,9,0,0,-153,1500.0
19:20:17.363,AUTO,-35.3632622,149.1652379,36503,0.0019107817206531763,0.00103967625182122,-0.13159094750881195,0.0014298822497949004,-0.00043101306073367596,0.009471443481743336,0,0,-1001,2,0,9,0,0,-153,1500.0
19:20:20.633,AUTO,-35.3632622,149.1652379,36503,0.0019107817206531763,0.00103967625182122,-0.13159094750881195,0.0014298822497949004,-0.00043101306073367596,0.009471443481743336,0,0,-1001,2,0,9,0,0,-153,1500.0
19:20:20.834,AUTO,-35.3632622,149.1652379,36503,0.0019107817206531763,0.00103967625182122,-0.13159094750881195,0.0014298822497949004,-0.00043101306073367596,0.009471443481743336,0,0,-1001,2,0,9,0,0,-153,1500.0
19:20:21.036,AUTO,-35.3632622,149.1652379,36503,0.0019107817206531763,0.00103967625182122,-0.13159094750881195,0.0014298822497949004,-0.00043101306073367596,0.009471443481743336,0,0,-1001,2,0,9,0,0,-153,1500.0
19:20:21.239,AUTO,-35.3632622,149.1652379,36503,0.0019107817206531763,0.00103967625182122,-0.13159094750881195,0.0014298822497949004,-0.00043101306073367596,0.009471443481743336,0,0,-1001,2,0,9,0,0,-153,1500.0
19:20:21.441,AUTO,-35.3632622,149.1652379,36503,0.0019107817206531763,0.00103967625182122,-0.13159094750881195,0.0014298822497949004,-0.00043101306073367596,0.009471443481743336,0,0,-1001,2,0,9,0,0,-153,1500.0
19:20:21.644,AUTO,-35.3632622,149.1652379,36503,0.0019107817206531763,0.00103967625182122,-0.13159094750881195,0.0014298822497949004,-0.00043101306073367596,0.009471443481743336,0,0,-1001,2,0,9,0,0,-153,1500.0
19:20:21.846,AUTO,-35.3632622,149.1652377,38065,0.002735072746872902,0.001631774241104722,-0.1196601539850235,0.0028079261537641287,0.0028961636126041412,0.009591372683644295,0,0,-1000,2,0,9,0,0,-153,1500.0
19:20:22.049,AUTO,-35.3632621,149.1652376,39234,0.0029489852022379637,0.0016268196050077677,-0.11543389409780502,-0.0012554096756502986,-0.0007168465526774526,0.007542582228779793,0,0,-1000,0,0,7,0,0,-153,1500.0
19:20:22.252,AUTO,-35.3632621,149.1652376,39234,0.0029489852022379637,0.0016268196050077677,-0.11543389409780502,-0.0012554096756502986,-0.0007168465526774526,0.007542582228779793,0,0,-1000,0,0,7,0,0,-153,1500.0
19:20:22.454,AUTO,-35.3632621,149.1652376,39234,0.0029489852022379637,0.0016268196050077677,-0.11543389409780502,-0.0012554096756502986,-0.0007168465526774526,0.007542582228779793,0,0,-1000,0,0,7,0,0,-153,1500.0
19:20:22.656,AUTO,-35.3632621,149.1652376,39234,0.0029489852022379637,0.0016268196050077677,-0.11543389409780502,-0.0012554096756502986,-0.0007168465526774526,0.007542582228779793,0,0,-1000,0,0,7,0,0,-153,1500.0
19:20:22.857,AUTO,-35.3632621,149.1652376,39234,0.0029489852022379637,0.0016268196050077677,-0.11543389409780502,-0.0012554096756502986,-0.0007168465526774526,0.007542582228779793,0,0,-1000,0,0,7,0,0,-153,1500.0
19:20:23.059,AUTO,-35.3632621,149.1652376,39234,0.0029489852022379637,0.0016268196050077677,-0.11543389409780502,-0.0012554096756502986,-0.0007168465526774526,0.007542582228779793,0,0,-1000,0,0,7,0,0,-153,1500.0
19:20:23.263,AUTO,-35.3632621,149.1652376,39234,0.0029489852022379637,0.0016268196050077677,-0.11543389409780502,-0.0012554096756502986,-0.0007168465526774526,0.007542582228779793,0,0,-1000,0,0,7,0,0,-153,1500.0
19:20:23.469,AUTO,-35.3632621,149.1652376,39234,0.0029489852022379637,0.0016268196050077677,-0.11543389409780502,-0.0012554096756502986,-0.0007168465526774526,0.007542582228779793,0,0,-1000,0,0,7,0,0,-153,1500.0
19:20:23.671,AUTO,-35.3632621,149.1652376,39234,0.0029489852022379637,0.0016268196050077677,-0.11543389409780502,-0.0012554096756502986,-0.0007168465526774526,0.007542582228779793,0,0,-1000,0,0,7,0,0,-153,1500.0
19:20:23.874,AUTO,-35.3632621,149.1652375,41109,0.0023530374746769667,0.0013100794749334455,-0.1064733937382698,-0.0049434141255915165,-0.0008512189378961921,0.006480379030108452,0,0,-1000,-4,0,6,-1,0,-153,1500.0
19:20:24.077,AUTO,-35.363262,149.1652374,42278,0.0024865497834980488,0.0016418321756646037,-0.1013510450720787,-0.003883887082338333,-0.00035607622703537345,0.006552964448928833,0,0,-999,-2,0,6,-1,1,-153,1500.0
19:20:24.280,AUTO,-35.363262,149.1652374,42278,0.0024865497834980488,0.0016418321756646037,-0.1013510450720787,-0.003883887082338333,-0.00035607622703537345,0.006552964448928833,0,0,-999,-2,0,6,-1,1,-153,1500.0
19:20:24.482,AUTO,-35.363262,149.1652374,42278,0.0024865497834980488,0.0016418321756646037,-0.1013510450720787,-0.003883887082338333,-0.00035607622703537345,0.006552964448928833,0,0,-999,-2,0,6,-1,1,-153,1500.0
19:20:24.684,AUTO,-35.363262,149.1652374,42278,0.0024865497834980488,0.0016418321756646037,-0.1013510450720787,-0.003883887082338333,-0.00035607622703537345,0.006552964448928833,0,0,-999,-2,0,6,-1,1,-153,1500.0
19:20:24.886,AUTO,-35.363262,149.1652374,42278,0.0024865497834980488,0.0016418321756646037,-0.1013510450720787,-0.003883887082338333,-0.00035607622703537345,0.006552964448928833,0,0,-999,-2,0,6,-1,1,-153,1500.0
19:20:25.089,AUTO,-35.363262,149.1652374,42278,0.0024865497834980488,0.0016418321756646037,-0.1013510450720787,-0.003883887082338333,-0.00035607622703537345,0.006552964448928833,0,0,-999,-2,0,6,-1,1,-153,1500.0
19:20:25.292,AUTO,-35.363262,149.1652374,42278,0.0024865497834980488,0.0016418321756646037,-0.1013510450720787,-0.003883887082338333,-0.00035607622703537345,0.006552964448928833,0,0,-999,-2,0,6,-1,1,-153,1500.0
19:20:25.494,AUTO,-35.363262,149.1652374,42278,0.0024865497834980488,0.0016418321756646037,-0.1013510450720787,-0.003883887082338333,-0.00035607622703537345,0.006552964448928833,0,0,-999,-2,0,6,-1,1,-153,1500.0
19:20:25.697,AUTO,-35.363262,149.1652374,43992,0.002142012817785144,0.0014300413895398378,-0.09444823861122131,0.004402914550155401,0.0006912219105288386,0.00941676925867796,0,0,-1000,5,1,9,-1,1,-153,1500.0
19:20:25.899,AUTO,-35.363262,149.1652374,45161,0.0023535832297056913,0.0013232523342594504,-0.09003283828496933,0.001831711153499782,-0.001101627480238676,0.00669096689671278,0,0,-1001,2,0,6,-1,1,-153,1500.0
19:20:26.109,AUTO,-35.363262,149.1652374,45161,0.0023535832297056913,0.0013232523342594504,-0.09003283828496933,0.001831711153499782,-0.001101627480238676,0.00669096689671278,0,0,-1001,2,0,6,-1,1,-153,1500.0
19:20:26.315,AUTO,-35.363262,149.1652374,45161,0.0023535832297056913,0.0013232523342594504,-0.09003283828496933,0.001831711153499782,-0.001101627480238676,0.00669096689671278,0,0,-1001,2,0,6,-1,1,-153,1500.0
19:20:26.517,AUTO,-35.363262,149.1652374,45161,0.0023535832297056913,0.0013232523342594504,-0.09003283828496933,0.001831711153499782,-0.001101627480238676,0.00669096689671278,0,0,-1001,2,0,6,-1,1,-153,1500.0
19:20:26.719,AUTO,-35.363262,149.1652374,45161,0.0023535832297056913,0.0013232523342594504,-0.09003283828496933,0.001831711153499782,-0.001101627480238676,0.00669096689671278,0,0,-1001,2,0,6,-1,1,-153,1500.0
19:20:26.920,AUTO,-35.363262,149.1652374,45161,0.0023535832297056913,0.0013232523342594504,-0.09003283828496933,0.001831711153499782,-0.001101627480238676,0.00669096689671278,0,0,-1001,2,0,6,-1,1,-153,1500.0
19:20:27.124,AUTO,-35.363262,149.1652373,47177,-0.007959096692502499,0.010749135166406631,-0.062298040837049484,-0.08571115881204605,0.08683403581380844,0.1871662437915802,0,-1,-972,-84,87,187,-2,0,-148,1500.0
19:20:27.329,AUTO,-35.363262,149.1652373,47546,-0.035047296434640884,0.04127775877714157,0.017148971557617188,-0.13939951360225677,0.12552925944328308,0.43499302864074707,0,0,-973,-138,126,435,-7,-4,-141,1500.0
19:20:27.533,AUTO,-35.363262,149.1652373,47546,-0.035047296434640884,0.04127775877714157,0.017148971557617188,-0.13939951360225677,0.12552925944328308,0.43499302864074707,0,0,-973,-138,126,435,-7,-4,-141,1500.0
19:20:27.735,AUTO,-35.363262,149.1652373,47546,-0.035047296434640884,0.04127775877714157,0.017148971557617188,-0.13939951360225677,0.12552925944328308,0.43499302864074707,0,0,-973,-138,126,435,-7,-4,-141,1500.0
19:20:27.937,AUTO,-35.363262,149.1652373,47546,-0.035047296434640884,0.04127775877714157,0.017148971557617188,-0.13939951360225677,0.12552925944328308,0.43499302864074707,0,0,-973,-138,126,435,-7,-4,-141,1500.0
19:20:28.139,AUTO,-35.363262,149.1652373,47546,-0.035047296434640884,0.04127775877714157,0.017148971557617188,-0.13939951360225677,0.12552925944328308,0.43499302864074707,0,0,-973,-138,126,435,-7,-4,-141,1500.0
19:20:28.342,AUTO,-35.3632633,149.1652356,48394,-0.029633358120918274,0.009412785060703754,0.2729488015174866,0.1222500205039978,-0.2022506594657898,0.17397184669971466,0,0,-973,-138,126,435,-31,-37,-109,1500.0
19:20:28.543,AUTO,-35.3632644,149.1652336,48892,0.018587201833724976,-0.04911724105477333,0.31110048294067383,0.0673062652349472,-0.04714552313089371,0.017949167639017105,2,8,-958,68,-46,18,-18,-30,-86,1500.0
19:20:28.744,AUTO,-35.3632647,149.1652328,49103,0.03327229246497154,-0.05469647794961929,0.3100847899913788,0.07069554179906845,-0.0037793274968862534,-0.013220293447375298,0,7,-963,71,-2,-12,-8,-18,-75,1500.0
19:20:28.945,AUTO,-35.3632647,149.1652324,49286,0.03931988403201103,-0.05146176367998123,0.3039291203022003,-0.028189370408654213,0.023725438863039017,-0.02849278599023819,0,0,-968,-27,24,-28,1,-6,-67,1500.0
19:20:29.149,AUTO,-35.3632647,149.1652324,49446,0.0400867685675621,-0.04305499792098999,0.29544249176979065,0.008552571758627892,0.03887533023953438,-0.0362689308822155,-2,2,-973,10,39,-36,8,5,-59,1500.0
19:20:29.354,AUTO,-35.3632647,149.1652324,49446,0.0400867685675621,-0.04305499792098999,0.29544249176979065,0.008552571758627892,0.03887533023953438,-0.0362689308822155,-2,2,-973,10,39,-36,8,5,-59,1500.0
19:20:29.571,AUTO,-35.3632647,149.1652324,49446,0.0400867685675621,-0.04305499792098999,0.29544249176979065,0.008552571758627892,0.03887533023953438,-0.0362689308822155,-2,2,-973,10,39,-36,8,5,-59,1500.0
19:20:29.775,AUTO,-35.3632647,149.1652324,49446,0.0400867685675621,-0.04305499792098999,0.29544249176979065,0.008552571758627892,0.03887533023953438,-0.0362689308822155,-2,2,-973,10,39,-36,8,5,-59,1500.0
19:20:29.982,AUTO,-35.3632647,149.1652324,49446,0.0400867685675621,-0.04305499792098999,0.29544249176979065,0.008552571758627892,0.03887533023953438,-0.0362689308822155,-2,2,-973,10,39,-36,8,5,-59,1500.0
19:20:30.184,AUTO,-35.3632647,149.1652324,49446,0.0400867685675621,-0.04305499792098999,0.29544249176979065,0.008552571758627892,0.03887533023953438,-0.0362689308822155,-2,2,-973,10,39,-36,8,5,-59,1500.0
19:20:30.389,AUTO,-35.3632647,149.1652324,49446,0.0400867685675621,-0.04305499792098999,0.29544249176979065,0.008552571758627892,0.03887533023953438,-0.0362689308822155,-2,2,-973,10,39,-36,8,5,-59,1500.0
19:20:30.590,AUTO,-35.3632647,149.1652324,49446,0.0400867685675621,-0.04305499792098999,0.29544249176979065,0.008552571758627892,0.03887533023953438,-0.0362689308822155,-2,2,-973,10,39,-36,8,5,-59,1500.0
19:20:30.793,AUTO,-35.3632647,149.1652324,49446,0.0400867685675621,-0.04305499792098999,0.29544249176979065,0.008552571758627892,0.03887533023953438,-0.0362689308822155,-2,2,-973,10,39,-36,8,5,-59,1500.0
19:20:30.995,AUTO,-35.3632633,149.165234,49879,0.017905015498399734,-0.005530163645744324,0.26178646087646484,-0.509020984172821,0.037873946130275726,-0.03669147938489914,-3,-40,-982,-510,38,-36,20,29,-36,1500.0
19:20:31.197,AUTO,-35.3632616,149.1652371,50146,0.011894009076058865,0.01572703942656517,0.23127204179763794,0.5417779684066772,0.009165925905108452,-0.015100070275366306,0,2,-989,541,10,-14,12,26,-15,1500.0
19:20:31.399,AUTO,-35.3632613,149.1652377,50176,-0.0002446368453092873,0.01562152337282896,0.22511179745197296,-0.13165274262428284,-0.0012144935317337513,-0.02071826159954071,0,-28,-972,-134,0,-20,9,22,-9,1500.0
19:20:31.601,AUTO,-35.3632613,149.1652377,50176,-0.0002446368453092873,0.01562152337282896,0.22511179745197296,-0.13165274262428284,-0.0012144935317337513,-0.02071826159954071,0,-28,-972,-134,0,-20,9,22,-9,1500.0
19:20:31.803,AUTO,-35.3632613,149.1652377,50176,-0.0002446368453092873,0.01562152337282896,0.22511179745197296,-0.13165274262428284,-0.0012144935317337513,-0.02071826159954071,0,-28,-972,-134,0,-20,9,22,-9,1500.0
19:20:32.004,AUTO,-35.3632613,149.1652377,50176,-0.0002446368453092873,0.01562152337282896,0.22511179745197296,-0.13165274262428284,-0.0012144935317337513,-0.02071826159954071,0,-28,-972,-134,0,-20,9,22,-9,1500.0
19:20:32.208,AUTO,-35.3632613,149.1652377,50176,-0.0002446368453092873,0.01562152337282896,0.22511179745197296,-0.13165274262428284,-0.0012144935317337513,-0.02071826159954071,0,-28,-972,-134,0,-20,9,22,-9,1500.0
19:20:32.414,AUTO,-35.3632613,149.1652377,50176,-0.0002446368453092873,0.01562152337282896,0.22511179745197296,-0.13165274262428284,-0.0012144935317337513,-0.02071826159954071,0,-28,-972,-134,0,-20,9,22,-9,1500.0
19:20:32.616,AUTO,-35.3632613,149.1652377,50176,-0.0002446368453092873,0.01562152337282896,0.22511179745197296,-0.13165274262428284,-0.0012144935317337513,-0.02071826159954071,0,-28,-972,-134,0,-20,9,22,-9,1500.0
19:20:32.818,AUTO,-35.3632613,149.1652377,50176,-0.0002446368453092873,0.01562152337282896,0.22511179745197296,-0.13165274262428284,-0.0012144935317337513,-0.02071826159954071,0,-28,-972,-134,0,-20,9,22,-9,1500.0
19:20:33.022,AUTO,-35.363261,149.1652384,50127,0.019365252926945686,0.0029171311762183905,0.20695841312408447,0.8048360347747803,-0.08090311288833618,-0.020389245823025703,2,36,-1022,929,-102,-24,-5,5,16,1500.0
19:20:33.223,AUTO,-35.3632614,149.1652384,49992,0.040608663111925125,-0.02692338265478611,0.1910431683063507,-0.6934987306594849,-0.023863660171628,-0.02436794713139534,1,-40,-1009,-694,-22,-24,0,20,3,1500.0
19:20:33.427,AUTO,-35.3632614,149.1652384,49992,0.040608663111925125,-0.02692338265478611,0.1910431683063507,-0.6934987306594849,-0.023863660171628,-0.02436794713139534,1,-40,-1009,-694,-22,-24,0,20,3,1500.0
19:20:33.644,AUTO,-35.3632614,149.1652384,49992,0.040608663111925125,-0.02692338265478611,0.1910431683063507,-0.6934987306594849,-0.023863660171628,-0.02436794713139534,1,-40,-1009,-694,-22,-24,0,20,3,1500.0
19:20:33.855,AUTO,-35.3632614,149.1652384,49992,0.040608663111925125,-0.02692338265478611,0.1910431683063507,-0.6934987306594849,-0.023863660171628,-0.02436794713139534,1,-40,-1009,-694,-22,-24,0,20,3,1500.0
19:20:34.066,AUTO,-35.3632614,149.1652384,49992,0.040608663111925125,-0.02692338265478611,0.1910431683063507,-0.6934987306594849,-0.023863660171628,-0.02436794713139534,1,-40,-1009,-694,-22,-24,0,20,3,1500.0
19:20:34.286,AUTO,-35.3632614,149.1652384,49992,0.040608663111925125,-0.02692338265478611,0.1910431683063507,-0.6934987306594849,-0.023863660171628,-0.02436794713139534,1,-40,-1009,-694,-22,-24,0,20,3,1500.0
19:20:34.535,AUTO,-35.3632614,149.1652384,49992,0.040608663111925125,-0.02692338265478611,0.1910431683063507,-0.6934987306594849,-0.023863660171628,-0.02436794713139534,1,-40,-1009,-694,-22,-24,0,20,3,1500.0
19:20:34.747,AUTO,-35.3632614,149.1652384,49992,0.040608663111925125,-0.02692338265478611,0.1910431683063507,-0.6934987306594849,-0.023863660171628,-0.02436794713139534,1,-40,-1009,-694,-22,-24,0,20,3,1500.0
19:20:34.949,AUTO,-35.36326,149.1652433,49965,0.09167815744876862,-0.0841357409954071,0.47354045510292053,0.4619889259338379,-0.006187416613101959,0.8298244476318359,0,-12,-1019,-28,-30,639,32,93,0,1500.0
19:20:35.151,AUTO,-35.3632554,149.1652565,49955,0.02226497419178486,-0.17278532683849335,1.2598588466644287,-0.47610050439834595,-0.016764838248491287,0.7528809905052185,-38,-54,-986,-477,-15,753,69,192,0,1500.0
19:20:35.353,AUTO,-35.3632554,149.1652565,49955,0.02226497419178486,-0.17278532683849335,1.2598588466644287,-0.47610050439834595,-0.016764838248491287,0.7528809905052185,-38,-54,-986,-477,-15,753,69,192,0,1500.0
19:20:35.554,AUTO,-35.3632554,149.1652565,49955,0.02226497419178486,-0.17278532683849335,1.2598588466644287,-0.47610050439834595,-0.016764838248491287,0.7528809905052185,-38,-54,-986,-477,-15,753,69,192,0,1500.0
19:20:35.755,AUTO,-35.3632554,149.1652565,49955,0.02226497419178486,-0.17278532683849335,1.2598588466644287,-0.47610050439834595,-0.016764838248491287,0.7528809905052185,-38,-54,-986,-477,-15,753,69,192,0,1500.0
19:20:35.957,AUTO,-35.3632554,149.1652565,49955,0.02226497419178486,-0.17278532683849335,1.2598588466644287,-0.47610050439834595,-0.016764838248491287,0.7528809905052185,-38,-54,-986,-477,-15,753,69,192,0,1500.0
19:20:36.161,AUTO,-35.3632554,149.1652565,49955,0.02226497419178486,-0.17278532683849335,1.2598588466644287,-0.47610050439834595,-0.016764838248491287,0.7528809905052185,-38,-54,-986,-477,-15,753,69,192,0,1500.0
19:20:36.363,AUTO,-35.3632554,149.1652565,49955,0.02226497419178486,-0.17278532683849335,1.2598588466644287,-0.47610050439834595,-0.016764838248491287,0.7528809905052185,-38,-54,-986,-477,-15,753,69,192,0,1500.0
19:20:36.567,AUTO,-35.3632554,149.1652565,49955,0.02226497419178486,-0.17278532683849335,1.2598588466644287,-0.47610050439834595,-0.016764838248491287,0.7528809905052185,-38,-54,-986,-477,-15,753,69,192,0,1500.0
19:20:36.769,AUTO,-35.3632554,149.1652565,49955,0.02226497419178486,-0.17278532683849335,1.2598588466644287,-0.47610050439834595,-0.016764838248491287,0.7528809905052185,-38,-54,-986,-477,-15,753,69,192,0,1500.0
19:20:36.971,AUTO,-35.3632554,149.1652565,49955,0.02226497419178486,-0.17278532683849335,1.2598588466644287,-0.47610050439834595,-0.016764838248491287,0.7528809905052185,-38,-54,-986,-477,-15,753,69,192,0,1500.0
19:20:37.172,AUTO,-35.3632404,149.1653036,49974,0.029963696375489235,-0.12173477560281754,1.3587067127227783,-0.08921639621257782,0.030439335852861404,-0.054495811462402344,-69,-24,-1002,-84,31,-53,106,314,-2,1500.0
19:20:37.375,AUTO,-35.3632378,149.1653119,49979,0.0431298203766346,-0.10996707528829575,1.352868914604187,0.44074755907058716,0.04509732872247696,-0.04484200105071068,-67,1,-997,445,45,-44,107,321,-2,1500.0
19:20:37.578,AUTO,-35.3632378,149.1653119,49979,0.0431298203766346,-0.10996707528829575,1.352868914604187,0.44074755907058716,0.04509732872247696,-0.04484200105071068,-67,1,-997,445,45,-44,107,321,-2,1500.0
19:20:37.783,AUTO,-35.3632378,149.1653119,49979,0.0431298203766346,-0.10996707528829575,1.352868914604187,0.44074755907058716,0.04509732872247696,-0.04484200105071068,-67,1,-997,445,45,-44,107,321,-2,1500.0
19:20:37.989,AUTO,-35.3632378,149.1653119,49979,0.0431298203766346,-0.10996707528829575,1.352868914604187,0.44074755907058716,0.04509732872247696,-0.04484200105071068,-67,1,-997,445,45,-44,107,321,-2,1500.0
19:20:38.198,AUTO,-35.3632378,149.1653119,49979,0.0431298203766346,-0.10996707528829575,1.352868914604187,0.44074755907058716,0.04509732872247696,-0.04484200105071068,-67,1,-997,445,45,-44,107,321,-2,1500.0
19:20:38.412,AUTO,-35.3632378,149.1653119,49979,0.0431298203766346,-0.10996707528829575,1.352868914604187,0.44074755907058716,0.04509732872247696,-0.04484200105071068,-67,1,-997,445,45,-44,107,321,-2,1500.0
19:20:38.634,AUTO,-35.3632378,149.1653119,49979,0.0431298203766346,-0.10996707528829575,1.352868914604187,0.44074755907058716,0.04509732872247696,-0.04484200105071068,-67,1,-997,445,45,-44,107,321,-2,1500.0
19:20:38.840,AUTO,-35.3632378,149.1653119,49979,0.0431298203766346,-0.10996707528829575,1.352868914604187,0.44074755907058716,0.04509732872247696,-0.04484200105071068,-67,1,-997,445,45,-44,107,321,-2,1500.0
19:20:39.044,AUTO,-35.363226,149.1653522,49995,0.03904937952756882,-0.07500635087490082,1.343833565711975,-0.7196783423423767,0.04109279811382294,0.01564497873187065,-77,-79,-1000,-480,41,10,107,329,-1,1500.0
19:20:39.246,AUTO,-35.3632185,149.1653786,50000,0.048941053450107574,-0.06889285892248154,1.336345911026001,0.3172798454761505,-0.03205683454871178,-0.003196961944922805,-74,-37,-989,316,-30,-2,103,319,-1,1500.0
19:20:39.449,AUTO,-35.3632185,149.1653786,50000,0.048941053450107574,-0.06889285892248154,1.336345911026001,0.3172798454761505,-0.03205683454871178,-0.003196961944922805,-74,-37,-989,316,-30,-2,103,319,-1,1500.0
19:20:39.651,AUTO,-35.3632185,149.1653786,50000,0.048941053450107574,-0.06889285892248154,1.336345911026001,0.3172798454761505,-0.03205683454871178,-0.003196961944922805,-74,-37,-989,316,-30,-2,103,319,-1,1500.0
19:20:39.853,AUTO,-35.3632185,149.1653786,50000,0.048941053450107574,-0.06889285892248154,1.336345911026001,0.3172798454761505,-0.03205683454871178,-0.003196961944922805,-74,-37,-989,316,-30,-2,103,319,-1,1500.0
19:20:40.055,AUTO,-35.3632185,149.1653786,50000,0.048941053450107574,-0.06889285892248154,1.336345911026001,0.3172798454761505,-0.03205683454871178,-0.003196961944922805,-74,-37,-989,316,-30,-2,103,319,-1,1500.0
19:20:40.256,AUTO,-35.3632185,149.1653786,50000,0.048941053450107574,-0.06889285892248154,1.336345911026001,0.3172798454761505,-0.03205683454871178,-0.003196961944922805,-74,-37,-989,316,-30,-2,103,319,-1,1500.0
19:20:40.458,AUTO,-35.3632185,149.1653786,50000,0.048941053450107574,-0.06889285892248154,1.336345911026001,0.3172798454761505,-0.03205683454871178,-0.003196961944922805,-74,-37,-989,316,-30,-2,103,319,-1,1500.0
19:20:40.660,AUTO,-35.3632185,149.1653786,50000,0.048941053450107574,-0.06889285892248154,1.336345911026001,0.3172798454761505,-0.03205683454871178,-0.003196961944922805,-74,-37,-989,316,-30,-2,103,319,-1,1500.0
19:20:40.864,AUTO,-35.3632185,149.1653786,50000,0.048941053450107574,-0.06889285892248154,1.336345911026001,0.3172798454761505,-0.03205683454871178,-0.003196961944922805,-74,-37,-989,316,-30,-2,103,319,-1,1500.0
19:20:41.066,AUTO,-35.3632037,149.1654319,49995,0.039325274527072906,0.005865100771188736,1.3252050876617432,-0.43097472190856934,0.0552181601524353,0.012872448191046715,-61,-49,-997,138,66,12,88,263,-3,1500.0
19:20:41.268,AUTO,-35.3632018,149.1654392,49997,0.03009367734193802,0.020089270547032356,1.3234282732009888,-0.7504525184631348,0.046857889741659164,0.00189954973757267,-51,-63,-1004,-748,47,2,82,247,-3,1500.0
19:20:41.473,AUTO,-35.3632018,149.1654392,49997,0.03009367734193802,0.020089270547032356,1.3234282732009888,-0.7504525184631348,0.046857889741659164,0.00189954973757267,-51,-63,-1004,-748,47,2,82,247,-3,1500.0
19:20:41.675,AUTO,-35.3632018,149.1654392,49997,0.03009367734193802,0.020089270547032356,1.3234282732009888,-0.7504525184631348,0.046857889741659164,0.00189954973757267,-51,-63,-1004,-748,47,2,82,247,-3,1500.0
19:20:41.888,AUTO,-35.3632018,149.1654392,49997,0.03009367734193802,0.020089270547032356,1.3234282732009888,-0.7504525184631348,0.046857889741659164,0.00189954973757267,-51,-63,-1004,-748,47,2,82,247,-3,1500.0
