time_stamp,MODE,lat,lon,relative_alt,roll,pitch,yaw,rollspeed,pitchspeed,yawspeed,xacc,yacc,zacc,xgyro,ygyro,zgyro,vx,vy,vz,RTL_ALT
08:14:05.372,STABILIZE,-35.3632621,149.1652374,0,-0.0001037300462485291,0.0015878592384979129,0.026365436613559723,0.0003223289968445897,0.0002852890465874225,0.0023509403690695763,0,1,-1000,0,0,0,-1,1,0,1500.0
08:14:05.573,STABILIZE,-35.3632621,149.1652374,0,-0.0001037300462485291,0.0015878592384979129,0.026365436613559723,0.0003223289968445897,0.0002852890465874225,0.0023509403690695763,0,1,-1000,0,0,0,-1,1,0,1500.0
08:14:05.774,STABILIZE,-35.3632622,149.1652374,0,9.565802429278847e-06,0.0014727961970493197,0.025965111330151558,0.00016583057004027069,0.0003057793073821813,0.002209520898759365,0,1,-1000,0,0,0,-2,0,-2,1500.0
08:14:05.975,STABILIZE,-35.3632622,149.1652374,0,9.565802429278847e-06,0.0014727961970493197,0.025965111330151558,0.00016583057004027069,0.0003057793073821813,0.002209520898759365,0,1,-1000,0,0,0,-2,0,-2,1500.0
08:14:06.177,STABILIZE,-35.3632622,149.1652374,0,4.910122152068652e-05,0.0013625926803797483,0.025683104991912842,0.00020952706108801067,0.0003075307758990675,0.0022958675399422646,0,1,-1000,0,0,0,-2,0,-2,1500.0
08:14:06.379,STABILIZE,-35.3632622,149.1652374,0,4.910122152068652e-05,0.0013625926803797483,0.025683104991912842,0.00020952706108801067,0.0003075307758990675,0.0022958675399422646,0,1,-1000,0,0,0,-2,0,-2,1500.0
08:14:06.580,STABILIZE,-35.3632622,149.1652374,0,4.910122152068652e-05,0.0013625926803797483,0.025683104991912842,0.00020952706108801067,0.0003075307758990675,0.0022958675399422646,0,1,-1000,0,0,0,-2,0,-2,1500.0
08:14:06.782,STABILIZE,-35.3632622,149.1652374,0,4.910122152068652e-05,0.0013625926803797483,0.025683104991912842,0.00020952706108801067,0.0003075307758990675,0.0022958675399422646,0,1,-1000,0,0,0,-2,0,-2,1500.0
08:14:06.984,STABILIZE,-35.3632622,149.1652374,0,4.40461008111015e-06,0.0012134283315390348,0.025261005386710167,0.00025036829174496233,0.0002954884839709848,0.0020746486261487007,0,1,-1000,0,0,0,-1,1,-2,1500.0
08:14:07.186,STABILIZE,-35.3632622,149.1652374,0,4.40461008111015e-06,0.0012134283315390348,0.025261005386710167,0.00025036829174496233,0.0002954884839709848,0.0020746486261487007,0,1,-1000,0,0,1,-1,1,-2,1500.0
08:14:07.388,STABILIZE,-35.3632622,149.1652374,0,4.40461008111015e-06,0.0012134283315390348,0.025261005386710167,0.00025036829174496233,0.0002954884839709848,0.0020746486261487007,0,1,-1000,0,0,1,-1,1,-2,1500.0
08:14:07.589,STABILIZE,-35.3632622,149.1652374,0,4.40461008111015e-06,0.0012134283315390348,0.025261005386710167,0.00025036829174496233,0.0002954884839709848,0.0020746486261487007,0,1,-1000,1,1,0,-1,1,-1,1500.0
08:14:07.791,STABILIZE,-35.3632622,149.1652374,0,-0.00011140902643091977,0.0010934032034128904,0.024851763620972633,0.00025113223819062114,0.00020251056412234902,0.0021667322143912315,0,1,-1000,1,1,0,-1,1,-1,1500.0
08:14:07.992,STABILIZE,-35.3632622,149.1652375,0,-0.00016867347585503012,0.0010600333334878087,0.024718401953577995,0.00020577438408508897,0.00023031403543427587,0.0019378246506676078,0,1,-1000,0,0,0,-1,1,-1,1500.0
08:14:08.193,STABILIZE,-35.3632622,149.1652375,0,-0.00016867347585503012,0.0010600333334878087,0.024718401953577995,0.00020577438408508897,0.00023031403543427587,0.0019378246506676078,0,1,-1000,0,0,0,-1,1,-1,1500.0
08:14:08.404,STABILIZE,-35.3632622,149.1652375,0,-0.00016867347585503012,0.0010600333334878087,0.024718401953577995,0.00020577438408508897,0.00023031403543427587,0.0019378246506676078,0,1,-1000,0,0,0,-1,1,-1,1500.0
08:14:08.610,STABILIZE,-35.3632622,149.1652375,0,-0.00016867347585503012,0.0010600333334878087,0.024718401953577995,0.00020577438408508897,0.00023031403543427587,0.0019378246506676078,0,1,-1000,0,0,0,-1,1,-1,1500.0
08:14:08.811,STABILIZE,-35.3632622,149.1652375,0,-0.00016867347585503012,0.0010600333334878087,0.024718401953577995,0.00020577438408508897,0.00023031403543427587,0.0019378246506676078,0,1,-1000,0,0,0,-1,1,-1,1500.0
08:14:09.012,STABILIZE,-35.3632621,149.1652375,0,-5.2747731388080865e-05,0.000986400991678238,0.024245964363217354,0.00018902646843343973,0.00019322315347380936,0.0018930938094854355,0,1,-1000,0,0,0,-1,2,-1,1500.0
08:14:09.214,STABILIZE,-35.3632621,149.1652375,0,-5.2747731388080865e-05,0.000986400991678238,0.024245964363217354,0.00018902646843343973,0.00019322315347380936,0.0018930938094854355,0,1,-1000,0,0,0,-1,2,-1,1500.0
08:14:09.415,STABILIZE,-35.3632621,149.1652375,0,-0.00016101977962534875,0.000976667506620288,0.023986615240573883,0.00016986316768452525,0.0003351442574057728,0.001974081387743354,0,1,-1000,0,0,0,-1,2,-1,1500.0
08:14:09.616,STABILIZE,-35.3632621,149.1652375,0,-0.00016101977962534875,0.000976667506620288,0.023986615240573883,0.00016986316768452525,0.0003351442574057728,0.001974081387743354,0,1,-1000,0,0,0,-1,2,-1,1500.0
08:14:09.817,STABILIZE,-35.3632621,149.1652375,0,-0.00016101977962534875,0.000976667506620288,0.023986615240573883,0.00016986316768452525,0.0003351442574057728,0.001974081387743354,0,1,-1000,0,0,0,-1,2,-1,1500.0
08:14:10.019,STABILIZE,-35.3632621,149.1652375,0,-0.00016101977962534875,0.000976667506620288,0.023986615240573883,0.00016986316768452525,0.0003351442574057728,0.001974081387743354,0,1,-1000,0,0,0,-1,2,-1,1500.0
08:14:10.220,STABILIZE,-35.3632621,149.1652375,0,-0.00016101977962534875,0.000976667506620288,0.023986615240573883,0.00016986316768452525,0.0003351442574057728,0.001974081387743354,0,1,-1000,0,0,0,-1,2,-1,1500.0
08:14:10.421,STABILIZE,-35.3632621,149.1652375,0,-0.00016101977962534875,0.000976667506620288,0.023986615240573883,0.00016986316768452525,0.0003351442574057728,0.001974081387743354,0,1,-1000,0,0,0,-1,2,-1,1500.0
08:14:10.623,STABILIZE,-35.3632621,149.1652375,0,-0.00016101977962534875,0.000976667506620288,0.023986615240573883,0.00016986316768452525,0.0003351442574057728,0.001974081387743354,0,1,-1000,0,0,0,-1,2,-1,1500.0
08:14:10.824,STABILIZE,-35.3632621,149.1652375,0,-0.00016101977962534875,0.000976667506620288,0.023986615240573883,0.00016986316768452525,0.0003351442574057728,0.001974081387743354,0,1,-1000,0,0,0,-1,2,-1,1500.0
08:14:11.025,STABILIZE,-35.3632621,149.1652375,0,-0.00016101977962534875,0.000976667506620288,0.023986615240573883,0.00016986316768452525,0.0003351442574057728,0.001974081387743354,0,1,-1000,0,0,0,-1,2,-1,1500.0
08:14:11.227,STABILIZE,-35.3632621,149.1652375,0,-0.00016101977962534875,0.000976667506620288,0.023986615240573883,0.00016986316768452525,0.0003351442574057728,0.001974081387743354,0,1,-1000,0,0,0,-1,2,-1,1500.0
08:14:11.428,STABILIZE,-35.3632621,149.1652375,0,-0.0005478975363075733,0.0009379294933751225,0.02316937781870365,0.00012443028390407562,0.00030984869226813316,0.0017082197591662407,0,1,-1000,0,0,0,-1,1,0,1500.0
08:14:11.629,STABILIZE,-35.3632621,149.1652375,0,-0.0005478975363075733,0.0009379294933751225,0.02316937781870365,0.00012443028390407562,0.00030984869226813316,0.0017082197591662407,0,1,-1000,0,0,0,-1,1,0,1500.0
08:14:11.831,STABILIZE,-35.3632621,149.1652375,0,-0.0005478975363075733,0.0009379294933751225,0.02316937781870365,0.00012443028390407562,0.00030984869226813316,0.0017082197591662407,0,1,-1000,0,0,0,-1,1,0,1500.0
08:14:12.032,STABILIZE,-35.3632621,149.1652375,0,-0.0006159511976875365,0.0009372575441375375,0.022975115105509758,0.00014144135639071465,0.00026761466870084405,0.0018009222112596035,0,1,-1000,0,0,0,-1,1,0,1500.0
08:14:12.233,STABILIZE,-35.3632621,149.1652375,0,-0.0004920113133266568,0.0009373133070766926,0.022886797785758972,0.0002772307489067316,0.00021854520309716463,0.001645555254071951,0,1,-1000,0,0,0,-1,2,1,1500.0
08:14:12.435,STABILIZE,-35.3632621,149.1652375,0,-0.0004920113133266568,0.0009373133070766926,0.022886797785758972,0.0002772307489067316,0.00021854520309716463,0.001645555254071951,0,1,-1000,0,0,0,-1,2,1,1500.0
08:14:12.636,STABILIZE,-35.3632621,149.1652375,0,-0.0004920113133266568,0.0009373133070766926,0.022886797785758972,0.0002772307489067316,0.00021854520309716463,0.001645555254071951,0,1,-1000,0,0,0,-1,2,1,1500.0
08:14:12.838,STABILIZE,-35.3632621,149.1652375,0,-0.0004920113133266568,0.0009373133070766926,0.022886797785758972,0.0002772307489067316,0.00021854520309716463,0.001645555254071951,0,1,-1000,0,0,0,-1,2,1,1500.0
08:14:13.039,STABILIZE,-35.3632621,149.1652375,0,-0.0004920113133266568,0.0009373133070766926,0.022886797785758972,0.0002772307489067316,0.00021854520309716463,0.001645555254071951,0,2,-1000,0,0,0,-1,2,1,1500.0
08:14:13.240,STABILIZE,-35.3632621,149.1652375,0,-0.0004920113133266568,0.0009373133070766926,0.022886797785758972,0.0002772307489067316,0.00021854520309716463,0.001645555254071951,0,2,-1000,0,0,0,-1,2,1,1500.0
08:14:13.442,STABILIZE,-35.3632621,149.1652375,0,-0.0008218091679736972,0.0009529069066047668,0.022478172555565834,0.00022951362188905478,0.0003324094577692449,0.0017341186758130789,0,2,-1000,0,0,0,-1,2,1,1500.0
08:14:13.643,STABILIZE,-35.3632622,149.1652375,0,-0.0008731700363568962,0.0009634023299440742,0.02240584045648575,0.0003214952885173261,0.0003277212963439524,0.0017281494801864028,0,1,-1000,0,0,0,-1,1,0,1500.0
08:14:13.846,STABILIZE,-35.3632622,149.1652375,0,-0.0008731700363568962,0.0009634023299440742,0.02240584045648575,0.0003214952885173261,0.0003277212963439524,0.0017281494801864028,0,1,-1000,0,0,0,-1,1,0,1500.0
08:14:14.048,STABILIZE,-35.3632622,149.1652375,0,-0.0008731700363568962,0.0009634023299440742,0.02240584045648575,0.0003214952885173261,0.0003277212963439524,0.0017281494801864028,0,1,-1000,0,0,0,-1,1,0,1500.0
08:14:14.250,STABILIZE,-35.3632622,149.1652375,0,-0.0009723156690597534,0.0009588258690200746,0.022272594273090363,0.00017868285067379475,0.0001421297201886773,0.0015664554666727781,0,1,-1000,0,0,0,-1,1,0,1500.0
08:14:14.451,STABILIZE,-35.3632622,149.1652375,0,-0.0009723156690597534,0.0009588258690200746,0.022272594273090363,0.00017868285067379475,0.0001421297201886773,0.0015664554666727781,0,1,-1000,0,0,0,-1,1,0,1500.0
08:14:14.653,STABILIZE,-35.3632622,149.1652375,0,-0.0009723156690597534,0.0009588258690200746,0.022272594273090363,0.00017868285067379475,0.0001421297201886773,0.0015664554666727781,0,1,-1000,0,0,0,-1,1,0,1500.0
08:14:14.854,STABILIZE,-35.3632622,149.1652375,0,-0.0009723156690597534,0.0009588258690200746,0.022272594273090363,0.00017868285067379475,0.0001421297201886773,0.0015664554666727781,0,1,-1000,0,0,0,-1,1,0,1500.0
08:14:15.056,STABILIZE,-35.3632622,149.1652375,0,-0.0009723156690597534,0.0009588258690200746,0.022272594273090363,0.00017868285067379475,0.0001421297201886773,0.0015664554666727781,0,1,-1000,0,0,0,-1,1,0,1500.0
08:14:15.257,STABILIZE,-35.3632622,149.1652375,0,-0.0011252870317548513,0.0009724008850753307,0.022043677046895027,0.0003339017275720835,0.00036259787157177925,0.0016215553041547537,0,1,-1000,0,1,1,-1,1,0,1500.0
08:14:15.458,STABILIZE,-35.3632622,149.1652375,0,-0.0011252870317548513,0.0009724008850753307,0.022043677046895027,0.0003339017275720835,0.00036259787157177925,0.0016215553041547537,0,8,-991,5,0,1,-1,1,0,1500.0
08:14:15.660,STABILIZE,-35.3632622,149.1652375,0,-0.0010117164347320795,0.000978047726675868,0.021936146542429924,0.00015879364218562841,0.00025269470643252134,0.0016174425836652517,0,8,-991,5,0,1,-1,0,-2,1500.0
08:14:15.861,STABILIZE,-35.3632622,149.1652375,0,-0.0010117164347320795,0.000978047726675868,0.021936146542429924,0.00015879364218562841,0.00025269470643252134,0.0016174425836652517,0,8,-991,5,0,1,-1,0,-2,1500.0
08:14:16.062,STABILIZE,-35.3632622,149.1652375,0,-0.0009833892108872533,0.0009792284108698368,0.021878186613321304,0.00030514824902638793,0.00017823523376137018,0.0016691451892256737,0,2,-1000,0,0,1,-1,0,-2,1500.0
08:14:16.264,STABILIZE,-35.3632622,149.1652375,0,-0.000929836300201714,0.0009685585973784328,0.021835481747984886,0.0003014995018020272,0.00023114302894100547,0.0015955325216054916,0,1,-1000,0,0,0,-1,0,-2,1500.0
08:14:16.466,STABILIZE,-35.3632622,149.1652375,0,-0.000929836300201714,0.0009685585973784328,0.021835481747984886,0.0003014995018020272,0.00023114302894100547,0.0015955325216054916,0,1,-1000,0,0,0,-1,0,-2,1500.0
08:14:16.667,STABILIZE,-35.3632622,149.1652375,0,-0.000929836300201714,0.0009685585973784328,0.021835481747984886,0.0003014995018020272,0.00023114302894100547,0.0015955325216054916,0,1,-1000,0,0,0,-1,0,-2,1500.0
08:14:16.870,STABILIZE,-35.3632622,149.1652375,0,-0.000929836300201714,0.0009685585973784328,0.021835481747984886,0.0003014995018020272,0.00023114302894100547,0.0015955325216054916,0,1,-1000,0,0,0,-1,0,-2,1500.0
08:14:17.071,STABILIZE,-35.3632622,149.1652375,0,-0.000929836300201714,0.0009685585973784328,0.021835481747984886,0.0003014995018020272,0.00023114302894100547,0.0015955325216054916,0,1,-1000,0,0,0,-1,0,-2,1500.0
08:14:17.273,STABILIZE,-35.3632622,149.1652375,0,-0.0007610365282744169,0.0009672447922639549,0.021632110700011253,0.00011995667591691017,0.00020825263345614076,0.001595744164660573,0,1,-1000,0,1,0,-1,0,-1,1500.0
08:14:17.475,AUTO,-35.3632622,149.1652375,0,-0.0007274864474311471,0.0009739712695591152,0.02156727947294712,0.0003202410298399627,0.0003773943753913045,0.0016784897306934,0,1,-1000,0,0,0,-1,0,-1,1500.0
08:14:17.677,AUTO,-35.3632622,149.1652375,5,-0.0007082350202836096,0.0009753050981089473,0.02150571532547474,0.00027598754968494177,0.0002460596151649952,0.0016079091001302004,0,1,-1000,0,0,0,-1,0,-1,65038.0
08:14:17.878,AUTO,-35.3632622,149.1652375,5,-0.0007082350202836096,0.0009753050981089473,0.02150571532547474,0.00027598754968494177,0.0002460596151649952,0.0016079091001302004,0,1,-1000,0,0,0,-1,0,-1,65038.0
08:14:18.080,AUTO,-35.3632622,149.1652375,6,-0.0006955561693757772,0.0009815787198022008,0.021467778831720352,0.00020099926041439176,0.0003604469820857048,0.0015503879403695464,0,1,-1000,0,0,0,-1,1,-1,65038.0
08:14:18.281,AUTO,-35.3632621,149.1652375,6,-0.000681852048728615,0.0009890319779515266,0.021402601152658463,0.00027475308161228895,0.00025979167548939586,0.0016045933589339256,0,2,-1000,0,1,0,-1,1,-1,65038.0
08:14:18.483,AUTO,-35.3632621,149.1652375,6,-0.000681852048728615,0.0009890319779515266,0.021402601152658463,0.00027475308161228895,0.00025979167548939586,0.0016045933589339256,0,2,-1000,0,1,0,-1,1,-1,65038.0
08:14:18.686,AUTO,-35.3632621,149.1652375,6,-0.000681852048728615,0.0009890319779515266,0.021402601152658463,0.00027475308161228895,0.00025979167548939586,0.0016045933589339256,0,2,-1000,0,1,0,-1,1,-1,65038.0
08:14:18.888,AUTO,-35.3632621,149.1652375,6,-0.000681852048728615,0.0009890319779515266,0.021402601152658463,0.00027475308161228895,0.00025979167548939586,0.0016045933589339256,0,2,-1000,0,1,0,-1,1,-1,65038.0
08:14:19.090,AUTO,-35.3632621,149.1652375,7,-0.0005950594204477966,0.001095374347642064,0.021210359409451485,0.00023799430346116424,0.00022910983534529805,0.0014266123762354255,0,1,-1000,1,1,0,0,0,0,65038.0
08:14:19.291,AUTO,-35.3632621,149.1652375,7,-0.0005623164470307529,0.0011592431692406535,0.02114386484026909,0.00010289356578141451,0.0002590420190244913,0.0014650429366156459,0,2,-1000,0,0,0,0,0,0,65038.0
08:14:19.493,AUTO,-35.3632621,149.1652375,7,-0.0005090402555651963,0.0012181670172140002,0.021071113646030426,0.00017448898870497942,0.00024384952848777175,0.0015374785289168358,0,1,-1000,1,0,0,0,0,0,65038.0
08:14:19.694,AUTO,-35.3632621,149.1652375,7,-0.0004495843022596091,0.0012823467841371894,0.021016675978899002,0.0003568678512237966,0.0002634189440868795,0.0015340776881203055,0,1,-1000,0,1,0,0,0,0,65038.0
08:14:19.896,AUTO,-35.3632621,149.1652375,7,-0.0004495843022596091,0.0012823467841371894,0.021016675978899002,0.0003568678512237966,0.0002634189440868795,0.0015340776881203055,0,1,-1000,0,1,0,0,0,0,65038.0
08:14:20.098,AUTO,-35.3632621,149.1652375,7,-0.0003920575836673379,0.0013498358894139528,0.020939508453011513,0.00035751459654420614,0.00025606073904782534,0.001599879004061222,0,1,-1000,0,0,0,0,0,0,65038.0
08:14:20.300,AUTO,-35.3632621,149.1652375,6,-0.00033391258330084383,0.0014169533969834447,0.02085859514772892,0.0003375618252903223,0.0002898232778534293,0.0013761029113084078,0,1,-999,0,0,0,0,0,0,65038.0
08:14:20.502,AUTO,-35.3632621,149.1652375,6,-0.00033391258330084383,0.0014169533969834447,0.02085859514772892,0.0003375618252903223,0.0002898232778534293,0.0013761029113084078,0,1,-999,0,0,0,0,0,0,65038.0
08:14:20.708,AUTO,-35.3632621,149.1652375,6,-0.00033391258330084383,0.0014169533969834447,0.02085859514772892,0.0003375618252903223,0.0002898232778534293,0.0013761029113084078,0,1,-999,0,0,0,0,0,0,65038.0
08:14:20.911,AUTO,-35.3632621,149.1652375,5,-0.0001377198495902121,0.0016377593856304884,0.02064708061516285,0.000372581765986979,0.0002903933054767549,0.0014194647083058953,0,2,-1000,1,0,0,0,0,0,65038.0
08:14:21.112,AUTO,-35.3632621,149.1652375,5,-0.0001377198495902121,0.0016377593856304884,0.02064708061516285,0.000372581765986979,0.0002903933054767549,0.0014194647083058953,0,2,-1000,1,0,0,0,0,0,159536.0
08:14:21.314,AUTO,-35.3632621,149.1652375,5,-7.041870412649587e-05,0.0017173776868730783,0.020568424835801125,0.0003312511253170669,0.0003589930129237473,0.001398275839164853,0,1,-1000,0,0,0,0,0,0,159536.0
08:14:21.515,AUTO,-35.3632621,149.1652375,6,0.0009079801966436207,0.000992508139461279,0.020452406257390976,0.006799261085689068,-0.010377218015491962,0.0009403999429196119,0,0,-1090,7,-9,0,0,0,-5,159536.0
08:14:21.717,AUTO,-35.3632621,149.1652375,63,0.003312406362965703,-0.0005885303835384548,0.02038624882698059,0.009680879302322865,-0.00041649554623290896,0.0012443759478628635,0,0,-1141,10,0,0,0,0,-39,159536.0
08:14:21.919,AUTO,-35.3632621,149.1652375,203,0.0027058289851993322,0.00017759072943590581,0.02044648677110672,-0.006262730807065964,0.0038669456262141466,0.0022536241449415684,0,0,-1129,-5,4,1,0,0,-72,159536.0
08:14:22.121,AUTO,-35.3632621,149.1652375,203,0.0027058289851993322,0.00017759072943590581,0.02044648677110672,-0.006262730807065964,0.0038669456262141466,0.0022536241449415684,0,0,-1129,-5,4,1,0,0,-72,159536.0
08:14:22.323,AUTO,-35.3632621,149.1652375,418,0.0017974833026528358,0.0011279028840363026,0.020387403666973114,-0.00483021792024374,0.0028380181174725294,0.0018791214097291231,0,0,-1109,-4,3,1,0,0,-101,159536.0
08:14:22.525,AUTO,-35.3632621,149.1652375,418,0.0017974833026528358,0.0011279028840363026,0.020387403666973114,-0.00483021792024374,0.0028380181174725294,0.0018791214097291231,0,0,-1109,-4,3,1,0,0,-101,159536.0
08:14:22.727,AUTO,-35.3632621,149.1652375,418,0.0017974833026528358,0.0011279028840363026,0.020387403666973114,-0.00483021792024374,0.0028380181174725294,0.0018791214097291231,0,0,-1109,-4,3,1,0,0,-101,159536.0
08:14:22.929,AUTO,-35.3632621,149.1652375,1408,0.023474574089050293,-0.000936067255679518,0.019868401810526848,0.04665528982877731,-0.006640132516622543,0.0021846413146704435,0,0,-1016,47,-6,1,0,5,-145,159536.0
08:14:23.131,AUTO,-35.3632621,149.1652375,1408,0.023474574089050293,-0.000936067255679518,0.019868401810526848,0.04665528982877731,-0.006640132516622543,0.0021846413146704435,0,0,-1016,47,-6,1,0,5,-145,159536.0
08:14:23.332,AUTO,-35.363262,149.1652377,1784,0.0348917581140995,-0.0028947407845407724,0.0199628546833992,0.04494231939315796,-0.008193682879209518,0.0027796796057373285,0,-1,-1007,45,-7,2,1,12,-147,159536.0
08:14:23.534,AUTO,-35.3632619,149.1652381,2166,0.04574086144566536,-0.005162328481674194,0.020141299813985825,0.0421990267932415,-0.00939177069813013,0.0030630361288785934,0,-3,-1002,42,-8,2,3,20,-148,159536.0
08:14:23.736,AUTO,-35.3632618,149.1652388,2550,0.05581223592162132,-0.00781327299773693,0.02034386806190014,0.03886275738477707,-0.011693265289068222,0.0034500511828809977,1,-4,-1000,39,-10,2,5,31,-148,159536.0
08:14:23.937,AUTO,-35.3632616,149.1652398,2933,0.06238329038023949,-0.00896186102181673,-0.009075488895177841,-0.017385853454470634,0.026746604591608047,-0.044766273349523544,2,-8,-992,-16,27,-44,8,44,-147,159536.0
08:14:24.139,AUTO,-35.3632616,149.1652398,2933,0.06238329038023949,-0.00896186102181673,-0.009075488895177841,-0.017385853454470634,0.026746604591608047,-0.044766273349523544,2,-8,-992,-16,27,-44,8,44,-147,159536.0
08:14:24.341,AUTO,-35.3632614,149.1652411,3311,0.040356624871492386,0.013352468609809875,-0.03154230862855911,-0.14689944684505463,0.09468505531549454,-0.10061469674110413,2,-11,-990,-146,95,-101,9,53,-145,159536.0
08:14:24.544,AUTO,-35.3632614,149.1652411,3311,0.040356624871492386,0.013352468609809875,-0.03154230862855911,-0.14689944684505463,0.09468505531549454,-0.10061469674110413,2,-11,-990,-146,95,-101,9,53,-145,159536.0
08:14:24.746,AUTO,-35.3632614,149.1652411,3311,0.040356624871492386,0.013352468609809875,-0.03154230862855911,-0.14689944684505463,0.09468505531549454,-0.10061469674110413,2,-11,-990,-146,95,-101,9,53,-145,159536.0
08:14:24.948,AUTO,-35.3632608,149.1652451,4445,-0.026391124352812767,-0.008877171203494072,-0.04827190190553665,-0.03989351540803909,-0.009355435147881508,-0.024408966302871704,3,-10,-1002,-39,-8,-24,8,39,-148,159536.0
08:14:25.150,AUTO,-35.3632608,149.1652451,4445,-0.026391124352812767,-0.008877171203494072,-0.04827190190553665,-0.03989351540803909,-0.009355435147881508,-0.024408966302871704,3,-10,-1002,-39,-8,-24,8,39,-148,300000.0
08:14:25.352,AUTO,-35.3632606,149.165246,4830,-0.04207012802362442,-0.003218383528292179,-0.060502976179122925,-0.08084160834550858,0.044789668172597885,-0.06544503569602966,3,-9,-999,-80,45,-66,10,27,-148,300000.0
08:14:25.554,AUTO,-35.3632603,149.1652466,5212,-0.06628268212080002,0.008335646241903305,-0.08064743876457214,-0.10846053063869476,0.048372406512498856,-0.08424460142850876,2,-7,-999,-107,49,-84,9,12,-148,300000.0
08:14:25.756,AUTO,-35.3632602,149.1652467,5593,-0.08755934983491898,0.01639433018863201,-0.10090678185224533,-0.01360456645488739,0.014751057140529156,-0.05933908373117447,0,-1,-1008,-13,15,-59,4,-8,-147,300000.0
08:14:25.958,AUTO,-35.3632601,149.1652462,5976,-0.07952087372541428,0.015776267275214195,-0.11367060989141464,0.049135833978652954,-0.0005284607759676874,-0.04316125065088272,-2,2,-1003,49,0,-43,-1,-28,-148,300000.0
08:14:26.161,AUTO,-35.3632602,149.1652452,6357,-0.06622104346752167,0.015389933250844479,-0.12283327430486679,0.05738706514239311,0.0026410853024572134,-0.03037780150771141,-4,7,-1000,58,3,-30,-8,-44,-148,300000.0
08:14:26.363,AUTO,-35.3632602,149.1652452,6357,-0.06622104346752167,0.015389933250844479,-0.12283327430486679,0.05738706514239311,0.0026410853024572134,-0.03037780150771141,-4,7,-1000,58,3,-30,-8,-44,-148,300000.0
08:14:26.565,AUTO,-35.3632602,149.1652452,6357,-0.06622104346752167,0.015389933250844479,-0.12283327430486679,0.05738706514239311,0.0026410853024572134,-0.03037780150771141,-4,7,-1000,58,3,-30,-8,-44,-148,300000.0
08:14:26.767,AUTO,-35.3632602,149.1652452,6357,-0.06622104346752167,0.015389933250844479,-0.12283327430486679,0.05738706514239311,0.0026410853024572134,-0.03037780150771141,-4,7,-1000,58,3,-30,-8,-44,-148,300000.0
08:14:26.969,AUTO,-35.3632613,149.1652404,7501,-0.017543846741318703,0.019767725840210915,-0.13514980673789978,0.07145421952009201,0.00790691003203392,-0.008284224197268486,-5,16,-1003,71,8,-8,-25,-66,-148,300000.0
08:14:27.171,AUTO,-35.3632619,149.1652385,7885,0.000466043216874823,0.021525513380765915,-0.13588784635066986,0.07364197075366974,0.006591434590518475,-0.004965858068317175,-6,14,-1004,74,7,-5,-31,-64,-149,300000.0
08:14:27.372,AUTO,-35.3632619,149.1652385,7885,0.000466043216874823,0.021525513380765915,-0.13588784635066986,0.07364197075366974,0.006591434590518475,-0.004965858068317175,-6,14,-1004,74,7,-5,-31,-64,-149,300000.0
08:14:27.574,AUTO,-35.3632626,149.1652368,8275,0.018917163833975792,0.02258920669555664,-0.1354006975889206,0.07328769564628601,0.0020509122405201197,0.0001189730828627944,-2,18,-1004,74,2,0,-36,-58,-150,300000.0
08:14:27.775,AUTO,-35.3632635,149.1652352,8665,0.03700880706310272,0.022537333890795708,-0.1343361735343933,0.07282606512308121,-0.002080027712509036,0.001291037886403501,-2,14,-1004,73,-1,0,-40,-47,-151,300000.0
08:14:27.977,AUTO,-35.3632644,149.165234,9057,0.051933541893959045,0.018840176984667778,-0.1298617273569107,0.021736815571784973,-0.04344836249947548,0.045454684644937515,2,13,-998,22,-42,44,-43,-33,-152,300000.0
08:14:28.179,AUTO,-35.3632654,149.1652333,9445,0.0455583892762661,-0.006671007256954908,-0.10828553885221481,-0.045723527669906616,-0.1296120584011078,0.11199232935905457,4,11,-998,-45,-128,111,-42,-18,-150,300000.0
08:14:28.382,AUTO,-35.3632654,149.1652333,9445,0.0455583892762661,-0.006671007256954908,-0.10828553885221481,-0.045723527669906616,-0.1296120584011078,0.11199232935905457,4,11,-998,-45,-128,111,-42,-18,-150,300000.0
08:14:28.586,AUTO,-35.3632654,149.1652333,9445,0.0455583892762661,-0.006671007256954908,-0.10828553885221481,-0.045723527669906616,-0.1296120584011078,0.11199232935905457,4,11,-998,-45,-128,111,-42,-18,-150,300000.0
08:14:28.788,AUTO,-35.3632654,149.1652333,9445,0.0455583892762661,-0.006671007256954908,-0.10828553885221481,-0.045723527669906616,-0.1296120584011078,0.11199232935905457,4,11,-998,-45,-128,111,-42,-18,-150,300000.0
08:14:28.990,AUTO,-35.3632672,149.1652328,10610,0.05550592392683029,-0.06300374865531921,-0.04426967352628708,0.009762343019247055,-0.05977509543299675,0.08731698244810104,3,0,-999,10,-59,86,-4,15,-151,300000.0
08:14:29.192,AUTO,-35.3632671,149.1652333,10999,0.05680062621831894,-0.07803209871053696,-0.024363605305552483,0.017499934881925583,-0.04537702724337578,0.0783853530883789,1,-4,-999,18,-44,78,14,27,-150,58093.0
08:14:29.394,AUTO,-35.3632671,149.1652333,10999,0.05680062621831894,-0.07803209871053696,-0.024363605305552483,0.017499934881925583,-0.04537702724337578,0.0783853530883789,1,-4,-999,18,-44,78,14,27,-150,58093.0
08:14:29.596,AUTO,-35.3632667,149.1652341,11383,0.06171882897615433,-0.08640512824058533,-0.008887959644198418,0.03048205003142357,-0.016503194347023964,0.058136701583862305,0,-7,-997,30,-15,57,34,38,-148,58093.0
08:14:29.798,AUTO,-35.3632657,149.1652352,11761,0.052232250571250916,-0.08073194324970245,-0.006896161939948797,-0.12728920578956604,0.08689086139202118,-0.048533014953136444,-4,-15,-984,-126,87,-49,55,49,-144,58093.0
08:14:30.000,AUTO,-35.3632643,149.1652365,12131,0.011225256137549877,-0.04501664265990257,-0.032752875238657,-0.1808798611164093,0.16167034208774567,-0.13297677040100098,-7,-17,-999,-180,162,-133,70,51,-142,58093.0
08:14:30.203,AUTO,-35.3632626,149.1652378,12501,-0.023924292996525764,-0.00836823508143425,-0.0713556557893753,-0.10225827991962433,0.12640619277954102,-0.14989212155342102,-8,-20,-1016,-101,127,-150,74,43,-145,58093.0
08:14:30.421,AUTO,-35.3632626,149.1652378,12501,-0.023924292996525764,-0.00836823508143425,-0.0713556557893753,-0.10225827991962433,0.12640619277954102,-0.14989212155342102,-8,-20,-1016,-101,127,-150,74,43,-145,58093.0
08:14:30.627,AUTO,-35.3632626,149.1652378,12501,-0.023924292996525764,-0.00836823508143425,-0.0713556557893753,-0.10225827991962433,0.12640619277954102,-0.14989212155342102,-8,-20,-1016,-101,127,-150,74,43,-145,58093.0
08:14:30.828,AUTO,-35.3632626,149.1652378,12501,-0.023924292996525764,-0.00836823508143425,-0.0713556557893753,-0.10225827991962433,0.12640619277954102,-0.14989212155342102,-8,-20,-1016,-101,127,-150,74,43,-145,58093.0
08:14:31.030,AUTO,-35.3632582,149.1652396,13663,-0.05374804511666298,0.044834207743406296,-0.17461885511875153,-0.008258592337369919,0.046303559094667435,-0.10539132356643677,-9,-10,-1005,-7,46,-105,46,0,-153,58093.0
08:14:31.232,AUTO,-35.3632573,149.1652395,14055,-0.05599193274974823,0.05377043038606644,-0.19918419420719147,0.014636454172432423,0.03466486930847168,-0.08026310801506042,-6,-4,-1004,15,35,-80,30,-12,-153,58093.0
08:14:31.434,AUTO,-35.3632568,149.165239,14447,-0.0479421503841877,0.058172598481178284,-0.2164170742034912,0.0440690778195858,0.01691249944269657,-0.05890834331512451,-6,0,-1001,44,17,-59,13,-22,-153,58093.0
08:14:31.636,AUTO,-35.3632568,149.165239,14447,-0.0479421503841877,0.058172598481178284,-0.2164170742034912,0.0440690778195858,0.01691249944269657,-0.05890834331512451,-6,0,-1001,44,17,-59,13,-22,-153,58093.0
08:14:31.838,AUTO,-35.3632566,149.1652382,14839,-0.03684898465871811,0.06084313988685608,-0.22858527302742004,0.05140905827283859,0.011419198475778103,-0.04306669905781746,-5,3,-999,52,12,-43,-4,-30,-152,58093.0
08:14:32.040,AUTO,-35.3632568,149.1652373,15237,-0.023632816970348358,0.06257791072130203,-0.23717275261878967,0.05677342414855957,0.005797183141112328,-0.030465995892882347,-4,8,-1000,57,6,-30,-21,-32,-151,58093.0
08:14:32.242,AUTO,-35.3632574,149.1652364,15625,-0.009217770770192146,0.06289809942245483,-0.24246923625469208,0.06200539693236351,-0.0006121411570347846,-0.020794015377759933,-1,10,-1000,62,0,-21,-36,-31,-151,58093.0
08:14:32.444,AUTO,-35.3632574,149.1652364,15625,-0.009217770770192146,0.06289809942245483,-0.24246923625469208,0.06200539693236351,-0.0006121411570347846,-0.020794015377759933,-1,10,-1000,62,0,-21,-36,-31,-151,58093.0
08:14:32.646,AUTO,-35.3632574,149.1652364,15625,-0.009217770770192146,0.06289809942245483,-0.24246923625469208,0.06200539693236351,-0.0006121411570347846,-0.020794015377759933,-1,10,-1000,62,0,-21,-36,-31,-151,58093.0
08:14:32.849,AUTO,-35.3632574,149.1652364,15625,-0.009217770770192146,0.06289809942245483,-0.24246923625469208,0.06200539693236351,-0.0006121411570347846,-0.020794015377759933,-1,10,-1000,62,0,-21,-36,-31,-151,58093.0
08:14:33.051,AUTO,-35.3632609,149.1652345,16779,0.038910869508981705,0.05252167955040932,-0.24650517106056213,0.0677788183093071,-0.026133330538868904,-0.0011232387041673064,7,14,-1002,68,-25,-1,-69,-5,-150,58093.0
08:14:33.253,AUTO,-35.3632624,149.1652345,17165,0.04980769008398056,0.04005618020892143,-0.2404412031173706,-0.010905887931585312,-0.0952923521399498,0.06486860662698746,11,10,-995,-10,-94,64,-74,9,-150,253854.0
08:14:33.455,AUTO,-35.3632641,149.1652347,17549,0.04312890022993088,0.006200658157467842,-0.21906901895999908,-0.03354458138346672,-0.14797383546829224,0.10607200860977173,16,8,-1003,-32,-147,105,-72,22,-149,253854.0
08:14:33.657,AUTO,-35.3632655,149.1652354,17933,0.03418588638305664,-0.03302955627441406,-0.18805570900440216,-0.033978499472141266,-0.15391413867473602,0.13623273372650146,15,4,-1007,-33,-153,135,-62,30,-150,253854.0
08:14:33.859,AUTO,-35.3632655,149.1652354,17933,0.03418588638305664,-0.03302955627441406,-0.18805570900440216,-0.033978499472141266,-0.15391413867473602,0.13623273372650146,15,4,-1007,-33,-153,135,-62,30,-150,253854.0
08:14:34.061,AUTO,-35.3632667,149.1652362,18321,0.024479111656546593,-0.07122309505939484,-0.15172791481018066,-0.0335502065718174,-0.14598366618156433,0.15908196568489075,17,4,-1008,-32,-145,158,-44,35,-152,253854.0
08:14:34.263,AUTO,-35.3632674,149.1652371,18711,0.012906569056212902,-0.10691215842962265,-0.11226486414670944,-0.00029803492361679673,-0.11219160258769989,0.1408536285161972,10,0,-1010,0,-111,140,-18,35,-153,253854.0
08:14:34.465,AUTO,-35.3632674,149.1652371,18711,0.012906569056212902,-0.10691215842962265,-0.11226486414670944,-0.00029803492361679673,-0.11219160258769989,0.1408536285161972,10,0,-1010,0,-111,140,-18,35,-153,253854.0
08:14:34.667,AUTO,-35.3632674,149.1652371,18711,0.012906569056212902,-0.10691215842962265,-0.11226486414670944,-0.00029803492361679673,-0.11219160258769989,0.1408536285161972,10,0,-1010,0,-111,140,-18,35,-153,253854.0
08:14:34.870,AUTO,-35.3632674,149.1652371,18711,0.012906569056212902,-0.10691215842962265,-0.11226486414670944,-0.00029803492361679673,-0.11219160258769989,0.1408536285161972,10,0,-1010,0,-111,140,-18,35,-153,253854.0
08:14:35.073,AUTO,-35.3632656,149.1652394,19861,-0.03191486373543739,-0.08194650709629059,-0.10139670222997665,-0.12499749660491943,0.16431695222854614,-0.13349144160747528,-6,-12,-999,-124,165,-133,67,20,-145,253854.0
08:14:35.275,AUTO,-35.3632639,149.1652397,20234,-0.055407240986824036,-0.043213967233896255,-0.14317409694194794,-0.07755887508392334,0.15418663620948792,-0.15889519453048706,-12,-13,-1009,-77,154,-159,79,3,-146,253854.0
08:14:35.477,AUTO,-35.3632621,149.1652394,20609,-0.06920109689235687,-0.01148169208317995,-0.18808142840862274,-0.06649994850158691,0.14287437498569489,-0.18375355005264282,-16,-12,-1008,-66,143,-184,79,-16,-147,253854.0
08:14:35.679,AUTO,-35.3632604,149.1652388,20987,-0.08363629132509232,0.028104284778237343,-0.2370356172323227,-0.000499321729876101,0.224654421210289,-0.13518911600112915,-20,-7,-997,0,225,-135,69,-36,-147,253854.0
08:14:35.881,AUTO,-35.3632604,149.1652388,20987,-0.08363629132509232,0.028104284778237343,-0.2370356172323227,-0.000499321729876101,0.224654421210289,-0.13518911600112915,-20,-7,-997,0,225,-135,69,-36,-147,253854.0
08:14:36.083,AUTO,-35.3632591,149.1652375,21360,-0.07457902282476425,0.0931260883808136,-0.22727856040000916,0.04352257400751114,0.2530595362186432,0.24800704419612885,-19,-4,-985,44,253,247,46,-53,-143,253854.0
08:14:36.285,AUTO,-35.3632584,149.1652358,21715,-0.05063893646001816,0.1427093744277954,-0.12595760822296143,0.1100931316614151,0.03535880520939827,0.4299820363521576,-12,7,-955,110,36,429,11,-62,-134,253854.0
08:14:36.487,AUTO,-35.3632584,149.1652358,21715,-0.05063893646001816,0.1427093744277954,-0.12595760822296143,0.1100931316614151,0.03535880520939827,0.4299820363521576,-12,7,-955,110,36,429,11,-62,-134,253854.0
08:14:36.689,AUTO,-35.3632584,149.1652358,21715,-0.05063893646001816,0.1427093744277954,-0.12595760822296143,0.1100931316614151,0.03535880520939827,0.4299820363521576,-12,7,-955,110,36,429,11,-62,-134,253854.0
08:14:36.891,AUTO,-35.3632584,149.1652358,21715,-0.05063893646001816,0.1427093744277954,-0.12595760822296143,0.1100931316614151,0.03535880520939827,0.4299820363521576,-12,7,-955,110,36,429,11,-62,-134,253854.0
08:14:37.093,AUTO,-35.3632598,149.1652311,22571,0.06821385025978088,0.013168007135391235,-0.021818578243255615,0.07282941043376923,-0.1461438089609146,-0.042858801782131195,2,14,-952,73,-145,-43,-46,-38,-90,253854.0
08:14:37.295,AUTO,-35.3632608,149.1652303,22788,0.07729922980070114,-0.011306323111057281,-0.03591550514101982,0.006611498072743416,-0.0718308836221695,-0.05196693539619446,4,10,-958,7,-71,-52,-44,-18,-78,186589.0
08:14:37.497,AUTO,-35.3632617,149.16523,22976,0.0741509422659874,-0.022334475070238113,-0.0477573499083519,-0.028409253805875778,-0.0310893002897501,-0.03642738610506058,6,6,-962,-27,-30,-36,-37,0,-68,186589.0
08:14:37.699,AUTO,-35.3632624,149.1652302,23139,0.0641157478094101,-0.025927914306521416,-0.05419600009918213,-0.04515494406223297,-0.003919181879609823,-0.01690628193318844,6,1,-967,-44,-2,-17,-28,17,-58,186589.0
08:14:37.901,AUTO,-35.3632624,149.1652302,23139,0.0641157478094101,-0.025927914306521416,-0.05419600009918213,-0.04515494406223297,-0.003919181879609823,-0.01690628193318844,6,1,-967,-44,-2,-17,-28,17,-58,186589.0
08:14:38.104,AUTO,-35.3632629,149.1652308,23283,0.04994618520140648,-0.025051197037100792,-0.05655447021126747,-0.06140727549791336,0.009175027720630169,-0.004964583087712526,7,-2,-972,-60,9,-5,-18,29,-50,186589.0
08:14:38.306,AUTO,-35.3632632,149.1652317,23404,0.035524118691682816,-0.02111733704805374,-0.05725186690688133,-0.05383408069610596,0.019548773765563965,-8.304367656819522e-05,7,-5,-976,-53,20,0,-10,37,-44,186589.0
08:14:38.518,AUTO,-35.3632632,149.1652317,23404,0.035524118691682816,-0.02111733704805374,-0.05725186690688133,-0.05383408069610596,0.019548773765563965,-8.304367656819522e-05,7,-5,-976,-53,20,0,-10,37,-44,186589.0
08:14:38.720,AUTO,-35.3632632,149.1652317,23404,0.035524118691682816,-0.02111733704805374,-0.05725186690688133,-0.05383408069610596,0.019548773765563965,-8.304367656819522e-05,7,-5,-976,-53,20,0,-10,37,-44,186589.0
08:14:38.922,AUTO,-35.3632632,149.1652351,23677,-0.0008297250024043024,-0.00453270273283124,-0.05847553908824921,-0.022679168730974197,0.019301733002066612,-0.003185850102454424,4,-9,-978,-21,20,-3,5,41,-28,186589.0
08:14:39.124,AUTO,-35.3632632,149.1652351,23677,-0.0008297250024043024,-0.00453270273283124,-0.05847553908824921,-0.022679168730974197,0.019301733002066612,-0.003185850102454424,4,-9,-978,-21,20,-3,5,41,-28,186589.0
08:14:39.326,AUTO,-35.3632631,149.1652362,23740,-0.007228848524391651,-9.149565448751673e-05,-0.05919012799859047,0.0033994882833212614,0.016216689720749855,-0.0027068122290074825,3,-7,-977,4,17,-3,7,37,-22,186589.0
08:14:39.528,AUTO,-35.3632629,149.1652372,23788,-0.01300068385899067,0.0032079536467790604,-0.0602257177233696,-0.07892019301652908,0.011328967288136482,-0.0036069792695343494,3,-10,-976,-78,12,-3,7,32,-16,186589.0
08:14:39.729,AUTO,-35.3632627,149.165238,23820,-0.01649671234190464,0.005560899619013071,-0.061094969511032104,-0.03330090269446373,0.007180430926382542,-0.0013630491448566318,2,-4,-973,-32,8,-1,7,27,-10,186589.0
08:14:39.931,AUTO,-35.3632625,149.1652387,23834,-0.012695054523646832,0.006591298617422581,-0.06212128698825836,0.2722768783569336,0.000870376534294337,-0.0038549338933080435,1,4,-966,273,1,-4,6,21,-2,186589.0
08:14:40.133,AUTO,-35.3632625,149.1652387,23834,-0.012695054523646832,0.006591298617422581,-0.06212128698825836,0.2722768783569336,0.000870376534294337,-0.0038549338933080435,1,4,-966,273,1,-4,6,21,-2,186589.0
08:14:40.335,AUTO,-35.3632623,149.1652393,23819,-0.05176859721541405,0.008602268993854523,-0.06307908892631531,-0.5290936827659607,0.009883795864880085,-0.00552844163030386,0,-46,-911,-529,10,-5,5,11,15,186589.0
08:14:40.537,AUTO,-35.3632623,149.1652393,23819,-0.05176859721541405,0.008602268993854523,-0.06307908892631531,-0.5290936827659607,0.009883795864880085,-0.00552844163030386,0,-46,-911,-529,10,-5,5,11,15,186589.0
08:14:40.739,AUTO,-35.3632623,149.1652393,23819,-0.05176859721541405,0.008602268993854523,-0.06307908892631531,-0.5290936827659607,0.009883795864880085,-0.00552844163030386,0,-46,-911,-529,10,-5,5,11,15,186589.0
08:14:40.941,AUTO,-35.363262,149.1652389,23651,-0.033180058002471924,-0.009438486769795418,-0.06546984612941742,0.25303179025650024,-0.013049544766545296,-0.0075025856494903564,-3,28,-1030,254,-12,-7,3,-20,13,186589.0
08:14:41.143,AUTO,-35.363262,149.1652389,23651,-0.033180058002471924,-0.009438486769795418,-0.06546984612941742,0.25303179025650024,-0.013049544766545296,-0.0075025856494903564,-3,28,-1030,254,-12,-7,3,-20,13,186589.0
08:14:41.344,AUTO,-35.3632619,149.1652384,23617,-0.018190257251262665,-0.01302144955843687,-0.06668422371149063,0.7162216901779175,-0.015922363847494125,-0.00498934043571353,-4,27,-1024,717,-15,-5,5,-27,9,188262.0
08:14:41.546,AUTO,-35.3632617,149.1652377,23589,-0.015284285880625248,-0.017105869948863983,-0.0677354708313942,0.42903390526771545,-0.01666046492755413,0.0013147580903023481,-7,7,-1009,428,-15,1,7,-33,8,188262.0
08:14:41.748,AUTO,-35.3632615,149.1652368,23570,-0.02552659995853901,-0.02171049825847149,-0.06810130923986435,-0.5317419767379761,-0.022180473431944847,0.0025779022835195065,-6,-30,-1006,-531,-21,2,10,-38,3,188262.0
08:14:41.950,AUTO,-35.3632612,149.1652359,23560,-0.03745878487825394,-0.02784123457968235,-0.068814218044281,-0.43776676058769226,-0.0294091384857893,-0.005939172115176916,-6,0,-1003,-436,-28,-6,15,-42,1,188262.0
08:14:42.152,AUTO,-35.3632612,149.1652359,23560,-0.03745878487825394,-0.02784123457968235,-0.068814218044281,-0.43776676058769226,-0.0294091384857893,-0.005939172115176916,-6,0,-1003,-436,-28,-6,15,-42,1,188262.0
08:14:42.354,AUTO,-35.3632608,149.1652348,23551,-0.03820284456014633,-0.03698713332414627,-0.0694459080696106,0.39269474148750305,-0.04388979822397232,-0.012673470191657543,-11,36,-1007,394,-43,-12,20,-49,1,188262.0
08:14:42.556,AUTO,-35.3632608,149.1652348,23551,-0.03820284456014633,-0.03698713332414627,-0.0694459080696106,0.39269474148750305,-0.04388979822397232,-0.012673470191657543,-11,36,-1007,394,-43,-12,20,-49,1,188262.0
08:14:42.758,AUTO,-35.3632608,149.1652348,23551,-0.03820284456014633,-0.03698713332414627,-0.0694459080696106,0.39269474148750305,-0.04388979822397232,-0.012673470191657543,-11,36,-1007,394,-43,-12,20,-49,1,188262.0
08:14:42.960,AUTO,-35.3632587,149.1652299,23527,-0.05172063037753105,-0.08182109892368317,-0.45691967010498047,-0.6015384197235107,-0.024017758667469025,-0.8747349977493286,-21,-22,-1004,-601,-23,-875,44,-86,2,188262.0
08:14:43.162,AUTO,-35.3632577,149.1652276,23514,-0.030491450801491737,-0.10063575208187103,-0.6726506948471069,0.12044291198253632,-0.033070940524339676,-0.84750896692276,-24,16,-995,121,-32,-847,52,-102,5,188262.0
08:14:43.364,AUTO,-35.3632577,149.1652276,23514,-0.030491450801491737,-0.10063575208187103,-0.6726506948471069,0.12044291198253632,-0.033070940524339676,-0.84750896692276,-24,16,-995,121,-32,-847,52,-102,5,188262.0
08:14:43.565,AUTO,-35.3632565,149.1652248,23498,0.0020632571540772915,-0.1056632474064827,-0.8738501071929932,0.6064937114715576,-0.0018560714088380337,-0.7769471406936646,-29,9,-1005,607,0,-776,61,-119,5,188262.0
08:14:43.768,AUTO,-35.3632551,149.1652215,23481,0.017826059833168983,-0.09552028775215149,-1.0319054126739502,-0.19532033801078796,0.043361272662878036,-0.42125359177589417,-29,-40,-1001,-195,44,-421,68,-134,6,188262.0
08:14:43.970,AUTO,-35.3632535,149.1652179,23461,0.016452090814709663,-0.0833641067147255,-1.080959439277649,-0.6902855634689331,0.02171390689909458,-0.03495727851986885,-30,-43,-1001,-689,22,-35,75,-146,7,188262.0
08:14:44.189,AUTO,-35.3632518,149.165214,23438,0.023174677044153214,-0.07256416231393814,-1.0683335065841675,-0.06561905145645142,0.049187589436769485,0.10396942496299744,-36,-15,-1008,-64,49,103,80,-153,8,188262.0
08:14:44.391,AUTO,-35.3632518,149.165214,23438,0.023174677044153214,-0.07256416231393814,-1.0683335065841675,-0.06561905145645142,0.049187589436769485,0.10396942496299744,-36,-15,-1008,-64,49,103,80,-153,8,188262.0
08:14:44.593,AUTO,-35.3632518,149.165214,23438,0.023174677044153214,-0.07256416231393814,-1.0683335065841675,-0.06561905145645142,0.049187589436769485,0.10396942496299744,-36,-15,-1008,-64,49,103,80,-153,8,188262.0
08:14:44.795,AUTO,-35.3632518,149.165214,23438,0.023174677044153214,-0.07256416231393814,-1.0683335065841675,-0.06561905145645142,0.049187589436769485,0.10396942496299744,-36,-15,-1008,-64,49,103,80,-153,8,188262.0
08:14:44.997,AUTO,-35.3632462,149.1652017,23370,0.028869695961475372,-0.060119517147541046,-1.014918327331543,-0.10055184364318848,-0.09392021596431732,0.04848439246416092,-40,-39,-980,-101,-92,48,87,-160,9,188262.0
08:14:45.203,AUTO,-35.3632442,149.1651974,23343,0.019306479021906853,-0.08026788383722305,-1.013883113861084,-0.6408615708351135,-0.01041840948164463,0.011707035824656487,-42,-57,-999,-640,-9,11,91,-166,10,188262.0
08:14:45.407,AUTO,-35.3632421,149.165193,23312,0.024077050387859344,-0.05790000781416893,-1.0146347284317017,-0.2375239133834839,0.15803802013397217,0.002759018214419484,-41,-21,-1002,-236,158,2,95,-171,11,123946.0
08:14:45.609,AUTO,-35.3632421,149.165193,23312,0.024077050387859344,-0.05790000781416893,-1.0146347284317017,-0.2375239133834839,0.15803802013397217,0.002759018214419484,-41,-21,-1002,-236,158,2,95,-171,11,123946.0
08:14:45.811,AUTO,-35.3632399,149.1651884,23286,0.03331621363759041,-0.021580295637249947,-1.0163679122924805,0.5675216913223267,0.0441955029964447,-0.03204246610403061,-36,5,-1007,568,44,-32,96,-169,8,123946.0
08:14:46.013,AUTO,-35.3632378,149.1651839,23261,0.03675822541117668,-0.043783608824014664,-1.0186128616333008,0.3957487940788269,-0.16133879125118256,0.022279847413301468,-38,-20,-986,395,-160,22,93,-166,10,123946.0
08:14:46.216,AUTO,-35.3632357,149.1651794,23231,0.0255744569003582,-0.08597628772258759,-1.0194923877716064,-0.4197194278240204,-0.15840670466423035,0.03626927360892296,-39,-53,-979,-420,-157,36,96,-171,12,123946.0
08:14:46.423,AUTO,-35.3632357,149.1651794,23231,0.0255744569003582,-0.08597628772258759,-1.0194923877716064,-0.4197194278240204,-0.15840670466423035,0.03626927360892296,-39,-53,-979,-420,-157,36,96,-171,12,123946.0
08:14:46.626,AUTO,-35.3632357,149.1651794,23231,0.0255744569003582,-0.08597628772258759,-1.0194923877716064,-0.4197194278240204,-0.15840670466423035,0.03626927360892296,-39,-53,-979,-420,-157,36,96,-171,12,123946.0
08:14:46.828,AUTO,-35.3632357,149.1651794,23231,0.0255744569003582,-0.08597628772258759,-1.0194923877716064,-0.4197194278240204,-0.15840670466423035,0.03626927360892296,-39,-53,-979,-420,-157,36,96,-171,12,123946.0
08:14:47.030,AUTO,-35.3632291,149.1651645,23136,0.046462029218673706,-0.00290061067789793,-1.0189238786697388,0.34480342268943787,0.02664405293762684,0.01469240803271532,-42,-24,-1008,344,27,14,104,-180,8,123946.0
08:14:47.232,AUTO,-35.3632269,149.1651597,23112,0.03572269529104233,-0.034958843141794205,-1.0201942920684814,-0.6149134635925293,-0.19274240732192993,0.03777303174138069,-39,-62,-975,-615,-191,37,101,-173,10,123946.0
08:14:47.434,AUTO,-35.3632248,149.1651549,23077,0.03046989068388939,-0.08578255027532578,-1.0223493576049805,-0.4625873863697052,-0.19980676472187042,-0.012265435419976711,-39,-39,-993,-461,-198,-12,104,-176,14,123946.0
08:14:47.636,AUTO,-35.3632248,149.1651549,23077,0.03046989068388939,-0.08578255027532578,-1.0223493576049805,-0.4625873863697052,-0.19980676472187042,-0.012265435419976711,-39,-39,-993,-461,-198,-12,104,-176,14,123946.0
08:14:47.838,AUTO,-35.3632227,149.1651499,23035,0.04021152853965759,-0.10100335627794266,-1.0219132900238037,0.3310193717479706,0.09991718083620071,-0.0014544763835147023,-47,-1,-1007,332,100,-1,111,-186,16,123946.0
08:14:48.040,AUTO,-35.3632203,149.1651446,22997,0.05167890712618828,-0.0467834509909153,-1.022221326828003,0.5372830033302307,0.25117313861846924,-0.021064557135105133,-47,-1,-1032,537,252,-21,116,-191,11,123946.0
08:14:48.242,AUTO,-35.363218,149.1651394,22973,0.04371897503733635,0.011951476335525513,-1.0221713781356812,-0.3587442934513092,0.20740994811058044,-0.013086429797112942,-42,-57,-1001,-359,208,-13,112,-184,7,123946.0
08:14:48.445,AUTO,-35.363218,149.1651394,22973,0.04371897503733635,0.011951476335525513,-1.0221713781356812,-0.3587442934513092,0.20740994811058044,-0.013086429797112942,-42,-57,-1001,-359,208,-13,112,-184,7,123946.0
08:14:48.647,AUTO,-35.363218,149.1651394,22973,0.04371897503733635,0.011951476335525513,-1.0221713781356812,-0.3587442934513092,0.20740994811058044,-0.013086429797112942,-42,-57,-1001,-359,208,-13,112,-184,7,123946.0
08:14:48.849,AUTO,-35.363218,149.1651394,22973,0.04371897503733635,0.011951476335525513,-1.0221713781356812,-0.3587442934513092,0.20740994811058044,-0.013086429797112942,-42,-57,-1001,-359,208,-13,112,-184,7,123946.0
08:14:49.051,AUTO,-35.3632115,149.1651254,22894,0.04224703460931778,-0.08075171709060669,-1.0247247219085693,0.5760379433631897,-0.18502743542194366,-0.0181443952023983,-36,5,-992,577,-184,-18,106,-162,14,123946.0
08:14:49.253,AUTO,-35.3632093,149.1651208,22854,0.04288654401898384,-0.11614518612623215,-1.0245174169540405,0.2529042959213257,-0.028673412278294563,-0.010442708618938923,-42,-29,-994,252,-28,-10,112,-175,16,193715.0
08:14:49.456,AUTO,-35.3632069,149.1651157,22815,0.032671887427568436,-0.07687695324420929,-1.0245815515518188,-0.5509357452392578,0.26449066400527954,-0.009018758311867714,-48,-56,-1013,-550,265,-9,118,-187,13,193715.0
08:14:49.657,AUTO,-35.3632069,149.1651157,22815,0.032671887427568436,-0.07687695324420929,-1.0245815515518188,-0.5509357452392578,0.26449066400527954,-0.009018758311867714,-48,-56,-1013,-550,265,-9,118,-187,13,193715.0
08:14:49.859,AUTO,-35.3632044,149.1651105,22785,0.03490471839904785,-0.011850525625050068,-1.024510145187378,-0.15787088871002197,0.2406575083732605,-0.001538615208119154,-46,-18,-1015,-156,241,-1,118,-186,8,193715.0
08:14:50.061,AUTO,-35.363202,149.1651056,22766,0.04429158195853233,0.03753514960408211,-1.025338053703308,0.6747168302536011,0.08294133841991425,-0.036329079419374466,-44,5,-1015,676,83,-36,111,-172,5,193715.0
08:14:50.263,AUTO,-35.3631998,149.165101,22748,0.047027625143527985,0.007583269849419594,-1.0262776613235474,0.4364069104194641,-0.22311612963676453,0.03313800320029259,-36,-24,-981,436,-222,32,102,-159,7,193715.0
08:14:50.465,AUTO,-35.3631998,149.165101,22748,0.047027625143527985,0.007583269849419594,-1.0262776613235474,0.4364069104194641,-0.22311612963676453,0.03313800320029259,-36,-24,-981,436,-222,32,102,-159,7,193715.0
08:14:50.668,AUTO,-35.3631998,149.165101,22748,0.047027625143527985,0.007583269849419594,-1.0262776613235474,0.4364069104194641,-0.22311612963676453,0.03313800320029259,-36,-24,-981,436,-222,32,102,-159,7,193715.0
08:14:50.870,AUTO,-35.3631998,149.165101,22748,0.047027625143527985,0.007583269849419594,-1.0262776613235474,0.4364069104194641,-0.22311612963676453,0.03313800320029259,-36,-24,-981,436,-222,32,102,-159,7,193715.0
08:14:51.072,AUTO,-35.3631931,149.1650876,22647,0.024745944887399673,-0.1364675760269165,-1.0286612510681152,0.031251925975084305,-0.017680687829852104,0.0005347869591787457,-44,-11,-996,32,-17,0,114,-181,16,193715.0
08:14:51.273,AUTO,-35.3631906,149.1650824,22605,0.03572416305541992,-0.09298986941576004,-1.029215693473816,0.5924769043922424,0.2665180563926697,-0.01701628603041172,-43,-5,-1018,593,266,-17,122,-198,14,193715.0
08:14:51.476,AUTO,-35.3631879,149.1650769,22574,0.036751680076122284,-0.023687100037932396,-1.0291534662246704,0.028592534363269806,0.25588324666023254,-0.02057100087404251,-47,-49,-1013,28,256,-20,120,-201,9,193715.0
08:14:51.678,AUTO,-35.3631854,149.1650716,22554,0.03031771443784237,0.03185808286070824,-1.0295929908752441,-0.6886652708053589,0.18233419954776764,0.0009699339861981571,-42,-60,-1010,-688,183,0,113,-191,5,193715.0
08:14:51.881,AUTO,-35.3631854,149.1650716,22554,0.03031771443784237,0.03185808286070824,-1.0295929908752441,-0.6886652708053589,0.18233419954776764,0.0009699339861981571,-42,-60,-1010,-688,183,0,113,-191,5,193715.0
08:14:52.084,AUTO,-35.363183,149.1650667,22538,0.02677241899073124,0.02249070629477501,-1.0310322046279907,-0.3336426019668579,-0.1967245489358902,-0.03422833979129791,-37,-18,-990,-332,-196,-34,105,-174,6,193715.0
08:14:52.286,AUTO,-35.3631807,149.1650621,22514,0.03085695393383503,-0.037872523069381714,-1.031088948249817,0.3989703357219696,-0.2476387321949005,-0.03218040615320206,-36,7,-983,400,-246,-32,101,-167,11,193715.0
08:14:52.488,AUTO,-35.3631807,149.1650621,22514,0.03085695393383503,-0.037872523069381714,-1.031088948249817,0.3989703357219696,-0.2476387321949005,-0.03218040615320206,-36,7,-983,400,-246,-32,101,-167,11,193715.0
08:14:52.691,AUTO,-35.3631807,149.1650621,22514,0.03085695393383503,-0.037872523069381714,-1.031088948249817,0.3989703357219696,-0.2476387321949005,-0.03218040615320206,-36,7,-983,400,-246,-32,101,-167,11,193715.0
08:14:52.893,AUTO,-35.3631807,149.1650621,22514,0.03085695393383503,-0.037872523069381714,-1.031088948249817,0.3989703357219696,-0.2476387321949005,-0.03218040615320206,-36,7,-983,400,-246,-32,101,-167,11,193715.0
08:14:53.095,AUTO,-35.3631737,149.1650473,22393,0.024221837520599365,-0.10534556955099106,-1.0325207710266113,-0.5473654866218567,0.22224020957946777,-0.004696188494563103,-46,-59,-1011,-547,222,-4,117,-205,16,193715.0
08:14:53.297,AUTO,-35.3631712,149.1650416,22359,0.03370269015431404,-0.04014347866177559,-1.0323278903961182,-0.009171700105071068,0.2605786621570587,0.004627487156540155,-50,-18,-1017,-7,261,4,119,-209,10,230876.0
08:14:53.499,AUTO,-35.3631688,149.165036,22336,0.05117686465382576,0.01613212376832962,-1.0328177213668823,0.6817613244056702,0.19165180623531342,-0.018511943519115448,-46,0,-1016,682,192,-18,114,-200,7,230876.0
08:14:53.701,AUTO,-35.3631666,149.1650306,22319,0.052651334553956985,0.017622556537389755,-1.0335206985473633,0.06211649626493454,-0.1515655517578125,0.05513688549399376,-42,-42,-983,61,-151,54,105,-184,7,230876.0
08:14:53.903,AUTO,-35.3631666,149.1650306,22319,0.052651334553956985,0.017622556537389755,-1.0335206985473633,0.06211649626493454,-0.1515655517578125,0.05513688549399376,-42,-42,-983,61,-151,54,105,-184,7,230876.0
08:14:54.105,AUTO,-35.3631645,149.1650256,22294,0.043419625610113144,-0.035846974700689316,-1.0334773063659668,-0.6438385844230652,-0.21782878041267395,0.039039839059114456,-43,-60,-978,-643,-217,38,103,-176,11,230876.0
08:14:54.307,AUTO,-35.3631624,149.1650206,22259,0.042491357773542404,-0.08213147521018982,-1.0342276096343994,-0.1775212585926056,-0.15174061059951782,-0.017344040796160698,-45,-16,-988,-175,-151,-17,107,-177,15,230876.0
08:14:54.513,AUTO,-35.3631624,149.1650206,22259,0.042491357773542404,-0.08213147521018982,-1.0342276096343994,-0.1775212585926056,-0.15174061059951782,-0.017344040796160698,-45,-16,-988,-175,-151,-17,107,-177,15,230876.0
08:14:54.720,AUTO,-35.3631624,149.1650206,22259,0.042491357773542404,-0.08213147521018982,-1.0342276096343994,-0.1775212585926056,-0.15174061059951782,-0.017344040796160698,-45,-16,-988,-175,-151,-17,107,-177,15,230876.0
08:14:54.924,AUTO,-35.3631556,149.1650046,22144,0.05250082537531853,-0.011573814786970615,-1.033620834350586,-0.47488492727279663,0.2410164773464203,-0.006638963706791401,-45,-60,-1013,-474,241,-6,122,-195,10,230876.0
08:14:55.127,AUTO,-35.3631556,149.1650046,22144,0.05250082537531853,-0.011573814786970615,-1.033620834350586,-0.47488492727279663,0.2410164773464203,-0.006638963706791401,-45,-60,-1013,-474,241,-6,122,-195,10,230876.0
08:14:55.328,AUTO,-35.3631533,149.1649993,22122,0.046185851097106934,0.03652726486325264,-1.033962368965149,-0.5085874795913696,0.1298724114894867,-0.01692599058151245,-48,-35,-1009,-506,130,-16,117,-179,7,230876.0
08:14:55.531,AUTO,-35.3631511,149.1649944,22103,0.04983138293027878,0.027115680277347565,-1.0354838371276855,0.18533621728420258,-0.12637381255626678,-0.030144205316901207,-38,-2,-985,187,-125,-30,110,-161,8,230876.0
08:14:55.733,AUTO,-35.363149,149.1649899,22076,0.05469616502523422,-0.005327764432877302,-1.0350267887115479,0.7680670619010925,-0.11281903088092804,-0.01670011505484581,-36,9,-975,769,-112,-16,105,-150,13,230876.0
08:14:55.936,AUTO,-35.363147,149.1649857,22044,0.05176267400383949,-0.018002673983573914,-1.0343739986419678,0.3440120220184326,0.011560634709894657,-0.010086915455758572,-36,-22,-997,344,12,-10,103,-145,12,230876.0
08:14:56.138,AUTO,-35.363147,149.1649857,22044,0.05176267400383949,-0.018002673983573914,-1.0343739986419678,0.3440120220184326,0.011560634709894657,-0.010086915455758572,-36,-22,-997,344,12,-10,103,-145,12,230876.0
08:14:56.340,AUTO,-35.3631449,149.1649817,22015,0.03616100177168846,0.005545597057789564,-1.034492015838623,-0.6330726146697998,0.13655799627304077,-0.005460659973323345,-33,-60,-1012,-632,136,-5,100,-139,10,230876.0
08:14:56.542,AUTO,-35.3631449,149.1649817,22015,0.03616100177168846,0.005545597057789564,-1.034492015838623,-0.6330726146697998,0.13655799627304077,-0.005460659973323345,-33,-60,-1012,-632,136,-5,100,-139,10,230876.0
08:14:56.744,AUTO,-35.3631449,149.1649817,22015,0.03616100177168846,0.005545597057789564,-1.034492015838623,-0.6330726146697998,0.13655799627304077,-0.005460659973323345,-33,-60,-1012,-632,136,-5,100,-139,10,230876.0
08:14:56.946,AUTO,-35.3631395,149.1649719,21954,0.028826097026467323,0.08814606815576553,-1.0361024141311646,0.6694163084030151,-0.01257632952183485,-0.005868352949619293,-17,11,-1009,670,-12,-6,70,-84,5,230876.0
08:14:57.149,AUTO,-35.3631395,149.1649719,21954,0.028826097026467323,0.08814606815576553,-1.0361024141311646,0.6694163084030151,-0.01257632952183485,-0.005868352949619293,-17,11,-1009,670,-12,-6,70,-84,5,230876.0
08:14:57.351,AUTO,-35.3631381,149.1649699,21938,0.018983758985996246,0.08022225648164749,-1.036767840385437,-0.16697591543197632,-0.04105839505791664,0.010944956913590431,-11,-44,-992,-166,-40,10,54,-64,6,205499.0
08:14:57.554,AUTO,-35.363137,149.1649684,21923,0.002274653874337673,0.06786425411701202,-1.0368798971176147,-0.7200562953948975,-0.050202079117298126,0.006272698286920786,-9,-41,-1003,-719,-49,6,43,-45,5,205499.0
08:14:57.757,AUTO,-35.3631362,149.1649674,21909,-0.0007188096060417593,0.05452936142683029,-1.0376529693603516,-0.09472621977329254,-0.05298808962106705,-0.008008590899407864,-6,2,-1012,-92,-52,-8,33,-31,4,205499.0
08:14:57.959,AUTO,-35.3631355,149.1649668,21898,0.005891875363886356,0.04225819557905197,-1.0377994775772095,0.6139194965362549,-0.0478363037109375,0.0016159693477675319,-2,23,-1005,615,-47,1,24,-21,4,205499.0
08:14:58.162,AUTO,-35.3631355,149.1649668,21898,0.005891875363886356,0.04225819557905197,-1.0377994775772095,0.6139194965362549,-0.0478363037109375,0.0016159693477675319,-2,23,-1005,615,-47,1,24,-21,4,205499.0
08:14:58.364,AUTO,-35.363135,149.1649664,21890,0.00289394473657012,0.03206797316670418,-1.0384939908981323,0.22739647328853607,-0.04312826693058014,0.004132987931370735,-1,-7,-1004,227,-42,4,16,-14,2,205499.0
08:14:58.566,AUTO,-35.363135,149.1649664,21890,0.00289394473657012,0.03206797316670418,-1.0384939908981323,0.22739647328853607,-0.04312826693058014,0.004132987931370735,-1,-7,-1004,227,-42,4,16,-14,2,205499.0
08:14:58.768,AUTO,-35.363135,149.1649664,21890,0.00289394473657012,0.03206797316670418,-1.0384939908981323,0.22739647328853607,-0.04312826693058014,0.004132987931370735,-1,-7,-1004,227,-42,4,16,-14,2,205499.0
08:14:58.970,AUTO,-35.3631342,149.1649663,21883,-0.011521331034600735,0.00909274909645319,-1.039349913597107,-0.13155487179756165,-0.025169357657432556,0.0038644412998110056,1,6,-1002,-129,-24,3,1,-4,0,205499.0
08:14:59.172,AUTO,-35.363134,149.1649664,21885,-0.0016726278699934483,0.0035561416298151016,-1.0389370918273926,0.5540170669555664,-0.024910815060138702,0.0038998466916382313,1,21,-1008,555,-24,3,-1,-4,-1,205499.0
08:14:59.373,AUTO,-35.363134,149.1649664,21885,-0.0016726278699934483,0.0035561416298151016,-1.0389370918273926,0.5540170669555664,-0.024910815060138702,0.0038998466916382313,1,21,-1008,555,-24,3,-1,-4,-1,205499.0
08:14:59.575,AUTO,-35.363134,149.1649665,21890,-0.00913454219698906,-0.0018566955113783479,-1.039186716079712,-0.26344215869903564,-0.017093101516366005,0.0007299169665202498,1,-27,-993,-263,-16,0,-3,-5,-1,205499.0
08:14:59.777,AUTO,-35.363134,149.1649666,21894,-0.017009971663355827,-0.006788644939661026,-1.0395252704620361,-0.5241207480430603,-0.019790466874837875,0.0015029105124995112,0,-16,-996,-522,-19,1,-4,-6,0,205499.0
08:14:59.979,AUTO,-35.3631339,149.1649666,21898,-0.007008982822299004,-0.01263374648988247,-1.0393683910369873,0.4331591725349426,-0.026373744010925293,0.002327451016753912,1,24,-1001,434,-26,2,-5,-9,-1,205499.0
08:15:00.181,AUTO,-35.3631338,149.1649665,21900,-0.0007218862301670015,-0.015938015654683113,-1.039048194885254,0.40625447034835815,-0.0025125450920313597,-0.0034569199196994305,0,14,-1006,406,-2,-3,-4,-12,0,205499.0
08:15:00.383,AUTO,-35.3631338,149.1649665,21900,-0.0007218862301670015,-0.015938015654683113,-1.039048194885254,0.40625447034835815,-0.0025125450920313597,-0.0034569199196994305,0,14,-1006,406,-2,-3,-4,-12,0,205499.0
08:15:00.585,RTL,-35.3631338,149.1649665,21900,-0.0007218862301670015,-0.015938015654683113,-1.039048194885254,0.40625447034835815,-0.0025125450920313597,-0.0034569199196994305,0,14,-1006,406,-2,-3,-4,-12,0,205499.0
08:15:00.788,RTL,-35.3631338,149.1649665,21900,-0.0007218862301670015,-0.015938015654683113,-1.039048194885254,0.40625447034835815,-0.0025125450920313597,-0.0034569199196994305,0,14,-1006,406,-2,-3,-4,-12,0,205499.0
08:15:00.991,RTL,-35.3631336,149.164966,21909,-0.0012926923809573054,0.0015197568573057652,-1.0386435985565186,0.3354909121990204,0.017419282346963882,-0.0029145581647753716,-2,26,-1000,337,17,-3,-4,-16,-1,205499.0
08:15:01.192,RTL,-35.3631335,149.1649658,21916,0.0050281984731554985,0.0032676581759005785,-1.0393154621124268,0.5875419974327087,-0.00033017818350344896,-0.005116533953696489,-2,24,-1008,588,0,-4,-4,-15,-3,205499.0
08:15:01.394,RTL,-35.3631335,149.1649658,21916,0.0050281984731554985,0.0032676581759005785,-1.0393154621124268,0.5875419974327087,-0.00033017818350344896,-0.005116533953696489,-2,24,-1008,588,0,-4,-4,-15,-3,267743.0
08:15:01.596,RTL,-35.3631334,149.1649656,21932,0.002850123681128025,0.0036757532507181168,-1.0396606922149658,0.2809199392795563,-0.004006438888609409,-0.0030666689854115248,-2,-4,-1022,281,-3,-2,-5,-13,-9,267743.0
08:15:01.798,RTL,-35.3631334,149.1649655,21966,-0.006653552409261465,0.0033477593678981066,-1.0399580001831055,-0.47936075925827026,0.003854569513350725,-0.0014360917266458273,-3,-22,-1028,-479,4,-1,-7,-12,-16,267743.0
