time_stamp,MODE,roll,pitch,yaw,rollspeed,pitchspeed,yawspeed,lat,lon,relative_alt,vx,vy,vz,xacc,yacc,zacc,xgyro,ygyro,zgyro,RTL_ALT
15:06:20,AUTO,-0.0010332772508263588,0.0009851205395534635,0.022604922764003277,0.00018135039135813713,0.00033031374914571643,0.0016330835642293096,-35.3632622,149.1652375,7.5,-1.0,0.5,-0.5,0.0,2.0,-999.0,0.0,0.0,0.0,1500.0
15:06:21,AUTO,-0.0009701186063466594,0.0010756709380075336,0.02243845397606492,0.0002900252875406295,0.00023451454762835056,0.001579346542712301,-35.3632621,149.1652375,12.75,0.0,0.0,-1.0,0.0,1.5,-1000.0,0.25,0.5,0.25,200.0
15:06:22,AUTO,-0.0007200356340035796,0.001389811106491834,0.022154138423502445,0.00027873736689798534,0.00023316883016377687,0.0015554620185866952,-35.3632621,149.1652375,16.0,0.0,0.0,-1.0,0.0,1.5,-1000.0,0.0,0.5,0.0,200.0
15:06:24,AUTO,0.00200224993750453,0.0005693297716788948,0.021774742752313614,-0.01002519391477108,0.004111789166927338,0.0019104336388409138,-35.3632621,149.1652375,293.0,0.0,1.0,-85.0,0.0,0.0,-1121.0,-9.0,4.0,1.0,200.0
15:06:25,AUTO,0.01236505774431862,0.0002469664395903237,0.021285394672304392,0.032603827596176416,-0.0037819177960045636,0.0015171179693425074,-35.363262075,149.165237525,1033.0,0.25,3.25,-132.75,0.0,0.0,-1052.0,33.0,-2.5,0.5,286463.0
15:06:26,AUTO,0.04698452726006508,0.0003819816435376803,-0.006103437393903732,-0.038788471991817154,0.0386097077280283,-0.04881336245064934,-35.363261666666666,149.16523956666666,2735.6666666666665,6.333333333333333,37.333333333333336,-147.0,1.0,-7.333333333333333,-995.6666666666666,-38.0,39.333333333333336,-49.0,286463.0
15:06:28,AUTO,-0.07054422795772552,0.0077003855258226395,-0.10736041516065598,0.05357877537608147,-0.0007494286401197314,-0.026208050549030304,-35.3632605,149.1652456,6146.0,-4.0,-35.0,-149.0,-3.0,5.0,-1001.0,54.0,0.0,-26.0,286463.0
15:06:29,AUTO,-0.03204304235987365,0.010505932150408626,-0.1174213606864214,0.06552587077021599,0.007470719167031348,-0.009847356617683545,-35.363261,149.165242175,7105.25,-14.0,-58.75,-149.25,-5.25,12.0,-1002.0,65.75,7.75,-9.75,103917.0
15:06:30,AUTO,0.03623155318200588,0.01575198071077466,-0.11850152909755707,0.06745027378201485,-0.00040139700286090374,0.003992219586507417,-35.36326295,149.1652359,8654.5,-28.0,-41.5,-152.0,-1.0,12.5,-1003.0,67.5,0.0,3.5,103917.0
15:06:32,AUTO,0.0034767799079418182,-0.042382544081192464,-0.04787683580070734,-0.06716062873601913,0.05802581924945116,-0.05786105711013079,-35.3632639,149.16523660000001,11744.5,41.5,30.5,-148.5,-3.0,-11.5,-999.5,-66.0,58.0,-58.0,103917.0
15:06:33,AUTO,-0.04038422228768468,0.029796828515827656,-0.15167198702692986,0.019815879641100764,0.0354891624301672,-0.08221438713371754,-35.363259675,149.165238275,13282.75,35.75,-6.75,-152.25,-8.0,-5.75,-1005.0,20.25,35.75,-82.0,300000.0
15:06:34,AUTO,0.00116774532943964,0.044358622282743454,-0.19793932139873505,0.05308418720960617,0.005240585072897375,-0.02395114302635193,-35.3632583,149.1652362,14851.0,-8.5,-20.5,-153.0,-3.5,3.5,-1000.0,53.0,6.0,-24.0,300000.0
15:06:36,AUTO,-0.044093667063862085,-0.01595984073355794,-0.13225186616182327,-0.07418214716017246,0.08580204501049593,0.13216768484562635,-35.3632621,149.165236,17946.0,-10.5,4.0,-146.5,3.5,0.5,-986.0,-73.0,86.0,131.5,300000.0
15:06:37,AUTO,-0.017513747327029705,0.010965046007186174,0.005987375043332577,0.16645469889044762,-0.06947019509971142,0.11874199286103249,-35.36326305,149.16523377500002,19296.25,-18.0,-43.5,-107.25,-1.25,10.0,-941.75,166.5,-68.5,118.0,192335.0
15:06:38,AUTO,0.06510201841592789,-0.02480505406856537,0.01467942539602518,0.00040482357144355774,0.007615997921675444,-0.017666702391579747,-35.3632642,149.16523085,20121.0,-3.5,1.0,-59.5,-0.5,2.0,-963.5,1.5,8.5,-17.5,192335.0
15:06:40,AUTO,-0.02554722089553252,0.016787810251116753,0.005163111025467515,-0.0987748634070158,0.03230313025414944,-0.0011380976648069918,-35.36326245,149.16523705,20750.5,10.5,32.5,-3.0,1.5,-2.0,-953.5,-97.0,32.5,-1.5,192335.0
15:06:41,AUTO,-0.035606478806585073,-0.00900351582095027,0.0021353898191591725,0.06618224829435349,-0.06547349411994219,-0.004657332676288206,-35.36326175000001,149.165238775,20640.75,4.0,-4.75,18.5,-2.5,-6.75,-1000.75,66.5,-64.25,-4.5,200.0
15:06:42,AUTO,-0.02039931435137987,-0.05534633249044418,-0.004663718515075743,-0.1780100017786026,-0.03162990044802427,-0.0321494888048619,-35.36326015,149.1652364,20512.5,33.5,-27.5,3.0,-11.5,5.0,-1007.0,-176.0,-30.5,-32.0,200.0
15:06:44,AUTO,-0.0022899139439687133,-0.13494021072983742,-0.1261722818017006,0.10304009169340134,-0.04520195908844471,-0.052340010181069374,-35.36324405,149.16522314999997,20490.5,161.0,-75.5,-1.5,-44.0,6.5,-998.0,105.0,-44.0,-52.0,200.0
15:06:45,AUTO,0.019773029489442706,-0.16709351539611816,-0.27424218133091927,0.08961171191185713,-0.00976615957915783,-0.29029768612235785,-35.36322585,149.16521082499997,20477.75,255.0,-116.25,0.0,-61.5,-20.25,-1003.25,90.75,-8.75,-289.5,94851.0
15:06:46,AUTO,0.05428485386073589,-0.16990462690591812,-0.4770694822072983,0.05195963988080621,0.011727886274456978,-0.01000290922820568,-35.363198600000004,149.16519384999998,20462.5,347.5,-162.0,-0.5,-77.5,-44.5,-1003.5,52.5,12.5,-9.5,94851.0
15:06:48,AUTO,0.04932252876460552,-0.1475258395075798,-0.45376721024513245,-0.006737150717526674,0.03503570891916752,-0.0034816396073438227,-35.363124150000004,149.16514845,20500.5,464.0,-229.5,-3.5,-107.0,-51.5,-997.0,-5.0,35.5,-3.0,94851.0
15:06:49,AUTO,0.05604390520602465,-0.12512308545410633,-0.45469866693019867,-0.001999942120164633,0.025450512999668717,-0.006779240713512991,-35.363081,149.165121575,20532.25,490.25,-248.25,-4.25,-112.25,-57.5,-992.25,-0.5,26.0,-6.5,300000.0
15:06:50,AUTO,0.06231808848679066,-0.11136218160390854,-0.4559081494808197,0.005148587166331708,0.03777582198381424,-0.005887922365218401,-35.3630365,149.1650935,20565.5,494.0,-251.0,-2.0,-114.5,-56.5,-991.5,7.0,38.5,-5.5,300000.0
15:06:52,AUTO,0.06204364635050297,-0.02770864497870207,-0.4575861245393753,0.045156022533774376,0.049888184294104576,-0.012353870086371899,-35.362950600000005,149.1650394,20629.5,439.5,-220.5,-2.5,-100.0,-54.0,-993.0,46.5,50.0,-12.0,300000.0
15:06:53,AUTO,0.05138501524925232,0.01937428637756966,-0.4570115879178047,-0.02091898024082184,0.053333139047026634,-0.00828202161937952,-35.36291405,149.16501685,20642.5,365.75,-182.5,2.5,-86.25,-48.75,-998.5,-19.25,53.75,-8.0,160711.0
15:06:54,AUTO,0.04194025881588459,0.062138019129633904,-0.4564431607723236,0.09574903547763824,0.03114019171334803,-0.008292389218695462,-35.3628858,149.16499955,20608.5,265.0,-130.0,4.5,-59.0,-32.5,-1005.5,97.5,32.5,-7.5,160711.0
15:06:56,AUTO,0.00431424449197948,0.05676538310945034,-0.4595370441675186,-0.05131801962852478,-0.027071195654571056,-0.005506047062226571,-35.36285595,149.1649821,20542.5,80.0,-38.0,1.5,-17.0,-8.5,-1004.0,-49.5,-25.5,-5.5,160711.0
15:06:57,AUTO,-0.00506034871796146,0.03704400500282645,-0.4609040766954422,-0.004450289066880941,-0.018839037278667092,0.00021105083942529745,-35.362851199999994,149.16497965000002,20533.0,28.25,-16.75,0.25,-6.0,-3.25,-1005.75,-3.0,-17.5,0.25,14525.0
15:06:58,AUTO,-0.007717461790889502,0.014949723379686475,-0.46155665814876556,-0.2512298710644245,-0.02700211200863123,2.0748164388351142e-05,-35.362850249999994,149.1649788,20541.0,2.0,-7.0,0.0,-1.0,-3.0,-999.5,-250.0,-26.0,0.0,14525.0
15:07:00,RTL,-0.0017200632864842191,-0.008037007879465818,-0.46298445761203766,-0.28732215613126755,-0.014799763448536396,-0.0034545998059911653,-35.362850449999996,149.16497775,20553.5,11.0,-8.0,-1.0,-0.5,-16.0,-1008.0,-285.5,-14.0,-3.0,14525.0
15:07:01,RTL,-0.01014452159870416,0.00985421845689416,-0.462841160595417,-0.12882814183831215,-9.996369772125036e-05,-0.005538249737583101,-35.362849425,149.1649777,20622.0,9.5,-7.25,-16.5,-0.75,-8.75,-1034.25,-126.75,0.5,-5.0,15567.0
15:07:02,RTL,-0.013705824967473745,0.007562709040939808,-0.4640514552593231,-0.019036930985748768,-0.006115021882578731,-0.005834746174514294,-35.362848850000006,149.1649779,21030.0,0.5,-7.5,-61.0,0.0,3.0,-1050.5,-17.5,-5.0,-5.5,15567.0
15:07:04,RTL,0.0077689639292657375,0.0011797636398114264,-0.46609996259212494,0.027831340208649635,-0.0038451938598882407,-0.0017540892586112022,-35.36284875,149.16497825,23218.5,-2.5,-6.0,-143.0,0.0,0.0,-1023.0,28.5,-3.0,-1.5,15567.0
15:07:05,RTL,0.04293632274493575,-0.000606904155574739,-0.4701104760169983,-0.022364933043718338,0.019988671992905438,-0.03209730418166146,-35.362848,149.164979575,24740.25,16.75,19.75,-148.0,1.0,-6.5,-995.5,-21.25,20.75,-32.0,144210.0
15:07:06,RTL,-0.041980608366429806,0.019758586306124926,-0.5252715647220612,-0.08973092585802078,-0.008092894917353988,-0.04401485435664654,-35.36284595,149.16498305,26257.5,10.0,19.0,-147.5,3.0,-9.0,-1004.0,-88.5,-7.5,-43.5,144210.0
15:07:08,RTL,-0.002480878494679928,0.004789344849996269,-0.5386439859867096,0.04165239166468382,0.005393332336097956,0.005849004577612504,-35.362847599999995,149.16497955,29343.0,-26.5,-38.0,-150.5,-5.0,9.5,-1001.0,42.5,5.5,5.5,144210.0
15:07:09,RTL,0.019528296776115894,0.005437018349766731,-0.5297269970178604,-0.000582746637519449,-0.002778556867269799,0.011793776415288448,-35.362849374999996,149.164976075,30900.0,-18.5,-17.25,-151.0,-2.75,6.0,-999.25,0.75,-1.75,11.5,96217.0
15:07:10,RTL,0.011111806845292449,0.003331749700009823,-0.526549905538559,-0.010237001348286867,0.0011463487171567976,-0.0026905916165560484,-35.36285025,149.16497479999998,32456.0,-7.5,-2.0,-151.0,-0.5,1.5,-1000.0,-8.5,1.5,-3.0,96217.0
15:07:12,RTL,0.0025980037171393633,0.006650609662756324,-0.5549312829971313,0.0003313189372420311,0.00362762319855392,-0.01641785679385066,-35.3628502,149.16497435000002,35572.0,0.0,3.5,-152.0,0.0,0.0,-1000.0,1.0,4.0,-16.0,96217.0
15:07:13,RTL,0.0029419257189147174,0.008148325840011239,-0.5735874474048615,0.00043481503962539136,0.0019310495699755847,-0.017627599649131298,-35.36285000000001,149.1649743,37129.75,0.0,5.25,-152.0,0.0,0.0,-1000.0,1.25,2.25,-16.75,218531.0
15:07:14,RTL,0.0023472089087590575,0.008863185998052359,-0.5928941965103149,0.00036428606836125255,0.0024339762749150395,-0.01913969125598669,-35.36284985,149.1649744,38691.5,-0.5,6.5,-152.0,0.0,0.0,-1000.0,1.0,3.0,-18.5,218531.0
15:07:16,RTL,0.0004150847962591797,0.007776407990604639,-0.6333022713661194,-0.00011608091881498694,0.0008364159730263054,-0.019779955968260765,-35.3628496,149.16497515,41808.0,-2.0,7.5,-153.0,0.0,0.0,-1000.0,1.5,1.5,-19.0,218531.0
15:07:17,RTL,-7.339715375564992e-05,0.006823452771641314,-0.6542167067527771,-5.703048373106867e-05,-0.00026988438912667334,-0.020525196567177773,-35.3628496,149.164975475,43370.25,-2.0,7.0,-153.0,0.0,0.0,-1000.0,0.5,0.5,-19.75,542.0
15:07:18,RTL,-0.00047403153439518064,0.006221530260518193,-0.6754796802997589,0.0007565348350908607,0.001456218189559877,-0.021422818303108215,-35.3628496,149.1649758,44930.0,-2.0,5.5,-153.0,0.0,0.0,-1000.0,1.5,2.5,-20.5,542.0
15:07:20,RTL,-0.00012985941066290252,0.00600600172765553,-0.7173610925674438,-0.0006890601362101734,0.0009716927306726575,-0.020989173091948032,-35.3628496,149.16497615,48046.0,-2.0,4.0,-153.0,0.0,0.0,-999.5,0.5,2.0,-20.0,542.0
15:07:21,RTL,0.0005696470398106612,0.005871583241969347,-0.7352921962738037,0.0030890508787706494,0.002542043017456308,-0.011259106046054512,-35.362849624999996,149.1649763,49607.5,-1.0,4.0,-153.0,0.0,0.0,-999.25,4.0,3.25,-11.0,259155.0
15:07:22,RTL,0.0031790833454579115,0.00794925494119525,-0.7291789352893829,0.0008629856165498495,0.0019257816602475941,0.020084246527403593,-35.3628497,149.1649765,51161.5,-0.5,6.0,-152.0,0.0,0.0,-999.5,2.0,2.5,20.0,259155.0
15:07:24,RTL,-0.001182885782327503,0.004698458360508084,-0.6808295547962189,5.622918251901865e-05,0.0016406572540290654,0.02418440952897072,-35.3628497,149.1649772,54263.0,0.0,5.0,-152.0,0.0,0.0,-1000.0,1.0,2.0,24.5,259155.0
15:07:25,RTL,-0.0005848562350365683,0.0046639651991426945,-0.6605816036462784,0.00156558642629534,0.0007760315347695723,0.019287641160190105,-35.3628497,149.1649773,55818.5,0.0,3.0,-152.0,0.0,0.0,-1000.25,2.5,1.5,19.75,162178.0
15:07:26,RTL,0.0003099722962360829,0.004788848804309964,-0.643043577671051,0.000595581135712564,0.002499299996998161,0.018314091488718987,-35.3628497,149.16497725,57371.0,0.0,2.0,-152.0,0.0,0.0,-999.5,1.5,3.5,18.5,162178.0
15:07:28,RTL,0.0005244068161118776,0.005367860198020935,-0.6149086058139801,0.0016526870895177126,0.00048480049008503556,0.0159104373306036,-35.3628497,149.164977,60478.5,-0.5,1.5,-152.0,0.0,0.0,-1000.0,2.5,1.5,15.5,162178.0
15:07:29,RTL,0.0013397851726040244,0.0052745959255844355,-0.6035792976617813,0.00015699598588980734,0.0003032411332242191,0.011030940804630518,-35.3628497,149.164976825,62029.5,-0.5,2.0,-152.0,0.0,0.0,-1000.0,1.75,1.5,11.25,128093.0
15:07:30,RTL,0.0012525433558039367,0.004998680669814348,-0.5942328870296478,0.0011543611763045192,0.0014467152650468051,0.010298388078808784,-35.3628497,149.16497675,63583.5,0.0,2.0,-152.0,0.0,0.0,-1000.0,2.5,2.0,10.5,128093.0
15:07:32,RTL,0.0008251955441664904,0.004488227656111121,-0.5782278478145599,0.0008018674852792174,1.1336116585880518e-05,0.008073024218901992,-35.3628497,149.16497665,66688.0,0.0,2.5,-152.0,0.0,0.0,-1000.5,2.0,1.0,8.5,128093.0
15:07:33,RTL,0.0007458737964043394,0.004687332431785762,-0.5715521275997162,0.0002055350923910737,0.0004944309184793383,0.007494528079405427,-35.3628497,149.1649766,68240.5,0.0,2.0,-152.0,0.0,0.0,-1000.0,1.5,1.5,7.75,128396.0
15:07:34,RTL,0.0005755791498813778,0.004736366216093302,-0.5654250085353851,0.00017006287816911936,0.0026665544137358665,0.006364154629409313,-35.3628497,149.1649766,69793.5,0.0,2.0,-152.0,0.0,0.0,-1000.0,1.5,3.5,7.0,128396.0
15:07:36,RTL,0.00028813791868742555,0.004883376648649573,-0.5544600784778595,0.002423505764454603,0.0010318025015294552,0.006690849317237735,-35.3628496,149.1649766,72900.0,-1.0,2.0,-152.0,0.0,0.0,-1000.5,3.5,2.0,7.0,128396.0
15:07:37,RTL,0.0003720588647411205,0.004608815419487655,-0.5490436404943466,-0.0007009399705566466,0.0001363764749839902,0.006241531344130635,-35.3628496,149.1649766,74451.25,-1.0,2.0,-152.0,0.0,0.0,-999.75,0.75,1.25,6.75,300000.0
15:07:38,RTL,0.00029299691959749907,0.004690039437264204,-0.5440952479839325,0.0016585816047154367,0.0016346898046322167,0.007362577132880688,-35.3628496,149.1649766,76007.5,-1.0,2.0,-152.0,0.0,0.0,-1000.0,3.0,3.0,8.0,300000.0
15:07:40,RTL,0.00034340105412411503,0.004037992213852704,-0.5354277193546295,-0.0011281760525889695,-0.000974755035713315,0.005632300861179829,-35.3628496,149.1649766,79115.5,0.0,2.0,-152.0,0.0,0.0,-999.5,0.0,0.5,6.5,300000.0
15:07:41,RTL,0.0007143189868656918,0.003613597305957228,-0.5313242226839066,0.00037560489727184176,0.0008006124699022621,0.005454673431813717,-35.3628496,149.1649766,80664.75,0.0,2.0,-152.0,0.0,0.0,-999.75,1.75,2.25,6.25,176786.0
15:07:42,RTL,0.000592783180763945,0.004025676869787276,-0.5276786088943481,0.0011943559511564672,0.0038255092222243547,0.005320797674357891,-35.3628496,149.1649766,82217.0,0.0,2.0,-152.0,0.0,0.0,-999.0,2.5,5.0,6.0,176786.0
15:07:44,RTL,0.00010654347352101468,0.0048863389529287815,-0.521376758813858,-0.0006936261779628694,0.0021091868402436376,0.002681157668121159,-35.3628496,149.1649766,85322.0,0.0,2.0,-152.0,0.0,0.0,-1000.0,0.5,3.0,3.5,176786.0
15:07:45,RTL,3.3210692436114186e-05,0.004854159546084702,-0.5186062455177307,-0.00030087141203694046,-0.0005114554660394788,0.003966260002925992,-35.3628496,149.1649766,86883.25,-0.75,2.0,-152.0,0.0,0.0,-999.75,1.25,1.0,5.0,264104.0
15:07:46,RTL,0.00021823291899636388,0.004405752290040255,-0.515994518995285,0.001040549308527261,0.00033163215266540647,0.00438322126865387,-35.3628496,149.1649766,88436.0,-1.0,2.0,-152.0,0.0,0.0,-1000.0,2.5,1.5,5.5,264104.0
15:07:48,RTL,0.00020088814198970795,0.004447374725714326,-0.5107389092445374,0.0025766040198504925,0.0010632382472977042,0.003886908874846995,-35.3628496,149.1649766,91544.0,-0.5,2.0,-152.0,0.0,0.0,-1000.0,4.0,2.0,5.0,264104.0
15:07:49,RTL,0.00018444667239236878,0.004278430948033929,-0.5084655731916428,-0.0001801819889806211,-0.00024460136773996055,0.0037620190414600074,-35.3628496,149.1649766,93095.25,-0.75,2.0,-152.0,0.0,0.0,-1000.0,1.25,1.25,4.75,209176.0
15:07:50,RTL,0.00025615468621253967,0.0038490070728585124,-0.5067650377750397,0.0007005528314039111,-0.000551962701138109,0.0038787421071901917,-35.3628496,149.1649766,94648.5,0.0,1.5,-152.0,0.0,0.0,-1000.0,2.0,1.0,5.0,209176.0
15:07:52,RTL,0.0004863804642809555,0.0040756219532340765,-0.502860426902771,0.001445107744075358,0.0004845205112360418,0.0050336020067334175,-35.3628496,149.1649766,97754.5,0.0,1.5,-152.0,0.0,0.0,-999.5,3.0,2.0,6.0,209176.0
15:07:53,RTL,0.00024395615037065,0.004312767297960818,-0.5012733936309814,0.00029301090398803353,0.0011794988822657615,0.003135091596050188,-35.3628496,149.1649766,99311.0,0.0,1.25,-152.0,0.0,0.0,-999.75,2.0,2.75,4.25,242614.0
15:07:54,RTL,-0.00033721716317813843,0.004719784948974848,-0.49910256266593933,0.0021155430004000664,0.001166790199931711,0.0025908559327945113,-35.3628496,149.16497665,100862.0,-0.5,1.0,-152.0,0.0,0.0,-1000.0,3.5,2.5,4.0,242614.0
15:07:56,RTL,7.70952874518116e-05,0.004133512498810887,-0.4961087852716446,-7.786147762089968e-06,-0.0004061515210196376,0.0014158852281980217,-35.3628496,149.1649767,103968.5,-1.0,1.0,-152.0,0.0,0.0,-1000.0,1.5,1.0,2.5,242614.0
15:07:57,RTL,4.582673318509478e-05,0.004198896582238376,-0.49499528855085373,8.70616058818996e-05,0.0001800352183636278,0.002392771129962057,-35.3628496,149.1649767,105520.75,0.0,1.0,-152.0,0.0,0.0,-1000.25,1.5,1.5,3.75,76330.0
15:07:58,RTL,2.967584350699326e-05,0.00415608286857605,-0.49373897910118103,0.0019043851643800735,0.00019447185331955552,0.0022377660498023033,-35.3628496,149.1649767,107075.0,0.0,1.0,-152.0,0.0,0.0,-999.5,3.5,1.5,3.5,76330.0
15:08:00,RTL,0.0006377785321092233,0.003964802250266075,-0.491764560341835,-0.0018730689771473408,0.0015032278606668115,0.0012363871210254729,-35.3628496,149.1649767,110188.0,0.0,1.0,-152.0,0.0,0.0,-999.5,0.0,3.0,2.0,76330.0
15:08:01,RTL,0.0003779339022003114,0.004241865128278732,-0.49072589725255966,9.770251926966012e-05,0.00021233910229057074,0.0016894298896659166,-35.3628496,149.1649767,111737.5,0.0,1.5,-152.0,0.0,0.0,-1000.0,2.0,2.0,2.75,300000.0
15:08:02,RTL,0.00018078127504850272,0.004545929608866572,-0.4895966053009033,0.0015172942075878382,0.002871585777029395,0.0008752831490710378,-35.3628496,149.1649767,113291.0,0.0,1.0,-152.0,0.0,0.0,-1000.0,3.0,4.5,2.0,300000.0
15:08:04,RTL,7.174963684519753e-06,0.004367176676169038,-0.4881863594055176,0.0006073285476304591,-0.0010930807329714298,0.004897871986031532,-35.3628496,149.1649767,116397.0,-1.0,1.0,-152.0,0.0,0.0,-999.5,2.5,0.5,6.5,300000.0
15:08:05,RTL,2.3572217287437525e-05,0.004295641090720892,-0.48738692700862885,-0.0005062370619270951,0.0001397928863298148,0.0007464689842890948,-35.3628496,149.1649767,117956.25,-0.25,1.25,-152.0,0.0,0.0,-1000.0,1.25,1.75,1.75,136844.0
15:08:06,RTL,-0.00039025569276418537,0.0041479559149593115,-0.48677822947502136,-0.0016321754083037376,0.0003404806484468281,0.00011760881170630455,-35.3628496,149.1649767,119511.0,-0.5,1.0,-152.0,0.0,0.0,-999.5,0.0,2.0,1.5,136844.0
15:08:08,RTL,0.00031488297827309,0.0034546355018392205,-0.4856453686952591,-0.0015696475747972727,0.00041027937550097704,0.0015704413526691496,-35.3628496,149.1649767,122620.0,0.0,1.0,-152.0,0.0,0.0,-999.5,0.5,2.0,2.5,136844.0
15:08:09,RTL,0.0001581598335178569,0.003976229636464268,-0.4851081073284149,0.000462304160464555,0.00043607698171399534,0.0008692153496667743,-35.3628496,149.1649767,124171.5,0.0,1.0,-152.0,0.0,0.0,-999.75,2.25,1.75,2.0,300000.0
15:08:10,RTL,0.00012815971172130958,0.004259864334017038,-0.48412515223026276,0.0012808627216145396,-0.00014958891551941633,0.0032610702328383923,-35.3628496,149.1649767,125724.5,0.0,1.0,-152.0,0.0,0.0,-1000.0,3.0,1.5,4.5,300000.0
15:08:12,RTL,9.791872162168147e-05,0.004975368035957217,-0.48292142152786255,-0.0008220876334235072,0.0004797490546479821,0.00043794879456982017,-35.3628496,149.1649767,128830.0,-0.5,1.0,-152.0,0.0,0.0,-999.5,1.0,2.0,2.0,300000.0
15:08:13,RTL,9.247846446669428e-05,0.004468119004741311,-0.4825785234570503,0.00013029479305259883,0.0002752377185970545,0.0016354057879652828,-35.3628496,149.1649767,130385.75,-1.0,1.75,-152.0,0.0,0.0,-999.75,1.75,1.75,3.0,300000.0
15:08:14,RTL,0.00013021338872931665,0.0042815671768039465,-0.4822514057159424,-0.0003026343765668571,0.0004242608556523919,0.0009787982562556863,-35.3628496,149.1649767,131939.5,-0.5,1.0,-152.0,0.0,0.0,-1000.0,1.5,2.0,2.5,300000.0
15:08:16,RTL,0.0003159356074320385,0.0038662943989038467,-0.4816186726093292,-0.0004313901299610734,-0.000532725709490478,-0.001192162570077926,-35.3628496,149.1649767,135042.5,0.0,1.0,-152.0,0.0,0.0,-1000.0,2.0,1.5,0.5,300000.0
15:08:17,RTL,0.00022200580497155897,0.0036408744053915143,-0.4814660847187042,-9.484047768637538e-05,0.0011081770644523203,0.0011772048892453313,-35.3628496,149.1649767,136595.75,0.0,1.0,-152.0,0.0,0.0,-999.5,2.0,3.0,2.5,157767.0
15:08:18,RTL,-0.00010194195783697069,0.0038502581883221865,-0.48094892501831055,0.0019431891851127148,0.0020193064119666815,0.002713004359975457,-35.3628496,149.1649767,138150.5,0.0,1.0,-152.0,0.0,0.0,-1000.0,4.0,3.5,4.0,157767.0
15:08:20,RTL,-0.0008510339830536395,0.0445484509691596,-0.4804610460996628,2.010271418839693e-05,0.046738071367144585,0.0012662340886890888,-35.3628502,149.16497705,141250.0,-17.5,10.5,-150.5,2.0,1.0,-999.0,2.0,48.5,2.5,157767.0
15:08:21,RTL,-0.005180087580811232,0.08075304329395294,-0.4801349565386772,-0.006147822481580079,0.03223205218091607,0.0008137416443787515,-35.3628533,149.16497909999998,142768.5,-61.5,34.75,-146.5,11.5,6.25,-995.0,-3.5,34.0,2.25,224525.0
15:08:22,RTL,-0.02318686107173562,0.13376134634017944,-0.4475204199552536,-0.07512931944802403,0.1168915256857872,0.18535543093457818,-35.362861699999996,149.16498465,144205.5,-128.0,68.0,-129.5,26.5,10.0,-965.0,-72.5,118.5,186.5,224525.0
15:08:24,RTL,0.07988696545362473,0.13165130093693733,0.05316552706062794,-0.009995618835091591,0.016576094552874565,0.06808373611420393,-35.3629038,149.16500645000002,145653.0,-316.5,152.5,-7.0,82.0,2.5,-946.5,-7.5,19.0,69.5,224525.0
15:08:25,RTL,0.07166337594389915,0.16447923332452774,0.07922154478728771,0.020317621296271682,0.020584836951456964,-0.018583482829853892,-35.362934249999995,149.16502682499998,145526.5,-368.25,225.0,24.5,100.5,-0.5,-993.0,22.5,22.5,-16.25,571.0
15:08:26,RTL,0.026084717363119125,0.17825383692979813,0.041848533786833286,-0.15073498338460922,0.002391762682236731,-0.08066612482070923,-35.3629704,149.16505375,145296.0,-430.5,258.5,14.0,125.0,-18.0,-1016.5,-148.5,4.5,-78.5,571.0
15:08:28,RTL,-0.02134250197559595,0.14219891279935837,-0.0455966480076313,0.29638323187828064,-0.0032848669216036797,-0.0196503815241158,-35.3630561,149.1651117,145216.0,-506.0,259.0,-5.5,130.0,17.5,-996.0,299.0,-0.5,-17.0,571.0
15:08:29,RTL,-0.03328945022076368,0.11966754496097565,-0.08251153863966465,-0.040545977652072906,-0.0408959781343583,-0.046774924732744694,-35.3631016,149.165139925,145248.25,-504.25,249.75,-3.75,127.25,20.0,-988.75,-38.0,-38.25,-44.75,200.0
15:08:30,RTL,-0.049181174486875534,0.07018049620091915,-0.11558401212096214,-0.3760493993759155,-0.04449095577001572,-0.06542791612446308,-35.3631459,149.1651668,145278.0,-471.0,231.5,-3.5,118.5,6.0,-979.0,-373.5,-41.5,-63.0,200.0
15:08:32,RTL,-0.062011418864130974,-0.03483219910413027,-0.16492094844579697,0.022395983338356018,-0.05835248716175556,-0.018985049799084663,-35.3632188,149.1652105,145280.0,-312.0,152.5,0.0,80.0,25.5,-993.0,24.5,-55.5,-17.0,200.0
15:08:33,RTL,-0.04408262576907873,-0.06332963705062866,-0.1847425438463688,0.04759300500154495,-0.012513059191405773,-0.02594895870424807,-35.3632429,149.16522432500003,145253.75,-204.5,98.25,1.25,53.75,10.75,-1008.0,49.75,-9.75,-23.5,300000.0
15:08:34,RTL,-0.02962195686995983,-0.06090474873781204,-0.20396363735198975,-0.24801788851618767,0.010877187363803387,-0.017715801019221544,-35.363257000000004,149.1652322,145231.0,-109.0,55.0,0.5,28.5,-4.5,-996.5,-245.0,13.5,-15.0,300000.0
15:08:36,RTL,-0.007496190024539828,-0.025046569295227528,-0.23386505246162415,0.05493704974651337,0.02194723580032587,-0.008792691631242633,-35.363266499999995,149.16523825000002,145228.0,-6.5,8.5,-1.5,4.0,0.5,-1002.0,57.5,24.0,-6.0,300000.0
15:08:37,RTL,-0.003702172194607556,-0.00163525331299752,-0.24552538245916367,0.024545542895793915,0.02044474915601313,-0.010334004939068109,-35.363266625,149.16523915,145233.75,7.0,-0.5,-0.75,0.5,-5.0,-995.75,27.0,22.25,-7.75,276760.0
15:08:38,RTL,-0.005446505732834339,-0.0032019480131566525,-0.2556661367416382,-0.03171566128730774,-0.01654686452820897,-0.0101486099883914,-35.3632664,149.16523965,145237.0,6.0,-2.5,-1.0,0.0,-3.5,-998.5,-29.0,-13.5,-7.5,276760.0
15:08:40,RTL,0.0019645453430712223,-0.005284131970256567,-0.2710285186767578,0.05139322206377983,0.005175828700885177,-0.00501148565672338,-35.36326525,149.1652392,145238.5,13.0,-9.0,-0.5,-2.5,3.5,-1009.5,54.0,6.5,-2.5,276760.0
15:08:41,RTL,0.006616298865992576,-0.0006338924649753608,-0.27784639596939087,-0.019203796982765198,0.004731321590952575,-0.005383049952797592,-35.363264425000004,149.16523850000002,145235.75,13.0,-6.5,-0.75,-1.25,-8.5,-1002.0,-17.0,6.25,-3.0,53622.0
15:08:42,RTL,-0.006911434466019273,0.0018238071934320033,-0.2842616140842438,-0.3308934196829796,0.0025992627488449216,-0.01134259207174182,-35.36326365,149.16523855,145234.5,10.0,-4.5,-1.0,-1.0,-15.5,-995.5,-328.5,4.5,-8.5,53622.0
15:08:44,RTL,0.021502207033336163,-0.0006168424370116554,-0.29473260045051575,1.5738356113433838,-6.849574856460094e-05,-0.00460356252733618,-35.3632629,149.16523805,144527.5,3.5,-4.5,89.0,-0.5,54.0,-926.0,1575.5,2.0,-2.5,53622.0
15:08:45,RTL,0.02626763889566064,-0.00028264830325497314,-0.29974256455898285,1.5724570155143738,0.0015969561936799437,-0.008428686356637627,-35.363262925,149.1652372,143442.25,3.75,-0.25,113.0,-1.75,75.25,-1001.5,1575.0,3.25,-5.75,300000.0
15:08:46,RTL,0.014876619447022676,5.5969590903259814e-05,-0.30478791892528534,1.1612383723258972,0.0022850902751088142,0.004785327007994056,-35.36326285,149.16523684999999,142329.0,5.5,5.5,95.0,0.0,66.5,-1047.5,1164.5,3.5,6.5,300000.0
15:08:48,RTL,0.025513618253171444,-0.0004058333724969998,-0.31415773928165436,1.3220781087875366,-0.0035267279017716646,-0.00848266901448369,-35.363262750000004,149.16523645,140287.0,4.0,8.0,95.5,-1.5,63.5,-1033.0,1325.0,-1.0,-5.5,300000.0
15:08:49,RTL,0.03908489644527435,-0.0015066011546878144,-0.318162739276886,1.4144055247306824,-0.0025123064988292754,-0.00668758963001892,-35.363262925,149.16523554999998,139275.5,4.75,13.0,99.0,-3.25,56.0,-1011.5,1416.5,-0.75,-4.0,300000.0
15:08:50,RTL,0.05180400237441063,-0.0031569000566378236,-0.32187753915786743,0.8059935867786407,0.0006097143632359803,-0.007156351115554571,-35.3632634,149.16523389999998,138253.0,8.0,21.5,97.0,-3.0,9.5,-1047.5,807.5,2.0,-4.0,300000.0
15:08:52,RTL,0.04754389449954033,0.00041207054164260626,-0.32821354269981384,-0.17351356148719788,-0.0007688211626373231,-0.007257651071995497,-35.363264,149.16523155,136218.5,16.5,44.5,98.0,-1.0,-30.5,-1036.5,-171.0,1.0,-4.0,300000.0
15:08:53,RTL,0.014980393461883068,0.004069699672982097,-0.3298954889178276,-1.364676684141159,0.0028810770018026233,-0.005308740714099258,-35.3632639,149.165231775,135208.5,19.25,48.25,100.5,2.5,-54.5,-996.0,-1359.5,4.5,-2.75,200.0
15:08:54,RTL,-0.008720733814698178,0.007515687728300691,-0.33230337500572205,-0.905959278345108,-0.0005884480196982622,-0.006462591059971601,-35.363263200000006,149.16523385,134173.5,17.0,41.5,101.0,4.5,-23.5,-1046.5,-900.0,1.0,-4.0,200.0
15:08:56,RTL,-0.02171932440251112,0.0041326230857521296,-0.3385984003543854,0.5069967806339264,-0.002921799663454294,0.00553908315487206,-35.3632621,149.16523834999998,132124.0,2.5,6.5,98.0,1.5,52.5,-1038.0,513.0,-1.0,7.5,200.0
15:08:57,RTL,-0.012554607936181128,0.001490154223574791,-0.34030573815107346,0.9992331862449646,-0.002206047560321167,0.003743128094356507,-35.3632618,149.16523945,131107.75,-0.75,-5.25,98.0,0.25,71.0,-1015.25,1005.25,-0.75,5.75,208906.0
15:08:58,RTL,0.0014341590140247717,0.00017704502533888444,-0.34274446964263916,1.4232959747314453,0.0005911142798140645,0.0014418723294511437,-35.36326185,149.16523965,130091.0,-2.5,-11.5,101.0,0.0,72.5,-998.0,1428.0,2.5,3.5,208906.0
15:09:00,RTL,0.015732975210994482,-0.00010313931852579117,-0.3456004559993744,1.4663060307502747,0.004765108926221728,0.0069263235200196505,-35.36326215,149.16523865,128055.5,-1.0,-10.0,101.0,-1.5,62.0,-948.5,1470.5,6.5,8.5,208906.0
15:09:01,RTL,0.019071213202551007,0.0016690002812538296,-0.3482074812054634,1.1587845981121063,-0.00048151961527764797,-0.002360159531235695,-35.363262125,149.16523815,127041.5,0.0,-6.0,100.0,-0.25,27.0,-1002.25,1162.0,0.5,0.25,300000.0
15:09:02,RTL,0.02142690122127533,0.002018753031734377,-0.34962816536426544,0.8362278938293457,0.0006067401263862848,0.00037061842158436775,-35.3632622,149.1652376,126024.0,0.0,-4.5,99.0,-1.0,-3.5,-1005.5,839.0,1.5,2.0,300000.0
15:09:04,RTL,0.007721417183347512,0.0043363734148442745,-0.35126955807209015,-0.31627262383699417,0.0019495688029564917,-0.008666020585224032,-35.3632622,149.16523695,123986.5,0.0,2.5,104.0,1.0,-49.5,-995.5,-314.0,3.0,-5.5,300000.0
15:09:05,RTL,-0.013485794770531356,0.005048722727224231,-0.35356560349464417,-0.981068342924118,0.001159254228696227,-0.009466073475778103,-35.363262,149.16523767500001,122968.5,-0.5,-0.25,100.5,1.75,-73.25,-993.0,-978.0,2.25,-6.5,45076.0
15:09:06,RTL,-0.02318448666483164,0.00536873028613627,-0.35463298857212067,-1.2092313468456268,-0.0027615363942459226,-0.0037697371444664896,-35.363261699999995,149.16523875000001,121947.0,-2.5,-6.0,100.0,2.0,-65.0,-1015.5,-1205.0,-1.0,-1.0,45076.0
15:09:08,RTL,-0.03761179558932781,0.001925060321809724,-0.3569987714290619,-0.4010961353778839,-0.001069537305738777,-0.003578154486604035,-35.36326135,149.1652403,119895.0,-7.5,-18.5,102.5,-1.0,28.0,-937.0,-394.5,0.5,-1.5,45076.0
15:09:09,RTL,-0.025120718404650688,0.0004935868828397361,-0.3580871820449829,-0.22002699971199036,0.00035828223917633295,-0.0002558663545642048,-35.363261550000004,149.16524005,118873.0,-7.5,-21.0,97.75,-0.25,25.5,-1005.5,-214.5,2.0,2.25,149507.0
15:09:10,RTL,-0.009793115314096212,0.0008045595895964652,-0.35898400843143463,0.8695785105228424,0.004649959970265627,0.002586326445452869,-35.36326165,149.16523965,117854.5,-5.5,-18.0,100.5,-1.5,72.5,-990.0,874.5,6.0,4.5,149507.0
15:09:12,RTL,0.0078058193903416395,3.017659764736891e-06,-0.36000142991542816,1.2464380860328674,0.000658532022498548,-0.0037363042356446385,-35.3632621,149.16523834999998,115805.5,-2.0,-10.5,97.5,-2.0,69.0,-1071.5,1250.5,2.0,-1.0,149507.0
15:09:13,RTL,0.027685328852385283,-6.177906470838934e-05,-0.36103978753089905,1.4732505679130554,0.0032057230127975345,0.0016620417009107769,-35.36326235,149.16523740000002,114780.25,-0.5,-4.5,99.0,-1.25,53.75,-1021.75,1476.0,4.25,3.75,176966.0
15:09:14,RTL,0.025029638782143593,0.0015505027549806982,-0.3617324084043503,1.2825819849967957,0.00564382434822619,-0.0015907911583781242,-35.3632625,149.16523684999999,113748.0,2.0,1.5,95.5,-0.5,46.5,-1057.5,1285.5,7.0,1.5,176966.0
15:09:16,RTL,0.009575372212566435,0.003923089592717588,-0.36316241323947906,-0.5092480536550283,0.0032844533561728895,-0.005533943651244044,-35.36326235,149.1652367,111723.0,1.0,3.0,99.5,1.0,-55.0,-971.0,-507.5,4.0,-2.5,176966.0
15:09:17,RTL,-0.0018694308819249272,0.003408321237657219,-0.3638157844543457,-1.0693274438381195,-0.0033047323813661933,-0.004311178403440863,-35.3632623,149.165236625,110696.5,0.0,4.5,98.25,-0.5,-63.25,-1019.25,-1066.75,-1.25,-1.25,199205.0
15:09:18,RTL,0.003199750673957169,0.003101632697507739,-0.3640107363462448,-1.215538501739502,0.0009955735295079648,0.0010630839969962835,-35.36326235,149.16523625000002,109674.5,0.5,6.5,100.0,0.5,-72.0,-1009.5,-1213.0,2.0,3.5,199205.0
15:09:20,RTL,0.004893900593742728,0.0012165061489213258,-0.3658352494239807,-0.5457283444702625,0.001883293647551909,0.0018517845310270786,-35.3632629,149.16523510000002,107651.0,4.5,15.5,99.5,-3.5,16.5,-967.0,-540.0,3.5,4.5,199205.0
15:09:21,RTL,0.021016854792833328,0.002038835227722302,-0.3650967925786972,0.6911264397203922,0.0037139070336706936,0.005456736369524151,-35.363263149999995,149.165234475,106630.0,8.5,22.75,99.5,-0.75,61.0,-1009.0,696.75,5.0,7.75,145277.0
15:09:22,RTL,0.021400784142315388,0.004819576162844896,-0.3649154603481293,1.193990409374237,0.001471801835577935,0.005136889172717929,-35.36326295,149.16523495,105609.5,9.0,23.5,99.5,1.5,61.0,-1067.0,1199.0,2.5,7.5,145277.0
15:09:24,RTL,0.003422075416892767,0.0073596222791820765,-0.36542439460754395,1.38843435049057,0.001537933712825179,-0.00363191997166723,-35.3632619,149.16523795,103566.5,2.0,6.0,98.5,4.0,48.5,-1000.5,1392.0,3.5,-1.0,145277.0
15:09:25,RTL,-0.010692885611206293,0.005917606526054442,-0.3667619004845619,1.120899274945259,-0.004603492154274136,-0.0018009296618402004,-35.363261375,149.16523975,102557.0,-3.0,-6.75,99.75,2.5,27.25,-989.25,1123.75,-2.5,0.75,122913.0
15:09:26,RTL,-0.006491433829069138,0.003759521758183837,-0.3676028847694397,0.8814225196838379,-0.003686863463371992,-0.008250424638390541,-35.3632612,149.1652405,101925.0,-7.0,-17.0,101.0,2.0,-3.0,-939.0,884.0,-1.0,-5.0,122913.0
15:09:28,RTL,-0.04377838224172592,0.0017908866284415126,-0.36815986037254333,-1.1687407493591309,-0.001474095683079213,0.0005550745408982038,-35.3632611,149.1652413,99911.5,-11.0,-28.5,100.5,-1.0,-34.5,-1015.0,-1164.0,0.5,3.0,122913.0
15:09:29,RTL,-0.024237376172095537,0.001806861808290705,-0.36827458441257477,-0.09777706116437912,0.0004562453832477331,0.004480956471525133,-35.3632613,149.16524040000002,98642.5,-10.5,-26.5,100.25,-1.5,29.0,-1010.75,-92.75,2.5,7.0,200.0
15:09:30,RTL,-0.012682443717494607,0.0022821908933110535,-0.3675682097673416,0.524140477180481,0.0028806228656321764,0.012745190411806107,-35.3632614,149.16523984999998,97874.0,-9.5,-23.5,102.0,-0.5,57.0,-977.5,528.5,4.0,15.0,200.0
15:09:32,RTL,-0.0072919020894914865,0.005614272318780422,-0.36877472698688507,1.4423627853393555,0.00678582233376801,0.003797069424763322,-35.36326115,149.16524040000002,95838.5,-9.5,-22.0,103.0,0.0,64.5,-994.0,1444.5,8.0,6.0,200.0
15:09:33,RTL,0.0011435185297159478,0.0027525726472958922,-0.36844920367002487,0.9734538942575455,-0.0007698571134824306,0.00015914914547465742,-35.363261125,149.16524035,94557.0,-11.0,-25.0,101.75,-0.75,15.75,-999.0,974.25,1.0,2.5,278810.0
15:09:34,RTL,0.005692486243788153,0.002436016919091344,-0.3689011037349701,0.7328385412693024,9.226007387042046e-05,-0.002699118573218584,-35.3632612,149.1652401,93791.0,-11.0,-24.0,101.0,-0.5,-1.5,-1006.0,733.0,2.0,0.0,278810.0
15:09:36,RTL,0.016994752300282318,0.0015161593522255619,-0.36981507142384845,0.7610625624656677,-5.2527369310458503e-05,-0.0010719862766563892,-35.36326173333333,149.16523846666666,91491.0,-7.333333333333333,-13.666666666666666,104.0,-0.3333333333333333,10.0,-1053.3333333333333,761.3333333333334,1.6666666666666667,2.0,278810.0
15:09:37,RTL,0.018411179538816214,0.0028789587086066604,-0.3692239001393318,1.309999018907547,0.0005308093968778849,-0.00016854176647029817,-35.3632619,149.1652379,90322.0,-3.25,-5.75,100.25,-0.25,39.25,-1000.5,1311.0,2.25,2.5,300000.0
15:09:38,RTL,0.01335256826132536,0.003627585479989648,-0.36982235312461853,0.6709453463554382,-0.00240392261184752,-0.00038758921436965466,-35.3632619,149.1652378,89686.0,-3.0,-5.0,101.0,0.0,1.0,-1011.0,671.0,0.0,2.0,300000.0
15:09:40,RTL,-0.007768312701955438,0.001589926891028881,-0.3709676265716553,-1.325877070426941,-0.002641081460751593,0.0056833719136193395,-35.363262250000005,149.16523705,87656.0,-0.5,-0.5,99.5,0.0,-54.5,-1014.5,-1324.0,-1.0,8.0,300000.0
15:09:41,RTL,-0.019449441228061914,0.004536100197583437,-0.369444377720356,-0.893550455570221,0.0010777846910059452,0.0007871271227486432,-35.36326220000001,149.16523717500002,86380.25,0.25,2.75,100.5,0.0,-14.75,-1002.25,-890.0,2.5,3.75,48305.0
15:09:42,RTL,-0.024743630550801754,0.004240453476086259,-0.3698095679283142,-0.4468258023262024,-0.0050420621410012245,0.006117288954555988,-35.3632621,149.16523755,85616.0,0.0,1.5,101.5,0.0,17.0,-1004.0,-443.0,-2.5,8.5,48305.0
15:09:44,RTL,-0.0006023388123139739,0.004572545411065221,-0.3689471334218979,0.9473410546779633,0.001272761495783925,-0.0005244677886366844,-35.3632621,149.1652374,83572.5,0.0,0.5,100.0,-0.5,71.0,-993.0,950.5,3.5,2.0,48305.0
15:09:45,RTL,-0.0039403520204359666,0.004964571446180344,-0.3702011927962303,1.0869242995977402,0.0033787813736125827,0.007575795141747221,-35.363261924999996,149.165237775,82295.5,-1.0,0.0,98.0,0.0,68.0,-1022.25,1090.0,4.75,10.0,300000.0
15:09:46,RTL,0.00045565032633021474,0.004642662825062871,-0.3701331168413162,0.9360206425189972,0.0002536126412451267,0.007140027359127998,-35.36326185,149.1652379,81520.0,-2.5,-1.5,100.0,0.5,65.0,-1051.0,939.0,2.5,10.0,300000.0
15:09:48,RTL,0.011686467565596104,0.0012350414763204753,-0.3709980398416519,0.5198708027601242,-0.007031468208879232,-0.007598192663863301,-35.3632618,149.1652385,79489.5,-5.0,-8.0,98.5,-1.5,-10.5,-995.5,519.0,-4.5,-4.0,300000.0
15:09:49,RTL,0.028783297166228294,0.0015907328779576346,-0.37112533301115036,0.6550759002566338,0.0029023613315075636,-0.006200196221470833,-35.363262225,149.16523712499998,78205.5,-1.5,-2.5,99.5,-0.5,0.75,-1011.5,655.0,4.5,-3.0,287725.0
15:09:50,RTL,0.02376788016408682,0.0038470191648229957,-0.3703749030828476,0.10298095270991325,0.001658724620938301,-0.01092394720762968,-35.3632623,149.1652367,77449.0,0.0,1.5,100.0,1.0,-38.0,-954.5,102.0,3.5,-7.0,287725.0
15:09:52,RTL,-0.011507477145642042,0.004585858667269349,-0.3699641525745392,-0.9156641662120819,-0.002577182021923363,-0.010297277010977268,-35.363262,149.1652379,75409.0,-0.5,-0.5,101.0,1.5,-71.0,-1013.5,-915.5,0.0,-6.5,287725.0
15:09:53,RTL,-0.015382187557406723,0.006213215296156704,-0.3706798329949379,-0.9929622709751129,-0.0029611113131977618,-0.004285835195332766,-35.3632617,149.165238875,74137.0,-3.25,-9.0,98.5,4.0,-75.0,-991.0,-993.0,-1.0,-0.75,121700.0
15:09:54,RTL,-0.0475295502692461,0.008750353939831257,-0.3702881783246994,-1.4254578948020935,0.001853988622315228,-0.004968596622347832,-35.3632612,149.16524015,73385.5,-4.5,-13.5,99.0,4.0,-74.0,-998.0,-1424.0,3.5,-2.0,121700.0
15:09:56,RTL,-0.06692057475447655,0.007500899955630302,-0.36961445212364197,0.3095864951610565,-0.0040886286878958344,0.006938517326489091,-35.36325975,149.16524470000002,71346.0,-20.5,-48.5,101.0,1.0,44.5,-983.0,311.5,-1.5,10.0,121700.0
15:09:57,RTL,-0.05342634208500385,-0.000625437398412032,-0.3704227954149246,-0.007591729983687401,-0.0030702367366757244,0.0011577813420444727,-35.363259875,149.165245025,70070.75,-26.25,-60.5,102.5,-3.5,41.25,-1003.25,-6.25,-1.0,4.0,108260.0
15:09:58,RTL,-0.03647367376834154,-0.0031391307711601257,-0.3709881752729416,0.40479905903339386,0.0001044378150254488,-0.0002596703125163913,-35.3632604,149.16524379999998,69308.0,-24.5,-57.5,101.0,-6.0,55.5,-978.5,405.5,2.0,3.0,108260.0
15:10:00,RTL,0.023365551605820656,-0.0004234075313434005,-0.3703577369451523,1.3907349705696106,0.0021228116820566356,0.0009747991571202874,-35.36326185,149.16523855,67237.5,-9.0,-24.0,101.5,-4.0,75.5,-1021.5,1390.0,3.5,3.5,108260.0
15:10:01,RTL,0.03533763997256756,0.0007139312801882625,-0.37089206278324127,0.9375084191560745,-0.00017689162632450461,0.001745564746670425,-35.363262475,149.165236375,65958.5,-2.25,-3.75,101.75,-3.25,14.0,-1010.0,934.75,1.75,4.5,200.0
15:10:02,RTL,0.047273118048906326,0.00040050349343800917,-0.3712143450975418,0.42940041422843933,0.001139526255428791,0.0044555754866451025,-35.363262750000004,149.16523519999998,65195.0,0.5,4.5,97.5,-3.0,-19.5,-972.0,426.0,3.0,7.0,200.0
15:10:04,RTL,0.023609387688338757,0.0031674611382186413,-0.3705553263425827,-1.022763967514038,0.0005140335997566581,-0.0031769477063789964,-35.363263149999995,149.1652337,63159.0,7.5,24.5,98.5,-0.5,-70.5,-979.0,-1025.0,2.5,0.5,200.0
15:10:05,RTL,0.018150691641494632,0.002605637884698808,-0.37040210515260696,-1.3629885017871857,-0.005122252448927611,0.001870040490757674,-35.363263375,149.16523295000002,61888.0,9.75,32.25,99.75,-0.75,-67.25,-997.0,-1363.5,-2.5,4.75,242268.0
15:10:06,RTL,0.020453665405511856,0.002282938687130809,-0.37039048969745636,-1.3387901186943054,-0.0013756949920207262,0.0030336056370288134,-35.3632635,149.1652325,61126.5,11.5,35.5,100.0,-0.5,-57.0,-991.0,-1338.5,1.0,6.0,242268.0
15:10:08,RTL,0.0036787965800613165,0.006356403231620789,-0.3697787672281265,-0.06183011271059513,0.002052258001640439,0.0040529631078243256,-35.36326325,149.16523360000002,59087.5,15.0,39.5,100.5,3.5,30.0,-990.5,-58.5,4.0,6.5,242268.0
15:10:09,RTL,-0.016197846038267016,0.007863161154091358,-0.36956045776605606,-0.7405187264084816,0.0020982344285584986,0.0023234072723425925,-35.363262625000004,149.165235525,57796.25,8.75,24.75,101.0,2.75,-6.5,-968.75,-737.75,4.0,5.75,102094.0
15:10:10,RTL,-0.023583832196891308,0.009939526207745075,-0.36870889365673065,0.026424258947372437,0.005410359241068363,0.012107673566788435,-35.3632621,149.16523715,57038.0,5.5,16.5,99.0,6.0,29.0,-1013.0,29.5,7.5,15.0,102094.0
15:10:12,RTL,-0.021151304244995117,0.005386334611102939,-0.3710443377494812,1.3117009401321411,-0.0014026948483660817,0.0015596679877489805,-35.3632607,149.16524145,55013.0,-12.0,-20.5,97.5,0.0,52.0,-1039.0,1312.0,1.0,4.5,102094.0
15:10:13,RTL,0.007799367769621313,0.0013783475733362138,-0.3700404465198517,1.1154351234436035,0.006363151536788791,-0.0002675497089512646,-35.363261125,149.16524065,53733.5,-13.5,-27.0,101.25,-1.25,26.25,-1022.75,1114.25,8.5,3.0,253853.0
15:10:14,RTL,0.008204443380236626,0.002267328614834696,-0.3702143728733063,0.5024292767047882,-0.0015240444336086512,0.005692077102139592,-35.36326135,149.16523999999998,52967.5,-12.0,-25.5,99.0,-0.5,-12.0,-980.5,500.0,1.0,9.0,253853.0
15:10:16,RTL,0.016531741712242365,0.0005854221813734739,-0.37047718465328217,0.6870449781417847,-0.0027463770238682628,0.004286664188839495,-35.363261699999995,149.1652388,50925.5,-8.0,-16.5,98.0,-3.0,-1.0,-1008.5,685.0,-0.5,7.5,253853.0
15:10:17,RTL,0.036517915315926075,-0.0021428904437925667,-0.37089113891124725,-0.08312338776886463,-0.0024472115910612047,0.001773119205608964,-35.36326255,149.16523625000002,49645.5,-2.5,-1.75,100.25,-4.75,-33.5,-1001.25,-84.75,-0.25,4.75,198802.0
15:10:18,RTL,0.043915944173932076,-0.0023664813488721848,-0.3708554804325104,-0.6572618186473846,-0.0008266859222203493,0.003460823791101575,-35.3632631,149.1652345,48882.0,2.0,11.0,101.5,-4.5,-44.0,-985.5,-658.5,1.5,7.0,198802.0
15:10:20,RTL,0.011700084898620844,0.0065582445822656155,-0.36913906037807465,-0.9973402321338654,0.003973187180235982,-0.005401787348091602,-35.36326365,149.1652325,46837.0,16.5,40.5,101.0,2.0,-14.0,-996.5,-995.0,6.0,-1.5,198802.0
15:10:21,RTL,-0.009039455326274037,0.005764354486018419,-0.3691191077232361,-0.2615447025746107,-0.004126132553210482,0.007491105585359037,-35.363262999999996,149.16523445,45551.5,12.5,33.5,99.25,1.75,22.75,-1028.25,-257.75,-1.5,10.5,294217.0
15:10:22,RTL,0.004385638050734997,0.0039102534065023065,-0.3692362606525421,0.7465793192386627,0.0018152875127270818,0.0014687447110190988,-35.3632628,149.1652353,44776.5,8.5,25.0,98.0,0.5,66.0,-956.0,749.0,3.5,5.0,294217.0
15:10:24,RTL,-0.007474162150174379,0.006729537853971124,-0.3683258593082428,0.984504222869873,0.0023303244379349053,0.009212621487677097,-35.3632622,149.16523745,42740.0,4.0,10.0,97.0,5.0,64.5,-979.0,987.5,4.5,12.5,294217.0
15:10:25,RTL,-0.018962963949888945,0.006758251809515059,-0.3698323294520378,1.1648642420768738,0.0012659195344895124,0.004454161215107888,-35.363261425000005,149.1652395,41467.75,-2.25,-5.25,99.0,2.0,75.25,-980.5,1167.25,3.25,7.75,300000.0
15:10:26,RTL,-0.013989022932946682,0.004226604010909796,-0.3691020905971527,1.2431076765060425,-0.0034424960613250732,0.0062342737801373005,-35.363261249999994,149.1652402,40703.0,-6.5,-14.0,97.0,0.5,73.0,-1017.5,1244.5,-1.0,9.5,300000.0
15:10:28,RTL,-0.0067333492916077375,0.0013208055752329528,-0.3698352873325348,-0.026309683918952942,-0.005695396335795522,8.433079347014427e-05,-35.3632612,149.16524065,38665.5,-11.0,-26.0,98.5,-1.5,-32.0,-1018.5,-27.5,-3.0,3.5,300000.0
15:10:29,RTL,-0.010607819305732846,0.0006400281556580012,-0.36907999962568283,-1.2041194140911102,0.003114831051789224,-0.0016042640781961381,-35.36326155,149.16523955,37387.25,-9.5,-22.75,99.75,-2.5,-67.5,-984.75,-1204.75,5.25,2.0,294199.0
15:10:30,RTL,-0.010347831528633833,0.0011389835854060948,-0.3694991022348404,-1.297130525112152,0.0007197890663519502,-0.002462147385813296,-35.36326185,149.16523865,36622.0,-6.5,-16.0,96.0,-2.0,-54.0,-1033.0,-1296.5,3.0,1.0,294199.0
15:10:32,RTL,0.003407136653549969,-0.0008201512391678989,-0.36975859105587006,0.16569269448518753,-0.0011666790815070271,0.003961434122174978,-35.36326235,149.16523695,34596.0,-0.5,-1.0,100.0,-3.5,49.0,-974.0,168.5,1.5,7.5,294199.0
15:10:33,RTL,0.01447564852423966,1.0481388017069548e-05,-0.36918752640485764,0.3658980764448643,0.002255095459986478,0.00134130974765867,-35.363262899999995,149.165235425,33319.5,4.5,11.0,99.5,-1.5,54.75,-990.25,368.25,4.5,4.5,176000.0
15:10:34,RTL,0.023175816051661968,0.001494945550803095,-0.3689926415681839,0.7621907293796539,0.006656263023614883,-0.007010353030636907,-35.3632631,149.16523485,32564.5,8.0,18.5,100.5,-1.5,68.0,-1022.0,765.0,9.0,-3.0,176000.0
15:10:36,RTL,0.02803204208612442,0.0013517632032744586,-0.3694329857826233,1.1630936861038208,0.00395648239646107,0.0015539552550762892,-35.3632632,149.1652345,30530.0,10.0,24.5,100.5,-0.5,76.0,-989.5,1165.0,6.0,5.0,176000.0
15:10:37,RTL,0.02493715938180685,-0.0008220357558457181,-0.36996469646692276,0.81889408826828,0.003648550366051495,-0.0011664604535326362,-35.3632634,149.16523402500002,29257.75,10.5,27.25,100.5,-2.5,69.0,-991.5,822.0,5.5,2.5,200.0
15:10:38,RTL,0.04799480363726616,-0.0016507319523952901,-0.369548961520195,1.3085973858833313,0.0054293598514050245,-0.001719434978440404,-35.36326375,149.16523315,28498.5,12.5,31.5,101.5,-2.5,75.5,-1015.5,1311.5,7.5,2.0,200.0
15:10:40,RTL,0.0567485224455595,0.0031419763108715415,-0.3688127249479294,0.9365870952606201,0.00840174499899149,0.003706651506945491,-35.3632641,149.16523185,26444.5,20.0,45.5,100.5,1.0,5.5,-999.0,937.5,10.5,7.5,200.0
15:10:41,RTL,0.02919297246262431,0.003617721435148269,-0.36931363493204117,-0.4154546707868576,-0.005784618784673512,0.0016425608191639185,-35.363263725,149.16523274999997,25164.5,17.5,42.25,101.25,1.0,-57.5,-988.5,-413.75,-3.0,5.25,300000.0
15:10:42,RTL,0.018630663864314556,0.004094371339306235,-0.36878548562526703,-1.0610830187797546,-0.0006391939241439104,-0.001900622621178627,-35.36326355,149.1652333,24390.5,15.5,38.5,100.5,2.5,-73.5,-1001.0,-1059.0,2.0,2.5,300000.0
15:10:44,RTL,0.001977457373868674,0.005352215608581901,-0.36851896345615387,-1.4729769229888916,-0.004341200226917863,0.0009386431192979217,-35.36326305,149.16523465,22345.0,11.0,28.0,98.0,1.5,-64.0,-1004.0,-1469.5,-1.5,4.0,300000.0
15:10:45,RTL,-0.012936466606333852,0.005646489909850061,-0.3694123178720474,-1.352951854467392,-0.0044361152104102075,-0.0028387850616127253,-35.363262524999996,149.165236325,21072.5,6.5,18.25,99.5,1.25,-73.5,-1016.25,-1349.25,-2.25,1.25,300000.0
15:10:46,RTL,-0.012846156489104033,0.004624373512342572,-0.36908987164497375,-1.3354172706604004,-0.00036771688610315323,-0.0095445248298347,-35.3632623,149.16523695,20305.5,3.0,10.5,98.0,0.0,-63.5,-988.0,-1331.0,2.0,-5.0,300000.0
15:10:48,RTL,-0.02299206517636776,0.005411727353930473,-0.3696201592683792,-0.02942706272006035,-0.00025632802862674,0.01375647820532322,-35.3632619,149.16523845,18271.5,0.0,-0.5,101.0,3.0,34.5,-992.0,-23.0,1.5,17.5,300000.0
15:10:49,RTL,-0.027108647860586643,0.0035901208757422864,-0.36900413036346436,0.46099013835191727,0.0017318814061582088,0.0024839964462444186,-35.363261550000004,149.16523974999998,16994.5,-3.0,-9.75,99.0,1.0,50.5,-993.75,466.5,3.5,6.0,178495.0
15:10:50,RTL,-0.021757565438747406,0.0026893388712778687,-0.3685370981693268,1.0777426362037659,0.0009559894679114223,0.003932291874662042,-35.3632614,149.16524049999998,16232.0,-5.5,-16.5,99.5,1.5,68.0,-1035.0,1082.5,3.0,7.0,178495.0
15:10:52,RTL,-0.011806245893239975,0.0010743564052972943,-0.36824336647987366,1.3139644861221313,-0.0012336343061178923,-0.0029710549861192703,-35.3632612,149.1652416,14179.5,-9.0,-30.5,101.0,-1.0,56.0,-1046.5,1317.5,1.5,1.0,178495.0
15:10:53,RTL,-0.004367743211332709,4.078531128470786e-05,-0.3691708445549011,1.0104917585849762,-0.00026753667043522,0.0008715257281437516,-35.3632612,149.16524149999998,12921.0,-10.75,-33.5,101.75,-1.75,23.0,-992.75,1012.0,2.0,4.25,95749.0
15:10:54,RTL,0.004260623245500028,-0.0023248809156939387,-0.36955036222934723,0.4353247135877609,-0.0057457315269857645,-0.0005158212734386325,-35.363261449999996,149.1652407,12151.5,-11.0,-32.5,100.5,-3.0,-16.0,-982.5,435.5,-3.5,3.0,95749.0
15:10:56,RTL,0.018324001226574183,-0.0011462206311989576,-0.36892250180244446,0.11721466481685638,9.688606951385736e-06,-0.0018474907847121358,-35.36326245,149.16523740000002,11058.0,-1.0,-10.0,23.0,-1.0,-9.5,-999.0,119.5,1.5,1.5,95749.0
15:10:57,RTL,0.019215002190321684,0.001052635911037214,-0.36814670264720917,0.5950220283120871,0.004128366941586137,0.002751028223428875,-35.363262775,149.16523617500002,10724.25,3.25,4.0,33.0,-1.5,29.75,-993.75,597.75,6.0,6.25,71269.0
15:10:58,RTL,0.007750740071060136,0.003056578920222819,-0.3678896129131317,-0.47854693979024887,0.0010512516601011157,-0.004786181962117553,-35.3632627,149.165236,10479.0,4.5,7.5,35.0,0.5,-36.5,-995.0,-476.0,3.5,-0.5,71269.0
15:11:00,RTL,-0.001688314019702375,0.00297028839122504,-0.36834822595119476,-0.5165122449398041,-0.000835894257761538,-0.004877440631389618,-35.36326245,149.16523684999999,9798.5,2.5,4.5,35.0,0.5,-39.5,-1015.0,-514.5,1.5,-0.5,71269.0
15:11:01,RTL,-0.0036772276798728853,0.004786758916452527,-0.36781272292137146,0.574464051052928,0.0023732841364108026,0.0003394578816369176,-35.363262049999996,149.165237875,9374.75,1.0,1.0,34.5,1.5,18.25,-1007.75,577.0,4.0,4.25,171315.0
15:11:02,RTL,-0.024968176148831844,0.00517675606533885,-0.3686295449733734,-0.7924177944660187,-0.002840534783899784,-0.0036128386855125427,-35.36326185,149.1652386,9118.5,-0.5,-4.0,35.0,1.5,-39.5,-1000.5,-789.5,-0.5,0.0,171315.0
15:11:04,RTL,-0.016698285937309265,0.003906299127265811,-0.36884450912475586,0.23640955612063408,0.00012912892270833254,0.001268579624593258,-35.3632614,149.1652398,8710.0,-6.0,-14.5,-7.0,0.5,19.0,-1009.5,240.0,2.0,4.5,171315.0
15:11:05,RTL,-0.015400554751977324,0.0024228146066889167,-0.36831096559762955,0.10367203876376152,6.289110751822591e-05,-0.00021445355378091335,-35.3632614,149.16524,8785.0,-7.0,-18.75,-2.5,0.5,6.0,-994.75,105.75,2.25,3.5,147721.0
15:11:06,RTL,-0.025825193151831627,0.0028214683989062905,-0.36902132630348206,-0.5903042256832123,0.000738423434086144,-0.0023030859883874655,-35.36326135,149.16524025,8802.0,-7.0,-20.0,-0.5,1.0,-30.5,-1000.5,-588.5,2.5,2.0,147721.0
15:11:08,RTL,-0.006039234111085534,0.0015689049614593387,-0.36872030794620514,0.5867969393730164,0.004315157304517925,-0.000688532367348671,-35.3632614,149.1652402,8808.5,-9.0,-23.0,0.5,-0.5,28.0,-1011.5,588.0,6.0,2.5,147721.0
15:11:09,RTL,-0.009864879539236426,0.0017143735312856734,-0.36886709928512573,0.04118528589606285,0.0017453579348511994,-9.176728781312704e-05,-35.363261550000004,149.16523957500002,8805.25,-7.5,-20.0,0.0,-1.0,9.0,-1001.25,43.0,4.0,3.5,161943.0
15:11:10,RTL,-0.013495790306478739,0.0011457689688540995,-0.3688557744026184,-0.5125798881053925,-0.0026668383507058024,-0.0005454714410007,-35.36326165,149.16523925,8802.5,-6.5,-17.5,4.0,0.0,-26.5,-966.5,-511.5,-0.5,3.0,161943.0
15:11:12,RTL,-0.005206885281950235,-0.001094320701668039,-0.368595153093338,-0.8356709480285645,-0.0034863792825490236,8.278293535113335e-06,-35.3632622,149.1652379,8110.5,-2.5,-8.5,37.5,-2.0,-29.0,-1011.5,-834.0,-1.0,3.5,161943.0
15:11:13,RTL,0.024430828168988228,-0.0010882854548981413,-0.3685467019677162,0.4458550289273262,0.0028181247180327773,-0.0007246856112033129,-35.363262675,149.16523645,7662.5,1.25,1.0,35.0,-3.0,5.75,-984.25,446.25,4.5,3.0,200.0
15:11:14,RTL,0.01088962284848094,-0.0006454917893279344,-0.36928582191467285,-0.718572586774826,-0.0005306316306814551,-0.0001521690282970667,-35.363263,149.1652355,7402.5,4.0,8.0,33.5,-1.5,-23.5,-1008.5,-716.5,2.0,3.0,200.0
15:11:16,RTL,0.0035284775658510625,0.002716667833738029,-0.36801327764987946,-0.49510692059993744,-0.000298576895147562,0.0035618897527456284,-35.363263149999995,149.16523465,6725.0,10.0,22.0,36.0,0.0,2.5,-985.5,-491.5,1.5,7.0,200.0
15:11:17,RTL,0.009968552854843438,0.005365257151424885,-0.3679107427597046,0.20494979759678245,0.0013186501455493271,-0.004769934981595725,-35.363262750000004,149.1652355,6295.5,8.25,19.5,33.0,2.5,-6.75,-1003.75,206.5,3.0,-1.0,66893.0
15:11:18,RTL,-0.012428662274032831,0.005248516332358122,-0.3689756393432617,-0.22276626527309418,-0.00237477058544755,0.003621720941737294,-35.36326245,149.16523635,6039.5,5.5,15.5,32.5,1.5,12.0,-983.0,-219.5,0.0,7.0,66893.0
15:11:20,RTL,0.00573585310485214,0.0023480438394472003,-0.36805498600006104,0.8172405362129211,-0.0009914361871778965,0.004544479539617896,-35.3632622,149.1652377,5347.0,0.0,1.5,33.0,0.5,43.0,-1009.5,820.0,1.0,8.0,66893.0
15:11:21,RTL,-0.009007941465824842,0.0014206396881490946,-0.3685329034924507,-0.4405100606381893,-0.0028914794675074518,0.0002997611300088465,-35.3632622,149.1652379,4919.25,0.0,-0.5,31.5,0.0,-12.75,-1002.5,-438.0,-0.75,4.0,200.0
15:11:22,RTL,0.009928991552442312,0.0014483663835562766,-0.36833612620830536,0.832439661026001,0.006098296376876533,-0.0051985017489641905,-35.3632622,149.1652379,4669.5,0.0,-0.5,32.0,-1.0,33.5,-1005.0,834.5,8.0,-1.5,200.0
15:11:24,RTL,0.014742293395102024,0.001754827389959246,-0.36804746091365814,0.8547253906726837,0.0015517916763201356,-0.0009191419230774045,-35.3632624,149.1652372,3991.0,1.0,2.0,31.5,-0.5,39.0,-1002.0,857.0,3.0,2.5,200.0
15:11:25,RTL,-0.0028528972761705518,0.0019555604085326195,-0.3686199188232422,-0.3387926295399666,0.001061220042174682,0.0009005957981571555,-35.3632624,149.165237,3567.75,1.5,3.0,32.25,-0.5,-7.25,-1003.5,-336.25,3.0,4.25,200.0
15:11:26,RTL,0.015272588469088078,0.001955586427357048,-0.36800336837768555,0.6622335761785507,0.0008854096522554755,-0.003166219568811357,-35.3632624,149.165237,3316.0,2.0,3.5,33.5,0.0,14.0,-1004.5,663.0,3.0,1.0,200.0
15:11:28,RTL,0.004471097374334931,0.0033602591138333082,-0.36830511689186096,0.5385557860136032,0.00030443642754107714,-0.0039072626968845725,-35.3632622,149.16523775000002,2631.5,0.5,0.5,32.0,0.5,-1.5,-1002.0,540.0,2.5,-0.5,200.0
15:11:29,RTL,-0.010232180589810014,0.002261296729557216,-0.36861132830381393,0.165946114808321,0.0011433556210249662,0.0029689803486689925,-35.363262075,149.16523840000002,2200.25,0.0,-4.0,31.75,0.5,19.75,-993.5,168.75,3.5,6.5,128408.0
15:11:30,RTL,-0.005628561451885616,0.0026598399272188544,-0.36848072707653046,0.2952994406223297,-0.0008328829426318407,-0.0009418760892003775,-35.3632619,149.16523895,1944.0,-1.5,-7.0,31.5,0.0,-6.0,-1003.0,296.5,1.0,2.5,128408.0
15:11:32,RTL,-0.005095339780382346,0.00032480469963047653,-0.36843861639499664,-0.36845304258167744,0.0007512818556278944,-0.004179613781161606,-35.3632619,149.165239,1270.0,-3.5,-13.5,32.0,-0.5,-32.5,-999.0,-367.5,2.5,0.0,128408.0
15:11:33,RTL,0.004691248119343072,-0.0005855854542460293,-0.3681654557585716,0.5582332983613014,0.0001520795631222427,-0.0016330608050338924,-35.363262150000004,149.16523834999998,845.0,-1.25,-9.25,32.75,-0.5,30.75,-995.0,560.0,2.25,2.0,15098.0
15:11:34,RTL,-4.5546796172857285e-05,-0.00011420589908084366,-0.3683554232120514,-0.5434619784355164,-0.001057053916156292,-0.0010618173982948065,-35.3632623,149.16523795,587.5,0.0,-6.5,32.0,-0.5,-35.0,-996.5,-542.5,1.5,2.5,15098.0
15:11:36,RTL,0.0014576315879821777,0.0022881922777742147,-0.3714892119169235,0.0016099995700642467,0.0011856387136504054,-0.0005152646917849779,-35.3632625,149.1652375,139.0,1.5,2.0,-1.0,0.0,0.0,-1000.0,3.0,3.0,2.5,15098.0
15:11:37,RTL,0.002902405452914536,0.003928211401216686,-0.37171630561351776,0.001503241219324991,0.0011401392985135317,-0.0005365238175727427,-35.3632625,149.16523765000002,124.25,0.25,3.5,0.0,0.0,0.0,-1000.0,3.0,3.0,3.0,166996.0
15:11:38,RTL,0.0035726556088775396,0.004725644597783685,-0.37190981209278107,0.0015180274494923651,0.001116082421503961,-0.0005302783101797104,-35.3632625,149.16523775000002,113.5,0.0,5.0,0.0,0.0,0.0,-1000.0,2.5,3.0,3.0,166996.0
15:11:40,RTL,0.0043728684540838,0.005885139107704163,-0.37235593795776367,0.0013496105093508959,0.0010182762052863836,-0.0005631691310554743,-35.3632626,149.165238,61.5,-1.5,8.0,0.0,0.0,0.0,-1000.0,3.0,3.0,2.5,166996.0
15:11:42,RTL,0.003940952941775322,0.005823946557939053,-0.37299829721450806,0.0011564280721358955,0.0009711951715871692,-0.0005133450031280518,-35.3632627,149.1652381,28.5,-2.0,7.0,0.0,0.0,0.0,-1000.0,2.5,3.0,2.5,166996.0
