time_stamp,roll,pitch,yaw,rollspeed,pitchspeed,yawspeed,lat,lon,relative_alt,vx,vy,vz,xacc,yacc,zacc,xgyro,ygyro,zgyro,MODE,RTL_ALT
08:29:17,-7.08112092979718e-05,0.0015864679589867592,0.028800711035728455,0.0003073866246268153,0.00026360456831753254,0.002321726642549038,-35.3632621,149.1652374,17.5,-1.0,1.0,-0.5,0.0,1.0,-1000.0,0.0,0.0,0.5,STABILIZE,162919.0
08:29:31,-0.0005702172929886729,0.001040200935676694,0.022688687779009342,0.0003338824608363211,0.0002824507828336209,0.0016260025440715253,-35.36326215,149.1652375,0.0,-0.5,1.0,1.0,0.0,1.0,-1000.0,0.5,0.0,1.0,AUTO,162919.0
08:29:32,-0.00034960937045980245,0.0012367003073450178,0.022382660768926144,0.00028426175413187593,0.0002889195311581716,0.0015194208535831422,-35.3632621,149.1652375,0.0,0.0,0.0,1.75,0.0,1.25,-1000.0,0.25,0.25,0.5,AUTO,300000.0
08:29:33,-9.419923071618541e-05,0.0015141781186684966,0.02205528784543276,0.00036926227039657533,0.0003034225373994559,0.0015487673226743937,-35.3632621,149.16523745,0.0,0.0,0.0,1.0,0.0,2.0,-1000.0,0.0,0.0,1.0,AUTO,300000.0
08:29:35,0.01225337281357497,0.00023846383555792272,0.021393099799752235,0.017697961069643497,-0.001697999075986445,0.0030217966996133327,-35.36326205,149.1652375,880.5,0.0,3.0,-120.5,0.0,0.0,-1062.5,18.5,-1.0,2.0,AUTO,300000.0
08:29:36,0.04885644465684891,-0.006179941352456808,0.014114185934886336,0.030979954986833036,-0.004060084233060479,-0.007421416405122727,-35.363261824999995,149.16523855000003,2325.25,4.25,25.5,-146.75,0.5,-4.0,-1000.25,31.5,-3.5,-8.25,AUTO,176965.0
08:29:37,0.004226800054311752,0.01527268998324871,-0.054839830845594406,-0.07621008343994617,0.04642255371436477,-0.07896228693425655,-35.36326115,149.16524295,3850.5,4.5,44.0,-146.5,4.0,-10.5,-999.0,-75.0,47.0,-79.0,AUTO,176965.0
08:29:39,-0.03241415088996291,-0.008257035398855805,-0.089212816208601,0.06123521365225315,0.007453140977304429,0.0013296244869707152,-35.363261249999994,149.16524295,6918.5,-1.0,-49.5,-149.0,-5.0,9.5,-1002.0,61.5,8.0,1.0,AUTO,176965.0
08:29:40,0.03089805762283504,0.0035281248565297574,-0.08811154216527939,0.06344228889793158,0.01181153825018555,0.00394224445335567,-35.3632614,149.165237025,8468.5,-2.75,-44.5,-152.0,-6.25,10.5,-1003.0,63.5,11.75,3.25,AUTO,239071.0
08:29:41,0.042801632545888424,0.006112614588346332,-0.08715848624706268,-0.02548660896718502,0.0012055654078722,-0.004140052129514515,-35.36326195,149.16523460000002,10032.0,-6.5,2.5,-150.5,0.5,2.0,-998.5,-25.0,1.5,-4.5,AUTO,239071.0
08:29:43,-0.006993920891545713,-0.0030544601613655686,-0.11544115841388702,0.011006122455000877,0.004903447232209146,-0.023555539548397064,-35.363262399999996,149.16523645,13133.0,2.5,0.0,-151.5,-0.5,-0.5,-1000.5,11.0,5.0,-23.5,AUTO,239071.0
08:29:44,0.004652104413253255,0.002725905826082453,-0.13839612156152725,0.009459563298150897,0.005773215088993311,-0.0194430872797966,-35.363262049999996,149.16523602499998,14688.75,3.0,-4.25,-152.0,-1.75,0.0,-1000.0,9.75,6.0,-19.25,AUTO,153483.0
08:29:45,0.008859690744429827,0.006132769165560603,-0.15603730082511902,-0.0007943336386233568,0.0023343405628111213,-0.016033159103244543,-35.36326175,149.16523560000002,16249.5,0.5,0.0,-152.0,-0.5,0.0,-999.0,0.0,2.5,-16.0,AUTO,153483.0
08:29:47,-0.024808901216601953,0.012248396407812834,-0.04928309842944145,0.05598811060190201,-0.041349656879901886,0.13909435272216797,-35.363262250000005,149.16523415,19297.5,-19.5,-24.5,-134.5,-0.5,6.0,-968.0,57.0,-41.0,138.0,AUTO,153483.0
08:29:48,0.052684870548546314,-0.03305455297231674,0.06380894407629967,0.04429222363978624,-0.027711639238987118,-0.028368882718496025,-35.363264075000004,149.1652311,20502.75,-17.0,-10.0,-96.25,1.5,5.5,-962.25,44.75,-26.75,-28.25,AUTO,200.0
08:29:49,0.03724802937358618,-0.016465471824631095,0.046040792018175125,-0.03888538107275963,0.031223973259329796,-0.002779453992843628,-35.36326415,149.16523235,21314.5,10.0,32.5,-64.5,0.5,-6.5,-974.0,-37.5,31.5,-3.0,AUTO,200.0
08:29:51,-0.011007723398506641,0.013436952605843544,0.04060660861432552,-0.00016908487305045128,-0.001972985628526658,-0.002897162805311382,-35.36326155,149.16523915,22141.5,6.5,18.5,-16.0,0.5,-5.0,-970.5,0.5,-1.5,-3.0,AUTO,200.0
08:29:52,-0.03498601447790861,-0.001412105280905962,0.0376243581995368,-0.1655924003571272,-0.05155054293572903,-0.005907256607315503,-35.36326125,149.1652398,22127.5,-1.5,-8.25,15.5,-1.25,-3.0,-981.25,-164.5,-50.5,-5.5,AUTO,111816.0
08:29:53,-0.005257839453406632,-0.0657914076000452,0.02704094909131527,0.10420060157775879,-0.0424216166138649,-0.09988745208829641,-35.36326005,149.16523765,21979.0,32.5,-23.5,6.0,-10.5,12.5,-1023.0,106.0,-41.0,-99.5,AUTO,111816.0
08:29:55,0.028624147176742554,-0.1539912447333336,-0.19537269324064255,0.04244239628314972,-0.04422779567539692,0.021999888063874096,-35.3632408,149.1652298,21982.5,199.5,-45.5,-5.0,-43.0,-14.5,-1007.0,44.0,-42.5,21.5,AUTO,111816.0
08:29:56,0.03651007916778326,-0.18091391399502754,-0.191770751029253,0.050574369728565216,-0.0027666125679388642,-0.005247930239420384,-35.363218274999994,149.16522337499998,22033.5,312.75,-68.75,-8.5,-64.75,-36.25,-1009.25,52.0,-1.75,-4.75,AUTO,181685.0
08:29:57,0.044365255162119865,-0.19468242675065994,-0.19426585733890533,0.030801327899098396,-0.03335647098720074,-0.008542261552065611,-35.363185,149.16521434999999,22123.5,419.5,-95.5,-11.0,-84.5,-49.5,-1003.5,31.0,-32.0,-8.0,AUTO,181685.0
08:29:59,0.066665168851614,-0.18365606665611267,-0.20156915485858917,-0.010700427927076817,0.020915137603878975,-0.005753826117143035,-35.3630919,149.16518845000002,22429.0,601.5,-140.5,-22.5,-127.0,-76.5,-1001.0,-10.0,21.5,-5.5,AUTO,181685.0
08:30:00,0.07309046946465969,-0.16548706591129303,-0.20277346298098564,0.004904607078060508,0.019478454487398267,-0.001564277510624379,-35.363035675,149.16517274999998,22670.75,647.75,-149.5,-24.25,-130.0,-73.0,-988.5,6.0,19.75,-1.25,AUTO,215010.0
08:30:01,0.07663117721676826,-0.13978250324726105,-0.2045910581946373,0.014214272145181894,0.03714471962302923,-0.0041679872665554285,-35.3629761,149.1651563,22920.5,664.0,-152.5,-24.5,-148.0,-67.0,-989.5,14.5,37.5,-4.0,AUTO,215010.0
08:30:03,0.0799308754503727,-0.13952700793743134,-0.20721181482076645,0.0096383320633322,0.0017122626304626465,-0.0033792360918596387,-35.36285625,149.1651229,23298.5,667.5,-151.5,-15.5,-132.5,-76.0,-990.5,10.0,3.0,-2.5,AUTO,215010.0
08:30:04,0.08339288644492626,-0.1358475312590599,-0.20877185091376305,0.01141485376865603,0.005230530863627791,-0.005205757450312376,-35.362795875,149.16510585,23463.0,671.25,-151.0,-18.0,-133.0,-75.75,-990.25,12.5,6.25,-5.0,AUTO,212172.0
08:30:05,0.08128022402524948,-0.1340842917561531,-0.2097567766904831,-0.0013948644045740366,0.019899669336155057,0.002099198696669191,-35.3627356,149.16508905,23650.5,671.5,-149.5,-19.0,-153.5,-83.5,-1001.5,-0.5,21.0,1.5,AUTO,212172.0
08:30:07,0.0805370882153511,-0.10817339271306992,-0.21242421120405197,-0.02904488006606698,0.03155720420181751,-0.0012629694101633504,-35.362615399999996,149.1650556,24053.5,660.0,-147.5,-21.5,-124.5,-78.5,-988.5,-27.5,32.0,-1.0,AUTO,212172.0
08:30:08,0.08235715888440609,-0.05042726080864668,-0.21197816357016563,0.02161304117180407,0.05232838820666075,-0.005384245469031157,-35.362557175,149.165039525,24302.75,615.0,-139.0,-24.25,-128.5,-79.25,-990.5,22.5,52.75,-5.0,AUTO,74517.0
08:30:09,0.07655597105622292,-0.009630155516788363,-0.2115577608346939,0.046802432276308537,0.0336946789175272,-0.003030164632946253,-35.3625054,149.1650254,24509.5,532.5,-119.5,-15.0,-111.5,-73.0,-986.0,47.0,34.0,-2.0,AUTO,74517.0
08:30:11,0.048344142735004425,0.05375443771481514,-0.21022439748048782,-0.06959524750709534,0.007291070418432355,0.012987178983166814,-35.36242805,149.16500465000001,24678.5,313.5,-68.5,-2.0,-66.5,-54.5,-1004.0,-69.0,8.5,13.0,AUTO,74517.0
08:30:12,0.033088226802647114,0.06993277743458748,-0.21116917580366135,-0.11059076711535454,0.02424572315067053,0.0005678058369085193,-35.362404075,149.16499825,24704.0,205.5,-44.5,-2.5,-43.5,-34.5,-1000.75,-108.75,25.0,1.0,AUTO,275514.0
08:30:13,0.0155348313273862,0.06871945038437843,-0.21164298057556152,0.11848218739032745,-0.019569655880331993,0.004548329336103052,-35.3623903,149.16499485,24723.0,107.5,-21.5,-1.0,-21.5,-8.5,-996.0,119.5,-17.5,5.0,AUTO,275514.0
08:30:15,-0.010015287552960217,0.018258122727274895,-0.21210985630750656,0.3677283972501755,-0.024209492839872837,-0.0008518809627275914,-35.3623822,149.1649937,24731.5,3.5,-9.5,-0.5,0.0,25.5,-1009.0,369.0,-23.0,0.0,AUTO,275514.0
08:30:16,-0.011701530078426003,-0.008808276952549932,-0.2123030088841915,-0.08650769200176,-0.02003303013043478,-0.004509336780756712,-35.362382575,149.164993725,24733.25,-4.25,-13.0,-0.5,0.75,-3.0,-993.25,-85.5,-18.75,-3.75,AUTO,73919.0
08:30:17,-0.005232015741057694,-0.011389810126274824,-0.2139982059597969,0.025825709104537964,-0.009270224254578352,-0.004606535891070962,-35.36238285,149.1649933,24739.0,5.5,-14.0,-2.0,-2.0,15.0,-1009.0,27.5,-8.5,-3.5,RTL,73919.0
08:30:19,0.010432789102196693,-0.0009050345688592643,-0.2171802744269371,0.0808478370308876,-0.0011397405178286135,0.0020733437268063426,-35.3623826,149.16499140000002,25164.5,4.5,-2.5,-58.5,-1.5,4.0,-1046.5,81.5,0.0,2.5,RTL,73919.0
08:30:20,0.011131207691505551,-0.0012459529389161617,-0.21835891529917717,0.016882728785276413,0.0005851899622939527,0.0033788757282309234,-35.3623827,149.164990725,25947.75,4.0,3.0,-100.75,-0.75,3.0,-1038.75,17.5,1.0,3.75,RTL,200.0
08:30:21,0.023547541350126266,-0.001587931823451072,-0.21906515210866928,0.04157985374331474,-0.003838412230834365,0.002692940761335194,-35.3623827,149.16499045,27261.0,5.0,10.5,-136.5,-0.5,0.5,-1024.5,42.0,-2.5,3.0,RTL,200.0
08:30:23,-0.023254369385540485,0.014566294848918915,-0.27307741343975067,-0.11380294524133205,0.018109876662492752,-0.0591974388808012,-35.3623806,149.16499595,30338.0,13.0,43.0,-146.0,3.0,-10.0,-1001.0,-112.0,19.0,-58.0,RTL,200.0
08:30:24,-0.06175938714295626,0.002677377575309947,-0.3067183718085289,0.04492866527289152,-0.002402570069534704,-0.017016050405800343,-35.362380175,149.164997075,31868.75,-9.5,-18.75,-149.25,-1.0,2.5,-1001.5,45.5,-1.75,-15.5,RTL,300000.0
08:30:25,-0.0031960373744368553,0.0065278890542685986,-0.31415919959545135,0.06406228244304657,0.007617436116561294,-0.0011670502135530114,-35.36238165,149.16499249999998,33415.5,-23.0,-42.5,-151.0,-4.0,10.5,-1002.5,65.0,8.0,-0.5,RTL,300000.0
08:30:27,0.017493627034127712,-0.026284693274646997,-0.27509768307209015,-0.0534061212092638,-0.015125470235943794,0.009370140731334686,-35.362384250000005,149.16498865,36527.5,7.5,17.5,-149.5,0.5,-3.0,-1000.0,-51.5,-14.0,10.5,RTL,300000.0
08:30:28,-0.014774364419281483,0.007990406011231244,-0.3233782798051834,0.008224293502280489,0.02542199590243399,-0.05667288973927498,-35.362382525,149.164989425,38071.0,16.25,1.75,-151.25,-3.0,-3.5,-1002.5,9.5,25.75,-55.0,RTL,300000.0
08:30:29,0.0026973935309797525,0.01805710233747959,-0.3615849018096924,0.017534575890749693,0.002830584067851305,-0.021722613368183374,-35.36238145,149.16498865,39634.0,0.5,-3.5,-152.0,-2.0,0.0,-1000.0,18.5,4.0,-20.5,RTL,300000.0
08:30:31,0.004383681050967425,0.00461181637365371,-0.3834766447544098,-0.0063228358048945665,-0.005699787754565477,-0.013812519609928131,-35.362382,149.16498895,42754.5,-9.0,11.5,-152.0,2.0,0.0,-1000.0,-4.5,-4.5,-12.0,RTL,300000.0
08:30:32,-4.517523484537378e-05,0.0005948979669483379,-0.40263935923576355,-0.001271549059310928,-0.0001326377096120268,-0.023575487546622753,-35.3623824,149.16498984999998,44310.25,-5.75,9.0,-152.0,1.5,0.0,-1000.25,0.0,1.25,-22.0,RTL,96385.0
08:30:33,0.0011635405098786578,0.001295132824452594,-0.4285457134246826,0.0032837477046996355,0.0034684109268710017,-0.02645561285316944,-35.36238255,149.1649903,45871.5,-3.0,5.0,-152.0,0.0,0.0,-1000.0,4.0,4.5,-24.5,RTL,96385.0
08:30:35,0.0030654558213427663,0.0038772133411839604,-0.47788070142269135,0.0005475317593663931,0.0008710137335583568,-0.02125003095716238,-35.3623826,149.1649906,48996.0,-2.0,4.0,-152.0,0.0,0.0,-1000.0,2.0,1.5,-19.5,RTL,96385.0
08:30:36,0.002979774202685803,0.003464472130872309,-0.4980815127491951,0.0009779242827789858,0.0005489766044775024,-0.015901637729257345,-35.3623826,149.16499075000002,50549.25,-2.0,5.0,-152.0,0.0,0.0,-999.75,2.0,1.75,-14.25,RTL,87543.0
08:30:37,0.005003116792067885,0.005292763002216816,-0.4970148503780365,-0.00043060549069195986,0.0026709409430623055,0.014956678729504347,-35.3623826,149.164991,52105.0,-2.0,6.0,-152.0,0.0,0.0,-999.5,1.0,3.5,16.0,RTL,87543.0
08:30:39,0.0007542115490650758,0.001351010985672474,-0.4474930763244629,0.0019919174374081194,0.0009115443681366742,0.025411037728190422,-35.3623827,149.16499195,55209.5,-1.0,5.5,-152.0,0.0,0.0,-1000.0,3.0,1.5,26.0,RTL,87543.0
08:30:40,0.000755004002712667,0.0012390227348078042,-0.42546431720256805,0.0008666561916470528,0.00032330266549251974,0.020535536110401154,-35.3623827,149.16499212500003,56766.5,-0.25,2.75,-152.0,0.0,0.0,-999.75,2.0,1.5,21.25,RTL,300000.0
08:30:41,0.0019122606609016657,0.0013603140832856297,-0.4070117026567459,0.001422686327714473,0.00012695026816800237,0.018671357072889805,-35.3623827,149.1649921,58323.5,0.0,1.5,-152.0,0.0,0.0,-1000.0,2.5,1.0,19.0,RTL,300000.0
08:30:43,0.002733767032623291,0.0018897996633313596,-0.3770478367805481,4.0348939364776015e-05,0.0032449850696139038,0.012581278569996357,-35.3623827,149.16499184999998,61429.0,0.0,1.0,-152.0,0.0,0.0,-999.5,1.0,4.5,13.5,RTL,300000.0
08:30:44,0.0031987897236831486,0.0028089063125662506,-0.365165650844574,0.0005375134496716782,0.0008458617085125297,0.012061136541888118,-35.362382624999995,149.164991725,62982.25,0.0,1.0,-152.0,0.0,0.0,-1000.0,1.5,1.75,12.75,RTL,300000.0
08:30:45,0.0028062338242307305,0.0023192965891212225,-0.3549519330263138,-1.3492070138454437e-05,0.0010931889992207289,0.01105926651507616,-35.3623826,149.1649916,64535.0,-0.5,2.0,-152.0,0.0,0.0,-999.5,1.0,2.5,12.0,RTL,300000.0
08:30:47,0.002604930428788066,0.0020116871455684304,-0.3380096107721329,-0.0022083543008193374,-0.00043921859469264746,0.006930740084499121,-35.3623825,149.16499155000002,67642.0,-1.0,2.0,-152.0,0.0,0.0,-1000.0,-0.5,0.5,8.0,RTL,300000.0
08:30:48,0.0027413569623604417,0.0017731939151417464,-0.3309222385287285,0.0008660007733851671,0.0006980329053476453,0.007886909763328731,-35.3623825,149.1649915,69193.75,-1.0,2.0,-152.0,0.0,0.0,-1000.0,2.0,2.0,8.75,RTL,300000.0
08:30:49,0.0025434241397306323,0.001946717209648341,-0.32473090291023254,0.0011172960512340069,0.0001353772240690887,0.006038796156644821,-35.3623825,149.1649915,70747.0,-1.0,2.0,-152.0,0.0,0.0,-1000.5,2.5,1.5,7.0,RTL,300000.0
08:30:51,0.002971003414131701,0.0018897137488238513,-0.31301580369472504,-6.671424489468336e-05,0.0014032538165338337,0.005862486781552434,-35.3623825,149.16499145,73851.0,-1.0,2.0,-152.0,0.0,0.0,-1000.0,1.0,2.5,7.0,RTL,300000.0
08:30:52,0.0025860428577288985,0.0019525014504324645,-0.3074224591255188,-0.00022453468409366906,-0.00016789615619927645,0.006984793813899159,-35.3623825,149.1649914,75403.0,-1.0,2.0,-152.0,0.0,0.0,-999.75,1.25,1.0,8.0,RTL,47748.0
08:30:53,0.0026465256232768297,0.0018700643558986485,-0.3023032248020172,-0.0011078999377787113,0.000894763448741287,0.004303388297557831,-35.3623825,149.1649914,76955.5,-1.0,2.0,-152.0,0.0,0.0,-1000.0,0.0,2.0,5.0,RTL,47748.0
08:30:55,0.002320548170246184,0.0016878562164492905,-0.29348771274089813,-0.0004908061819151044,-0.0005812680174130946,0.005435202037915587,-35.3623825,149.1649914,80065.0,-1.0,2.0,-152.0,0.0,0.0,-1000.0,1.5,0.5,6.5,RTL,47748.0
08:30:56,0.0023549619363620877,0.0017142760043498129,-0.2895742505788803,0.00018514471594244242,0.00026929480372928083,0.004609064024407417,-35.3623825,149.1649914,81618.25,-1.0,1.25,-152.0,0.0,0.0,-1000.0,1.75,1.5,6.0,RTL,271134.0
08:30:57,0.002470999024808407,0.0017117849783971906,-0.2857350558042526,-0.0016846046200953424,-0.0003253147006034851,0.005206292495131493,-35.3623825,149.1649914,83172.0,-1.0,1.0,-152.0,0.0,0.0,-1000.0,0.5,1.0,6.5,RTL,271134.0
08:30:59,0.0025092686992138624,0.0017307313391938806,-0.27922700345516205,0.0008792371954768896,0.0010282829753123224,0.004347238689661026,-35.3623825,149.1649914,86282.0,-1.0,1.0,-152.0,0.0,0.0,-1000.0,2.0,2.0,6.0,RTL,271134.0
08:31:00,0.002486358454916626,0.0018427470058668405,-0.27640350908041,-0.0006078382430132478,0.00037375575629994273,0.0030852997733745724,-35.3623825,149.1649914,87831.25,-1.0,1.0,-152.0,0.0,0.0,-999.75,1.0,1.75,4.25,RTL,300000.0
08:31:01,0.0025583120295777917,0.0016931862919591367,-0.27351832389831543,3.7764140870422125e-05,0.0004737754352390766,0.005829567089676857,-35.3623825,149.1649914,89393.0,-1.0,1.0,-152.0,0.0,0.0,-999.5,1.5,2.0,7.5,RTL,300000.0
08:31:03,0.0025185797130689025,0.001792157650925219,-0.2682753801345825,0.000258101848885417,0.001635757857002318,0.0021279199863784015,-35.3623825,149.1649914,92499.5,-1.0,1.0,-152.0,0.0,0.0,-999.5,1.5,3.0,3.5,RTL,300000.0
08:31:04,0.0021786732831969857,0.0015855125966481864,-0.26611340790987015,-0.0001261892612092197,8.05566378403455e-05,0.002372983319219202,-35.3623825,149.1649914,94052.75,-1.0,1.0,-152.0,0.0,0.0,-1000.0,1.75,1.5,3.75,RTL,290901.0
08:31:05,0.002053377218544483,0.0016702504362910986,-0.26409412920475006,0.0004152336623519659,0.0004271657671779394,0.001990520628169179,-35.3623825,149.1649915,95606.0,-1.0,1.0,-152.0,0.0,0.0,-1000.5,2.0,1.5,3.0,RTL,290901.0
08:31:07,0.0023596821120008826,0.0015413887449540198,-0.26034964621067047,-0.00047835928853601217,0.0008049195166677237,0.0015732129686512053,-35.3623825,149.1649914,98716.0,-1.0,1.0,-152.0,0.0,0.0,-999.5,1.0,2.0,3.0,RTL,290901.0
08:31:08,0.002077719895169139,0.0017097113304771483,-0.2584044188261032,-0.00039378253859467804,0.0005969796620775014,0.002772255742456764,-35.3623825,149.1649914,100267.5,-1.0,1.0,-152.0,0.0,0.0,-1000.0,1.0,2.0,4.25,RTL,164833.0
08:31:09,0.0025002540787681937,0.0015759383095428348,-0.25612255930900574,0.0017248709918931127,-8.347886614501476e-05,0.0031613530009053648,-35.3623825,149.1649914,101822.0,-1.0,1.0,-152.0,0.0,0.0,-1000.0,3.5,1.5,4.5,RTL,164833.0
08:31:11,0.0024376927176490426,0.0017391634755767882,-0.2533160299062729,8.120888378471136e-05,0.0004961455706506968,0.0016791727975942194,-35.3623825,149.1649914,104928.5,-1.0,1.0,-152.0,0.0,0.0,-1000.0,1.5,2.0,3.0,RTL,164833.0
08:31:12,0.0024543205508962274,0.0015973815170582384,-0.25204309821128845,0.00043316715164110065,0.00022562974481843412,0.0017382159130647779,-35.3623825,149.1649914,106481.5,-1.0,1.0,-152.0,0.0,0.0,-999.75,2.0,2.0,3.25,RTL,108343.0
08:31:13,0.002390113193541765,0.0017005021218210459,-0.2508458346128464,-0.0005616574198938906,4.187633749097586e-06,0.002419034019112587,-35.3623825,149.1649914,108035.0,-1.0,1.0,-152.0,0.0,0.0,-999.5,1.0,1.5,4.0,RTL,108343.0
08:31:15,0.0021837319945916533,0.0015416305395774543,-0.24885202944278717,-6.664084503427148e-05,-0.0004269310738891363,0.0034697377122938633,-35.3623825,149.1649914,111145.5,-1.0,1.0,-152.0,0.0,0.0,-999.5,2.0,1.0,4.5,RTL,108343.0
08:31:16,0.0020250834058970213,0.0015368421445600688,-0.2477058693766594,0.0009100888564717025,-0.000548375683138147,0.0024583554186392576,-35.3623825,149.16499147500002,112706.5,-1.0,1.0,-152.0,0.0,0.0,-1000.25,2.5,1.25,3.75,RTL,175708.0
08:31:17,0.002094992669299245,0.0016638808301649988,-0.24682797491550446,-0.00041495298501104116,6.388151086866856e-05,0.0006116045697126538,-35.3623825,149.1649915,114256.0,-1.0,1.0,-152.0,0.0,0.0,-1000.0,1.0,2.0,2.0,RTL,175708.0
08:31:19,0.0023797389585524797,0.001648015168029815,-0.24510472267866135,0.0007259794510900974,0.0005818182835355401,0.0004653524956665933,-35.3623825,149.1649915,117363.0,-1.0,1.0,-152.0,0.0,0.0,-1000.0,2.0,2.5,2.5,RTL,175708.0
08:31:20,0.002167593047488481,0.001575877977302298,-0.244413573294878,0.0011377023765817285,4.0778424590826035e-05,0.0006255123589653522,-35.3623825,149.1649915,118913.75,-1.0,1.0,-152.0,0.0,0.0,-1000.25,2.75,1.25,2.0,RTL,300000.0
08:31:21,0.002220276277512312,0.0015703042154200375,-0.2437845766544342,0.0011417220812290907,-2.3199012503027916e-05,0.0017023607506416738,-35.3623825,149.1649915,120471.5,-1.0,1.0,-152.0,0.0,0.0,-1000.0,3.0,1.5,3.0,RTL,300000.0
08:31:23,0.002626494038850069,0.001713387726340443,-0.24236096441745758,-0.0012862516450695693,0.0008750588167458773,0.0005692727281711996,-35.3623825,149.1649915,123581.5,-1.0,1.0,-152.0,0.0,0.0,-999.0,0.5,2.5,2.0,RTL,300000.0
08:31:24,0.0023211773950606585,0.0017697633302304894,-0.24180176109075546,0.0013192282640375197,0.0009993569692596793,0.0018610167608130723,-35.3623825,149.1649915,125139.0,-1.0,1.0,-152.0,0.0,0.0,-1000.25,3.25,2.75,3.5,RTL,64865.0
08:31:25,0.0022681199479848146,0.001729972951579839,-0.24052021652460098,-4.6791217755526304e-05,0.00043349084444344044,0.0005215144483372569,-35.3623825,149.1649915,126690.5,-1.0,1.0,-152.0,0.0,0.0,-999.5,1.5,2.5,1.5,RTL,64865.0
08:31:27,0.002375626238062978,0.001733011449687183,-0.2399422451853752,0.0016257017850875854,0.000363512197509408,-7.460633059963584e-05,-35.3623825,149.1649915,129797.5,-1.0,1.0,-152.0,0.0,0.0,-1000.5,3.5,2.0,1.5,RTL,64865.0
08:31:28,0.0022705772425979376,0.0016306487086694688,-0.23945803195238113,0.0015394243819173425,0.0004812204570043832,0.0020308244857005775,-35.3623825,149.1649915,131348.5,-1.0,1.0,-152.0,0.0,0.0,-999.75,3.5,2.25,3.75,RTL,300000.0
08:31:29,0.002033847034908831,0.0016490001580677927,-0.23899438232183456,0.0011983854928985238,0.0010098902275785804,0.0013549949508160353,-35.3623825,149.1649915,132901.5,-1.0,1.0,-152.0,0.0,0.0,-999.5,3.0,2.5,3.0,RTL,300000.0
08:31:31,0.0021739124786108732,0.001615293906070292,-0.23857517540454865,0.0007651741616427898,0.00026177556719630957,0.0008094105869531631,-35.3623825,149.1649915,136009.0,-1.0,1.0,-152.0,0.0,0.0,-1000.0,2.5,2.0,2.5,RTL,300000.0
08:31:32,0.002322214422747493,0.001568158040754497,-0.23808666691184044,0.0006421128346119076,0.0002257541345898062,0.0011170649668201804,-35.3623825,149.1649915,137565.5,-1.0,1.0,-152.0,0.0,0.0,-1000.0,2.5,1.75,2.75,RTL,300000.0
08:31:33,0.002238775952719152,0.0015040653524920344,-0.2378268614411354,0.0011953443754464388,0.0012959768064320087,0.001612964435480535,-35.3623825,149.1649915,139118.0,-1.0,1.0,-152.0,0.0,0.0,-999.5,3.0,3.0,3.5,RTL,300000.0
08:31:35,0.0025766793405637145,0.0017055892967619002,-0.2372894585132599,-0.000833629397675395,-0.00012845743913203478,0.0005956359673291445,-35.3623825,149.1649915,142227.5,-1.0,1.0,-152.0,0.0,0.0,-999.5,1.5,2.0,2.0,RTL,300000.0
08:31:36,0.0023490175371989608,0.0016988209099508822,-0.23690618202090263,2.283116918988526e-05,-0.0002520789857953787,-0.0001925360702443868,-35.3623825,149.1649915,143787.75,-1.0,1.0,-152.0,0.0,0.0,-1000.25,2.0,2.0,1.5,RTL,300000.0
08:31:37,0.0021495140390470624,0.001737305079586804,-0.23698609322309494,0.0015463323798030615,0.0001829779357649386,0.0019770044600591063,-35.3623825,149.1649915,145339.0,-1.0,1.0,-152.0,0.0,0.0,-999.5,3.5,2.0,3.5,RTL,300000.0
08:31:39,0.0020905256387777627,0.0016235870425589383,-0.2363949939608574,-0.0004576388746500015,0.000583278015255928,0.0020598628325387836,-35.3623825,149.1649915,148445.5,-1.0,1.0,-152.0,0.0,0.0,-999.5,1.5,2.5,3.5,RTL,300000.0
08:31:40,0.00181788086774759,0.001653327519306913,-0.23648181930184364,-0.0006251391896512359,0.0006129565299488604,0.0004432877176441252,-35.3623825,149.1649915,149995.75,-1.0,1.0,-152.0,0.0,0.0,-999.5,1.5,2.5,2.25,RTL,204607.0
08:31:41,0.0020555349765345454,0.0017226858180947602,-0.23559954017400742,0.003194225486367941,0.0006463609170168638,0.00044396077282726765,-35.3623825,149.1649915,151553.5,-1.0,1.0,-152.0,0.0,0.0,-1001.0,5.0,2.5,2.5,RTL,204607.0
08:31:43,0.0021393996430560946,0.0015927519998513162,-0.23529735207557678,-0.001001563563477248,0.0014996660174801946,0.0012172358692623675,-35.3623825,149.1649915,154664.5,-1.0,1.0,-152.0,0.0,0.0,-999.5,1.0,3.5,3.0,RTL,204607.0
08:31:44,0.0021847166935913265,0.0017097409290727228,-0.23525071889162064,0.0010461833444423974,9.924487676471472e-05,0.0014926926814951003,-35.3623825,149.1649915,156220.0,-1.0,1.0,-152.0,0.0,0.0,-1000.25,3.0,2.25,3.25,RTL,166700.0
08:31:45,0.0021146938670426607,0.0015050732181407511,-0.23516685515642166,0.001641187584027648,0.0004942415980622172,0.0001502427039667964,-35.3623825,149.1649915,157773.5,-1.0,1.0,-152.0,0.0,0.0,-1000.0,3.5,2.5,2.0,RTL,166700.0
08:31:47,0.0021533260587602854,0.001607124984730035,-0.23502250760793686,-0.001571507891640067,0.0007859393954277039,-0.000792869774159044,-35.3623825,149.1649915,160881.0,-1.0,1.0,-152.0,0.0,0.0,-1000.0,1.0,2.5,0.5,RTL,166700.0
08:31:48,0.0023757482995279133,0.0018247863627038896,-0.2350638248026371,0.0007554026960860938,2.910610055550933e-05,-0.0005190419033169746,-35.3623825,149.1649915,162432.75,-1.0,1.0,-152.0,0.0,0.0,-1000.25,3.0,2.0,1.5,RTL,300000.0
08:31:49,0.0024386097211390734,0.001500897982623428,-0.23493313789367676,-0.0011415972840040922,-0.0006319896783679724,0.0011504199355840683,-35.3623825,149.1649915,163986.5,-1.0,1.0,-152.0,0.0,0.0,-999.5,1.0,1.5,3.0,RTL,300000.0
08:31:51,0.002294743899255991,0.0015530145028606057,-0.2347225323319435,-4.963134415447712e-06,-0.00031421263702213764,-0.0014099671971052885,-35.3623825,149.1649915,167093.5,0.0,1.0,-152.0,0.0,0.0,-1000.0,2.5,2.0,0.5,RTL,300000.0
08:31:52,0.0023109297617338598,0.0015910059737507254,-0.2348434366285801,-0.0005645304336212575,-1.089967554435134e-05,0.0009373564680572599,-35.3623825,149.1649915,168649.5,0.0,1.0,-152.0,0.0,0.0,-1000.0,1.75,2.25,2.75,RTL,200.0
08:31:53,0.0020822950755245984,0.00180033128708601,-0.23462218791246414,0.0010141836246475577,0.0013013716088607907,0.0030702841468155384,-35.3623825,149.1649915,170203.0,0.0,1.0,-152.0,0.0,0.0,-999.5,3.5,3.5,5.0,RTL,200.0
08:31:55,0.0021638775942847133,0.0015936433337628841,-0.23462600260972977,-0.0007611273904331028,-8.22143629193306e-05,-0.0005897934315726161,-35.3623825,149.1649915,173310.0,-1.0,1.0,-152.0,0.0,0.0,-1000.0,1.5,2.0,1.5,RTL,200.0
08:31:56,0.0022115722531452775,0.0015908211353234947,-0.23444150388240814,0.0009282205137424171,0.00029889977304264903,0.0004936123441439122,-35.3623825,149.1649915,174867.5,-1.0,1.0,-152.0,0.0,0.0,-1000.0,3.0,2.5,2.5,RTL,200.0
08:31:57,0.0021062042796984315,0.0017209045472554862,-0.2337835654616356,0.00037974980659782887,0.0010915008606389165,0.002814693027175963,-35.3623825,149.1649915,176423.0,-1.0,1.0,-152.0,0.0,0.0,-999.5,3.0,3.5,4.5,RTL,200.0
08:31:59,0.0021791510516777635,0.001490532886236906,-0.23377106338739395,0.0013033801224082708,0.001414393074810505,0.00026553357020020485,-35.3623825,149.1649915,179526.5,-1.0,1.0,-152.0,0.0,0.0,-1000.5,4.0,3.5,2.5,RTL,200.0
08:32:00,0.0021148145315237343,0.001563169265864417,-0.23384719341993332,0.0009824378066696227,0.0009683789103291929,0.001003040641080588,-35.3623825,149.1649915,181079.75,-1.0,1.0,-152.0,0.0,0.0,-1000.0,3.5,3.5,3.25,RTL,200.0
08:32:01,0.002180614275857806,0.0015921199228614569,-0.23377109318971634,0.0009207834955304861,-0.00032530317548662424,0.00039778859354555607,-35.3623825,149.1649915,182634.5,-1.0,1.0,-152.0,0.0,0.0,-1000.0,3.0,2.0,2.5,RTL,200.0
08:32:03,0.002376962569542229,0.0016923693474382162,-0.23379059880971909,-5.718180909752846e-05,-0.00011182634625583887,0.0009971762774512172,-35.3623825,149.1649915,185749.0,-1.0,1.0,-152.0,0.0,0.0,-1000.0,2.5,2.0,3.5,RTL,200.0
08:32:04,0.002156151400413364,0.0016279130650218576,-0.23373958095908165,7.007489330135286e-05,0.00033603119663894176,0.0015358560485765338,-35.3623825,149.1649915,187303.75,-1.0,1.0,-152.0,0.0,0.0,-999.5,2.25,2.75,3.5,RTL,300000.0
08:32:05,0.0019500054186210036,0.0016667584422975779,-0.233902245759964,-0.0007720427820459008,-0.00040650973096489906,-0.0007546955603174865,-35.3623825,149.1649915,188857.5,-1.0,1.0,-152.0,0.0,0.0,-1000.0,1.5,2.0,1.5,RTL,300000.0
08:32:07,0.00217079883441329,0.0011212495737709105,-0.2338646724820137,0.001396740204654634,-0.0003364303847774863,0.002147289924323559,-35.3623825,149.1649915,191963.0,-0.5,1.0,-152.0,0.0,0.0,-1000.0,4.0,2.0,4.5,RTL,300000.0
08:32:08,0.0023630118230357766,0.0013405269419308752,-0.23359466344118118,0.0005801293300464749,0.0006608982803300023,0.0007656681118533015,-35.3623825,149.1649915,193517.0,0.0,1.0,-152.0,0.0,0.0,-999.75,3.0,3.0,3.0,RTL,200.0
08:32:09,0.002179629518650472,0.0015882027219049633,-0.23393389582633972,9.447603952139616e-05,0.0009649733547121286,0.0003644016105681658,-35.3623825,149.1649915,195070.0,0.0,1.0,-152.0,0.0,0.0,-999.5,2.5,3.0,2.5,RTL,200.0
08:32:11,0.0021965622436255217,0.0019067998509854078,-0.2340700626373291,-0.0018114479025825858,-0.0006425270112231374,0.0012405846500769258,-35.3623825,149.1649915,198178.5,-0.5,1.0,-152.0,0.0,0.0,-1000.0,1.0,1.5,3.5,RTL,200.0
08:32:12,0.002085514017380774,0.0016937790787778795,-0.23394301533699036,0.0009600388002581894,-0.00012141518527641892,0.0014947140007279813,-35.3623825,149.1649915,199730.0,-1.0,1.0,-152.0,0.0,0.0,-1000.0,3.75,2.0,4.0,RTL,275408.0
08:32:13,0.0021095453994348645,0.0017064433777704835,-0.23364991694688797,-0.0025003773625940084,0.00021264899987727404,-0.0008665263885632157,-35.3623825,149.1649915,201285.5,-1.0,1.0,-152.0,0.0,0.0,-1000.0,0.0,2.5,1.0,RTL,275408.0
08:32:15,0.0021694625029340386,0.001381190842948854,-0.2331801801919937,0.0005994016537442803,-0.000729820691049099,0.0005275685107335448,-35.3623825,149.1649915,204392.0,-1.0,1.0,-152.0,0.0,0.0,-1000.0,3.0,2.0,2.5,RTL,275408.0
08:32:16,0.0021885211463086307,0.0016306595935020596,-0.23316698893904686,0.0006289601442404091,0.0014986891765147448,0.00023575325030833483,-35.3623825,149.1649915,205947.75,-1.0,1.0,-152.0,0.0,0.0,-999.75,3.25,3.75,2.5,RTL,241596.0
08:32:17,0.002322095795534551,0.0016232557245530188,-0.2333192601799965,-0.0011917479569092393,0.0001989654265344143,-0.0012632012367248535,-35.3623825,149.1649915,207505.5,-1.0,1.0,-152.0,0.0,0.0,-1000.0,1.5,2.5,0.5,RTL,241596.0
08:32:19,0.0022075010929256678,0.0016978845233097672,-0.233338862657547,-0.0010692186187952757,-0.0010786551283672452,0.0012527777580544353,-35.3623825,149.1649915,210607.5,-1.0,1.0,-152.0,0.0,0.0,-1000.0,1.5,1.5,3.5,RTL,241596.0
08:32:20,0.002195506473071873,0.0016460667829960585,-0.23330587148666382,2.511916682124138e-05,0.0007450500270351768,0.000620518228970468,-35.3623825,149.1649915,212161.0,-1.0,1.0,-152.0,0.0,0.0,-1000.0,2.5,3.25,3.0,RTL,97280.0
08:32:21,0.001816811680328101,0.0016294823726639152,-0.2335752695798874,-0.0011904450948350132,-0.00011198129504919052,0.001199198653921485,-35.3623825,149.1649915,213715.0,-1.0,1.0,-152.0,0.0,0.0,-999.5,1.5,2.5,3.5,RTL,97280.0
08:32:23,0.0021634725853800774,0.0017272791010327637,-0.23367001116275787,0.0003391003701835871,-0.0001625788863748312,-0.0012567754602059722,-35.3623825,149.1649915,216830.0,-1.0,1.0,-152.0,0.0,0.0,-1000.0,3.0,2.0,1.0,RTL,97280.0
08:32:24,0.0023067438160069287,0.0014454578631557524,-0.23346148431301117,0.0009319722885265946,0.0005126773612573743,0.0010962926608044654,-35.3623825,149.1649915,218383.75,-1.0,1.0,-152.0,0.0,0.0,-999.75,3.75,2.75,3.5,RTL,173221.0
08:32:25,0.0020751941483467817,0.0015991766122169793,-0.23353731632232666,0.00023627677001059055,0.00025734317023307085,0.0019053798168897629,-35.3623825,149.1649915,219937.5,-1.0,1.0,-152.0,0.0,0.0,-1000.0,3.0,3.0,4.5,RTL,173221.0
08:32:27,0.002437272574752569,0.0012073362595401704,-0.23357883095741272,0.002743425313383341,0.00041539373341947794,0.0005414176266640425,-35.3623825,149.1649915,223043.5,0.0,1.0,-152.0,0.0,0.0,-1000.0,5.0,3.0,3.5,RTL,173221.0
08:32:28,0.0022140233195386827,0.0015324031410273165,-0.2337564267218113,-0.0011987249599769711,0.000738188624382019,-0.0002714332367759198,-35.3623825,149.1649915,224596.75,0.0,1.0,-152.0,0.0,0.0,-999.75,1.5,3.5,2.25,RTL,159396.0
08:32:29,0.002151494729332626,0.001662599854171276,-0.23339956253767014,-0.000488742021843791,0.0003368163015693426,-0.00025599775835871696,-35.3623825,149.1649915,226151.0,-0.5,1.0,-152.0,0.0,0.0,-999.5,2.5,2.5,2.5,RTL,159396.0
08:32:31,0.0021540140733122826,0.0015938786673359573,-0.233051635324955,0.0007203990826383233,-0.0004833777202293277,4.112091846764088e-05,-35.3623825,149.1649915,229261.0,-1.0,1.0,-152.0,0.0,0.0,-1000.0,3.5,2.5,2.5,RTL,159396.0
08:32:32,0.002566687879152596,0.0017902763793244958,-0.23291897401213646,0.0010489990818314254,0.00047521089436486363,0.0017606511828489602,-35.3623825,149.1649915,230813.25,-1.0,1.0,-152.0,0.0,0.0,-1000.0,3.75,3.25,4.25,RTL,300000.0
08:32:33,0.0023822584189474583,0.0015878446865826845,-0.23292582482099533,0.0001235160161741078,0.0002712259301915765,0.00038709607906639576,-35.3623825,149.1649915,232366.5,-1.0,1.0,-152.0,0.0,0.0,-1000.0,3.0,3.0,2.5,RTL,300000.0
08:32:35,0.0020542959682643414,0.0016851747641339898,-0.2333313375711441,-0.0009538187296129763,-0.0011559634003788233,0.000921873957850039,-35.3623825,149.1649915,235474.0,-1.0,1.0,-152.0,0.0,0.0,-1000.0,2.0,1.5,3.5,RTL,300000.0
08:32:36,0.0018768450245261192,0.0015080594166647643,-0.23342489451169968,1.7002748791128397e-05,0.0008353707962669432,-0.0008901897235773504,-35.3623825,149.1649915,237031.5,-1.0,1.0,-152.0,0.0,0.0,-1000.0,3.0,3.5,1.75,RTL,40315.0
08:32:37,0.002077015000395477,0.0016372798709198833,-0.23340502381324768,0.0009533374104648829,-0.0002964363666251302,0.000144379329867661,-35.3623825,149.1649915,238585.5,-1.0,1.0,-152.0,0.0,0.0,-1000.0,4.0,2.0,2.5,RTL,40315.0
08:32:39,0.0021297282073646784,0.0015244274982251227,-0.23349812626838684,-0.0005568877095356584,-0.0007890034466981888,0.001963479444384575,-35.3623825,149.1649915,241692.0,-1.0,1.0,-152.0,0.0,0.0,-1000.0,2.0,1.5,4.5,RTL,40315.0
08:32:40,0.002081770624499768,0.0016339173598680645,-0.23344428464770317,0.0005396327469497919,0.0004441693890839815,0.0007339941803365946,-35.3623825,149.1649915,243252.75,-1.0,1.0,-152.0,0.0,0.0,-1000.0,3.5,3.5,3.25,RTL,169494.0
08:32:41,0.0021077917190268636,0.0016641339170746505,-0.23362194746732712,0.0011246184585615993,-0.0002906244480982423,0.0008846968412399292,-35.3623825,149.1649915,244802.5,-1.0,1.0,-152.0,0.0,0.0,-999.5,4.0,2.5,3.5,RTL,169494.0
08:32:43,0.002356903627514839,0.0010736510157585144,-0.23368722945451736,0.0010871886042878032,-0.00043783371802419424,0.0007739102002233267,-35.3623825,149.1649915,247913.0,-0.5,1.0,-152.0,0.0,0.0,-1000.0,4.0,2.5,3.0,RTL,169494.0
08:32:44,0.002371612819842994,0.001348850375507027,-0.23358436301350594,0.0003486952045932412,0.0003507511573843658,0.0006821966380812228,-35.3623825,149.1649915,249467.0,0.0,1.0,-152.0,0.0,0.0,-1000.0,3.5,3.0,3.0,RTL,263645.0
08:32:45,0.002159511437639594,0.0017339608166366816,-0.2331756129860878,0.00010593130718916655,0.00027010124176740646,7.847894448786974e-05,-35.3623825,149.1649915,251021.0,0.0,1.0,-152.0,0.0,0.0,-1000.0,3.5,3.0,2.5,RTL,263645.0
08:32:47,0.002572095370851457,0.0018600480980239809,-0.23286118358373642,0.0016921190544962883,-6.777758244425058e-05,0.0004977327771484852,-35.3623825,149.1649915,254127.5,-0.5,1.0,-152.0,0.0,0.0,-1000.5,5.0,2.5,3.5,RTL,263645.0
08:32:48,0.0023740643518976867,0.0018403645954094827,-0.23318587988615036,-0.00045595283154398203,0.00015248922863975167,-0.0005866931460332125,-35.3623825,149.1649915,255684.75,-1.0,1.0,-152.0,0.0,0.0,-1000.0,2.5,3.25,2.25,RTL,230763.0
08:32:49,0.0022419708548113704,0.0016759218415245414,-0.23315876722335815,-0.00015960668679326773,-0.0010479289339855313,0.001832796260714531,-35.3623825,149.1649915,257236.5,-1.0,1.0,-152.0,0.0,0.0,-1000.0,3.0,1.5,4.5,RTL,230763.0
08:32:51,0.0019752210355363786,0.0016024709912016988,-0.23309416323900223,0.001323268050327897,0.0002708479296416044,-0.0006322612753137946,-35.3623825,149.1649915,260344.0,-1.0,1.0,-152.0,0.0,0.0,-1000.5,4.5,3.0,2.5,RTL,230763.0
08:32:52,0.0020251759269740433,0.0016118810162879527,-0.2334572710096836,0.0003980411565862596,0.00027759099612012506,-0.0001845085935201496,-35.3623825,149.1649915,261895.25,-1.0,1.0,-152.0,0.0,0.0,-1000.0,3.25,3.25,2.75,RTL,62993.0
08:32:53,0.0021816707449033856,0.0015775387873873115,-0.23351935297250748,0.0011659936280921102,-9.118986781686544e-05,0.00023314577993005514,-35.3623825,149.1649915,263449.5,-1.0,1.0,-152.0,0.0,0.0,-1000.0,4.0,3.0,3.0,RTL,62993.0
08:32:55,0.002099336008541286,0.0016095988685265183,-0.23328939825296402,-4.583550617098808e-05,0.00031762849539518356,0.0014069796307012439,-35.3623825,149.1649915,266556.5,-1.0,1.0,-152.0,0.0,0.0,-1000.0,3.0,3.5,4.5,RTL,62993.0
08:32:56,0.0021284568938426673,0.0016866876685526222,-0.2333938218653202,0.0004672983195632696,0.000482025439850986,0.00012685713591054082,-35.3623825,149.1649915,268113.25,-1.0,1.0,-152.0,0.0,0.0,-1000.0,3.75,3.75,2.75,RTL,45978.0
08:32:57,0.0022142442176118493,0.0016043774085119367,-0.23340412229299545,0.0006898944266140461,0.0011781291104853153,0.0007649622857570648,-35.3623825,149.1649915,269666.5,-1.0,1.0,-152.0,0.0,0.0,-999.5,4.0,4.0,3.5,RTL,45978.0
08:32:59,0.0021920386934652925,0.0015351649490185082,-0.2335655689239502,0.001596673158928752,-0.0005844157421961427,0.0019540423527359962,-35.3623825,149.1649915,272773.5,-1.0,1.0,-152.0,0.0,0.0,-1000.0,5.0,2.5,4.5,RTL,45978.0
08:33:00,0.0023769386461935937,0.001061115792253986,-0.2332317791879177,0.00010485260281711817,-0.00012100738240405917,0.0003529680543579161,-35.3623825,149.1649915,274326.75,-0.25,1.0,-152.0,0.0,0.0,-1000.25,3.0,3.25,3.0,RTL,144943.0
08:33:01,0.0022791759110987186,0.0013240281259641051,-0.2334054559469223,0.003045547055080533,0.0012523771729320288,0.000518397893756628,-35.3623825,149.1649915,275298.0,0.0,1.0,-152.0,0.0,0.0,-1001.0,6.0,4.0,3.0,RTL,144943.0
08:33:03,0.0021906878100708127,0.0012828996987082064,-0.23301968723535538,0.0018794958014041185,0.001009344239719212,0.0013902137288823724,-35.3623825,149.1649915,278370.0,-0.5,1.0,-152.0,0.0,0.0,-999.5,5.0,4.0,4.5,RTL,144943.0
08:33:04,0.00213348725810647,0.0019332805532030761,-0.2330767810344696,0.0021284459508024156,0.00024292315356433392,0.0008685436623636633,-35.3623825,149.1649915,280312.25,-0.25,1.0,-152.0,0.0,0.0,-1000.5,5.5,3.5,3.5,RTL,254440.0
08:33:05,0.00211747440819939,0.001757873377452294,-0.23313132921854654,-0.0005417995465298494,-0.0006649569453050693,0.00032071792520582676,-35.3623825,149.1649915,281880.3333333333,-1.0,1.0,-152.0,0.0,0.0,-1000.0,2.6666666666666665,2.3333333333333335,3.0,RTL,254440.0
08:33:07,0.0022254609502851963,0.0015232311561703682,-0.23329229652881622,-0.0003242993261665106,0.0012117214500904083,0.0026620400603860617,-35.3623825,149.1649915,284628.0,-1.0,1.0,-152.0,0.0,0.0,-999.0,3.0,4.0,6.0,RTL,254440.0
08:33:08,0.0021755308262072504,0.001636423694435507,-0.23307956010103226,-0.0006168297259137034,0.0012970822281204164,-0.0004842037451453507,-35.3623825,149.1649915,286526.5,-1.0,1.0,-152.0,0.0,0.0,-999.5,2.5,4.75,2.75,RTL,253844.0
08:33:09,0.002076832694001496,0.0016821461031213403,-0.23313576728105545,-0.00010813609696924686,-0.0014934897189959884,0.001193089410662651,-35.3623825,149.1649915,287699.0,-1.0,1.0,-152.0,0.0,0.0,-1000.0,3.0,1.5,4.5,RTL,253844.0
08:33:11,0.002169017679989338,0.0015672199660912156,-0.23336536437273026,0.0009627634426578879,0.00029500515665858984,0.0004140459932386875,-35.3623825,149.1649915,290806.5,-1.0,1.0,-152.0,0.0,0.0,-999.5,4.5,4.0,3.5,RTL,253844.0
08:33:12,0.002294493548106402,0.0015201066271401942,-0.23327461257576942,0.0012580353650264442,-1.9900035113096237e-06,0.0013875765725970268,-35.3623825,149.1649915,292748.25,-1.0,1.0,-152.0,0.0,0.0,-999.75,5.0,3.25,4.5,RTL,284515.0
08:33:13,0.0020985626615583897,0.0014330240665003657,-0.23330620676279068,0.0003115107538178563,-0.0008030489552766085,0.0029139434918761253,-35.3623825,149.1649915,293913.0,-1.0,1.0,-152.0,0.0,0.0,-999.5,3.5,2.5,6.0,RTL,284515.0
08:33:15,0.0025668205926194787,0.001573010056745261,-0.23367493599653244,1.840200275182724e-05,-0.0006699153454974294,0.0010524893878027797,-35.3623825,149.1649915,297023.5,-1.0,1.0,-152.0,0.0,0.0,-1000.0,3.5,2.5,4.0,RTL,284515.0
08:33:16,0.0025508636026643217,0.001179147802758962,-0.23357181623578072,-3.072997787967324e-05,0.001083191717043519,0.0011597273987717927,-35.3623825,149.1649915,298962.25,-0.25,1.0,-152.0,0.0,0.0,-1000.0,3.25,4.5,4.25,RTL,270480.0
08:33:17,0.0024042912991717458,0.0014738577301613986,-0.23344534635543823,0.00044096645433455706,-6.540538743138313e-05,0.0007660830160602927,-35.3623825,149.1649915,300131.0,0.0,1.0,-152.0,0.0,0.0,-1000.0,4.0,3.0,4.0,RTL,270480.0
08:33:19,0.00201852509053424,0.0016735199023969471,-0.2324974462389946,-0.0007461836794391274,0.0012852632207795978,0.0015474209794774652,-35.3623825,149.1649915,303234.0,-1.0,1.0,-152.0,0.0,0.0,-999.5,3.0,5.0,4.5,RTL,270480.0
08:33:20,0.002079225640045479,0.0017338972829747945,-0.23313716426491737,0.001202007057145238,-3.412994556128979e-05,0.0017325576045550406,-35.3623825,149.1649915,305176.75,-1.0,1.0,-152.0,0.0,0.0,-999.75,4.75,3.25,4.75,RTL,72247.0
08:33:21,0.0023388118715956807,0.0017356157768517733,-0.2329295575618744,0.0005274203140288591,-0.0006305375136435032,0.0017160745337605476,-35.3623825,149.1649915,306342.5,-1.0,1.0,-152.0,0.0,0.0,-1000.0,4.0,3.0,5.0,RTL,72247.0
08:33:23,0.0020936044165864587,0.0016567673301324248,-0.23305267095565796,-0.0020870366133749485,-0.0007270113565027714,0.0007793300319463015,-35.3623825,149.1649915,309453.0,-1.0,1.0,-152.0,0.0,0.0,-999.5,1.5,3.0,4.0,RTL,72247.0
08:33:24,0.00215818831929937,0.001540275407023728,-0.2331812120974064,-0.0002280225744470954,-0.00037491897819563746,0.001231363508850336,-35.3623825,149.1649915,311395.0,-1.0,1.0,-152.0,0.0,0.0,-1000.0,3.5,3.0,4.25,RTL,200.0
08:33:25,0.0022130771540105343,0.0015800062683410943,-0.2332538142800331,-0.0009461084846407175,9.881681762635708e-06,-0.001263816375285387,-35.3623825,149.1649915,312559.5,-1.0,1.0,-152.0,0.0,0.0,-1000.0,3.0,3.5,2.0,RTL,200.0
08:33:27,0.0020776228047907352,0.0014910272439010441,-0.23334726691246033,-0.0007069642888382077,-0.00024987547658383846,0.00027808675076812506,-35.3623825,149.1649915,315667.0,-1.0,1.0,-152.0,0.0,0.0,-1000.5,3.0,3.5,3.5,RTL,200.0
08:33:28,0.002203911542892456,0.001580227690283209,-0.23330140858888626,0.000885994581039995,0.0004288963391445577,9.902298916131258e-05,-35.3623825,149.1649915,317613.0,-1.0,1.0,-152.0,0.0,0.0,-1000.0,4.5,4.0,3.25,RTL,200.0
08:33:29,0.002117915078997612,0.0015466500190086663,-0.2333611622452736,0.00045544153545051813,-0.00011172972153872252,0.0011835650075227022,-35.3623825,149.1649915,318782.5,-1.0,1.0,-152.0,0.0,0.0,-1000.0,4.0,3.5,4.5,RTL,200.0
08:33:31,0.0023520885733887553,0.0011819106875918806,-0.23347747325897217,-0.0008701060432940722,-0.0005250278627499938,0.002692713518626988,-35.3623825,149.1649915,321891.0,0.0,1.0,-152.0,0.0,0.0,-1000.0,2.5,3.0,6.0,RTL,200.0
08:33:32,0.002198633796069771,0.0014362721994984895,-0.23364383727312088,-0.0001914770109578967,0.0003521381295286119,-0.0004747820785269141,-35.3623825,149.1649915,323830.25,0.0,1.0,-152.0,0.0,0.0,-999.75,3.75,3.75,3.0,RTL,205916.0
08:33:33,0.0021997286239638925,0.001425942697096616,-0.23365847766399384,-3.449106588959694e-05,0.0006810030899941921,-0.0003629922866821289,-35.3623825,149.1649915,324996.0,0.0,1.0,-152.0,0.0,0.0,-999.5,4.0,4.0,3.0,RTL,205916.0
08:33:35,0.002049128874205053,0.0013144583790563047,-0.23303207010030746,-0.00043635384645313025,-0.00023209431674331427,-0.0007077108602970839,-35.3623825,149.1649915,328103.0,0.0,1.0,-152.0,0.0,0.0,-1000.0,3.5,3.5,3.0,RTL,205916.0
08:33:36,0.0018099014996550977,0.0016023563512135297,-0.23311950266361237,0.00034869625233113766,-0.000879795930813998,0.00039733806625008583,-35.3623825,149.1649915,330046.0,-0.25,1.0,-152.0,0.0,0.0,-1000.25,4.25,2.75,3.5,RTL,199757.0
08:33:37,0.0014358217013068497,0.0013166621210984886,-0.23318848758935928,-0.0013247242895886302,-0.0012933769030496478,-0.00039786752313375473,-35.3623825,149.16499155000002,331213.0,-1.0,1.0,-152.0,0.0,0.0,-1000.0,2.0,2.5,3.0,RTL,199757.0
08:33:39,0.0008066511945798993,0.0004444019723450765,-0.2333598956465721,-0.0005831049056723714,-0.00037045194767415524,-0.0008831776212900877,-35.3623825,149.16499165,334320.0,0.0,0.0,-152.0,0.0,0.0,-1000.5,3.0,3.0,2.5,RTL,199757.0
08:33:40,0.0015663042722735554,2.749102350207977e-06,-0.2333897463977337,0.0013637416996061802,-0.000601538282353431,0.0020388379343785346,-35.362382575,149.1649917,336258.25,0.0,0.0,-152.0,0.0,0.0,-999.75,5.0,3.25,5.5,RTL,200.0
08:33:41,0.0015169091057032347,-5.05564094055444e-06,-0.23304574191570282,-0.00038395123556256294,0.0009584722574800253,0.00039730232674628496,-35.3623826,149.1649917,337423.0,0.0,0.0,-152.0,0.0,0.0,-999.5,3.0,5.0,4.0,RTL,200.0
08:33:43,0.0008895998762454838,0.0004973880131728947,-0.23330621421337128,-0.0024967306526377797,-0.0004872202407568693,-0.0001323202159255743,-35.3623826,149.1649917,340541.0,0.0,0.0,-152.0,0.0,0.0,-1000.0,1.0,3.0,3.0,RTL,200.0
08:33:44,0.0007039801421342418,0.0012680554063990712,-0.233436431735754,0.0002849997254088521,3.802747232839465e-05,0.00043554313015192747,-35.3623826,149.1649917,342474.75,0.0,0.0,-152.0,0.0,0.0,-999.75,4.0,3.75,4.0,RTL,200.0
08:33:45,0.0008823041280265898,0.0008952452917583287,-0.23329076170921326,-0.00180935044772923,-0.002088992507196963,-0.00010919442865997553,-35.3623826,149.1649917,343639.5,0.0,0.0,-152.0,0.0,0.0,-999.5,2.0,1.5,3.5,RTL,200.0
08:33:47,0.0008929725445341319,-0.0003798720717895776,-0.23370442539453506,-0.0006014509126543999,-0.001979523221962154,-0.00018726428970694542,-35.3623826,149.1649917,346747.5,0.0,0.0,-152.0,0.0,0.0,-1000.0,3.0,2.0,3.5,RTL,200.0
08:33:48,0.000712255437974818,-0.0001892855342475741,-0.23334619030356407,0.00044105888810008764,0.0005914231878705323,0.0015071076340973377,-35.3623826,149.164991775,348696.0,0.0,0.0,-152.0,0.0,0.0,-1000.0,3.75,4.5,5.0,RTL,298932.0
08:33:49,0.0006316434883046895,0.0001039241560647497,-0.2332724928855896,-0.0008119711419567466,0.00033952621743083,9.559385944157839e-05,-35.3623826,149.1649918,349861.0,0.0,0.0,-152.0,0.0,0.0,-999.5,3.0,4.0,3.5,RTL,298932.0
08:33:51,0.0006503264012280852,-4.3632239794533234e-05,-0.2329607680439949,0.0014063406269997358,-0.000635641161352396,0.00021747732535004616,-35.3623826,149.1649918,352971.5,0.0,-1.0,-152.0,0.0,0.0,-999.5,5.0,3.0,3.5,RTL,298932.0
08:33:52,0.0007591874164063483,-5.124518793309107e-06,-0.23297682031989098,-0.00020514416974037886,7.888989057391882e-05,0.001052625011652708,-35.3623826,149.1649918,354910.5,0.0,-0.75,-152.0,0.0,0.0,-999.5,3.5,3.5,4.5,RTL,300000.0
08:33:53,0.0006454395479522645,-5.3448650760401506e-05,-0.23304883390665054,-0.0008070790208876133,-0.0012767631560564041,0.0011582893785089254,-35.3623826,149.1649918,356078.0,0.0,0.0,-152.0,0.0,0.0,-999.5,2.5,2.5,4.5,RTL,300000.0
08:33:55,0.0005354659369913861,-0.00018439375344314612,-0.23292694240808487,-0.0020760486368089914,-0.001772225950844586,0.0010584319243207574,-35.3623826,149.1649918,359182.5,0.0,-0.5,-152.0,0.0,0.0,-1000.0,1.5,1.5,4.5,RTL,300000.0
08:33:56,0.0005536138487514108,6.747688121322426e-05,-0.23312952741980553,-0.00010795262642204762,-0.00015106226783245802,-0.0005975827807560563,-35.3623826,149.1649918,361125.0,0.0,-1.0,-152.0,0.0,0.0,-999.75,3.5,3.5,3.0,RTL,217772.0
08:33:57,0.000506294090882875,-0.0001980582092073746,-0.23308932781219482,0.0004088766872882843,-0.00020974408835172653,6.70173903927207e-05,-35.3623826,149.1649918,362290.5,0.0,-1.0,-152.0,0.0,0.0,-1000.0,4.0,4.0,4.0,RTL,217772.0
08:33:59,-0.00020315234360168688,-0.00023209841310745105,-0.23324381560087204,0.00026271119713783264,-0.00027693179436028004,-0.00020403263624757528,-35.3623826,149.1649918,365401.0,0.0,-1.0,-152.0,0.0,0.0,-1000.0,4.0,3.0,3.5,RTL,217772.0
08:34:00,0.00010003219813370379,-0.000313623506372096,-0.2332080416381359,0.002341796178370714,-0.0003936602734029293,0.00041409849654883146,-35.3623826,149.1649919,367339.25,0.0,-1.0,-152.0,0.0,0.0,-1000.5,6.0,3.25,4.0,RTL,251163.0
08:34:01,0.0004793672706000507,-0.0006957592559047043,-0.23326177895069122,-0.0015188106335699558,-0.001405788236297667,-0.0010808341903612018,-35.3623826,149.1649919,368506.5,0.0,-1.0,-152.0,0.0,0.0,-1000.0,2.0,2.0,2.5,RTL,251163.0
08:34:03,0.0009112490224651992,-0.0002500572081771679,-0.2334642857313156,-0.0024262359365820885,-6.81212404742837e-05,-7.112720049917698e-05,-35.3623827,149.1649919,371624.0,1.0,-1.0,-152.0,0.0,0.0,-999.5,1.5,3.5,3.5,RTL,251163.0
08:34:04,0.0005928767131990753,-0.00010609600144562137,-0.23345313593745232,-0.0013976127956993878,-0.00019736477406695485,-0.001137188053689897,-35.3623827,149.1649919,373557.5,1.0,-1.0,-152.0,0.0,0.0,-1000.0,2.25,3.25,2.5,RTL,300000.0
08:34:05,0.000614467920968309,-0.00022836292919237167,-0.23354875296354294,0.0009735815692692995,-0.0005374563625082374,7.222185377031565e-05,-35.3623827,149.1649919,374731.5,0.0,-1.0,-152.0,0.0,0.0,-1000.0,4.5,3.0,3.5,RTL,300000.0
08:34:07,0.00026966437872033566,0.00021466720136231743,-0.2327328473329544,0.002485804259777069,-0.00015366612933576107,0.0017233614344149828,-35.3623827,149.1649919,377829.5,0.0,-1.0,-152.0,0.0,0.0,-1000.0,6.0,3.0,5.0,RTL,300000.0
08:34:08,-0.00032246363116428256,-0.000406956831284333,-0.23283734545111656,-0.00018984096823260188,-0.0003605973324738443,0.0006206254474818707,-35.3623827,149.1649919,379779.25,0.0,-1.0,-152.0,0.0,0.0,-1000.0,3.25,3.25,4.25,RTL,300000.0
08:34:09,-0.00013853558630216867,-0.00035691367520485073,-0.2330031841993332,-0.000741343479603529,3.2685697078704834e-05,0.0010386602953076363,-35.3623827,149.1649919,380944.0,0.0,-1.0,-152.0,0.0,0.0,-999.5,3.0,3.5,4.5,RTL,300000.0
08:34:11,0.00021304055553628132,-0.0005111565260449424,-0.23297804594039917,0.0005855273921042681,-0.0011129288468509912,-0.0013226242735981941,-35.3623827,149.1649919,384054.5,0.0,-1.0,-152.0,0.0,0.0,-1000.5,4.5,2.5,2.0,RTL,300000.0
08:34:12,0.0005847567881573923,0.0007212049240479246,-0.23302457481622696,0.001022745214868337,0.01106305152643472,0.0005136618856340647,-35.3623827,149.1649919,385993.75,0.5,-1.0,-151.75,0.0,0.0,-999.0,4.5,14.25,4.25,RTL,98027.0
08:34:13,0.0008886167488526553,0.025636806152760983,-0.23293478786945343,-0.0017743661301210523,0.05327019281685352,-0.001523035578429699,-35.3623828,149.1649919,387157.5,-5.0,0.0,-151.0,0.0,0.0,-999.0,2.0,57.0,2.0,RTL,98027.0
08:34:15,-0.012382224667817354,0.09979485720396042,-0.2333621308207512,-0.007506916765123606,0.0370439812541008,-0.0002630399540066719,-35.362391849999995,149.1649947,390165.5,-110.5,26.0,-140.5,21.0,9.0,-992.0,-3.0,40.5,3.5,RTL,98027.0
08:34:16,-0.0005149981006979942,0.17707690969109535,0.1416232364717871,0.05677646677941084,-0.07679066248238087,0.3208170235157013,-35.362411925,149.164998925,391586.25,-251.75,21.75,-72.75,53.5,15.75,-936.5,60.25,-72.75,324.25,RTL,202089.0
08:34:17,0.07388521358370781,0.12072627246379852,0.2735491394996643,0.018577360548079014,0.00015714392066001892,0.066369554027915,-35.36243105,149.1650017,391982.5,-314.0,48.5,-25.5,71.5,7.5,-941.0,22.0,4.0,70.5,RTL,202089.0
08:34:19,0.04418649896979332,0.23561056703329086,0.2550650089979172,-0.03877566382288933,0.059449028223752975,-0.024897504597902298,-35.362502,149.16502595,391696.0,-495.5,144.0,22.5,122.0,4.0,-1018.5,-35.0,62.5,-20.5,RTL,202089.0
08:34:20,0.02271604724228382,0.2448461875319481,0.20095108821988106,0.0038301562308333814,-0.03792315471218899,-0.041549323592334986,-35.36256735,149.16504752499998,391498.0,-648.75,157.25,5.75,144.0,9.25,-1007.0,7.25,-34.25,-37.0,RTL,204870.0
08:34:21,0.011290693189948797,0.22824812680482864,0.1521533951163292,0.011246354435570538,0.026593706104904413,-0.06901402957737446,-35.3626135,149.16506114999999,391470.5,-710.0,170.0,-2.0,158.5,21.5,-975.5,14.5,30.5,-64.5,RTL,204870.0
08:34:23,-0.07175875827670097,0.29958584904670715,-0.17203444242477417,0.022839662618935108,-0.030894261319190264,-0.2065635696053505,-35.362752099999994,149.16510095,391049.0,-847.0,191.5,80.0,184.5,71.0,-936.0,26.5,-27.0,-202.0,RTL,204870.0
08:34:24,-0.11545152962207794,0.11141507141292095,-0.26286013051867485,-0.013803419657051563,-0.07027130760252476,0.035904460470192134,-35.362851925,149.16512825,390374.25,-891.25,195.5,-16.25,188.75,107.5,-1103.5,-9.75,-66.0,39.5,RTL,51896.0
08:34:25,-0.10777654126286507,0.15535040199756622,-0.23456374555826187,0.03788263630121946,0.043856874108314514,0.03727733436971903,-35.362911,149.1651432,390657.5,-852.5,171.0,-36.0,175.5,82.0,-922.5,42.0,47.5,40.5,RTL,51896.0
08:34:27,-0.1063990630209446,0.10119444131851196,0.10517686605453491,0.06314303632825613,-0.24311238527297974,0.27006374299526215,-35.363056549999996,149.1651771,391659.0,-759.0,120.5,-46.0,172.5,44.5,-981.0,66.5,-238.5,273.5,RTL,51896.0
08:34:28,-0.026590061374008656,-0.03463932126760483,0.1648145467042923,0.717274084687233,-0.010288114077411592,-0.04612141381949186,-35.3631323,149.165193425,391936.0,-576.0,124.0,9.25,138.75,44.25,-968.75,720.0,-6.75,-42.25,RTL,192883.0
08:34:29,-0.03365536965429783,-0.015248732175678015,0.12845735624432564,-0.07536107301712036,0.025682111736387014,-0.10730448737740517,-35.3631676,149.16520435,391802.0,-459.5,129.5,18.0,118.0,-4.5,-1014.0,-73.0,28.5,-103.0,RTL,192883.0
08:34:31,-0.07937230542302132,-0.02140004187822342,0.07292765378952026,-0.6982357203960419,-0.051556773483753204,-0.05363697186112404,-35.36323204999999,149.1652295,391647.0,-266.5,69.0,1.0,72.0,-17.5,-1006.0,-694.5,-47.0,-49.0,RTL,192883.0
08:34:32,-0.054865727201104164,-0.0681440718472004,0.05113022401928902,-0.12456187792122364,-0.0016745436005294323,-0.030868529807776213,-35.3632554,149.16523697499997,391653.0,-140.25,20.75,0.0,35.25,-1.25,-999.0,-121.5,2.0,-26.75,RTL,57786.0
08:34:33,-0.037292057648301125,-0.054914336651563644,0.036688562482595444,0.4482257515192032,0.015174079686403275,-0.005425085197202861,-35.36326315,149.1652391,391652.0,-73.0,2.5,0.5,18.5,32.5,-1001.0,452.0,18.5,-1.0,RTL,57786.0
08:34:35,-0.008261648239567876,-0.020581364631652832,0.00728229247033596,-0.5956813097000122,0.022467246279120445,-0.009837251156568527,-35.3632683,149.16523949999998,391653.5,12.0,-14.5,0.0,-1.5,-33.5,-1001.5,-592.5,25.5,-5.5,RTL,57786.0
08:34:36,0.0009242305532097816,-0.004523326555499807,-0.005876745563000441,-0.058521468192338943,-0.018434360157698393,-0.010943544679321349,-35.363267650000004,149.16523895,391660.5,12.75,-7.25,0.0,-1.75,-5.5,-1000.75,-55.5,-15.0,-6.75,RTL,38344.0
08:34:37,0.00426566565874964,-0.013674823101609945,-0.012512378860265017,0.49361707270145416,-0.0010943796951323748,-0.014603684190660715,-35.363267300000004,149.1652385,391663.0,15.0,-4.5,0.0,-4.0,30.5,-996.5,497.5,1.5,-10.5,RTL,38344.0
08:34:39,0.024666501209139824,-0.002535157953388989,-0.02628025785088539,-0.09914250671863556,0.0014144334709271789,-0.009478777181357145,-35.36326525,149.165236,391662.0,18.5,9.0,0.0,-3.0,-17.0,-997.5,-97.0,4.0,-5.5,RTL,38344.0
08:34:40,0.020827854285016656,-0.0003643945838120999,-0.03442554082721472,0.13536693155765533,-0.0027107835630886257,-0.011083034798502922,-35.36326415,149.165235325,391666.25,13.5,16.25,0.25,-1.0,0.0,-999.25,138.75,0.25,-6.75,RTL,137057.0
08:34:41,0.012198233511298895,0.00021465142526722047,-0.03849782980978489,-0.128374844789505,-0.002473885891959071,-0.010096373967826366,-35.36326375,149.1652351,391666.5,11.5,19.5,2.0,-1.0,10.5,-973.5,-123.5,0.5,-5.5,RTL,137057.0
08:34:43,0.03698408976197243,0.0005686024087481201,-0.05133631080389023,1.1298211216926575,-0.0051699819741770625,-0.008731572655960917,-35.363263149999995,149.16523545,390491.0,8.0,20.0,116.0,0.5,12.5,-962.0,1132.0,-1.5,-4.5,RTL,137057.0
08:34:44,0.026202804874628782,-0.0012984519125893712,-0.05705247260630131,1.4079659283161163,-0.002063063671812415,-0.0016232384368777275,-35.3632631,149.165235575,389070.75,7.0,18.75,104.0,-0.75,64.75,-1026.75,1412.5,0.5,2.0,RTL,89635.0
08:34:45,0.030602704733610153,-0.0017685283673927188,-0.059755200520157814,1.5054005980491638,0.0014056065119802952,0.001438705949112773,-35.3632631,149.1652354,388292.0,7.0,19.0,102.5,-1.0,66.5,-1009.5,1510.0,3.5,4.5,RTL,89635.0
08:34:47,0.022715244442224503,0.001783045765478164,-0.06900167465209961,1.3030142784118652,0.0001669377088546753,-0.00406504503916949,-35.363262950000006,149.16523569999998,386230.5,8.0,20.0,98.0,1.5,55.5,-1000.5,1308.0,3.0,-0.5,RTL,89635.0
08:34:48,0.01127791334874928,0.0011585452739382163,-0.07345996983349323,1.347972333431244,-0.002866683033062145,-0.0009965079952962697,-35.3632628,149.1652369,384968.25,6.0,11.0,100.75,0.25,68.0,-1001.5,1353.5,-0.5,2.5,RTL,36907.0
08:34:49,0.008970439434051514,0.00021900674619246274,-0.07766228914260864,1.3334572911262512,-0.0016462429193779826,-0.007052759639918804,-35.3632628,149.1652372,384207.0,5.0,8.0,102.0,-1.5,81.5,-960.5,1340.0,1.0,-3.0,RTL,36907.0
08:34:51,-0.008983656531199813,-0.0017573971417732537,-0.08288883790373802,-0.28995975852012634,-0.0057449182495474815,-0.007727260235697031,-35.3632628,149.16523695,382178.5,4.0,6.5,99.0,-2.0,20.0,-1012.5,-282.0,-2.5,-4.0,RTL,36907.0
08:34:52,0.015515896957367659,-0.0019001961045432836,-0.08667820505797863,0.2972147110849619,0.0024701351940166205,0.0005874644266441464,-35.363262825,149.16523535,380901.0,5.0,12.5,103.75,-3.0,55.25,-985.75,304.75,4.25,3.75,RTL,200.0
08:34:53,0.006559726083651185,-0.0004922239168081433,-0.08832692354917526,-0.274342006072402,0.0027948360657319427,-0.01241218950599432,-35.3632629,149.1652345,380125.5,6.0,19.5,102.5,-2.5,42.5,-957.5,-265.5,5.0,-8.0,RTL,200.0
08:34:55,0.002289886528160423,0.0022981218062341213,-0.09352057054638863,-0.2028142400085926,-0.0014227366773411632,-0.0016783832106739283,-35.3632628,149.16523460000002,378076.5,6.5,26.5,99.0,0.5,27.0,-997.0,-194.5,1.0,1.5,RTL,200.0
08:34:56,-0.004806221346370876,0.002278575557284057,-0.09539122320711613,-0.6018587946891785,-0.007056331029161811,0.0015534425037913024,-35.3632627,149.16523527500001,376797.25,5.75,22.25,101.5,1.0,6.0,-1023.5,-593.0,-4.25,5.0,RTL,95524.0
08:34:57,-0.007577621843665838,0.0016834016423672438,-0.09719237312674522,-0.24379408359527588,0.001687346666585654,-0.0023418295895680785,-35.3632627,149.16523575000002,376028.0,5.0,19.5,98.0,0.5,23.0,-999.0,-234.5,3.5,1.0,RTL,95524.0
08:34:59,-0.02263467852026224,0.0016615582862868905,-0.10159794241189957,-0.568817749619484,-0.002123478101566434,-0.004443417070433497,-35.3632626,149.165237,373993.0,4.0,9.5,102.0,0.0,15.5,-1028.5,-560.0,-0.5,-1.0,RTL,95524.0
08:35:00,-0.02082303469069302,0.0038719295989722013,-0.10285925678908825,-0.14408165961503983,-0.0002863986883312464,0.001615747343748808,-35.363262549999995,149.16523805000003,372725.0,4.75,2.5,101.0,2.5,28.75,-1003.5,-135.25,2.0,4.75,RTL,65488.0
08:35:01,-0.03283767122775316,0.004301427397876978,-0.1039879322052002,0.16595391184091568,-0.0023075302597135305,0.005353345535695553,-35.3632624,149.16523935,371965.5,3.5,-3.5,99.5,2.5,40.5,-994.0,174.5,-0.5,8.5,RTL,65488.0
08:35:03,-0.035719143226742744,-0.0010132039315067232,-0.10733171179890633,-0.9552047550678253,-0.0040212556486949325,0.0013343014288693666,-35.3632624,149.1652407,369925.0,1.0,-23.5,99.5,-1.0,-5.5,-1031.5,-947.0,-2.0,4.5,RTL,65488.0
08:35:04,-0.029994319658726454,-0.0004874214137089439,-0.10867498442530632,-1.439614325761795,0.0023200627183541656,-0.0044853524887003005,-35.3632624,149.1652403,368659.0,1.75,-24.25,101.0,0.0,-54.0,-1008.0,-1433.5,3.75,-0.75,RTL,114009.0
08:35:05,-0.028818326070904732,0.000757922331104055,-0.10965609177947044,-1.425322413444519,0.0007705329335294664,-0.005367742734961212,-35.3632624,149.1652402,367903.5,2.0,-24.0,103.5,1.0,-74.0,-969.5,-1420.5,2.0,-1.5,RTL,114009.0
08:35:07,-0.029238484799861908,0.00044650088966591284,-0.11191045120358467,-1.3121863007545471,0.0012662883382290602,-0.005019578500650823,-35.3632624,149.16524,365856.0,1.5,-22.5,101.0,0.0,-44.0,-1019.0,-1306.5,2.5,-1.5,RTL,114009.0
08:35:08,-0.03875405061990023,0.0034843781613744795,-0.11334930919110775,-1.4588760435581207,0.0021477359405253083,-0.006927694717887789,-35.363262250000005,149.16524035,364580.0,1.25,-24.0,102.75,1.5,-53.0,-983.75,-1453.75,4.0,-3.25,RTL,200.0
08:35:09,-0.03923509456217289,0.005951759405434132,-0.11416757479310036,-1.384104073047638,0.0031985321547836065,-0.011376023292541504,-35.3632621,149.16524105,363814.5,0.5,-27.5,100.5,3.0,-60.0,-1034.0,-1379.5,4.5,-7.5,RTL,200.0
08:35:11,-0.05721582472324371,0.002373117837123573,-0.11557384952902794,-1.3469550609588623,-0.0006891326047480106,-0.002894164645113051,-35.3632618,149.1652435,361779.0,-3.5,-48.0,101.5,0.0,-59.5,-1010.5,-1343.0,0.5,0.0,RTL,200.0
