time_stamp,RTL_ALT,MODE,xacc,yacc,zacc,xgyro,ygyro,zgyro,roll,pitch,yaw,rollspeed,pitchspeed,yawspeed,lat,lon,relative_alt,vx,vy,vz
00:32:56,59094.0,STABILIZE,0.0,1.5,-1000.0,0.5,0.0,0.5,-0.0004375519201857969,0.0009879361605271697,0.023990756832063198,0.000278746010735631,0.0002247127704322338,0.001723319524899125,-35.36326215,149.1652374,14.0,-1.0,1.0,-2.0
00:33:02,59094.0,AUTO,0.0,1.5,-1000.0,1.0,1.0,1.0,-0.000809543882496655,0.000968481384916231,0.021834266372025013,0.00023242668248713017,0.0002929111651610583,0.0014779506018385291,-35.3632622,149.16523765,0.0,-1.0,2.5,3.0
00:33:04,49820.5,AUTO,0.0,1.0,-1000.0,0.5,0.0,1.0,-0.0009961446921806782,0.0012357548694126308,0.02139657363295555,0.0002776464098133147,0.0002235241117887199,0.0013350598746910691,-35.3632621,149.1652375,0.0,0.0,-0.5,1.5
00:33:06,40547.0,AUTO,0.0,1.0,-1065.0,1.0,2.5,1.0,0.0015051845693960786,0.0009457658816245385,0.021005850285291672,0.0009646635444369167,0.002546836156398058,0.0014739484176971018,-35.3632621,149.16523745,88.0,0.0,0.0,-33.5
00:33:08,40547.0,AUTO,0.0,-4.0,-1001.0,27.5,-1.5,-15.0,0.04643677733838558,-0.0060381327057257295,0.007084951037541032,0.027129413560032845,-0.0020826191175729036,-0.014674462960101664,-35.363261800000004,149.1652387,2317.0,4.5,25.5,-147.5
00:33:09,46858.0,AUTO,4.0,-9.75,-1001.5,-95.0,21.0,-69.5,-0.003427090181503445,0.017204212956130505,-0.05178056564182043,-0.0962220304645598,0.020663005532696843,-0.06941197160631418,-35.363261125,149.16524299999998,3846.5,4.75,47.25,-146.25
00:33:10,46858.0,AUTO,1.5,-2.5,-1001.5,0.5,-10.0,-20.5,-0.05667372606694698,0.002050657058134675,-0.08449752628803253,-0.0005360860377550125,-0.011444779578596354,-0.02067361446097493,-35.3632609,149.1652459,5381.0,-1.5,0.5,-149.5
00:33:12,46858.0,AUTO,-5.0,10.0,-1003.0,64.0,9.0,2.0,0.028835636796429753,0.00630469957832247,-0.0925486758351326,0.06418808177113533,0.0087441042996943,0.002720580785535276,-35.36326165,149.1652372,8473.0,-8.5,-43.0,-152.5
00:33:14,46858.0,AUTO,0.5,-3.0,-1002.0,-25.5,14.0,-32.0,-0.008640387730338261,-0.005608532344922423,-0.08867345377802849,-0.026209313655272126,0.0136886490508914,-0.03188943304121494,-35.363262500000005,149.1652359,11582.5,5.5,13.0,-151.0
00:33:15,13549.0,AUTO,-1.5,-0.75,-1000.75,17.75,7.75,-27.5,-0.008400570077355951,0.0037899398885201663,-0.12338739819824696,0.01757933897897601,0.007513698888942599,-0.027920029126107693,-35.36326185,149.1652364,13132.25,6.0,-3.75,-152.5
00:33:16,13549.0,AUTO,-1.5,0.5,-999.0,9.0,1.5,-14.0,0.0060559657867997885,0.007709277560934424,-0.14451482146978378,0.008897760766558349,0.0005959424306638539,-0.014514327980577946,-35.363261449999996,149.16523575,14692.5,0.5,-4.5,-153.0
00:33:18,13549.0,AUTO,0.0,0.0,-1000.0,-0.5,-1.0,-16.0,0.004325840622186661,0.003689741250127554,-0.17007870227098465,-0.002319987630471587,-0.0018657014588825405,-0.016414490994066,-35.3632616,149.16523565,17809.5,-4.0,5.0,-153.0
00:33:20,82985.5,AUTO,0.0,0.0,-1000.0,0.0,1.5,-22.5,0.0018244249513372779,0.0028959111077710986,-0.20932824909687042,-0.00034827401395887136,0.0012192707799840719,-0.0231168856844306,-35.3632618,149.16523625000002,20934.0,-2.0,3.5,-153.0
00:33:22,152422.0,AUTO,0.0,0.0,-1000.0,1.5,0.5,-18.5,0.0023228711215779185,0.0023687270004302263,-0.24910105764865875,0.0009636546310503036,0.0003231297596357763,-0.019208570010960102,-35.363261949999995,149.16523665,24049.5,-2.0,3.0,-153.0
00:33:24,152422.0,AUTO,0.0,0.0,-1000.0,15.0,-2.0,24.0,0.00810890644788742,0.004072082694619894,-0.2455577403306961,0.014598052017390728,-0.0037689898163080215,0.025109222158789635,-35.3632622,149.1652366,26576.0,-5.0,0.0,-153.0
00:33:25,270286.0,AUTO,0.2,-0.6,-999.6,-5.2,1.2,22.4,0.00632094694301486,0.0015191633487120272,-0.21499240398406982,-0.006521702371537685,0.0008838661364279687,0.023067487776279448,-35.363262379999995,149.16523686,28518.6,-1.4,7.2,-153.0
00:33:26,270286.0,AUTO,0.0,-1.0,-999.5,-3.0,1.0,19.5,-0.00010787087376229465,0.0017006593407131732,-0.1922561302781105,-0.004361110972240567,0.0010192828776780516,0.020050011575222015,-35.3632624,149.1652376,30263.5,0.0,6.5,-153.0
00:33:28,270286.0,AUTO,0.0,0.0,-1000.0,4.0,0.5,14.5,0.0005227990914136171,0.0013867970556020737,-0.1600475162267685,0.003285587765276432,0.00015735463239252567,0.015353546012192965,-35.3632623,149.165238,33366.5,0.0,0.5,-153.0
00:33:30,152522.0,AUTO,0.0,0.0,-999.5,1.5,1.5,11.5,0.0018182027852162719,0.0012523013283498585,-0.1360984891653061,0.0009575969888828695,0.0010941575455944985,0.011498925276100636,-35.3632622,149.16523775000002,36473.0,0.0,0.0,-153.0
00:33:32,34758.0,AUTO,0.0,0.0,-1000.0,2.0,1.0,8.0,0.0023076676297932863,0.0016030514379963279,-0.12085375934839249,0.0016587238060310483,0.00024326785933226347,0.008643674664199352,-35.3632621,149.1652375,38999.0,0.0,0.0,-153.0
00:33:34,34758.0,AUTO,0.0,0.0,-1000.5,3.0,0.5,7.0,0.0018268093699589372,0.0016565933474339545,-0.10658276081085205,0.002363298088312149,0.0001710268552415073,0.007539433427155018,-35.36326205,149.1652374,42069.0,-1.0,1.0,-153.0
00:33:35,127117.0,AUTO,2.5,6.0,-951.0,17.75,-82.75,305.25,-0.03912045946344733,0.03146935207769275,0.17757079005241394,0.016984964662697166,-0.08396220952272415,0.30551571771502495,-35.36326285,149.165236175,43866.75,-24.25,-25.25,-119.25
00:33:36,127117.0,AUTO,1.5,9.0,-959.0,74.5,-39.5,4.0,0.02175149181857705,-0.04932749643921852,0.28152017295360565,0.07397827133536339,-0.04086426552385092,0.00413911696523428,-35.3632645,149.1652335,44650.5,-17.0,-27.0,-82.5
00:33:38,127117.0,AUTO,-2.0,15.0,-985.5,462.0,24.5,-22.5,0.016251965425908566,0.006649503484368324,0.22153784334659576,0.4608629196882248,0.02429133467376232,-0.02321944199502468,-35.36326265,149.16523525000002,45697.5,19.0,31.5,-28.0
00:33:40,134480.0,AUTO,4.0,41.0,-1007.0,765.5,8.5,-2.5,-0.012892953585833311,0.03865401819348335,0.17668847739696503,0.7643352448940277,0.008151383604854345,-0.0033289899583905935,-35.3632616,149.1652388,45731.0,-20.0,-14.0,8.5
00:33:42,141843.0,AUTO,7.5,29.0,-1015.5,263.5,15.5,-826.0,-0.08617851883172989,0.04203902184963226,-0.5005556493997574,0.26285239309072495,0.015048626577481627,-0.8269537091255188,-35.363272699999996,149.1652354,45710.5,-108.0,-46.5,-7.0
00:33:44,141843.0,AUTO,-71.0,24.5,-1012.5,160.5,-13.0,-727.5,-0.09318967536091805,-0.13917715847492218,-1.9760301113128662,0.16012723930180073,-0.014397877268493176,-0.7286232709884644,-35.3633085,149.16522055000002,45933.0,-293.5,-108.5,-18.0
00:33:45,94514.0,AUTO,-82.75,-42.75,-1009.0,29.25,9.0,-247.0,0.029230721876956522,-0.1900210753083229,-2.726505756378174,0.028761445777490735,0.007865334395319223,-0.2479778970591724,-35.36334825,149.16520317500002,46202.25,-416.5,-144.5,-25.75
00:33:46,94514.0,AUTO,-105.5,-52.5,-1003.0,24.5,20.0,62.0,0.04075535386800766,-0.1673574224114418,-2.7345131635665894,0.02357644960284233,0.019690539222210646,0.06224062852561474,-35.36337825,149.16519019999998,46427.5,-478.0,-162.0,-35.0
00:33:48,94514.0,AUTO,-128.0,-57.5,-998.0,39.0,41.5,-6.0,0.0549437552690506,-0.12812979891896248,-2.735239028930664,0.03917047753930092,0.04089774936437607,-0.007001408375799656,-35.36347215,149.16515045,47198.0,-552.5,-186.5,-41.0
00:33:50,50638.5,AUTO,-119.0,-53.5,-992.5,27.0,45.0,-8.5,0.06731981039047241,-0.08901897445321083,-2.744489550590515,0.025882801041007042,0.04452165216207504,-0.00978858070448041,-35.3635716,149.16510925,47983.5,-538.5,-186.0,-36.5
00:33:52,6763.0,AUTO,-91.5,-48.0,-995.5,347.0,48.0,-12.5,0.08217882737517357,0.015164029784500599,-2.7519787549972534,0.3473527133464813,0.04755452647805214,-0.012827327707782388,-35.36365925,149.1650731,48654.5,-404.5,-147.0,-23.0
00:33:54,6763.0,AUTO,-37.5,6.0,-1007.5,829.0,23.0,-23.0,0.05099900811910629,0.07502727955579758,-2.757716655731201,0.8280919790267944,0.02207629568874836,-0.02394741401076317,-35.3637131,149.16504974999998,48964.5,-179.0,-78.5,-4.5
00:33:55,67835.0,AUTO,-15.0,-18.5,-1008.5,-362.5,-19.25,-0.75,0.0005495939512911718,0.059538560919463634,-2.7642584443092346,-0.36403411626815796,-0.020791578572243452,-0.0007284995081136003,-35.36372675,149.16504205,49026.75,-71.0,-33.25,-1.75
00:33:56,67835.0,AUTO,-6.0,15.0,-1014.0,632.5,-14.0,-0.5,0.0035716692218557,0.04551291838288307,-2.7660831212997437,0.6323392689228058,-0.015640791971236467,-0.0012208853149786592,-35.36373035,149.16503949999998,49043.0,-31.0,-10.5,-0.5
00:33:58,67835.0,RTL,-1.0,30.5,-1008.0,623.0,-15.5,-4.5,0.009889637818560004,-0.005149603355675936,-2.7714948654174805,0.6221921145915985,-0.01647854532347992,-0.005353662418201566,-35.3637319,149.16503955000002,49034.0,5.0,11.5,0.0
00:34:00,78685.0,RTL,-2.0,12.5,-1051.0,61.5,4.0,2.5,0.013010603375732899,0.004307386931031942,-2.778379201889038,0.06027088314294815,0.0029071136377751827,0.002700165845453739,-35.363732549999995,149.1650415,49183.5,7.0,-0.5,-36.0
00:34:02,89535.0,RTL,1.0,0.0,-1044.5,21.0,-1.0,1.0,0.00540872267447412,0.006496485788375139,-2.7811648845672607,0.02029825560748577,-0.0021545467316173017,0.0011867499561049044,-35.363732850000005,149.16504170000002,50813.5,12.0,-7.5,-126.0
00:34:04,89535.0,RTL,3.0,-9.5,-993.0,-114.0,83.5,-103.0,0.03867109306156635,0.009999221889302135,-2.808097720146179,-0.11597463861107826,0.08224444836378098,-0.10399779304862022,-35.363732,149.1650376,53770.0,14.5,-51.0,-147.0
00:34:05,7628.0,RTL,0.5,0.25,-1003.75,20.5,-12.25,-17.5,-0.06916988361626863,0.000672965485136956,-2.8699045181274414,0.0194473578594625,-0.014650981756858528,-0.01862841914407909,-35.3637309,149.165033875,55669.25,6.0,10.75,-149.75
00:34:06,7628.0,RTL,-3.5,9.5,-1001.0,63.5,4.0,-3.0,-0.03291754890233278,-0.004453148925676942,-2.878419876098633,0.06295693852007389,0.0025659052189439535,-0.0042749682907015085,-35.363731,149.16503640000002,56829.0,-5.5,48.5,-150.0
00:34:08,7628.0,RTL,0.5,1.5,-995.5,-62.5,-21.0,36.0,0.0406010989099741,-0.033569445833563805,-2.8420958518981934,-0.06426781415939331,-0.022616276517510414,0.0360674096737057,-35.363731349999995,149.1650451,59933.0,5.0,-5.0,-150.5
00:34:10,34409.5,RTL,-2.0,-0.5,-1000.0,15.5,7.5,-25.5,0.0026464998663868755,0.008636986836791039,-2.9106260538101196,0.014657528139650822,0.005693488288670778,-0.02663527801632881,-35.363732999999996,149.1650436,63025.5,-7.0,-2.5,-152.0
00:34:12,61191.0,RTL,0.5,0.0,-1000.0,-3.5,-1.5,-13.5,0.007751452038064599,0.002084374660626054,-2.940061092376709,-0.005507254973053932,-0.0037998948246240616,-0.01473647216334939,-35.36373305,149.16504344999998,66147.5,7.5,-6.5,-152.0
00:34:14,61191.0,RTL,0.5,0.0,-1000.0,3.0,1.0,-23.0,0.0038105087587609887,-0.0021733837202191353,-2.981499195098877,0.0019760343129746616,-0.00018975324928760529,-0.024152157828211784,-35.363732150000004,149.16504255,69263.0,3.5,-5.0,-152.0
00:34:15,53207.0,RTL,0.0,0.0,-999.75,2.0,2.75,-21.25,0.005299659096635878,-0.00046074299424869736,-3.0145557522773743,0.0005299430340528488,0.0012738426157739013,-0.02254451299086213,-35.36373195,149.16504227500002,71363.5,1.25,-4.0,-152.0
00:34:16,53207.0,RTL,0.0,0.0,-1000.0,1.0,0.5,-19.5,0.005498294485732913,8.77303937159013e-05,-3.03189218044281,-0.0008568225894123316,-0.0008042569970712066,-0.020733976736664772,-35.3637319,149.16504214999998,72535.5,1.0,-4.0,-152.0
00:34:18,53207.0,RTL,0.0,0.0,-999.0,5.5,5.5,5.5,0.006230269325897098,0.0019480138435028493,-3.0679452419281006,0.004177806375082582,0.004262533038854599,0.0045258247992023826,-35.3637318,149.1650418,75645.0,2.0,-4.0,-152.0
00:34:20,71868.5,RTL,0.5,0.0,-1000.0,0.0,0.0,28.0,0.00343425536993891,-0.0003000229989993386,-3.024640202522278,-0.001789913047105074,-0.0014933572674635798,0.027358336374163628,-35.363731349999995,149.16504114999998,78751.5,3.0,-5.5,-152.0
00:34:22,90530.0,RTL,0.0,0.0,-1000.0,2.0,1.0,18.0,0.0033659929176792502,-0.0021735382033511996,-2.984429717063904,0.0006246006232686341,-0.0004897813778370619,0.01736253686249256,-35.3637312,149.16504085000003,81855.5,0.0,-1.5,-152.0
00:34:24,90530.0,RTL,0.0,0.0,-1000.5,1.0,1.0,14.5,0.004511985927820206,-0.0005419800436357036,-2.9553134441375732,-0.0010533328750170767,0.00015118072042241693,0.013779976405203342,-35.3637313,149.1650409,84965.0,0.0,-1.0,-152.0
00:34:25,68405.0,RTL,0.0,0.0,-1000.0,3.0,1.75,13.25,0.004636331810615957,-0.0003753851997316815,-2.9410282969474792,0.0015043473104014993,0.0002764072851277888,0.012564172968268394,-35.363731425,149.165041,86902.0,0.0,-1.0,-152.0
00:34:26,68405.0,RTL,0.0,0.0,-1000.0,1.5,1.5,12.0,0.004432586021721363,-0.00043390560313127935,-2.9332579374313354,-0.00010884442599490285,0.00029193126829341054,0.011775731574743986,-35.3637315,149.16504105,88066.5,0.0,-1.0,-152.0
00:34:28,68405.0,RTL,0.0,0.0,-1000.5,2.5,1.5,10.0,0.005002362886443734,-0.0009050538938026875,-2.9169578552246094,0.0007239836268126965,6.766477599740028e-05,0.008687575813382864,-35.36373155,149.1650412,91173.0,0.0,-2.0,-152.0
00:34:30,115663.0,RTL,0.0,0.0,-1000.0,2.5,1.5,9.0,0.0046866717748343945,0.0002669489913387224,-2.903771162033081,0.0005801600636914372,-0.00017445883713662624,0.008106982102617621,-35.3637317,149.1650412,94282.5,1.0,-2.0,-152.0
00:34:32,162921.0,RTL,0.0,0.0,-1000.0,0.5,1.5,7.5,0.004305481910705566,-0.00027954374672845006,-2.892437219619751,-0.0015471744118258357,-0.00014407082926481962,0.006738553522154689,-35.3637317,149.1650412,97388.0,1.0,-2.0,-152.0
00:34:34,162921.0,RTL,0.0,0.0,-1000.0,0.0,1.5,6.5,0.004205742152407765,-6.042042514309287e-06,-2.8819565773010254,-0.0018054162501357496,-9.39199817366898e-05,0.005605116719380021,-35.3637317,149.1650412,100501.0,1.0,-1.0,-152.0
00:34:35,22890.0,RTL,0.0,0.0,-999.75,2.0,1.5,6.75,0.004302678047679365,-0.001287181454245001,-2.8762789368629456,0.0002737363101914525,-8.820852963253856e-05,0.005791412317194045,-35.3637317,149.1650412,102434.0,1.0,-1.0,-152.0
00:34:36,22890.0,RTL,0.0,0.0,-999.5,0.0,2.0,5.0,0.004408042645081878,-0.0008705671934876591,-2.8729532957077026,-0.0023578546242788434,0.0004257375840097666,0.004190054489299655,-35.3637317,149.1650412,103607.0,0.0,-1.0,-152.0
00:34:38,22890.0,RTL,0.0,0.0,-1000.0,0.5,0.5,5.5,0.004828586475923657,0.000505916730617173,-2.8655807971954346,-0.0008904478745535016,-0.0008725462248548865,0.004470253712497652,-35.3637317,149.1650412,106704.0,1.0,-1.0,-152.0
00:34:40,37657.0,RTL,0.0,0.0,-1000.0,1.0,0.5,5.0,0.004934247583150864,-0.00011859136066050269,-2.8589940071105957,-0.0007650943589396775,-0.0016076441970653832,0.0037319534458220005,-35.3637318,149.1650412,109817.5,2.0,-1.5,-152.0
00:34:42,52424.0,RTL,0.0,0.0,-1000.0,0.5,0.5,5.5,0.004477162612602115,-9.963291813619435e-05,-2.853172779083252,-0.0011470832396298647,-0.0013057277537882328,0.0043284978019073606,-35.3637318,149.1650413,112927.0,2.0,-2.0,-152.0
00:34:44,52424.0,RTL,0.0,0.0,-1000.0,1.5,1.5,5.0,0.00413203239440918,-0.00016246144878095947,-2.8482402563095093,-2.0289502572268248e-05,-0.00011381850345060229,0.0036010926123708487,-35.3637318,149.1650413,116032.5,1.0,-1.0,-152.0
00:34:45,73720.0,RTL,0.0,0.0,-1000.0,1.75,2.0,3.5,0.004411710076965392,-0.0001349686854155152,-2.8456587195396423,-0.00010285654570907354,0.0003041198360733688,0.0021179765462875366,-35.3637318,149.1650413,117969.75,1.0,-1.0,-152.0
00:34:46,73720.0,RTL,0.0,0.0,-1000.0,2.5,1.5,4.0,0.00456238491460681,-0.00022041379634174518,-2.843955397605896,0.0004186230944469571,-0.00020358787151053548,0.0029559549293480814,-35.3637318,149.1650413,119135.0,1.0,-1.0,-152.0
00:34:48,73720.0,RTL,0.0,0.0,-1000.0,0.5,1.5,3.5,0.0035296446876600385,8.754651935305446e-05,-2.840312123298645,-0.0010672725620679557,-0.0005759447230957448,0.0021927133202552795,-35.3637318,149.1650412,122240.5,1.0,-1.0,-152.0
00:34:50,37490.0,RTL,0.0,0.0,-999.5,0.5,1.5,5.5,0.005025645950809121,-0.00030528476054314524,-2.836706757545471,-0.0011158724664710462,0.0002374858595430851,0.004371250746771693,-35.3637318,149.1650412,125351.0,1.0,-1.0,-152.0
00:34:52,1260.0,RTL,0.0,0.0,-999.5,1.5,2.5,4.0,0.004830381367355585,-0.00021573321282630786,-2.8333410024642944,-0.0008202135213650763,0.0005953086074441671,0.002875802165362984,-35.3637318,149.1650413,128455.0,1.0,-1.5,-152.0
00:34:54,1260.0,RTL,0.0,0.0,-999.5,0.5,2.0,4.5,0.004632523516193032,6.659480277448893e-05,-2.8309011459350586,-0.001799676043447107,0.0002934593940153718,0.0028882776387035847,-35.3637318,149.1650413,131571.0,1.0,-1.0,-152.0
00:34:55,216860.0,RTL,0.0,0.0,-1000.0,2.5,2.0,3.5,0.004159203730523586,2.4518422833352815e-05,-2.829615831375122,0.0006135881994850934,0.0003110180841758847,0.0021050278446637094,-35.3637318,149.1650413,133504.5,1.0,-1.0,-152.0
00:34:56,216860.0,RTL,0.0,0.0,-1000.0,0.5,0.5,4.0,0.004296766361221671,0.00011285519303783076,-2.828673005104065,-0.0014056088984943926,-0.0015352440532296896,0.0020341213676147163,-35.3637318,149.1650413,134673.0,1.0,-1.0,-152.0
00:34:58,216860.0,RTL,0.0,0.0,-1000.0,3.0,2.0,3.5,0.003852692898362875,0.0005617198767140508,-2.826828956604004,0.0008699048776179552,0.0003345675067976117,0.002058219164609909,-35.3637318,149.1650412,137775.5,2.0,-0.5,-152.0
00:35:00,130106.5,RTL,0.0,0.0,-1000.0,3.0,1.5,2.0,0.004860143410041928,-0.0002134301175829023,-2.8253250122070312,0.0007926708785817027,9.277125354856253e-05,0.0005453489138744771,-35.3637318,149.1650412,140890.5,2.0,-0.5,-152.0
00:35:02,43353.0,RTL,0.0,0.0,-999.3333333333334,1.0,1.6666666666666667,3.0,0.0046300652126471204,-0.0001574423561881607,-2.8241047859191895,-0.0008157930181672176,0.00010001636110246181,0.0013772385039677222,-35.3637318,149.1650413,143954.66666666666,1.0,-1.0,-152.0
00:35:04,43353.0,RTL,0.0,0.0,-1000.0,3.3333333333333335,2.3333333333333335,4.0,0.00428782186160485,-1.5160561209389318e-06,-2.822898785273234,0.001312614418566227,0.0007133478454003731,0.0020401497992376485,-35.3637318,149.1650413,147061.33333333334,1.0,-1.0,-152.0
00:35:05,25827.0,RTL,0.0,0.0,-999.3333333333334,2.6666666666666665,3.3333333333333335,4.333333333333333,0.0042443435328702135,9.964239628364642e-05,-2.822083075841268,0.0003215471127380927,0.0012741119135171175,0.0026156199164688587,-35.3637318,149.1650413,149003.0,1.3333333333333333,-1.0,-152.0
00:35:06,25827.0,RTL,0.0,0.0,-999.6666666666666,0.3333333333333333,2.0,3.0,0.004449665080755949,-3.1089390783260265e-06,-2.8213727474212646,-0.002011312094206611,-8.016110708316167e-05,0.0014054951413224142,-35.3637318,149.1650413,150176.33333333334,2.0,-1.0,-152.0
00:35:08,25827.0,RTL,0.0,0.0,-999.6666666666666,1.3333333333333333,3.0,3.0,0.0038058958016335964,9.49305685935542e-05,-2.820096174875895,-0.001223945408128202,0.0011600935831665993,0.001259523443877697,-35.3637318,149.16504126666666,153283.33333333334,2.0,-1.0,-152.0
00:35:10,153875.5,RTL,0.0,0.0,-1000.0,3.0,1.3333333333333333,2.3333333333333335,0.004441442744185527,-2.4196931917686015e-05,-2.8192893664042153,0.00034416505756477517,-0.0005237745742003123,0.0006409755442291498,-35.3637318,149.1650412,156389.66666666666,2.0,0.0,-152.0
00:35:12,281924.0,RTL,0.0,0.0,-1000.3333333333334,2.6666666666666665,1.6666666666666667,3.6666666666666665,0.004283468859891097,-3.51751696143765e-05,-2.8185486793518066,0.0003891513915732503,-0.0003349841572344303,0.0019861951004713774,-35.3637318,149.1650412,159500.66666666666,2.0,-1.0,-152.0
00:35:14,281924.0,RTL,6.666666666666667,3.3333333333333335,-997.3333333333334,-1.6666666666666667,35.0,2.6666666666666665,0.000991810792280982,0.06334523856639862,-2.8177644411722818,-0.004590357731406887,0.03294455632567406,0.0008583602805932363,-35.3637297,149.16504203333332,162582.66666666666,45.666666666666664,12.0,-148.66666666666666
00:35:15,40202.0,RTL,22.0,11.666666666666666,-971.6666666666666,-60.0,96.66666666666667,135.33333333333334,-0.016241306128601234,0.11762083321809769,-2.7967517375946045,-0.06321431044489145,0.0949930635591348,0.133459149627015,-35.36372063333334,149.16504546666667,164414.33333333334,125.33333333333333,39.333333333333336,-134.33333333333334
00:35:16,40202.0,RTL,42.0,13.666666666666666,-941.3333333333334,-0.3333333333333333,-22.0,442.0,-0.026464650717874367,0.19358842571576437,-2.529987653096517,-0.0029197055846452713,-0.024779385576645534,0.4404103060563405,-35.363709899999996,149.16505073333335,165309.33333333334,199.0,92.66666666666667,-93.66666666666667
00:35:18,40202.0,RTL,91.0,-2.0,-970.0,7.666666666666667,67.33333333333333,4.666666666666667,0.0895223394036293,0.16348214447498322,-2.248854080835978,0.004889597495396932,0.06513703738649686,0.0028499996600051722,-35.36365783333333,149.16507573333334,165976.0,383.3333333333333,102.33333333333333,17.666666666666668
00:35:20,144036.0,RTL,129.33333333333334,1.3333333333333333,-1006.6666666666666,-70.0,-8.0,-38.0,0.0007195586028198401,0.1817177732785543,-2.3231611251831055,-0.07269358138243358,-0.010874328901991248,-0.040850888937711716,-35.3635736,149.1651038,165613.33333333334,530.3333333333334,162.66666666666666,2.3333333333333335
00:35:22,144036.0,RTL,130.33333333333334,18.666666666666668,-983.0,121.33333333333333,-10.333333333333334,-44.333333333333336,-0.02797648310661316,0.12465731054544449,-2.4052578608194985,0.11897495513161023,-0.013191699050366879,-0.04706374245385329,-35.36347346666667,149.16514496666665,165658.66666666666,555.0,201.0,-4.333333333333333
00:35:24,144036.0,RTL,115.66666666666667,38.666666666666664,-1001.3333333333334,-32.333333333333336,-46.0,-9.666666666666666,-0.05936312178770701,0.053724054247140884,-2.469822883605957,-0.03565214077631632,-0.049052704125642776,-0.012096250895410776,-35.363376433333336,149.16518753333332,165704.33333333334,495.0,179.66666666666666,-2.0
00:35:25,202863.0,RTL,97.0,6.0,-1003.3333333333334,-92.0,-37.0,-60.666666666666664,-0.06616687526305516,-0.0080009656958282,-2.495516538619995,-0.09370435774326324,-0.039941747983296715,-0.06350576629241307,-35.363325933333336,149.16520930000001,165707.66666666666,389.6666666666667,144.66666666666666,1.0
00:35:26,202863.0,RTL,76.66666666666667,47.666666666666664,-1012.6666666666666,278.3333333333333,-32.0,-1.0,-0.07861573994159698,-0.04309022550781568,-2.50938351949056,0.2756306727727254,-0.035034703090786934,-0.003241142568488916,-35.363301799999995,149.1652192,165703.33333333334,304.0,119.33333333333333,1.6666666666666667
00:35:28,202863.0,RTL,21.666666666666668,47.333333333333336,-1007.3333333333334,440.6666666666667,27.333333333333332,1.0,-0.021687480621039867,-0.06298865129550298,-2.5472644170125327,0.43783186624447507,0.02535172924399376,-0.001331907386581103,-35.36326606666667,149.16523646666667,165643.0,94.0,50.0,1.6666666666666667
00:35:30,58830.0,RTL,-0.6666666666666666,-23.333333333333332,-1006.0,-667.0,32.666666666666664,-7.333333333333333,0.004791511222720146,-0.020116973978777725,-2.5739247798919678,-0.6698917945226034,0.03038601204752922,-0.01000218124439319,-35.3632594,149.16524166666667,165619.0,8.0,-0.3333333333333333,-1.6666666666666667
00:35:32,58830.0,RTL,0.6666666666666666,-20.333333333333332,-1001.3333333333334,-502.6666666666667,-1.0,-0.3333333333333333,-0.013349920666466156,0.0024174638480568924,-2.592822710673014,-0.505302498737971,-0.003945997295280297,-0.0027660601772367954,-35.3632596,149.1652398,165637.0,6.666666666666667,-5.666666666666667,-1.3333333333333333
00:35:34,58830.0,RTL,-3.3333333333333335,-24.666666666666668,-999.6666666666666,-479.3333333333333,4.666666666666667,-2.3333333333333335,-0.006526859011501074,-0.0010577591989810269,-2.605529228846232,-0.4817253202199936,0.0023626321150610843,-0.0053697913729896145,-35.363260000000004,149.16523773333333,165643.33333333334,-6.0,7.333333333333333,-0.3333333333333333
00:35:35,149395.0,RTL,-2.0,11.666666666666666,-999.0,416.3333333333333,4.0,-4.0,0.019472495342294376,0.0006881583649374079,-2.61348549524943,0.4149175261457761,0.0011524756749471028,-0.006593144498765469,-35.36326116666667,149.16523826666668,165645.66666666666,-3.0,2.3333333333333335,0.0
00:35:36,149395.0,RTL,-2.6666666666666665,-14.0,-997.3333333333334,-455.6666666666667,4.0,-1.6666666666666667,0.004677012329921126,0.002550588765492042,-2.617426872253418,-0.4581842968861262,0.0013938122817004721,-0.0046595789802571135,-35.36326173333333,149.16523843333331,165647.33333333334,0.0,-0.3333333333333333,-0.3333333333333333
00:35:38,149395.0,RTL,-4.0,82.0,-976.6666666666666,1406.6666666666667,-2.3333333333333335,-2.3333333333333335,0.04014284039537112,-0.0017830408178269863,-2.626417875289917,1.4034493764241536,-0.0055664948498209315,-0.004812115725750725,-35.36326296666667,149.16523953333333,164705.33333333334,9.666666666666666,-8.333333333333334,104.33333333333333
00:35:40,79093.5,RTL,-6.666666666666667,-52.0,-985.0,-582.6666666666666,4.666666666666667,4.0,0.07487087448438008,-0.006025783251971006,-2.6367963949839273,-0.5847415377696356,0.001644148025661707,0.0019272688465813796,-35.3632654,149.16524466666667,162473.0,25.333333333333332,-37.666666666666664,97.66666666666667
00:35:42,8792.0,RTL,1.3333333333333333,-27.333333333333332,-956.3333333333334,476.6666666666667,2.6666666666666665,7.333333333333333,0.08245545377333958,0.008211531055470308,-2.645001252492269,0.47367793321609497,-0.00013590247059861818,0.004876640935738881,-35.36326706666667,149.16524669999998,160447.0,45.0,-74.66666666666667,101.0
00:35:44,8792.0,RTL,4.333333333333333,58.0,-1034.6666666666667,1107.6666666666667,0.0,6.666666666666667,0.03895936657985052,0.008344647474586964,-2.6511000792185464,1.1003178159395854,-0.0028282059356570244,0.004843837659185131,-35.3632658,149.16524353333332,158377.33333333334,42.0,-61.666666666666664,98.0
00:35:45,7421.0,RTL,1.6666666666666667,-74.66666666666667,-996.0,-1104.0,0.3333333333333333,-1.0,0.012543142307549715,0.0023445280579229197,-2.6552892525990806,-1.1096654733022053,-0.0027463770238682628,-0.0034119158517569304,-35.363264566666665,149.1652418,157091.33333333334,31.333333333333332,-43.666666666666664,98.0
00:35:46,7421.0,RTL,1.0,-71.66666666666667,-1020.6666666666666,-1146.3333333333333,-3.0,-6.333333333333333,0.026183704535166424,-0.0009612727735657245,-2.658104499181112,-1.1522350708643596,-0.006821711780503392,-0.009368372615426779,-35.36326426666667,149.1652417,156338.66666666666,26.666666666666668,-37.333333333333336,96.33333333333333
00:35:48,7421.0,RTL,4.333333333333333,-33.333333333333336,-959.3333333333334,71.0,5.666666666666667,-14.333333333333334,0.028568817302584648,0.005218105545888345,-2.663999636967977,0.06569984803597133,0.003084596712142229,-0.01664449996314943,-35.36326373333333,149.16524059999998,154288.33333333334,18.0,-31.333333333333332,99.33333333333333
00:35:50,48975.0,RTL,5.333333333333333,54.666666666666664,-1016.6666666666666,859.6666666666666,4.666666666666667,4.0,-0.03014398366212845,0.01063874332855145,-2.6672511100769043,0.8507282137870789,0.0015602682251483202,0.0019428079249337316,-35.36326186666667,149.16523553333334,152239.66666666666,5.0,-3.3333333333333335,96.33333333333333
00:35:52,48975.0,RTL,-0.6666666666666666,71.33333333333333,-964.6666666666666,713.3333333333334,-1.3333333333333333,8.0,-0.021065537196894486,-0.0022935956173265972,-2.6715173721313477,0.7047280073165894,-0.004817961559941371,0.005412906253089507,-35.36326066666667,149.16523366666664,150146.0,-9.666666666666666,31.333333333333332,101.33333333333333
00:35:54,48975.0,RTL,-1.3333333333333333,-18.666666666666668,-973.6666666666666,-960.3333333333334,5.0,-2.3333333333333335,-0.031420848642786346,-0.0016401434938112895,-2.673609733581543,-0.968890110651652,0.0016347911829749744,-0.005312280108531316,-35.3632611,149.16523506666667,148114.33333333334,-10.333333333333334,24.0,105.66666666666667
00:35:55,189841.0,RTL,0.0,-70.0,-993.3333333333334,-917.3333333333334,10.333333333333334,-6.333333333333333,-0.007056188614418109,0.0021414601942524314,-2.676710764567057,-0.9225872159004211,0.006902798544615507,-0.009268291993066669,-35.363261466666664,149.16523556666667,146840.0,-8.666666666666666,20.333333333333332,102.33333333333333
00:35:56,189841.0,RTL,2.0,-70.33333333333333,-1014.0,-864.6666666666666,7.666666666666667,-7.666666666666667,-0.012460759530464808,0.0037103004287928343,-2.678551117579142,-0.8695288499196371,0.0042564040049910545,-0.011171489333113035,-35.363261466666664,149.1652352,146078.0,-8.666666666666666,20.666666666666668,103.0
00:35:58,189841.0,RTL,0.0,-17.666666666666668,-994.3333333333334,472.6666666666667,-3.6666666666666665,1.6666666666666667,-0.009236685776462158,0.0015743653639219701,-2.6802636782328286,0.46895653009414673,-0.008014810892442862,-0.0009664447667698065,-35.36326106666667,149.16523366666667,144020.33333333334,-10.333333333333334,33.333333333333336,101.0
00:36:00,163073.0,RTL,2.0,66.0,-1002.0,1435.0,11.0,16.333333333333332,-0.004095576858768861,0.0015464051684830338,-2.6834894816080728,1.4293296337127686,0.007367185627420743,0.013721867154041925,-35.36326113333333,149.16523456666667,141957.66666666666,-11.0,27.333333333333332,98.33333333333333
00:36:02,163073.0,RTL,-0.3333333333333333,-9.0,-1008.0,-907.3333333333334,2.0,-0.3333333333333333,-0.056324273347854614,0.002172258294497927,-2.683283726374308,-0.9133869409561157,-0.0017153524483243625,-0.0036191240263481936,-35.363260266666664,149.16523206666668,139905.33333333334,-17.0,43.0,96.33333333333333
00:36:04,163073.0,RTL,-1.3333333333333333,-26.0,-977.3333333333334,225.66666666666666,4.666666666666667,11.666666666666666,-0.007265690869341294,-0.00322919183721145,-2.6859727700551352,0.22333604594071707,0.0006662275021274885,0.009015438069278995,-35.3632604,149.16523329999998,137845.66666666666,-19.0,44.666666666666664,100.66666666666667
00:36:05,23682.0,RTL,0.6666666666666666,5.333333333333333,-984.3333333333334,-598.6666666666666,14.333333333333334,10.666666666666666,-0.031495342031121254,0.0003499213295678298,-2.688150644302368,-0.6037420829137167,0.011061379685997963,0.008315855559582511,-35.36326086666667,149.16523436666668,136579.33333333334,-16.666666666666668,33.666666666666664,95.0
00:36:06,23682.0,RTL,1.3333333333333333,-11.333333333333334,-1013.3333333333334,-848.0,7.333333333333333,8.333333333333334,-0.05196620151400566,0.0050145299173891544,-2.688678582509359,-0.8528293371200562,0.003676121588796377,0.005748540007819732,-35.36326069999999,149.1652335,135841.0,-15.666666666666666,31.0,96.0
00:36:08,23682.0,RTL,-1.6666666666666667,49.0,-1018.0,223.33333333333334,-3.3333333333333335,2.6666666666666665,-0.04952961330612501,-0.0017361315452338506,-2.6880996227264404,0.22053451587756476,-0.007609524143238862,3.932625986635685e-05,-35.36325993333333,149.16523163333332,133808.33333333334,-21.0,51.333333333333336,99.66666666666667
00:36:10,23682.0,RTL,-3.6666666666666665,-58.666666666666664,-997.3333333333334,-1409.3333333333333,7.666666666666667,1.0,-0.01945050883417328,-0.006441988671819369,-2.689862330754598,-1.4100592931111653,0.0040978325220445795,-0.0018335126029948394,-35.3632608,149.1652349,131752.0,-17.666666666666668,37.333333333333336,100.0
00:36:11,108008.0,RTL,0.0,12.666666666666666,-1021.0,909.3333333333334,11.666666666666666,3.6666666666666665,0.02677423134446144,-0.0007234869796472291,-2.6908857027689614,0.9099004864692688,0.008111342477301756,0.0004903847972551981,-35.3632618,149.1652369,130467.0,-10.333333333333334,19.333333333333332,91.66666666666667
00:36:12,108008.0,RTL,2.3333333333333335,10.333333333333334,-1021.6666666666666,897.6666666666666,8.333333333333334,2.3333333333333335,0.012557201165085038,0.005119531648233533,-2.6915392875671387,0.898678203423818,0.005164424733569224,-0.000861935472736756,-35.36326196666666,149.1652365333333,129708.0,-7.0,11.666666666666666,98.66666666666667
00:36:14,108008.0,RTL,0.0,51.666666666666664,-1051.3333333333333,1348.0,-2.3333333333333335,0.0,-0.010134106812377771,-8.850745264984046e-05,-2.6915526390075684,1.348410725593567,-0.0065646640335520106,-0.0029401363960156837,-35.363261233333326,149.1652343,127666.66666666667,-8.333333333333334,26.333333333333332,97.0
00:36:16,28790.0,RTL,2.0,-74.0,-1004.0,-926.0,12.666666666666666,-0.3333333333333333,-0.011276729715367159,0.0012599758338183165,-2.6919713815053306,-0.9247552553812662,0.009276583790779114,-0.0036150311740736165,-35.3632614,149.16523556666667,125624.66666666667,-10.0,22.0,95.66666666666667
00:36:18,28790.0,RTL,-0.6666666666666666,62.333333333333336,-1031.3333333333333,1314.6666666666667,-3.0,9.0,-0.03612821797529856,0.005704796019320686,-2.6919355392456055,1.3160419861475627,-0.007448450429365039,0.006055611729001005,-35.36326046666667,149.16523193333333,123606.33333333333,-14.0,38.0,101.33333333333333
00:36:20,28790.0,RTL,-10.333333333333334,21.666666666666668,-1000.0,-471.0,-4.0,3.6666666666666665,-0.006324364182849725,-0.012105757370591164,-2.690979321797689,-0.4715327595671018,-0.008513428270816803,0.0005000464928646883,-35.3632612,149.16523543333335,121564.0,-13.333333333333334,40.333333333333336,99.66666666666667
00:36:21,123209.0,RTL,-4.666666666666667,-60.333333333333336,-1026.0,-1352.3333333333333,17.333333333333332,6.0,0.04046540210644404,-0.007162238548820217,-2.6933902899424234,-1.3502592245737712,0.013454874201367298,0.0030898123513907194,-35.363263133333334,149.16524073333332,120306.66666666667,-0.3333333333333333,0.0,101.33333333333333
00:36:22,123209.0,RTL,1.0,-76.0,-1001.0,-1355.6666666666667,17.0,2.6666666666666665,0.025831639145811398,0.0015926867102583249,-2.6935199896494546,-1.3537057240804036,0.013419485030074915,-0.0003120345063507557,-35.36326376666667,149.16524139999999,119544.33333333333,6.333333333333333,-18.0,103.0
00:36:24,123209.0,RTL,2.3333333333333335,-68.66666666666667,-994.6666666666666,-795.0,-1.6666666666666667,0.3333333333333333,0.0039653230730133755,0.006455455751468738,-2.6930671532948813,-0.7926917771498362,-0.006267772366603215,-0.0027028571348637342,-35.3632634,149.1652389,117501.33333333333,11.333333333333334,-15.333333333333334,100.33333333333333
00:36:26,68872.0,RTL,-4.333333333333333,76.0,-1018.6666666666666,600.6666666666666,0.6666666666666666,-3.0,0.007113928673788905,-0.004744852737834056,-2.692411184310913,0.6002482598026594,-0.0034026773646473885,-0.0062602169734115405,-35.363262733333336,149.1652387,115424.66666666667,9.0,-8.333333333333334,98.0
00:36:28,68872.0,RTL,-7.0,66.66666666666667,-976.6666666666666,438.0,11.0,-2.3333333333333335,0.06308140854040782,-0.008021592938651642,-2.6937288443247476,0.43668660521507263,0.006857693350563447,-0.005815060731644432,-35.36326463333334,149.16524436666666,113388.66666666667,18.333333333333332,-37.333333333333336,97.33333333333333
00:36:30,68872.0,RTL,-1.3333333333333333,-48.333333333333336,-999.6666666666666,-1256.6666666666667,8.666666666666666,5.333333333333333,0.06519679228464763,0.0013232959512000282,-2.693193276723226,-1.2587546904881795,0.004690517360965411,0.002616244601085782,-35.363266466666666,149.16524773333333,111354.33333333333,36.333333333333336,-74.0,99.66666666666667
00:36:31,87781.0,RTL,2.6666666666666665,57.666666666666664,-985.0,1233.6666666666667,5.0,12.333333333333334,0.0690375305712223,0.005500027444213629,-2.693145751953125,1.230604847272237,0.0010104184038937092,0.009451433861007294,-35.363266466666666,149.165247,110098.66666666667,42.0,-84.0,99.66666666666667
00:36:32,87781.0,RTL,2.6666666666666665,52.666666666666664,-1022.6666666666666,608.3333333333334,3.3333333333333335,9.333333333333334,0.041829004883766174,0.006536663509905338,-2.692594846089681,0.6036266485850016,-0.0012191440910100937,0.006298496775949995,-35.36326603333334,149.16524579999998,109335.66666666667,41.666666666666664,-79.66666666666667,102.33333333333333
00:36:34,87781.0,RTL,4.666666666666667,-46.333333333333336,-1005.0,-1257.0,0.3333333333333333,8.666666666666666,-0.0018763793632388115,0.005394341889768839,-2.693035364151001,-1.26231449842453,-0.004445082663247983,0.005963699038450916,-35.3632644,149.16524223333332,107272.33333333333,29.0,-53.333333333333336,100.33333333333333
00:36:36,105652.0,RTL,6.333333333333333,24.333333333333332,-1094.3333333333333,1147.6666666666667,2.0,5.666666666666667,0.013565204494322339,0.005841754997769992,-2.693830410639445,1.1439975102742512,-0.0025103488005697727,0.0016368264332413673,-35.3632628,149.16523866666665,105207.33333333333,13.0,-24.0,97.0
00:36:38,105652.0,RTL,1.0,-18.0,-993.3333333333334,-965.0,0.0,1.3333333333333333,-0.04838739956418673,0.0036397477767119804,-2.6930463314056396,-0.9705521066983541,-0.0046842874338229494,-0.002066604948292176,-35.363261099999995,149.1652345,103173.33333333333,-3.3333333333333335,13.0,95.33333333333333
00:36:40,105652.0,RTL,-0.6666666666666666,-52.333333333333336,-1016.0,-1268.0,7.0,4.0,-0.022460236214101315,-0.002349236630834639,-2.6933743158976235,-1.271953781445821,0.002909777220338583,0.0011723015923053026,-35.363261066666674,149.16523506666667,101142.33333333333,-9.333333333333334,24.333333333333332,100.0
00:36:41,217394.0,RTL,-2.6666666666666665,50.333333333333336,-995.6666666666666,1410.6666666666667,3.3333333333333335,0.3333333333333333,0.007402236883838971,-0.001178435340989381,-2.6922317345937095,1.4074559211730957,-0.0010841616118947666,-0.0032373982636878886,-35.3632614,149.16523546666667,99880.0,-7.0,19.333333333333332,103.33333333333333
00:36:42,217394.0,RTL,-6.333333333333333,73.0,-1007.6666666666666,1408.6666666666667,-0.6666666666666666,-1.0,0.026441041380167007,-0.003882277368878325,-2.6932992935180664,1.4046939214070637,-0.005326095037162304,-0.004142698676635821,-35.36326193333334,149.16523676666668,99123.66666666667,-3.6666666666666665,16.333333333333332,100.0
00:36:44,217394.0,RTL,-0.3333333333333333,68.66666666666667,-1008.3333333333334,1141.0,13.333333333333334,12.0,0.04150222800672054,0.001989363476241124,-2.693882624308268,1.1358451048533122,0.009160918338845173,0.008988007592658201,-35.36326363333333,149.16524066666668,97093.66666666667,10.0,-18.0,101.0
00:36:46,213594.0,RTL,-0.6666666666666666,-63.666666666666664,-1016.6666666666666,-1088.6666666666667,0.0,-2.0,0.01671628832506637,0.0001719838473945856,-2.693214257558187,-1.092367947101593,-0.004442460524539153,-0.006138792571922143,-35.36326366666666,149.16524006666666,95056.0,12.666666666666666,-15.333333333333334,102.33333333333333
00:36:48,213594.0,RTL,3.6666666666666665,-76.0,-1005.6666666666666,-1119.0,6.666666666666667,-6.0,-0.0008166764552394549,0.004564600841452678,-2.693511168162028,-1.122629443804423,0.002106513517598311,-0.009511592099443078,-35.3632632,149.16523940000002,93026.0,10.666666666666666,-19.666666666666668,103.66666666666667
00:36:51,158534.0,RTL,1.5,38.0,-1009.0,37.0,7.0,9.5,-0.022773400880396366,-0.00023405412503052503,-2.6934452056884766,0.030680949799716473,0.0025369678623974323,0.00655667542014271,-35.3632616,149.16523635,89719.5,-2.0,5.0,102.5
00:36:53,103474.0,RTL,-1.5,48.0,-1019.5,70.0,4.0,4.5,-0.025457817129790783,-0.00215610588202253,-2.6930227279663086,0.06357578933238983,-0.00034230167511850595,0.0009839267004281282,-35.3632612,149.1652356,87682.5,-6.0,13.5,103.0
00:36:55,103474.0,RTL,-3.5,37.0,-1032.0,1090.5,5.0,-2.0,0.03491127211600542,-0.006425130879506469,-2.693050742149353,1.0871093273162842,0.00017687585204839706,-0.005753424251452088,-35.363262,149.16523825,85599.5,-2.0,2.0,101.5
00:36:56,46570.0,RTL,-3.75,52.75,-952.5,93.75,2.75,3.5,0.01896544429473579,-0.00515708071179688,-2.6932252645492554,0.08737225644290447,-0.0017319326288998127,0.00010557135101407766,-35.3632628,149.165239875,84846.75,1.5,-5.25,99.25
00:36:57,46570.0,RTL,-2.5,14.5,-1040.5,-553.5,13.0,-7.0,0.018535862676799297,0.0014082177949603647,-2.6932618618011475,-0.5603704452514648,0.008699025958776474,-0.011360486270859838,-35.3632638,149.16524145,83602.5,10.5,-24.5,102.5
00:36:59,46570.0,RTL,-2.0,-16.5,-1041.0,-994.0,6.0,1.0,0.024020422250032425,-0.0013720749993808568,-2.693048119544983,-1.001442700624466,0.0020227450877428055,-0.0024592606350779533,-35.3632645,149.16524264999998,81567.5,21.5,-36.5,101.0
00:37:01,47510.0,RTL,0.5,15.0,-997.5,971.5,10.5,2.5,0.06630120426416397,0.0016114508034661412,-2.69300639629364,0.9666016697883606,0.005774494959041476,-0.00036337622441351414,-35.363265049999995,149.165244,79499.5,28.5,-55.5,101.0
00:37:03,48450.0,RTL,4.0,69.5,-1007.5,1211.0,8.5,14.5,0.03626780305057764,0.0025829439982771873,-2.6940970420837402,1.2026151418685913,0.0037864160258322954,0.011301083024591208,-35.3632643,149.16524235,77479.5,23.5,-47.0,101.0
00:37:05,48450.0,RTL,0.5,-45.0,-925.5,454.5,-1.0,6.0,0.025759307201951742,0.0005297644675010815,-2.6918002367019653,0.4485403895378113,-0.0064250698778778315,0.001984842587262392,-35.36326305,149.16523955000002,75406.5,12.5,-24.0,101.5
00:37:06,73131.0,RTL,0.0,57.75,-1020.25,1319.75,1.5,3.5,0.03133044857531786,-0.0015447618934558704,-2.6930876970291138,1.311689704656601,-0.00350664253346622,3.120210021734238e-05,-35.363262950000006,149.165239625,74648.25,10.25,-19.5,97.75
00:37:07,73131.0,RTL,1.5,59.0,-1061.5,989.5,9.0,10.0,0.022746487520635128,0.000644020430627279,-2.6933664083480835,0.9794432520866394,0.004426500992849469,0.0066425681579858065,-35.363263,149.1652398,73387.5,9.0,-20.5,99.0
00:37:09,73131.0,RTL,2.0,33.0,-1011.0,-90.5,8.0,0.5,-0.014389503747224808,0.00308288203086704,-2.6939895153045654,-0.10154874995350838,0.003488562535494566,-0.003057701629586518,-35.36326245,149.16523784999998,71348.0,4.5,-8.0,101.5
00:37:11,143845.0,RTL,-5.0,-48.0,-1062.5,-636.5,-7.5,-2.5,0.0032542392145842314,-0.003080557333305478,-2.690887689590454,-0.6438518613576889,-0.013147290330380201,-0.006298138527199626,-35.3632622,149.16523755,69296.5,2.5,0.0,99.5
00:37:13,214559.0,RTL,-0.5,-22.0,-991.5,449.0,14.0,-2.5,0.05590616725385189,-0.0009608797772671096,-2.6930335760116577,0.441840723156929,0.009172923862934113,-0.006474854308180511,-35.363263700000005,149.1652417,67280.5,10.5,-24.0,102.5
00:37:15,214559.0,RTL,7.5,47.5,-1058.5,772.5,7.5,27.5,-0.0038876887410879135,0.010694686323404312,-2.692595601081848,0.7616889774799347,0.0021997117437422276,0.02399388514459133,-35.36326335,149.16523884999998,65228.5,12.5,-23.5,103.0
00:37:16,151131.0,RTL,6.5,-37.25,-968.25,-813.75,5.75,3.25,-0.04126560967415571,0.010221675969660282,-2.693107306957245,-0.8241025162860751,0.0008524305885657668,-0.000672962109092623,-35.363262325,149.16523635,64462.75,7.0,-8.5,105.25
00:37:17,151131.0,RTL,4.5,-80.0,-956.0,-882.5,0.0,0.0,-0.04210609383881092,0.003191170748323202,-2.692007303237915,-0.8901210427284241,-0.005050842883065343,-0.003955327090807259,-35.3632607,149.1652332,63220.5,-6.0,21.5,104.0
00:37:19,151131.0,RTL,1.0,-22.0,-979.0,416.5,6.0,8.0,-0.017927428241819143,-0.003073745174333453,-2.6916496753692627,0.4107717275619507,0.001457609934732318,0.004231971455737948,-35.36325965,149.165232,61186.5,-21.5,45.0,108.5
00:37:21,150470.0,RTL,1.0,-0.5,-1008.5,-180.5,10.5,9.5,-0.04918238706886768,0.00015706796693848446,-2.6921504735946655,-0.18825381994247437,0.006008001277223229,0.005501499632373452,-35.36325975,149.1652321,59117.0,-25.0,47.5,105.0
00:37:23,149809.0,RTL,4.5,-74.5,-1021.5,-1300.5,1.5,1.0,-0.10137151181697845,0.007009248016402125,-2.692077159881592,-1.305513620376587,-0.002862641355022788,-0.0029882852686569095,-35.3632583,149.16522735,57106.5,-35.0,71.0,103.0
00:37:25,149809.0,RTL,-4.5,-18.0,-1052.0,58.5,0.0,11.5,-0.031505756080150604,-0.009128547739237547,-2.6907418966293335,0.057098143734037876,-0.00543127441778779,0.007893225876614451,-35.3632579,149.16522774999999,55050.5,-44.5,97.5,100.5
00:37:26,122169.0,RTL,-4.25,35.75,-1019.25,1171.5,12.75,19.0,-0.011082061100751162,-0.009337472030892968,-2.6902289390563965,1.169624000787735,0.008013275102712214,0.015331727685406804,-35.3632585,149.16522972500002,54263.5,-41.0,83.75,103.5
00:37:27,122169.0,RTL,-8.0,46.5,-991.5,-120.0,-2.5,-1.5,-0.04464639909565449,-0.008147364016622305,-2.6908172369003296,-0.12482328712940216,-0.007882049074396491,-0.0059939487837255,-35.3632595,149.16523205,52935.5,-30.5,58.5,95.0
00:37:29,122169.0,RTL,-16.0,55.5,-1043.5,45.0,16.0,-12.0,0.06435640528798103,-0.016369000542908907,-2.6903891563415527,0.04000893607735634,0.011550721945241094,-0.01656322693452239,-35.36326345,149.16524245,50860.5,-1.5,-2.5,95.0
00:37:31,117072.5,RTL,-1.5,-45.0,-1037.0,-1243.0,5.0,2.5,0.07524675875902176,-0.0022285125451162457,-2.6880240440368652,-1.2486104369163513,0.0004864054499194026,-0.0012987435329705477,-35.363267,149.1652493,48763.5,34.5,-77.5,94.0
00:37:33,111976.0,RTL,5.0,-62.0,-986.5,-420.5,6.0,-5.0,0.07307436317205429,0.00556755275465548,-2.688430905342102,-0.42510418593883514,0.001354304375126958,-0.009234504774212837,-35.363267199999996,149.16524859999998,46851.5,46.0,-94.0,101.0
00:37:35,111976.0,RTL,11.666666666666666,-64.66666666666667,-1051.0,-393.3333333333333,4.0,-6.0,0.019328489278753597,0.009289039298892021,-2.688823699951172,-0.39894623061021167,-0.00023682741448283195,-0.009937593014910817,-35.36326483333334,149.16524316666667,44932.333333333336,32.666666666666664,-67.0,101.0
00:37:36,93964.0,RTL,10.0,-69.75,-968.0,-291.0,-2.5,-5.5,-0.005760952233686112,0.007430827943608165,-2.68915855884552,-0.2965151071548462,-0.0073658626060932875,-0.009584164014086127,-35.3632631,149.165239325,43906.5,19.0,-38.0,96.25
00:37:37,93964.0,RTL,6.5,56.0,-991.5,1556.5,-13.0,-0.5,-0.0017301097977906466,0.0029295746935531497,-2.68796169757843,1.5495282411575317,-0.018372845370322466,-0.004818641813471913,-35.363261300000005,149.16523575,42626.0,2.0,-4.5,95.5
00:37:39,93964.0,RTL,-4.5,60.0,-1054.0,1383.5,-0.5,4.0,0.015281019732356071,-0.009004861582070589,-2.6878199577331543,1.3769249320030212,-0.00547220790758729,-5.788658745586872e-05,-35.3632608,149.16523585,40598.5,-10.0,18.5,96.5
00:37:41,93964.0,RTL,-9.5,-43.5,-1020.0,-1412.5,4.5,5.5,0.027951001189649105,-0.01049354812130332,-2.687015414237976,-1.4208102226257324,-0.00010174280032515526,0.0023668615613132715,-35.36326285,149.16524090000001,38590.5,1.5,-10.0,100.0
00:37:42,79414.0,RTL,-5.5,-36.75,-997.25,-1343.75,11.0,4.25,0.04677091725170612,-0.008703823783434927,-2.687901258468628,-1.3525525033473969,0.007037116680294275,0.0006286505376920104,-35.363263925,149.16524335,37846.0,10.0,-29.0,101.0
00:37:43,79414.0,RTL,0.0,-33.0,-968.0,-1246.5,14.0,5.5,0.038206202909350395,0.0006647708214586601,-2.687009572982788,-1.256349265575409,0.009849056135863066,0.0019822878530249,-35.363265,149.1652451,36570.0,22.0,-56.0,104.5
00:37:45,79414.0,RTL,4.0,-56.0,-974.0,-1430.0,2.5,-1.5,-0.0013207359006628394,0.005937362788245082,-2.6860820055007935,-1.44020414352417,-0.00203919131308794,-0.005861189332790673,-35.3632645,149.16524235,34529.5,24.0,-48.0,105.5
00:37:47,54880.0,RTL,9.5,48.5,-992.0,1382.0,5.5,7.5,-0.02090368838980794,0.01129967626184225,-2.6890820264816284,1.3724483847618103,0.000862181419506669,0.004054398974403739,-35.3632621,149.16523645,32461.5,7.5,-15.0,104.0
00:37:49,30346.0,RTL,0.5,71.0,-991.5,1277.0,-3.0,9.0,-0.0630497895181179,0.003396537620574236,-2.6856313943862915,1.2676823139190674,-0.00781772960908711,0.005573788192123175,-35.363259049999996,149.16522915000002,30423.0,-21.0,52.0,99.0
00:37:51,30346.0,RTL,-5.0,-59.0,-926.0,-722.0,5.5,8.0,-0.0011819107457995415,-0.01169898547232151,-2.6827597618103027,-0.7280097007751465,0.0016460216138511896,0.004324298934079707,-35.36325965,149.16523295000002,28388.0,-27.0,57.0,110.5
00:37:52,7282.0,RTL,-6.0,26.75,-939.0,1025.0,2.5,-6.25,0.03410791791975498,-0.01245473138988018,-2.6844370365142822,1.0183314755558968,-0.002007206087000668,-0.010739833931438625,-35.36326055,149.16523552499999,27615.0,-20.5,38.0,99.5
00:37:53,7282.0,RTL,-6.0,79.5,-995.5,1447.5,12.5,3.0,0.042171331122517586,-0.008453817572444677,-2.686121344566345,1.4393534064292908,0.008422186365351081,-0.0008662220789119601,-35.36326205,149.16523895,26345.5,-8.0,6.0,102.0
00:37:55,7282.0,RTL,1.5,29.0,-999.5,1236.5,7.0,6.5,0.038373302668333054,0.0028926440281793475,-2.6849600076675415,1.2292971014976501,0.002528497250750661,0.0032599115511402488,-35.3632634,149.16524055,24311.0,6.0,-21.5,101.5
00:37:57,57970.5,RTL,1.5,-75.0,-961.5,-1250.5,-5.0,-7.0,-0.028524400666356087,0.0015159830363700166,-2.6825945377349854,-1.2588974237442017,-0.01008806237950921,-0.010890425881370902,-35.36326235,149.16523755,22281.5,2.0,-3.5,104.0
00:37:59,108659.0,RTL,0.5,-69.5,-955.0,-700.0,9.0,13.0,0.013933350332081318,-0.003372862469404936,-2.6836823225021362,-0.7068089246749878,0.004789155442267656,0.00957458361517638,-35.3632621,149.16523815,20235.5,-2.0,0.5,107.0
00:38:01,108659.0,RTL,5.0,35.0,-962.0,1621.0,-2.0,14.0,-0.011137137655168772,0.003471526433713734,-2.683248996734619,1.6138920783996582,-0.006974135525524616,0.010442618513479829,-35.363261,149.16523545,18176.5,-7.5,5.5,104.0
00:38:02,246211.0,RTL,3.0,45.75,-1009.0,386.75,2.5,15.0,-0.04779686592519283,0.0021565137431025505,-2.6846888661384583,0.37761610746383667,-0.0014736420125700533,0.01107468269765377,-35.3632604,149.1652339,17400.5,-13.0,18.25,101.75
00:38:03,246211.0,RTL,2.0,-28.5,-959.0,-1197.5,2.0,2.5,-0.07224605977535248,-0.0004949574795318767,-2.6847047805786133,-1.2060784101486206,-0.001878711860626936,-0.00130188069306314,-35.36325965,149.1652321,16136.5,-22.5,38.5,104.0
00:38:05,246211.0,RTL,-1.0,-52.0,-1028.5,-1405.5,0.5,-2.0,-0.09484147652983665,0.0012109053350286558,-2.683157444000244,-1.4117568135261536,-0.004124958999454975,-0.006586101371794939,-35.3632584,149.1652292,14122.0,-33.0,61.0,101.5
00:38:07,246211.0,RTL,0.0,67.0,-1005.5,1256.5,6.5,13.0,-0.04845598526299,-0.0019417176954448223,-2.6834423542022705,1.251365602016449,0.0026508208829909563,0.009154520463198423,-35.3632583,149.1652292,12086.5,-38.5,71.0,101.0
00:38:08,130762.0,RTL,-3.25,38.25,-1068.5,679.0,-0.25,0.0,-0.0430832514539361,-0.004229822312481701,-2.68365740776062,0.675689771771431,-0.004274276900105178,-0.003998958272859454,-35.363258375,149.165229375,11503.75,-38.5,72.5,60.0
00:38:09,130762.0,RTL,-8.0,-8.5,-1011.5,-355.5,4.0,0.0,-0.03380734194070101,-0.007050732150673866,-2.684260606765747,-0.35867825150489807,9.680609218776226e-05,-0.004071308183483779,-35.363259049999996,149.16523095,11155.5,-36.0,70.0,27.5
00:38:11,130762.0,RTL,-6.5,-30.0,-1004.0,-721.0,8.5,4.0,0.013021955266594887,-0.006805341457948089,-2.6841598749160767,-0.723309263586998,0.004669804126024246,0.0004027574323117733,-35.3632615,149.16523675000002,10592.5,-16.5,29.0,34.5
00:38:13,73487.0,RTL,-1.0,28.5,-1005.5,119.0,6.5,6.0,0.017893292009830475,-0.0008274509746115655,-2.6847957372665405,0.11476203799247742,0.0028569339774549007,0.0025801101000979543,-35.36326315,149.16523995,9898.5,2.5,-8.5,35.5
00:38:15,16212.0,RTL,2.0,-41.0,-990.0,-665.0,2.5,0.0,-0.013456334942020476,0.0035565177677199244,-2.6834903955459595,-0.6678812056779861,-0.0011981800198554993,-0.004484045319259167,-35.3632626,149.1652379,9223.0,3.0,-6.5,33.5
00:38:17,16212.0,RTL,1.0,-1.5,-1032.5,50.5,7.0,3.5,-0.0021186426747590303,-0.0013674023211933672,-2.6835745573043823,0.04785513877868652,0.002908075926825404,-0.0004392710980027914,-35.3632619,149.1652369,8733.0,-3.0,7.0,1.0
00:38:18,28609.0,RTL,0.5,17.75,-992.25,82.0,3.75,8.25,-0.00563310386496596,-0.00043952177838946227,-2.6837705969810486,0.07876993343234062,0.00014361378271132708,0.004747947270516306,-35.36326185,149.1652369,8793.25,-3.0,5.25,-5.25
00:38:19,28609.0,RTL,0.0,-9.0,-1012.0,-215.5,3.5,1.0,-0.00835214095422998,4.3135009946126956e-05,-2.6839710474014282,-0.21764782071113586,-0.0007163272239267826,-0.0026870822766795754,-35.36326175,149.16523660000001,8830.5,-4.0,7.5,-1.5
00:38:21,28609.0,RTL,-2.0,4.0,-1008.0,-131.0,2.5,2.5,0.006399181089363992,-0.003247007611207664,-2.6836212873458862,-0.13314774632453918,-0.0009819724364206195,-0.0007788700750097632,-35.3632619,149.1652374,8838.0,-3.0,7.5,0.5
00:38:23,18895.0,RTL,0.0,12.0,-979.0,166.0,9.5,5.0,0.0037862727185711265,0.0009536410580039956,-2.683773636817932,0.16307690739631653,0.005694092949852347,0.0018397918902337551,-35.3632623,149.1652382,8827.5,0.0,-3.5,4.5
00:38:25,9181.0,RTL,0.0,-33.5,-1032.5,-420.0,1.0,-0.5,0.0007510685827583075,-0.0005002374236937612,-2.6835124492645264,-0.4218163322657347,-0.002966083586215973,-0.004270727396942675,-35.363262250000005,149.16523765,8231.5,0.0,0.5,37.5
00:38:27,9181.0,RTL,0.0,-2.0,-1002.5,426.5,2.0,0.0,0.010378415929153562,-0.0004716780240414664,-2.6836682558059692,0.42562542855739594,-0.0016790973022580147,-0.0037187730195000768,-35.363261800000004,149.16523695,7518.0,-3.5,4.5,32.5
00:38:28,67007.0,RTL,1.25,-5.0,-1006.0,440.75,4.5,1.75,0.004563760539895156,0.00012087761570001021,-2.6832486391067505,0.4401351697742939,0.0008553462103009224,-0.0017893583863042295,-35.363261574999996,149.1652365,7175.5,-5.25,7.0,34.25
00:38:29,67007.0,RTL,1.0,-21.5,-996.5,-477.5,3.5,4.0,-0.019321472384035587,0.0003738989034900442,-2.6834797859191895,-0.4791899174451828,-0.0002353627933189273,0.0005641716998070478,-35.36326125,149.16523569999998,6852.5,-7.5,12.0,33.5
00:38:31,67007.0,RTL,0.0,-25.0,-988.0,-490.5,4.5,-0.5,-0.01563910162076354,-0.0021724217804148793,-2.6836313009262085,-0.4922834485769272,0.0008843638934195042,-0.0042846291908062994,-35.363261,149.16523535,6186.0,-12.0,21.0,36.0
00:38:33,67007.0,RTL,-3.5,38.5,-1014.0,631.5,-3.0,4.0,0.011786079267039895,-0.005925732431933284,-2.6826283931732178,0.6308224201202393,-0.0077989245764911175,0.0009815929224714637,-35.36326135,149.16523660000001,5494.5,-8.5,14.5,36.0
00:38:34,95499.0,RTL,-3.75,-25.0,-1003.25,-256.25,4.0,3.75,0.02748547587543726,-0.006871261750347912,-2.683664917945862,-0.25610783137381077,0.0004531620070338249,0.000628608395345509,-35.363262025,149.165238375,5152.75,-5.5,6.25,35.75
00:38:35,95499.0,RTL,-2.0,5.5,-1004.5,-352.0,10.5,0.5,0.01580907916650176,-0.003671269747428596,-2.683408260345459,-0.35517809353768826,0.006506858393549919,-0.0029311839025467634,-35.3632626,149.16523965,4806.5,0.5,-8.5,36.0
00:38:37,95499.0,RTL,-1.5,-22.5,-1006.0,-416.5,10.0,-1.0,0.02387684676796198,-0.0009255561599275097,-2.6829386949539185,-0.41762699000537395,0.0065566361881792545,-0.004466287093237042,-35.363263450000005,149.16524095,4117.5,9.0,-21.5,33.5
00:38:39,189867.0,RTL,0.5,-21.0,-977.5,-768.5,7.0,2.0,0.007445489754900336,0.0012839060509577394,-2.6833765506744385,-0.7719919085502625,0.0032405531965196133,-0.0014793695881962776,-35.3632635,149.1652407,3430.0,12.5,-26.5,30.5
00:38:41,284235.0,RTL,4.5,-22.0,-1008.5,-66.5,4.0,3.5,-0.018707350944168866,0.00459859543479979,-2.682618260383606,-0.06798967719078064,0.00036997487768530846,-5.529983900487423e-05,-35.363262000000006,149.16523684999999,2753.0,2.0,-6.5,33.0
00:38:43,284235.0,RTL,1.0,40.5,-1008.0,464.5,2.5,5.0,-0.02178974775597453,-0.0013649735919898376,-2.6834267377853394,0.46119355969130993,-0.001039454247802496,0.0019861082546412945,-35.363260749999995,149.16523465,2051.5,-10.0,20.5,31.0
00:38:44,37532.0,RTL,-0.25,6.5,-1009.75,386.25,3.0,5.25,-0.009485139104072005,-0.0023295183782465756,-2.6827348470687866,0.3855365142226219,-0.0007255563978105783,0.0020368766272440553,-35.3632606,149.1652346,1704.0,-13.5,24.75,32.5
00:38:45,37532.0,RTL,-0.5,-34.5,-991.5,-1005.5,4.0,-0.5,-0.021822682581841946,-0.0031161243095993996,-2.682314872741699,-1.0070548057556152,0.00035081058740615845,-0.00423239404335618,-35.3632608,149.16523495,1374.0,-13.5,25.0,35.5
00:38:47,37532.0,RTL,-1.5,22.5,-998.0,794.5,2.0,2.5,0.012620664667338133,-0.001263326412299648,-2.682708501815796,0.7942131459712982,-0.001363217830657959,-0.0005562209407798946,-35.363261449999996,149.16523615,708.5,-10.0,17.5,34.5
00:38:49,74952.0,RTL,0.0,-0.5,-1049.0,57.5,0.5,1.0,-0.004854840226471424,-0.000887552261701785,-2.685851216316223,0.05771571339573711,-0.003349835053086281,-0.0022177057107910514,-35.3632622,149.16523775000002,76.0,-9.5,20.0,23.0
00:38:51,112372.0,RTL,0.0,0.0,-1000.0,2.0,2.0,2.5,-0.008372769691050053,-0.003148092539049685,-2.6898460388183594,0.0023422427475452423,-0.001259358017705381,-0.0006759321549907327,-35.3632628,149.16523865,0.0,-15.0,23.5,8.5
00:38:53,112372.0,RTL,0.0,0.0,-1000.0,2.0,2.0,2.5,0.004324372741393745,-0.004322484135627747,-2.688146471977234,0.002680852194316685,-0.0012089600786566734,-0.0006035184487700462,-35.3632627,149.16523775,0.0,-8.0,3.5,5.5
00:38:54,11545.0,RTL,0.0,0.0,-1000.0,2.25,2.0,2.0,0.008728919317945838,-0.004513705731369555,-2.6880069971084595,0.0027072177617810667,-0.0011842483654618263,-0.0005224362248554826,-35.3632625,149.165237025,0.0,-4.5,-4.0,4.25
00:38:55,11545.0,RTL,0.0,0.0,-1000.0,2.0,2.0,2.0,0.011578817386180162,-0.004511656938120723,-2.688241481781006,0.0026389408158138394,-0.0011204127222299576,-0.0005723698996007442,-35.3632623,149.1652364,0.0,-1.0,-11.0,3.5
00:38:57,11545.0,RTL,0.0,0.0,-1000.0,2.0,2.0,2.0,0.013899846468120813,-0.004348634509369731,-2.6888911724090576,0.0025458787567913532,-0.0009626841638237238,-0.0005472758784890175,-35.363262,149.16523560000002,0.0,1.0,-17.5,2.0
