time_stamp,MODE,lat,lon,relative_alt,roll,pitch,yaw,rollspeed,pitchspeed,yawspeed,xacc,yacc,zacc,xgyro,ygyro,zgyro,vx,vy,vz,RTL_ALT
00:32:48.025,STABILIZE,-35.3632622,149.1652374,0,-0.0005170248914510012,0.001431909273378551,0.027553951367735863,0.0002166134654544294,0.00014609986101277173,0.0021612904965877533,0,1,-1000,0,0,1,-2,1,0,59094.0
00:32:48.226,STABILIZE,-35.3632622,149.1652374,0,-0.0005626240745186806,0.0013832475524395704,0.027412941679358482,0.00029815337620675564,0.0002818597131408751,0.0022694303188472986,0,1,-1000,0,0,1,-2,1,0,59094.0
00:32:48.427,STABILIZE,-35.3632622,149.1652374,0,-0.0005626240745186806,0.0013832475524395704,0.027412941679358482,0.00029815337620675564,0.0002818597131408751,0.0022694303188472986,0,1,-1000,0,0,1,-2,1,0,59094.0
00:32:48.627,STABILIZE,-35.3632622,149.1652374,0,-0.0005626240745186806,0.0013832475524395704,0.027412941679358482,0.00029815337620675564,0.0002818597131408751,0.0022694303188472986,0,1,-1000,0,0,1,-2,1,0,59094.0
00:32:48.828,STABILIZE,-35.3632622,149.1652374,0,-0.0005626240745186806,0.0013832475524395704,0.027412941679358482,0.00029815337620675564,0.0002818597131408751,0.0022694303188472986,0,1,-1000,0,0,1,-2,1,0,59094.0
00:32:49.029,STABILIZE,-35.3632622,149.1652374,0,-0.0005626240745186806,0.0013832475524395704,0.027412941679358482,0.00029815337620675564,0.0002818597131408751,0.0022694303188472986,0,1,-1000,0,0,1,-2,1,0,59094.0
00:32:49.230,STABILIZE,-35.3632622,149.1652374,0,-0.0007553918985649943,0.0011663222685456276,0.026891401037573814,0.0002516161184757948,0.0001405363145750016,0.0020502987317740917,0,1,-1000,0,0,0,-1,1,-1,59094.0
00:32:49.431,STABILIZE,-35.3632622,149.1652374,0,-0.0007553918985649943,0.0011663222685456276,0.026891401037573814,0.0002516161184757948,0.0001405363145750016,0.0020502987317740917,0,1,-1000,0,0,0,-1,1,-1,59094.0
00:32:49.632,STABILIZE,-35.3632622,149.1652374,0,-0.0007935287430882454,0.0011185245821252465,0.026786746457219124,0.00024094287073239684,0.0002232339174952358,0.0021134288981556892,0,1,-1000,0,0,0,-1,1,-1,59094.0
00:32:49.833,STABILIZE,-35.3632622,149.1652374,0,-0.0007935287430882454,0.0011185245821252465,0.026786746457219124,0.00024094287073239684,0.0002232339174952358,0.0021134288981556892,0,1,-1000,0,0,0,-1,1,-1,59094.0
00:32:50.034,STABILIZE,-35.3632622,149.1652374,0,-0.0007935287430882454,0.0011185245821252465,0.026786746457219124,0.00024094287073239684,0.0002232339174952358,0.0021134288981556892,0,1,-1000,0,0,0,-1,1,-1,59094.0
00:32:50.236,STABILIZE,-35.3632622,149.1652374,0,-0.0008930465555749834,0.001008003018796444,0.026452096179127693,0.00025388941867277026,4.6784174628555775e-05,0.0021143665071576834,0,1,-1000,0,0,0,-1,1,-1,59094.0
00:32:50.437,STABILIZE,-35.3632622,149.1652374,0,-0.0008930465555749834,0.001008003018796444,0.026452096179127693,0.00025388941867277026,4.6784174628555775e-05,0.0021143665071576834,0,1,-1000,0,0,0,-1,1,-1,59094.0
00:32:50.640,STABILIZE,-35.3632622,149.1652374,0,-0.0008930465555749834,0.001008003018796444,0.026452096179127693,0.00025388941867277026,4.6784174628555775e-05,0.0021143665071576834,0,1,-1000,0,0,0,-1,1,-1,59094.0
00:32:50.845,STABILIZE,-35.3632622,149.1652374,0,-0.0008930465555749834,0.001008003018796444,0.026452096179127693,0.00025388941867277026,4.6784174628555775e-05,0.0021143665071576834,0,1,-1000,0,0,0,-1,1,-1,59094.0
00:32:51.046,STABILIZE,-35.3632621,149.1652374,0,-0.0009515463025309145,0.0009395163506269455,0.026141364127397537,0.00038023950764909387,0.00020883302204310894,0.0020090281032025814,0,1,-1000,0,0,1,-1,0,-1,59094.0
00:32:51.247,STABILIZE,-35.3632621,149.1652374,0,-0.0009515463025309145,0.0009395163506269455,0.026141364127397537,0.00038023950764909387,0.00020883302204310894,0.0020090281032025814,0,1,-1000,0,0,1,-1,0,-1,59094.0
00:32:51.449,STABILIZE,-35.3632621,149.1652374,0,-0.0009663783712312579,0.0009160841000266373,0.025943581014871597,0.00035222648875787854,0.00037922116462141275,0.0019445822108536959,0,1,-1000,0,0,0,-1,0,-1,59094.0
00:32:51.650,STABILIZE,-35.3632621,149.1652374,0,-0.0009663783712312579,0.0009160841000266373,0.025943581014871597,0.00035222648875787854,0.00037922116462141275,0.0019445822108536959,0,1,-1000,0,0,0,-1,0,-1,59094.0
00:32:51.851,STABILIZE,-35.3632621,149.1652374,0,-0.0009663783712312579,0.0009160841000266373,0.025943581014871597,0.00035222648875787854,0.00037922116462141275,0.0019445822108536959,0,1,-1000,0,0,0,-1,0,-1,59094.0
00:32:52.052,STABILIZE,-35.3632621,149.1652374,0,-0.0009889686480164528,0.000917951634619385,0.02575129270553589,0.0002341439831070602,0.0003464316832832992,0.0018325187265872955,0,1,-1000,0,0,0,-1,0,-1,59094.0
00:32:52.254,STABILIZE,-35.3632621,149.1652374,0,-0.0009889686480164528,0.000917951634619385,0.02575129270553589,0.0002341439831070602,0.0003464316832832992,0.0018325187265872955,0,1,-1000,0,0,0,-1,0,-1,59094.0
00:32:52.455,STABILIZE,-35.3632621,149.1652374,0,-0.0009889686480164528,0.000917951634619385,0.02575129270553589,0.0002341439831070602,0.0003464316832832992,0.0018325187265872955,0,1,-1000,0,0,0,-1,0,-1,59094.0
00:32:52.656,STABILIZE,-35.3632621,149.1652374,0,-0.0009889686480164528,0.000917951634619385,0.02575129270553589,0.0002341439831070602,0.0003464316832832992,0.0018325187265872955,0,1,-1000,0,0,0,-1,0,-1,59094.0
00:32:52.857,STABILIZE,-35.3632621,149.1652374,0,-0.0009889686480164528,0.000917951634619385,0.02575129270553589,0.0002341439831070602,0.0003464316832832992,0.0018325187265872955,0,1,-1000,0,0,0,-1,0,-1,59094.0
00:32:53.059,STABILIZE,-35.3632621,149.1652374,0,-0.0009889686480164528,0.000917951634619385,0.02575129270553589,0.0002341439831070602,0.0003464316832832992,0.0018325187265872955,0,1,-1000,0,0,0,-1,0,-1,59094.0
00:32:53.260,STABILIZE,-35.3632621,149.1652374,0,-0.0009889686480164528,0.000917951634619385,0.02575129270553589,0.0002341439831070602,0.0003464316832832992,0.0018325187265872955,0,1,-1000,0,0,0,-1,0,-1,59094.0
00:32:53.462,STABILIZE,-35.3632621,149.1652374,0,-0.0010280978167429566,0.0009155969601124525,0.02518608793616295,0.00016655819490551949,0.00020048674196004868,0.0018544439226388931,0,1,-1000,0,0,0,-1,0,-1,59094.0
00:32:53.663,STABILIZE,-35.3632621,149.1652374,0,-0.0010280978167429566,0.0009155969601124525,0.02518608793616295,0.00016655819490551949,0.00020048674196004868,0.0018544439226388931,0,1,-1000,0,0,0,-1,0,-1,59094.0
00:32:53.864,STABILIZE,-35.3632621,149.1652374,0,-0.0010267541510984302,0.0009206470567733049,0.02510736510157585,0.0002989104832522571,0.0003132050042040646,0.0019334221724420786,0,1,-1000,0,0,1,-1,1,0,59094.0
00:32:54.066,STABILIZE,-35.3632621,149.1652374,0,-0.0010241848649457097,0.0009315786883234978,0.025002125650644302,0.00019147817511111498,0.0003108018427155912,0.001963668968528509,0,1,-1000,0,0,0,-1,1,0,59094.0
00:32:54.267,STABILIZE,-35.3632621,149.1652374,0,-0.0007060853531584144,0.0009373538196086884,0.024907957762479782,0.01106040459126234,0.00024281733203679323,0.0019425505306571722,0,-50,-1078,11,0,1,-1,0,-3,59094.0
00:32:54.468,STABILIZE,-35.3632621,149.1652374,0,-0.0007060853531584144,0.0009373538196086884,0.024907957762479782,0.01106040459126234,0.00024281733203679323,0.0019425505306571722,0,-50,-1078,11,0,1,-1,0,-3,59094.0
00:32:54.670,STABILIZE,-35.3632621,149.1652374,0,-0.0007060853531584144,0.0009373538196086884,0.024907957762479782,0.01106040459126234,0.00024281733203679323,0.0019425505306571722,0,-50,-1078,11,0,1,-1,0,-3,59094.0
00:32:54.871,STABILIZE,-35.3632621,149.1652374,0,-0.0007060853531584144,0.0009373538196086884,0.024907957762479782,0.01106040459126234,0.00024281733203679323,0.0019425505306571722,0,-50,-1078,11,0,1,-1,0,-3,59094.0
00:32:55.072,STABILIZE,-35.3632621,149.1652374,0,-0.0007060853531584144,0.0009373538196086884,0.024907957762479782,0.01106040459126234,0.00024281733203679323,0.0019425505306571722,0,-50,-1078,11,0,1,-1,0,-3,59094.0
00:32:55.274,STABILIZE,-35.3632621,149.1652374,11,-0.0005519919213838875,0.0009676333866082132,0.024551164358854294,0.0003025219193659723,0.00026357988826930523,0.0017643668688833714,0,-50,-1078,11,0,1,-1,0,-3,59094.0
00:32:55.475,STABILIZE,-35.3632621,149.1652374,11,-0.0005519919213838875,0.0009676333866082132,0.024551164358854294,0.0003025219193659723,0.00026357988826930523,0.0017643668688833714,0,-50,-1078,11,0,1,-1,0,-3,59094.0
00:32:55.676,STABILIZE,-35.3632621,149.1652374,11,-0.0005519919213838875,0.0009676333866082132,0.024551164358854294,0.0003025219193659723,0.00026357988826930523,0.0017643668688833714,0,-50,-1078,11,0,1,-1,0,-3,59094.0
00:32:55.878,STABILIZE,-35.3632621,149.1652374,11,-0.0005519919213838875,0.0009676333866082132,0.024551164358854294,0.0003025219193659723,0.00026357988826930523,0.0017643668688833714,0,-50,-1078,11,0,1,-1,0,-3,59094.0
00:32:56.080,STABILIZE,-35.3632621,149.1652374,11,-0.0005519919213838875,0.0009676333866082132,0.024551164358854294,0.0003025219193659723,0.00026357988826930523,0.0017643668688833714,0,-50,-1078,11,0,1,-1,0,-3,59094.0
00:32:56.281,STABILIZE,-35.3632621,149.1652374,14,-0.00043988670222461224,0.000983043690212071,0.02415979839861393,0.0003047790378332138,0.000201255374122411,0.0018162885680794716,0,2,-1000,1,0,0,-1,1,-2,59094.0
00:32:56.484,STABILIZE,-35.3632621,149.1652374,14,-0.00043988670222461224,0.000983043690212071,0.02415979839861393,0.0003047790378332138,0.000201255374122411,0.0018162885680794716,0,2,-1000,1,0,0,-1,1,-2,59094.0
00:32:56.685,STABILIZE,-35.3632621,149.1652374,14,-0.00043988670222461224,0.000983043690212071,0.02415979839861393,0.0003047790378332138,0.000201255374122411,0.0018162885680794716,0,2,-1000,1,0,0,-1,1,-2,59094.0
00:32:56.887,STABILIZE,-35.3632621,149.1652374,14,-0.00043988670222461224,0.000983043690212071,0.02415979839861393,0.0003047790378332138,0.000201255374122411,0.0018162885680794716,0,2,-1000,1,0,0,-1,1,-2,59094.0
00:32:57.088,STABILIZE,-35.3632622,149.1652374,14,-0.0004352171381469816,0.0009928286308422685,0.023821715265512466,0.00025271298363804817,0.0002481701667420566,0.0016303504817187786,0,1,-1000,0,0,1,-1,1,-2,59094.0
00:32:57.290,STABILIZE,-35.3632622,149.1652374,14,-0.0004352171381469816,0.0009928286308422685,0.023821715265512466,0.00025271298363804817,0.0002481701667420566,0.0016303504817187786,0,1,-1000,0,0,1,-1,1,-2,59094.0
00:32:57.491,STABILIZE,-35.3632622,149.1652374,14,-0.0004352171381469816,0.0009928286308422685,0.023821715265512466,0.00025271298363804817,0.0002481701667420566,0.0016303504817187786,0,1,-1000,0,0,1,-1,1,-2,59094.0
00:32:57.692,STABILIZE,-35.3632622,149.1652374,14,-0.0004352171381469816,0.0009928286308422685,0.023821715265512466,0.00025271298363804817,0.0002481701667420566,0.0016303504817187786,0,0,-1003,0,0,1,-1,1,-2,59094.0
00:32:57.894,STABILIZE,-35.3632622,149.1652374,14,-0.0004352171381469816,0.0009928286308422685,0.023821715265512466,0.00025271298363804817,0.0002481701667420566,0.0016303504817187786,0,0,-1003,0,0,1,-1,1,-2,59094.0
00:32:58.095,STABILIZE,-35.3632622,149.1652374,14,-0.0004352171381469816,0.0009928286308422685,0.023821715265512466,0.00025271298363804817,0.0002481701667420566,0.0016303504817187786,0,2,-1000,1,0,0,-1,1,-2,59094.0
00:32:58.297,STABILIZE,-35.3632622,149.1652375,10,-0.0003649529826361686,0.0009791291086003184,0.02330375462770462,0.0003011388471350074,0.0002731567365117371,0.0017071731854230165,0,1,-1000,0,0,1,-1,2,-1,59094.0
00:32:58.498,STABILIZE,-35.3632622,149.1652375,10,-0.0003649529826361686,0.0009791291086003184,0.02330375462770462,0.0003011388471350074,0.0002731567365117371,0.0017071731854230165,0,1,-1000,0,0,1,-1,2,-1,59094.0
00:32:58.699,STABILIZE,-35.3632622,149.1652375,10,-0.0003649529826361686,0.0009791291086003184,0.02330375462770462,0.0003011388471350074,0.0002731567365117371,0.0017071731854230165,0,1,-1000,0,0,1,-1,2,-1,59094.0
00:32:58.900,STABILIZE,-35.3632622,149.1652375,10,-0.0003649529826361686,0.0009791291086003184,0.02330375462770462,0.0003011388471350074,0.0002731567365117371,0.0017071731854230165,0,1,-1000,0,0,1,-1,2,-1,59094.0
00:32:59.102,STABILIZE,-35.3632622,149.1652375,8,-0.000426138547481969,0.0009744111448526382,0.023003121837973595,0.00027098151622340083,0.0001862450735643506,0.0016611387254670262,0,1,-1000,1,0,0,-1,2,0,59094.0
00:32:59.304,STABILIZE,-35.3632622,149.1652375,8,-0.000426138547481969,0.0009744111448526382,0.023003121837973595,0.00027098151622340083,0.0001862450735643506,0.0016611387254670262,0,1,-1000,1,0,0,-1,2,0,59094.0
00:32:59.505,STABILIZE,-35.3632622,149.1652375,8,-0.000426138547481969,0.0009744111448526382,0.023003121837973595,0.00027098151622340083,0.0001862450735643506,0.0016611387254670262,0,1,-1000,1,0,0,-1,2,0,59094.0
00:32:59.707,STABILIZE,-35.3632622,149.1652375,8,-0.000426138547481969,0.0009744111448526382,0.023003121837973595,0.00027098151622340083,0.0001862450735643506,0.0016611387254670262,0,1,-1000,1,0,0,-1,2,0,59094.0
00:32:59.908,STABILIZE,-35.3632622,149.1652375,8,-0.000426138547481969,0.0009744111448526382,0.023003121837973595,0.00027098151622340083,0.0001862450735643506,0.0016611387254670262,0,1,-1000,1,0,0,-1,2,0,59094.0
00:33:00.110,STABILIZE,-35.3632622,149.1652375,8,-0.000426138547481969,0.0009744111448526382,0.023003121837973595,0.00027098151622340083,0.0001862450735643506,0.0016611387254670262,0,1,-1000,1,0,0,-1,2,0,59094.0
00:33:00.311,STABILIZE,-35.3632622,149.1652375,8,-0.000426138547481969,0.0009744111448526382,0.023003121837973595,0.00027098151622340083,0.0001862450735643506,0.0016611387254670262,0,1,-1000,1,0,0,-1,2,0,59094.0
00:33:00.513,STABILIZE,-35.3632622,149.1652375,8,-0.000426138547481969,0.0009744111448526382,0.023003121837973595,0.00027098151622340083,0.0001862450735643506,0.0016611387254670262,0,1,-1000,1,0,0,-1,2,0,59094.0
00:33:00.715,STABILIZE,-35.3632622,149.1652375,8,-0.000426138547481969,0.0009744111448526382,0.023003121837973595,0.00027098151622340083,0.0001862450735643506,0.0016611387254670262,0,1,-1000,1,0,0,-1,2,0,59094.0
00:33:00.916,STABILIZE,-35.3632622,149.1652375,8,-0.000426138547481969,0.0009744111448526382,0.023003121837973595,0.00027098151622340083,0.0001862450735643506,0.0016611387254670262,0,1,-1000,1,0,0,-1,2,0,59094.0
00:33:01.117,STABILIZE,-35.3632622,149.1652375,8,-0.000426138547481969,0.0009744111448526382,0.023003121837973595,0.00027098151622340083,0.0001862450735643506,0.0016611387254670262,0,1,-1000,1,0,0,-1,2,0,59094.0
00:33:01.319,STABILIZE,-35.3632622,149.1652375,0,-0.00023485854035243392,0.0009558536112308502,0.022269587963819504,0.0002862258115783334,0.0001743743196129799,0.0015072983223944902,0,-1,-1005,0,0,0,-1,5,4,59094.0
00:33:01.520,STABILIZE,-35.3632622,149.1652375,0,-0.00023485854035243392,0.0009558536112308502,0.022269587963819504,0.0002862258115783334,0.0001743743196129799,0.0015072983223944902,0,-1,-1005,0,0,0,-1,5,4,59094.0
00:33:01.721,STABILIZE,-35.3632622,149.1652377,0,-0.0003986655792687088,0.0009551133261993527,0.02208230271935463,0.00019243359565734863,0.00035084947012364864,0.0014566965401172638,0,2,-1000,0,0,0,-1,4,4,59094.0
00:33:01.922,STABILIZE,-35.3632622,149.1652377,0,-0.0003986655792687088,0.0009551133261993527,0.02208230271935463,0.00019243359565734863,0.00035084947012364864,0.0014566965401172638,0,2,-1000,0,0,0,-1,4,4,59094.0
00:33:02.123,STABILIZE,-35.3632622,149.1652377,0,-0.0003986655792687088,0.0009551133261993527,0.02208230271935463,0.00019243359565734863,0.00035084947012364864,0.0014566965401172638,0,2,-1000,0,0,0,-1,4,4,59094.0
00:33:02.325,STABILIZE,-35.3632622,149.1652377,0,-0.0006526564829982817,0.0009626809041947126,0.02192447893321514,0.00013855734141543508,0.0002364446991123259,0.0015461299335584044,0,1,-1000,1,1,1,-1,3,3,59094.0
00:33:02.530,AUTO,-35.3632622,149.1652377,0,-0.0006526564829982817,0.0009626809041947126,0.02192447893321514,0.00013855734141543508,0.0002364446991123259,0.0015461299335584044,0,1,-1000,1,1,1,-1,3,3,59094.0
00:33:02.731,AUTO,-35.3632622,149.1652377,0,-0.0006526564829982817,0.0009626809041947126,0.02192447893321514,0.00013855734141543508,0.0002364446991123259,0.0015461299335584044,0,1,-1000,1,1,1,-1,3,3,59094.0
00:33:02.933,AUTO,-35.3632622,149.1652377,0,-0.0006526564829982817,0.0009626809041947126,0.02192447893321514,0.00013855734141543508,0.0002364446991123259,0.0015461299335584044,0,1,-1000,1,1,1,-1,3,3,59094.0
00:33:03.137,AUTO,-35.3632622,149.1652376,0,-0.0009664312819950283,0.0009742818656377494,0.021744053810834885,0.00032629602355882525,0.0003493776312097907,0.0014097712701186538,0,2,-1000,1,1,1,-1,2,3,59094.0
00:33:03.372,AUTO,-35.3632622,149.1652376,0,-0.001039573224261403,0.0009791572811082006,0.021682029590010643,0.0002853351761586964,0.0002570828655734658,0.0015877137193456292,0,1,-1000,0,0,0,-1,1,3,59094.0
00:33:03.626,AUTO,-35.3632621,149.1652376,0,-0.0010881248163059354,0.0009972727857530117,0.021627310663461685,0.00027108483482152224,0.00025762547738850117,0.001500990940257907,0,1,-1000,0,0,0,0,1,2,59094.0
00:33:03.898,AUTO,-35.3632621,149.1652376,0,-0.0010960452491417527,0.0010353142861276865,0.021574275568127632,0.00022756820544600487,0.00028793199453502893,0.0014070086181163788,0,2,-1000,1,0,1,0,0,2,59094.0
00:33:04.100,AUTO,-35.3632621,149.1652376,0,-0.0010878556640818715,0.0010854024440050125,0.02153724804520607,0.00025468587409704924,0.0002241690526716411,0.001512391958385706,0,2,-1000,0,1,0,0,0,2,59094.0
00:33:04.301,AUTO,-35.3632621,149.1652375,0,-0.0010614219354465604,0.0011399035574868321,0.021479522809386253,0.00019901676569133997,0.00016264448640868068,0.0013710849452763796,0,1,-1000,0,0,1,0,0,2,59094.0
00:33:04.503,AUTO,-35.3632621,149.1652375,0,-0.0010614219354465604,0.0011399035574868321,0.021479522809386253,0.00019901676569133997,0.00016264448640868068,0.0013710849452763796,0,1,-1000,0,0,1,0,0,2,59094.0
00:33:04.706,AUTO,-35.3632621,149.1652375,0,-0.0010614219354465604,0.0011399035574868321,0.021479522809386253,0.00019901676569133997,0.00016264448640868068,0.0013710849452763796,0,1,-1000,0,0,1,0,0,2,40547.0
00:33:04.908,AUTO,-35.3632621,149.1652375,0,-0.0010614219354465604,0.0011399035574868321,0.021479522809386253,0.00019901676569133997,0.00016264448640868068,0.0013710849452763796,0,1,-1000,0,0,1,0,0,2,40547.0
00:33:05.109,AUTO,-35.3632621,149.1652375,0,-0.0009308674489147961,0.0013316061813384295,0.02131362445652485,0.0003562760539352894,0.0002844037371687591,0.0012990348041057587,0,1,-1000,1,0,1,0,-1,1,40547.0
00:33:05.310,AUTO,-35.3632621,149.1652375,0,-0.000887591450009495,0.0014043424744158983,0.021254763007164,0.0002413251786492765,0.00028269918402656913,0.0014373247977346182,0,1,-1000,0,1,0,0,-1,1,40547.0
00:33:05.511,AUTO,-35.3632621,149.1652375,0,-0.0008399530779570341,0.001473612035624683,0.021219473332166672,0.00022258074022829533,0.0002710346016101539,0.0014298965688794851,0,1,-1000,0,0,0,0,-1,1,40547.0
00:33:05.713,AUTO,-35.3632621,149.1652374,0,-0.0007948814891278744,0.001548910979181528,0.021155545487999916,0.00026331422850489616,0.0002863710978999734,0.001447718241252005,0,1,-1000,1,0,1,0,0,1,40547.0
00:33:05.915,AUTO,-35.3632621,149.1652374,0,-0.0007948814891278744,0.001548910979181528,0.021155545487999916,0.00026331422850489616,0.0002863710978999734,0.001447718241252005,0,1,-1000,1,0,1,0,0,1,40547.0
00:33:06.117,AUTO,-35.3632621,149.1652374,0,-0.0007396543514914811,0.001621454837732017,0.02109452895820141,0.0003220073413103819,0.0004250544589012861,0.0013835554709658027,0,1,-1000,0,0,1,0,0,1,40547.0
00:33:06.318,AUTO,-35.3632621,149.1652374,0,-0.0006831223145127296,0.0016939268680289388,0.021039677783846855,0.00031955173471942544,0.0003954418934881687,0.0013829291565343738,0,2,-1000,0,0,1,0,0,1,40547.0
00:33:06.520,AUTO,-35.3632621,149.1652374,0,-0.0006831223145127296,0.0016939268680289388,0.021039677783846855,0.00031955173471942544,0.0003954418934881687,0.0013829291565343738,0,2,-1000,0,0,1,0,0,1,40547.0
00:33:06.721,AUTO,-35.3632621,149.1652374,0,-0.0006831223145127296,0.0016939268680289388,0.021039677783846855,0.00031955173471942544,0.0003954418934881687,0.0013829291565343738,0,2,-1000,0,0,1,0,0,1,40547.0
00:33:06.923,AUTO,-35.3632621,149.1652374,0,-0.0006831223145127296,0.0016939268680289388,0.021039677783846855,0.00031955173471942544,0.0003954418934881687,0.0013829291565343738,0,2,-1000,0,0,1,0,0,1,40547.0
00:33:07.124,AUTO,-35.3632621,149.1652375,176,0.003693491453304887,0.00019760489522013813,0.02097202278673649,0.001609775354154408,0.004698230419307947,0.00156496767885983,0,0,-1130,2,5,1,0,0,-68,40547.0
00:33:07.325,AUTO,-35.3632621,149.1652375,384,0.0019914954900741577,0.0011036561336368322,0.020719440653920174,-0.0034069044049829245,0.0031724616419523954,0.00040413509123027325,0,0,-1110,-2,3,0,0,1,-97,40547.0
00:33:07.527,AUTO,-35.3632621,149.1652375,660,0.0008269412210211158,0.0016160611994564533,0.020705457776784897,-0.0081855533644557,0.002268017502501607,0.0012365096481516957,0,0,-1090,-7,2,1,0,1,-121,40547.0
00:33:07.739,AUTO,-35.3632621,149.1652375,996,0.008397892117500305,0.0011450599413365126,0.020442279055714607,0.046160995960235596,-0.005553616676479578,0.0011423560790717602,0,0,-1045,46,-4,0,0,1,-137,40547.0
00:33:07.946,AUTO,-35.363262,149.1652375,1361,0.02017126977443695,-0.0005369151476770639,0.020436493679881096,0.04661428928375244,-0.007144290022552013,0.002115905052050948,0,0,-1045,46,-4,0,0,4,-144,40547.0
00:33:08.255,AUTO,-35.363262,149.1652377,1739,0.03164486587047577,-0.0024724474642425776,0.0205570999532938,0.04516111686825752,-0.008299835957586765,0.0028257209341973066,0,-1,-1008,46,-7,2,1,10,-147,40547.0
00:33:08.482,AUTO,-35.363262,149.1652377,1739,0.03164486587047577,-0.0024724474642425776,0.0205570999532938,0.04516111686825752,-0.008299835957586765,0.0028257209341973066,0,-1,-1008,46,-7,2,1,10,-147,40547.0
00:33:08.740,AUTO,-35.363262,149.1652377,1739,0.03164486587047577,-0.0024724474642425776,0.0205570999532938,0.04516111686825752,-0.008299835957586765,0.0028257209341973066,0,-1,-1008,46,-7,2,1,10,-147,40547.0
00:33:08.950,AUTO,-35.363262,149.1652377,1739,0.03164486587047577,-0.0024724474642425776,0.0205570999532938,0.04516111686825752,-0.008299835957586765,0.0028257209341973066,0,-1,-1008,46,-7,2,1,10,-147,40547.0
00:33:09.152,AUTO,-35.3632616,149.1652397,2895,0.061228688806295395,-0.009603817947208881,-0.006387197878211737,0.009097710251808167,0.004134597722440958,-0.032174646854400635,0,-7,-994,9,4,-32,8,41,-148,40547.0
00:33:09.358,AUTO,-35.3632614,149.1652409,3278,0.04474296048283577,0.009778829291462898,-0.026619985699653625,-0.12636519968509674,0.11038345098495483,-0.10661640763282776,1,-8,-990,-125,110,-107,9,51,-145,40547.0
00:33:09.560,AUTO,-35.3632612,149.1652424,3654,0.0015229748096317053,0.02387685887515545,-0.04726988822221756,-0.17727498710155487,0.009141172282397747,-0.07380054146051407,5,-12,-998,-176,9,-74,7,54,-144,46858.0
00:33:09.762,AUTO,-35.363261,149.1652438,4035,-0.025550896301865578,0.02041679061949253,-0.06151369586586952,-0.060179680585861206,-0.020681362599134445,-0.05312919244170189,6,-12,-1011,-59,-20,-53,3,47,-147,46858.0
00:33:09.964,AUTO,-35.3632609,149.1652449,4419,-0.03442339971661568,0.01474437303841114,-0.07171869277954102,-0.021068254485726357,-0.016191238537430763,-0.04410174489021301,4,-7,-1007,-20,-15,-44,0,37,-149,46858.0
00:33:10.166,AUTO,-35.3632609,149.1652449,4419,-0.03442339971661568,0.01474437303841114,-0.07171869277954102,-0.021068254485726357,-0.016191238537430763,-0.04410174489021301,4,-7,-1007,-20,-15,-44,0,37,-149,46858.0
00:33:10.370,AUTO,-35.3632609,149.1652458,4806,-0.042009975761175156,0.009805092588067055,-0.07980937510728836,-0.04670177400112152,-0.019293762743473053,-0.031001735478639603,4,-7,-1000,-45,-18,-31,-1,25,-150,46858.0
00:33:10.572,AUTO,-35.3632609,149.1652458,4806,-0.042009975761175156,0.009805092588067055,-0.07980937510728836,-0.04670177400112152,-0.019293762743473053,-0.031001735478639603,4,-7,-1000,-45,-18,-31,-1,25,-150,46858.0
00:33:10.774,AUTO,-35.3632609,149.1652458,4806,-0.042009975761175156,0.009805092588067055,-0.07980937510728836,-0.04670177400112152,-0.019293762743473053,-0.031001735478639603,4,-7,-1000,-45,-18,-31,-1,25,-150,46858.0
00:33:10.976,AUTO,-35.3632609,149.165246,5956,-0.07133747637271881,-0.005703778471797705,-0.0891856774687767,0.045629601925611496,-0.003595796413719654,-0.01034549344331026,-1,2,-1003,46,-2,-10,-2,-24,-149,46858.0
00:33:11.178,AUTO,-35.3632609,149.165246,5956,-0.07133747637271881,-0.005703778471797705,-0.0891856774687767,0.045629601925611496,-0.003595796413719654,-0.01034549344331026,-1,2,-1003,46,-2,-10,-2,-24,-149,46858.0
00:33:11.380,AUTO,-35.363261,149.1652452,6340,-0.05818388983607292,-0.006309223361313343,-0.09153473377227783,0.05603228136897087,0.00032447295961901546,-0.006009705364704132,-3,5,-1001,56,1,-6,-2,-39,-149,46858.0
00:33:11.581,AUTO,-35.3632611,149.165244,6724,-0.04358579218387604,-0.005472057964652777,-0.09322509914636612,0.06067465618252754,0.005946183577179909,-0.002954603871330619,-5,9,-1001,61,6,-3,-3,-50,-149,46858.0
00:33:11.783,AUTO,-35.3632612,149.1652425,7109,-0.028085779398679733,-0.0034050564281642437,-0.09412165731191635,0.06366580724716187,0.009857538156211376,-0.0008815656183287501,-6,10,-1002,64,10,-1,-4,-57,-150,46858.0
00:33:11.985,AUTO,-35.3632613,149.1652409,7495,-0.011941906996071339,-0.0005312407738529146,-0.09427157044410706,0.06568686664104462,0.012431619688868523,0.0004981083911843598,-7,11,-1003,66,12,0,-4,-59,-150,46858.0
00:33:12.187,AUTO,-35.3632613,149.1652409,7495,-0.011941906996071339,-0.0005312407738529146,-0.09427157044410706,0.06568686664104462,0.012431619688868523,0.0004981083911843598,-7,11,-1003,66,12,0,-4,-59,-150,46858.0
00:33:12.389,AUTO,-35.3632614,149.1652392,7883,0.004539764020591974,0.0027211534325033426,-0.0939597338438034,0.06641782820224762,0.013365831226110458,0.0014162107836455107,-7,12,-1004,66,14,1,-6,-57,-151,46858.0
00:33:12.590,AUTO,-35.3632614,149.1652392,7883,0.004539764020591974,0.0027211534325033426,-0.0939597338438034,0.06641782820224762,0.013365831226110458,0.0014162107836455107,-7,12,-1004,66,14,1,-6,-57,-151,46858.0
00:33:12.792,AUTO,-35.3632614,149.1652392,7883,0.004539764020591974,0.0027211534325033426,-0.0939597338438034,0.06641782820224762,0.013365831226110458,0.0014162107836455107,-7,12,-1004,66,14,1,-6,-57,-151,46858.0
00:33:12.994,AUTO,-35.3632619,149.1652352,9063,0.05313150957226753,0.009888245724141598,-0.09113761782646179,0.06195833534002304,0.004122377373278141,0.004024950787425041,-3,8,-1002,62,4,3,-11,-29,-154,46858.0
00:33:13.196,AUTO,-35.3632622,149.1652345,9457,0.06719493865966797,0.009503288194537163,-0.08910630643367767,0.03638050705194473,-0.015080612152814865,0.026022573933005333,0,6,-998,37,-14,25,-12,-13,-153,46858.0
00:33:13.399,AUTO,-35.3632622,149.1652345,9457,0.06719493865966797,0.009503288194537163,-0.08910630643367767,0.03638050705194473,-0.015080612152814865,0.026022573933005333,0,6,-998,37,-14,25,-12,-13,-153,46858.0
00:33:13.673,AUTO,-35.3632625,149.1652343,9848,0.06395316123962402,-0.005908200517296791,-0.07640928775072098,-0.05626141279935837,-0.0771407037973404,0.06254194676876068,1,2,-992,-55,-76,62,-11,3,-152,46858.0
00:33:13.942,AUTO,-35.3632627,149.1652349,10616,0.017676938325166702,-0.015001012943685055,-0.06862571835517883,-0.08419647067785263,0.018088500946760178,-0.013868244364857674,3,-3,-1000,-83,18,-14,0,20,-149,46858.0
00:33:14.254,AUTO,-35.3632627,149.1652354,11007,4.430360786500387e-05,-0.010047877207398415,-0.07489030808210373,-0.058487799018621445,0.018452901393175125,-0.027909308671951294,1,-4,-1002,-57,19,-28,3,20,-150,46858.0
00:33:14.512,AUTO,-35.3632627,149.1652354,11007,4.430360786500387e-05,-0.010047877207398415,-0.07489030808210373,-0.058487799018621445,0.018452901393175125,-0.027909308671951294,1,-4,-1002,-57,19,-28,3,20,-150,46858.0
00:33:14.716,AUTO,-35.3632627,149.1652354,11007,4.430360786500387e-05,-0.010047877207398415,-0.07489030808210373,-0.058487799018621445,0.018452901393175125,-0.027909308671951294,1,-4,-1002,-57,19,-28,3,20,-150,46858.0
00:33:14.917,AUTO,-35.3632627,149.1652354,11007,4.430360786500387e-05,-0.010047877207398415,-0.07489030808210373,-0.058487799018621445,0.018452901393175125,-0.027909308671951294,1,-4,-1002,-57,19,-28,3,20,-150,46858.0
00:33:15.119,AUTO,-35.3632623,149.1652364,12158,-0.017325079068541527,-0.0011691874824464321,-0.10245659947395325,0.006069171708077192,0.008924396708607674,-0.03586955741047859,0,-2,-1002,6,9,-36,8,6,-152,46858.0
00:33:15.321,AUTO,-35.3632621,149.1652365,12547,-0.015066614374518394,0.0009925378253683448,-0.11173257231712341,0.01460673101246357,0.008690009824931622,-0.03280628100037575,-1,-2,-1002,15,9,-32,8,0,-152,13549.0
00:33:15.522,AUTO,-35.3632619,149.1652365,12937,-0.010971142910420895,0.0030482192523777485,-0.12027225643396378,0.0177720095962286,0.00897794496268034,-0.029646968469023705,-1,-1,-1001,18,9,-29,7,-3,-152,13549.0
00:33:15.724,AUTO,-35.3632618,149.1652364,13327,-0.006144605111330748,0.004810758866369724,-0.12758871912956238,0.020139314234256744,0.005681977607309818,-0.025903478264808655,-2,0,-1000,20,6,-26,5,-5,-153,13549.0
00:33:15.925,AUTO,-35.3632618,149.1652364,13327,-0.006144605111330748,0.004810758866369724,-0.12758871912956238,0.020139314234256744,0.005681977607309818,-0.025903478264808655,-2,0,-1000,20,6,-26,5,-5,-153,13549.0
00:33:16.127,AUTO,-35.3632616,149.1652362,13718,-0.0014199179131537676,0.0063082436099648476,-0.13395604491233826,0.01779930107295513,0.0067048631608486176,-0.023323388770222664,-2,0,-1000,18,7,-23,4,-7,-153,13549.0
00:33:16.329,AUTO,-35.3632615,149.165236,14107,0.00285762595012784,0.0075753661803901196,-0.1392935961484909,0.014922680333256721,0.002584150293841958,-0.018316857516765594,-2,1,-999,15,3,-18,2,-7,-153,13549.0
00:33:16.531,AUTO,-35.3632615,149.165236,14107,0.00285762595012784,0.0075753661803901196,-0.1392935961484909,0.014922680333256721,0.002584150293841958,-0.018316857516765594,-2,1,-999,15,3,-18,2,-7,-153,13549.0
00:33:16.732,AUTO,-35.3632615,149.165236,14107,0.00285762595012784,0.0075753661803901196,-0.1392935961484909,0.014922680333256721,0.002584150293841958,-0.018316857516765594,-2,1,-999,15,3,-18,2,-7,-153,13549.0
00:33:16.934,AUTO,-35.3632615,149.165236,14107,0.00285762595012784,0.0075753661803901196,-0.1392935961484909,0.014922680333256721,0.002584150293841958,-0.018316857516765594,-2,1,-999,15,3,-18,2,-7,-153,13549.0
00:33:17.136,AUTO,-35.3632614,149.1652355,15278,0.009254305623471737,0.00784318894147873,-0.14973604679107666,0.0028728411998599768,-0.0013922654325142503,-0.010711798444390297,-1,0,-999,3,0,-10,-1,-2,-153,13549.0
00:33:17.337,AUTO,-35.3632614,149.1652354,15667,0.009486173279583454,0.007659755181521177,-0.15272556245326996,-0.0003078224544879049,-0.0013560955412685871,-0.009013651870191097,0,0,-1000,0,0,-9,-2,0,-153,13549.0
00:33:17.539,AUTO,-35.3632614,149.1652354,16057,0.009132076986134052,0.006747325416654348,-0.15515942871570587,-0.003535722615197301,-0.005058178678154945,-0.007593461312353611,0,0,-1000,-3,-4,-7,-3,1,-153,13549.0
00:33:17.740,AUTO,-35.3632614,149.1652354,16447,0.00800989754498005,0.0058693899773061275,-0.1578991860151291,-0.005502622574567795,-0.002444592770189047,-0.01145832147449255,0,0,-999,-4,-1,-11,-4,3,-153,13549.0
00:33:17.942,AUTO,-35.3632615,149.1652354,16836,0.0067677549086511135,0.005177170503884554,-0.1608615517616272,-0.002429933985695243,-0.0026970189064741135,-0.012293482199311256,0,0,-1000,-1,-2,-12,-4,4,-153,13549.0
00:33:18.144,AUTO,-35.3632615,149.1652354,16836,0.0067677549086511135,0.005177170503884554,-0.1608615517616272,-0.002429933985695243,-0.0026970189064741135,-0.012293482199311256,0,0,-1000,-1,-2,-12,-4,4,-153,13549.0
00:33:18.346,AUTO,-35.3632615,149.1652355,17226,0.005679660942405462,0.004372818861156702,-0.16404713690280914,-0.0028858743607997894,-0.00269815931096673,-0.012368242256343365,0,0,-1000,-1,-2,-12,-4,5,-153,13549.0
00:33:18.547,AUTO,-35.3632615,149.1652355,17226,0.005679660942405462,0.004372818861156702,-0.16404713690280914,-0.0028858743607997894,-0.00269815931096673,-0.012368242256343365,0,0,-1000,-1,-2,-12,-4,5,-153,13549.0
00:33:18.757,AUTO,-35.3632615,149.1652355,17226,0.005679660942405462,0.004372818861156702,-0.16404713690280914,-0.0028858743607997894,-0.00269815931096673,-0.012368242256343365,0,0,-1000,-1,-2,-12,-4,5,-153,13549.0
00:33:18.959,AUTO,-35.3632617,149.1652358,18393,0.0029720203019678593,0.003006663639098406,-0.17611026763916016,-0.001754100900143385,-0.0010332436067983508,-0.020460739731788635,0,0,-1000,0,0,-20,-4,5,-153,13549.0
00:33:19.161,AUTO,-35.3632617,149.1652358,18393,0.0029720203019678593,0.003006663639098406,-0.17611026763916016,-0.001754100900143385,-0.0010332436067983508,-0.020460739731788635,0,0,-1000,0,0,-20,-4,5,-153,13549.0
00:33:19.395,AUTO,-35.3632617,149.1652359,18783,0.0025147809647023678,0.00289556453935802,-0.18090544641017914,-0.002818018663674593,0.0017162349540740252,-0.02002881094813347,0,0,-1000,-1,2,-20,-3,5,-153,13549.0
00:33:19.597,AUTO,-35.3632617,149.1652359,19173,0.002219835761934519,0.002840982750058174,-0.18577660620212555,-0.0005618736031465232,-0.001725517213344574,-0.018465744331479073,0,0,-1000,0,-1,-18,-3,5,-153,13549.0
00:33:19.803,AUTO,-35.3632618,149.165236,19562,0.0022386496420949697,0.0024512778036296368,-0.19057923555374146,-0.0015677292831242085,-0.0016387109644711018,-0.021845098584890366,1,0,-1000,0,0,-22,-3,5,-153,13549.0
00:33:20.010,AUTO,-35.3632618,149.1652361,19960,0.0017192851519212127,0.002462149830535054,-0.19585449993610382,-0.0021875551901757717,0.001965171657502651,-0.02198394015431404,0,0,-1000,-1,2,-22,-3,4,-153,13549.0
00:33:20.242,AUTO,-35.3632618,149.1652362,20350,0.001590966247022152,0.0027564154006540775,-0.20128695666790009,-0.0008169619250111282,0.002441176911816001,-0.022466689348220825,0,0,-1000,0,3,-22,-2,4,-153,13549.0
00:33:20.446,AUTO,-35.3632618,149.1652362,20350,0.001590966247022152,0.0027564154006540775,-0.20128695666790009,-0.0008169619250111282,0.002441176911816001,-0.022466689348220825,0,0,-1000,0,3,-22,-2,4,-153,13549.0
00:33:20.657,AUTO,-35.3632618,149.1652362,20350,0.001590966247022152,0.0027564154006540775,-0.20128695666790009,-0.0008169619250111282,0.002441176911816001,-0.022466689348220825,0,0,-1000,0,3,-22,-2,4,-153,13549.0
00:33:20.863,AUTO,-35.3632618,149.1652362,20350,0.001590966247022152,0.0027564154006540775,-0.20128695666790009,-0.0008169619250111282,0.002441176911816001,-0.022466689348220825,0,0,-1000,0,3,-22,-2,4,-153,13549.0
00:33:21.065,AUTO,-35.3632618,149.1652363,21518,0.002057883655652404,0.0030354068148881197,-0.21736954152584076,0.00012041389709338546,-2.635351847857237e-06,-0.023767082020640373,0,0,-1000,0,0,-23,-2,3,-153,152422.0
00:33:21.267,AUTO,-35.3632618,149.1652364,21908,0.0020953745115548372,0.002937654498964548,-0.22245018184185028,-0.0022287643514573574,0.0007468288531526923,-0.02119291201233864,0,0,-999,-1,1,-21,-2,3,-153,152422.0
00:33:21.468,AUTO,-35.3632618,149.1652364,22296,0.0018854914233088493,0.002904254477471113,-0.2274489849805832,0.0016368955839425325,0.0003819430712610483,-0.020282454788684845,0,0,-1000,2,1,-20,-2,3,-153,152422.0
00:33:21.671,AUTO,-35.3632618,149.1652364,22296,0.0018854914233088493,0.002904254477471113,-0.2274489849805832,0.0016368955839425325,0.0003819430712610483,-0.020282454788684845,0,0,-1000,2,1,-20,-2,3,-153,152422.0
00:33:21.872,AUTO,-35.3632618,149.1652365,22686,0.002114088973030448,0.002860184758901596,-0.2324458211660385,0.0007375560817308724,3.1326489988714457e-05,-0.020917294546961784,0,0,-1000,1,0,-21,-2,3,-153,152422.0
00:33:22.074,AUTO,-35.3632619,149.1652365,23076,0.002047253306955099,0.002932177856564522,-0.23748040199279785,0.0022821419406682253,0.0004903083899989724,-0.02008987031877041,0,0,-1000,3,1,-20,-2,3,-153,152422.0
00:33:22.275,AUTO,-35.3632619,149.1652366,23465,0.002428070642054081,0.0027834700886160135,-0.2423059642314911,0.0024304063990712166,-0.0001299123396165669,-0.019591109827160835,0,0,-1000,3,0,-19,-2,3,-153,152422.0
00:33:22.477,AUTO,-35.3632619,149.1652366,23465,0.002428070642054081,0.0027834700886160135,-0.2423059642314911,0.0024304063990712166,-0.0001299123396165669,-0.019591109827160835,0,0,-1000,3,0,-19,-2,3,-153,152422.0
00:33:22.679,AUTO,-35.3632619,149.1652366,23465,0.002428070642054081,0.0027834700886160135,-0.2423059642314911,0.0024304063990712166,-0.0001299123396165669,-0.019591109827160835,0,0,-1000,3,0,-19,-2,3,-153,152422.0
00:33:22.880,AUTO,-35.3632619,149.1652366,23465,0.002428070642054081,0.0027834700886160135,-0.2423059642314911,0.0024304063990712166,-0.0001299123396165669,-0.019591109827160835,0,0,-1000,3,0,-19,-2,3,-153,152422.0
00:33:23.082,AUTO,-35.363262,149.1652367,24634,0.002217671601101756,0.001953983912244439,-0.2558961510658264,-0.0005030971369706094,0.0007761718588881195,-0.01882603019475937,0,0,-1000,0,1,-18,-2,3,-153,152422.0
00:33:23.283,AUTO,-35.363262,149.1652367,25024,0.001978897489607334,0.002118425676599145,-0.2605237662792206,-0.013520254753530025,0.001517400611191988,-0.013315948657691479,0,-1,-996,-12,2,-13,-1,3,-153,152422.0
00:33:23.485,AUTO,-35.363262,149.1652367,25411,-0.011294099502265453,0.004694011528044939,-0.26015380024909973,-0.004383633844554424,0.00997838843613863,0.01006138976663351,0,0,-1003,-3,10,10,-2,0,-152,152422.0
00:33:23.686,AUTO,-35.363262,149.1652367,25411,-0.011294099502265453,0.004694011528044939,-0.26015380024909973,-0.004383633844554424,0.00997838843613863,0.01006138976663351,0,0,-1003,-3,10,10,-2,0,-152,152422.0
00:33:23.888,AUTO,-35.363262,149.1652367,25797,-0.005682181566953659,0.005845461506396532,-0.25701382756233215,0.03655713424086571,5.2741903346031904e-05,0.018824072554707527,0,0,-1003,37,0,18,-3,-1,-153,152422.0
00:33:24.119,AUTO,-35.3632621,149.1652366,26186,0.0027012063656002283,0.005266531370580196,-0.2519301474094391,0.030058536678552628,-0.003006356069818139,0.024215782061219215,0,1,-1001,31,-2,24,-4,-1,-153,152422.0
00:33:24.384,AUTO,-35.3632622,149.1652366,26576,0.00810890644788742,0.004072082694619894,-0.2455577403306961,0.014598052017390728,-0.0037689898163080215,0.025109222158789635,0,0,-1000,15,-2,24,-5,0,-153,152422.0
00:33:24.617,AUTO,-35.3632622,149.1652366,26576,0.00810890644788742,0.004072082694619894,-0.2455577403306961,0.014598052017390728,-0.0037689898163080215,0.025109222158789635,0,0,-1000,15,-2,24,-5,0,-153,152422.0
00:33:24.828,AUTO,-35.3632622,149.1652366,26576,0.00810890644788742,0.004072082694619894,-0.2455577403306961,0.014598052017390728,-0.0037689898163080215,0.025109222158789635,0,0,-1000,15,-2,24,-5,0,-153,152422.0
00:33:25.067,AUTO,-35.3632623,149.1652366,27742,0.010027755983173847,0.001502410275861621,-0.22629015147686005,-0.005975536070764065,0.00042407773435115814,0.023702682927250862,0,0,-999,-4,1,23,-3,5,-153,152422.0
00:33:25.268,AUTO,-35.3632624,149.1652367,28131,0.008378655649721622,0.0014663933543488383,-0.2202775478363037,-0.007299622055143118,0.0008934905054047704,0.024496201425790787,0,0,-999,-6,1,24,-2,7,-153,152422.0
00:33:25.471,AUTO,-35.3632624,149.1652368,28518,0.00636889785528183,0.0013864374486729503,-0.21474376320838928,-0.007228927221149206,0.0017473341431468725,0.023438015952706337,0,-1,-1000,-6,2,23,-1,8,-153,152422.0
00:33:25.672,AUTO,-35.3632624,149.1652368,28518,0.00636889785528183,0.0013864374486729503,-0.21474376320838928,-0.007228927221149206,0.0017473341431468725,0.023438015952706337,0,-1,-1000,-6,2,23,-1,8,-153,270286.0
00:33:25.874,AUTO,-35.3632624,149.165237,28905,0.004420108161866665,0.001637625857256353,-0.209445059299469,-0.006075847428292036,0.0008197522256523371,0.021581048145890236,0,-1,-1000,-5,1,21,-1,8,-153,270286.0
00:33:26.076,AUTO,-35.3632624,149.1652372,29297,0.0024093170650303364,0.001602949807420373,-0.2042054980993271,-0.006028579082340002,0.0005346760735847056,0.022119490429759026,1,-1,-1000,-5,1,21,0,8,-153,270286.0
00:33:26.278,AUTO,-35.3632624,149.1652374,29684,0.000865585810970515,0.0017204611795023084,-0.1991426944732666,-0.006487585604190826,0.0012326715514063835,0.02074095979332924,0,-1,-1000,-5,1,20,0,8,-153,270286.0
00:33:26.479,AUTO,-35.3632624,149.1652374,29684,0.000865585810970515,0.0017204611795023084,-0.1991426944732666,-0.006487585604190826,0.0012326715514063835,0.02074095979332924,0,-1,-1000,-5,1,20,0,8,-153,270286.0
00:33:26.681,AUTO,-35.3632624,149.1652374,29684,0.000865585810970515,0.0017204611795023084,-0.1991426944732666,-0.006487585604190826,0.0012326715514063835,0.02074095979332924,0,-1,-1000,-5,1,20,0,8,-153,270286.0
00:33:26.883,AUTO,-35.3632624,149.1652374,29684,0.000865585810970515,0.0017204611795023084,-0.1991426944732666,-0.006487585604190826,0.0012326715514063835,0.02074095979332924,0,-1,-1000,-5,1,20,0,8,-153,270286.0
00:33:27.085,AUTO,-35.3632624,149.1652378,30843,-0.0010813275584951043,0.001680857501924038,-0.1853695660829544,-0.002234636340290308,0.0008058942039497197,0.019359063357114792,0,-1,-999,-1,1,19,0,5,-153,270286.0
00:33:27.287,AUTO,-35.3632624,149.1652379,31231,-0.001106527983210981,0.001535820309072733,-0.18100665509700775,0.002807017881423235,-0.0002513671643100679,0.017800886183977127,0,0,-1001,3,0,17,0,4,-153,270286.0
00:33:27.488,AUTO,-35.3632624,149.165238,31620,-0.001006517792120576,0.0013869573595002294,-0.1768607348203659,-0.00020053901243954897,-0.0005536324460990727,0.015789037570357323,0,0,-1000,0,0,15,0,3,-153,270286.0
00:33:27.690,AUTO,-35.3632624,149.165238,31620,-0.001006517792120576,0.0013869573595002294,-0.1768607348203659,-0.00020053901243954897,-0.0005536324460990727,0.015789037570357323,0,0,-1000,0,0,15,0,3,-153,270286.0
00:33:27.891,AUTO,-35.3632623,149.165238,32007,-0.0006872164085507393,0.0013600646052509546,-0.1728215515613556,-0.0006125078070908785,0.0009409869089722633,0.015468955039978027,0,0,-999,0,1,15,0,2,-153,270286.0
00:33:28.093,AUTO,-35.3632623,149.165238,32396,-0.0002596137928776443,0.0013042438076809049,-0.16891507804393768,0.005287754815071821,0.0016296461690217257,0.016696101054549217,0,0,-1000,6,2,16,0,2,-153,270286.0
00:33:28.294,AUTO,-35.3632623,149.165238,32784,9.145820513367653e-05,0.0013845372013747692,-0.16514286398887634,0.004360939841717482,0.0005237461300566792,0.015175926499068737,0,0,-1000,5,1,14,0,1,-153,270286.0
00:33:28.496,AUTO,-35.3632623,149.165238,32784,9.145820513367653e-05,0.0013845372013747692,-0.16514286398887634,0.004360939841717482,0.0005237461300566792,0.015175926499068737,0,0,-1000,5,1,14,0,1,-153,270286.0
00:33:28.697,AUTO,-35.3632623,149.165238,32784,9.145820513367653e-05,0.0013845372013747692,-0.16514286398887634,0.004360939841717482,0.0005237461300566792,0.015175926499068737,0,0,-1000,5,1,14,0,1,-153,270286.0
00:33:28.899,AUTO,-35.3632623,149.165238,32784,9.145820513367653e-05,0.0013845372013747692,-0.16514286398887634,0.004360939841717482,0.0005237461300566792,0.015175926499068737,0,0,-1000,5,1,14,0,1,-153,270286.0
00:33:29.100,AUTO,-35.3632623,149.165238,33949,0.0009541399776935577,0.0013890569098293781,-0.15495216846466064,0.0022102356888353825,-0.0002090368652716279,0.015531165525317192,0,0,-1000,3,0,15,0,0,-153,270286.0
00:33:29.304,AUTO,-35.3632623,149.165238,34337,0.000981813413091004,0.0010942479129880667,-0.15167656540870667,0.0008644495392218232,-0.0005121276481077075,0.01348390243947506,0,0,-1000,2,0,13,0,0,-153,270286.0
00:33:29.538,AUTO,-35.3632623,149.165238,34726,0.0013077161274850368,0.001126590883359313,-0.14853322505950928,-0.0001465408131480217,-0.00027646601665765047,0.01229503471404314,0,0,-1000,0,0,12,0,0,-153,270286.0
00:33:29.775,AUTO,-35.3632622,149.1652379,35113,0.0013933712616562843,0.0010799169540405273,-0.1456013172864914,0.003710505086928606,0.0006450016517192125,0.013175925239920616,0,0,-1000,5,1,13,0,0,-153,270286.0
00:33:29.984,AUTO,-35.3632622,149.1652379,35502,0.0014217713614925742,0.0010399572784081101,-0.1427701711654663,-0.0020299158059060574,0.001508917543105781,0.011675826273858547,0,0,-999,0,2,11,0,0,-153,270286.0
00:33:30.194,AUTO,-35.3632622,149.1652379,35502,0.0014217713614925742,0.0010399572784081101,-0.1427701711654663,-0.0020299158059060574,0.001508917543105781,0.011675826273858547,0,0,-999,0,2,11,0,0,-153,270286.0
00:33:30.398,AUTO,-35.3632622,149.1652378,35891,0.001506785862147808,0.0010233368957415223,-0.14006407558918,0.001313514425419271,-0.00012495514238253236,0.012910615652799606,0,0,-1000,2,0,13,0,0,-153,270286.0
00:33:30.600,AUTO,-35.3632622,149.1652378,35891,0.001506785862147808,0.0010233368957415223,-0.14006407558918,0.001313514425419271,-0.00012495514238253236,0.012910615652799606,0,0,-1000,2,0,13,0,0,-153,270286.0
00:33:30.802,AUTO,-35.3632622,149.1652378,35891,0.001506785862147808,0.0010233368957415223,-0.14006407558918,0.001313514425419271,-0.00012495514238253236,0.012910615652799606,0,0,-1000,2,0,13,0,0,-153,270286.0
00:33:31.003,AUTO,-35.3632622,149.1652377,37055,0.0021296197082847357,0.0014812657609581947,-0.1321329027414322,0.000601679552346468,0.0023132702335715294,0.010087234899401665,0,0,-999,1,3,10,0,0,-153,34758.0
00:33:31.205,AUTO,-35.3632622,149.1652376,37443,0.002470916835591197,0.0016492813592776656,-0.12997154891490936,0.0012376385275274515,0.0003658565692603588,0.008142828941345215,0,0,-1001,2,1,8,0,0,-153,34758.0
00:33:31.406,AUTO,-35.3632622,149.1652376,37443,0.002470916835591197,0.0016492813592776656,-0.12997154891490936,0.0012376385275274515,0.0003658565692603588,0.008142828941345215,0,0,-1001,2,1,8,0,0,-153,34758.0
00:33:31.608,AUTO,-35.3632622,149.1652376,37831,0.002556223189458251,0.0015124850906431675,-0.12767358124256134,0.00013097201008349657,-0.0004776458954438567,0.0114328907802701,0,0,-1000,1,0,11,0,0,-153,34758.0
00:33:31.809,AUTO,-35.3632621,149.1652376,38219,0.002442935947328806,0.0013935333117842674,-0.1251859813928604,-0.0016420336905866861,-0.00028673437191173434,0.010160625912249088,0,0,-1000,0,0,10,0,0,-153,34758.0
00:33:32.011,AUTO,-35.3632621,149.1652375,38611,0.002386190462857485,0.0015507296193391085,-0.12280497699975967,0.0008612921228632331,0.0033922898583114147,0.009332077577710152,0,0,-999,1,4,9,0,0,-153,34758.0
00:33:32.212,AUTO,-35.3632621,149.1652375,38999,0.0023076676297932863,0.0016030514379963279,-0.12085375934839249,0.0016587238060310483,0.00024326785933226347,0.008643674664199352,0,0,-1000,2,1,8,0,0,-153,34758.0
00:33:32.414,AUTO,-35.3632621,149.1652375,38999,0.0023076676297932863,0.0016030514379963279,-0.12085375934839249,0.0016587238060310483,0.00024326785933226347,0.008643674664199352,0,0,-1000,2,1,8,0,0,-153,34758.0
00:33:32.615,AUTO,-35.3632621,149.1652375,38999,0.0023076676297932863,0.0016030514379963279,-0.12085375934839249,0.0016587238060310483,0.00024326785933226347,0.008643674664199352,0,0,-1000,2,1,8,0,0,-153,34758.0
00:33:32.817,AUTO,-35.3632621,149.1652375,38999,0.0023076676297932863,0.0016030514379963279,-0.12085375934839249,0.0016587238060310483,0.00024326785933226347,0.008643674664199352,0,0,-1000,2,1,8,0,0,-153,34758.0
00:33:33.019,AUTO,-35.3632621,149.1652375,38999,0.0023076676297932863,0.0016030514379963279,-0.12085375934839249,0.0016587238060310483,0.00024326785933226347,0.008643674664199352,0,0,-1000,2,1,8,0,0,-153,34758.0
00:33:33.220,AUTO,-35.3632621,149.1652374,40319,0.0019152202876284719,0.0014807834522798657,-0.11448302119970322,-0.0036633857525885105,0.00023947295267134905,0.008084671571850777,0,0,-999,-2,0,8,0,0,-153,34758.0
00:33:33.422,AUTO,-35.3632621,149.1652374,40708,0.0018929303623735905,0.0012984456261619925,-0.11262428015470505,0.00010991643648594618,-0.0020657675340771675,0.006317938677966595,0,0,-1000,1,-1,6,-1,0,-153,34758.0
00:33:33.624,AUTO,-35.3632621,149.1652374,41099,0.001969600096344948,0.001286302343942225,-0.11076897382736206,0.0012723905965685844,0.001036759582348168,0.00798291340470314,0,0,-1000,2,2,8,-1,0,-153,34758.0
00:33:33.827,AUTO,-35.3632621,149.1652374,41486,0.0017761876806616783,0.0014576849061995745,-0.1089763343334198,-0.0028651768807321787,0.002552466467022896,0.008185836486518383,0,0,-999,-1,3,8,0,1,-153,34758.0
00:33:34.036,AUTO,-35.3632621,149.1652374,41486,0.0017761876806616783,0.0014576849061995745,-0.1089763343334198,-0.0028651768807321787,0.002552466467022896,0.008185836486518383,0,0,-999,-1,3,8,0,1,-153,34758.0
00:33:34.327,AUTO,-35.363262,149.1652374,42263,0.0019019058672711253,0.0017182714072987437,-0.10578324645757675,0.0022830977104604244,0.0003676973283290863,0.008677070029079914,0,0,-1000,3,1,8,-1,1,-153,34758.0
00:33:34.566,AUTO,-35.363262,149.1652374,42263,0.0019019058672711253,0.0017182714072987437,-0.10578324645757675,0.0022830977104604244,0.0003676973283290863,0.008677070029079914,0,0,-1000,3,1,8,-1,1,-153,34758.0
00:33:34.792,AUTO,-35.363262,149.1652374,42263,0.0019019058672711253,0.0017182714072987437,-0.10578324645757675,0.0022830977104604244,0.0003676973283290863,0.008677070029079914,0,0,-1000,3,1,8,-1,1,-153,34758.0
00:33:34.998,AUTO,-35.363262,149.1652374,42263,0.0019019058672711253,0.0017182714072987437,-0.10578324645757675,0.0022830977104604244,0.0003676973283290863,0.008677070029079914,0,0,-1000,3,1,8,-1,1,-153,34758.0
00:33:35.202,AUTO,-35.3632621,149.1652372,43391,-0.04587062448263168,0.05365918576717377,0.03618960082530975,-0.15774989128112793,0.12824010848999023,0.5378710031509399,0,0,-973,-156,129,538,-11,-8,-139,34758.0
00:33:35.403,AUTO,-35.3632625,149.1652367,43732,-0.061501890420913696,0.0679754689335823,0.16500942409038544,0.0029762049671262503,-0.10723713040351868,0.398668110370636,3,4,-940,3,-106,398,-24,-22,-127,34758.0
00:33:35.606,AUTO,-35.3632631,149.1652359,44037,-0.03890688717365265,0.02414201945066452,0.23780736327171326,0.11368183046579361,-0.21529336273670197,0.19961783289909363,3,9,-942,114,-214,199,-32,-34,-112,127117.0
00:33:35.808,AUTO,-35.3632637,149.1652349,44307,-0.010202435776591301,-0.019899265840649605,0.2712767720222473,0.10903171449899673,-0.1415584534406662,0.08590592443943024,4,11,-949,110,-140,86,-30,-37,-99,127117.0
00:33:36.010,AUTO,-35.3632637,149.1652349,44307,-0.010202435776591301,-0.019899265840649605,0.2712767720222473,0.10903171449899673,-0.1415584534406662,0.08590592443943024,4,11,-949,110,-140,86,-30,-37,-99,127117.0
00:33:36.211,AUTO,-35.3632643,149.1652339,44545,0.013133595697581768,-0.04459121823310852,0.28195446729660034,0.07981818169355392,-0.06643596291542053,0.021509472280740738,2,10,-956,80,-65,21,-22,-32,-88,127117.0
00:33:36.414,AUTO,-35.3632647,149.1652331,44756,0.030369387939572334,-0.05406377464532852,0.28108587861061096,0.06813836097717285,-0.015292568132281303,-0.013231238350272179,1,8,-962,69,-14,-13,-12,-22,-77,127117.0
00:33:36.617,AUTO,-35.3632647,149.1652331,44756,0.030369387939572334,-0.05406377464532852,0.28108587861061096,0.06813836097717285,-0.015292568132281303,-0.013231238350272179,1,8,-962,69,-14,-13,-12,-22,-77,127117.0
00:33:36.819,AUTO,-35.3632647,149.1652331,44756,0.030369387939572334,-0.05406377464532852,0.28108587861061096,0.06813836097717285,-0.015292568132281303,-0.013231238350272179,1,8,-962,69,-14,-13,-12,-22,-77,127117.0
00:33:37.020,AUTO,-35.3632647,149.1652331,44756,0.030369387939572334,-0.05406377464532852,0.28108587861061096,0.06813836097717285,-0.015292568132281303,-0.013231238350272179,1,8,-962,69,-14,-13,-12,-22,-77,127117.0
00:33:37.222,AUTO,-35.3632645,149.1652325,45247,0.04064439609646797,-0.03578813746571541,0.25708380341529846,0.12016715109348297,0.04217761754989624,-0.03370649740099907,-2,3,-976,121,43,-33,13,12,-54,127117.0
00:33:37.424,AUTO,-35.3632643,149.1652327,45374,0.03613821044564247,-0.02495192177593708,0.24815109372138977,0.005174405872821808,0.043156661093235016,-0.033197104930877686,-2,-14,-977,5,44,-32,17,20,-48,127117.0
00:33:37.625,AUTO,-35.3632638,149.1652333,45486,0.0211329385638237,-0.014824822545051575,0.23954352736473083,-0.5509437322616577,0.04149667173624039,-0.03277972713112831,-2,-34,-967,-549,42,-32,20,26,-41,127117.0
00:33:37.827,AUTO,-35.3632634,149.165234,45581,0.01168847270309925,-0.005174492485821247,0.2316759079694748,-0.2685721218585968,0.03667234256863594,-0.02473728358745575,-3,-11,-977,-266,37,-24,21,30,-36,127117.0
00:33:38.029,AUTO,-35.3632634,149.165234,45581,0.01168847270309925,-0.005174492485821247,0.2316759079694748,-0.2685721218585968,0.03667234256863594,-0.02473728358745575,-3,-11,-977,-266,37,-24,21,30,-36,127117.0
00:33:38.231,AUTO,-35.3632629,149.1652348,45664,0.017956336960196495,0.003371048718690872,0.22483064234256744,0.40581759810447693,0.02875833958387375,-0.022465361282229424,-2,22,-982,407,29,-22,20,32,-31,127117.0
00:33:38.433,AUTO,-35.3632624,149.1652357,45731,0.014547593891620636,0.009927958250045776,0.21824504435062408,0.5159082412719727,0.019824329763650894,-0.02397352270781994,-2,8,-989,517,20,-23,18,31,-25,127117.0
00:33:38.635,AUTO,-35.3632624,149.1652357,45731,0.014547593891620636,0.009927958250045776,0.21824504435062408,0.5159082412719727,0.019824329763650894,-0.02397352270781994,-2,8,-989,517,20,-23,18,31,-25,127117.0
00:33:38.836,AUTO,-35.3632624,149.1652357,45731,0.014547593891620636,0.009927958250045776,0.21824504435062408,0.5159082412719727,0.019824329763650894,-0.02397352270781994,-2,8,-989,517,20,-23,18,31,-25,127117.0
00:33:39.038,AUTO,-35.3632624,149.1652357,45731,0.014547593891620636,0.009927958250045776,0.21824504435062408,0.5159082412719727,0.019824329763650894,-0.02397352270781994,-2,8,-989,517,20,-23,18,31,-25,127117.0
00:33:39.271,AUTO,-35.3632613,149.1652381,45851,-0.018321678042411804,0.01746613346040249,0.20091485977172852,-0.5892209410667419,-0.0004638686659745872,-0.022305358201265335,0,-19,-980,-587,0,-21,10,21,-7,127117.0
00:33:39.479,AUTO,-35.3632611,149.1652387,45855,-0.04013597592711449,0.030213097110390663,0.18666018545627594,-0.323071151971817,0.19262486696243286,-0.1001473218202591,0,15,-912,-320,193,-100,6,16,5,127117.0
00:33:39.687,AUTO,-35.3632611,149.1652391,45817,-0.05970856174826622,0.04564092680811882,0.18364317715168,-0.5396981239318848,-0.004494448658078909,-0.020365804433822632,0,-8,-996,-537,-3,-20,0,4,20,127117.0
00:33:39.893,AUTO,-35.3632612,149.1652391,45780,-0.035921208560466766,0.03852395713329315,0.1814168095588684,0.32863160967826843,-0.02189118042588234,-0.00684757437556982,2,36,-980,331,-20,-6,-8,-6,11,127117.0
00:33:40.100,AUTO,-35.3632614,149.1652389,45746,-0.014909827150404453,0.03759448975324631,0.1785711795091629,0.7214256525039673,0.002927444875240326,-0.00355668761767447,3,42,-1007,723,3,-3,-16,-12,10,127117.0
00:33:40.307,AUTO,-35.3632618,149.1652387,45716,-0.010876080021262169,0.0397135466337204,0.17480577528476715,0.8072448372840881,0.013375322334468365,-0.003101292299106717,5,40,-1007,808,14,-2,-24,-16,7,127117.0
00:33:40.509,AUTO,-35.3632618,149.1652387,45716,-0.010876080021262169,0.0397135466337204,0.17480577528476715,0.8072448372840881,0.013375322334468365,-0.003101292299106717,5,40,-1007,808,14,-2,-24,-16,7,127117.0
00:33:40.712,AUTO,-35.3632618,149.1652387,45716,-0.010876080021262169,0.0397135466337204,0.17480577528476715,0.8072448372840881,0.013375322334468365,-0.003101292299106717,5,40,-1007,808,14,-2,-24,-16,7,127117.0
00:33:40.914,AUTO,-35.3632618,149.1652387,45716,-0.010876080021262169,0.0397135466337204,0.17480577528476715,0.8072448372840881,0.013375322334468365,-0.003101292299106717,5,40,-1007,808,14,-2,-24,-16,7,141843.0
00:33:41.115,AUTO,-35.3632644,149.1652377,45680,-0.025400493294000626,0.05166143923997879,0.15823228657245636,-0.5500981211662292,0.024882923811674118,-0.019590694457292557,11,-23,-1000,-549,25,-19,-50,-25,-2,141843.0
00:33:41.317,AUTO,-35.3632658,149.1652373,45679,-0.03365016356110573,0.05912192910909653,0.14146871864795685,-0.6448922753334045,0.050413116812705994,-0.17882995307445526,12,-18,-1004,-643,51,-178,-60,-29,-1,141843.0
00:33:41.519,AUTO,-35.3632658,149.1652373,45679,-0.03365016356110573,0.05912192910909653,0.14146871864795685,-0.6448922753334045,0.050413116812705994,-0.17882995307445526,12,-18,-1004,-643,51,-178,-60,-29,-1,141843.0
00:33:41.721,AUTO,-35.3632673,149.1652369,45683,-0.04506337270140648,0.06198171153664589,0.02303527668118477,-0.15464018285274506,0.03164462372660637,-0.6632853746414185,14,24,-1006,-152,32,-662,-72,-32,-5,141843.0
00:33:41.923,AUTO,-35.3632692,149.1652364,45693,-0.058904267847537994,0.05729633942246437,-0.17730124294757843,0.3713913857936859,0.014280954375863075,-0.8218100070953369,12,50,-998,373,15,-821,-85,-36,-6,141843.0
00:33:42.125,AUTO,-35.3632714,149.1652358,45703,-0.07460794597864151,0.048002179712057114,-0.3941495716571808,0.5656231641769409,0.003756349440664053,-0.8425021767616272,11,40,-1027,566,4,-842,-100,-43,-7,141843.0
00:33:42.327,AUTO,-35.363274,149.165235,45718,-0.09774909168481827,0.03607586398720741,-0.606961727142334,-0.03991837799549103,0.026340903714299202,-0.8114052414894104,4,18,-1004,-39,27,-810,-116,-50,-7,141843.0
00:33:42.529,AUTO,-35.363274,149.165235,45718,-0.09774909168481827,0.03607586398720741,-0.606961727142334,-0.03991837799549103,0.026340903714299202,-0.8114052414894104,4,18,-1004,-39,27,-810,-116,-50,-7,141843.0
00:33:42.730,AUTO,-35.363274,149.165235,45718,-0.09774909168481827,0.03607586398720741,-0.606961727142334,-0.03991837799549103,0.026340903714299202,-0.8114052414894104,4,18,-1004,-39,27,-810,-116,-50,-7,141843.0
00:33:42.932,AUTO,-35.363274,149.165235,45718,-0.09774909168481827,0.03607586398720741,-0.606961727142334,-0.03991837799549103,0.026340903714299202,-0.8114052414894104,4,18,-1004,-39,27,-810,-116,-50,-7,141843.0
00:33:43.134,AUTO,-35.3632842,149.165231,45779,-0.14054323732852936,-0.023996181786060333,-1.1715121269226074,-0.0036235693842172623,-0.006113188341259956,-0.7158885598182678,-19,51,-1012,-2,-5,-715,-178,-73,-12,141843.0
00:33:43.335,AUTO,-35.3632886,149.1652292,45807,-0.1331683099269867,-0.04908427596092224,-1.348274827003479,0.3755440413951874,-0.020800946280360222,-0.720646858215332,-29,55,-1009,376,-19,-719,-202,-81,-13,141843.0
00:33:43.537,AUTO,-35.3632886,149.1652292,45807,-0.1331683099269867,-0.04908427596092224,-1.348274827003479,0.3755440413951874,-0.020800946280360222,-0.720646858215332,-29,55,-1009,376,-19,-719,-202,-81,-13,141843.0
00:33:43.739,AUTO,-35.3632935,149.1652271,45837,-0.14199095964431763,-0.07807502895593643,-1.5253417491912842,-0.17565934360027313,-0.025597020983695984,-0.6963959336280823,-49,18,-1013,-175,-24,-695,-228,-89,-14,141843.0
00:33:44.010,AUTO,-35.3632991,149.1652247,45872,-0.1323167085647583,-0.10799496620893478,-1.7072243690490723,-0.13176900148391724,0.004011873621493578,-0.7278655171394348,-54,36,-1014,-130,5,-727,-255,-97,-15,141843.0
00:33:44.222,AUTO,-35.3633052,149.165222,45911,-0.10410422831773758,-0.12964193522930145,-1.8862125873565674,0.29816439747810364,-0.013057995587587357,-0.7397909760475159,-66,41,-1013,299,-12,-739,-281,-105,-17,141843.0
00:33:44.487,AUTO,-35.3633118,149.1652191,45955,-0.08227512240409851,-0.1487123817205429,-2.065847635269165,0.022090081125497818,-0.015737758949398994,-0.7174555659294128,-76,8,-1012,22,-14,-716,-306,-112,-19,141843.0
00:33:44.694,AUTO,-35.3633118,149.1652191,45955,-0.08227512240409851,-0.1487123817205429,-2.065847635269165,0.022090081125497818,-0.015737758949398994,-0.7174555659294128,-76,8,-1012,22,-14,-716,-306,-112,-19,141843.0
00:33:44.910,AUTO,-35.3633118,149.1652191,45955,-0.08227512240409851,-0.1487123817205429,-2.065847635269165,0.022090081125497818,-0.015737758949398994,-0.7174555659294128,-76,8,-1012,22,-14,-716,-306,-112,-19,141843.0
00:33:45.113,AUTO,-35.3633346,149.1652091,46109,0.007552741561084986,-0.19414781033992767,-2.6112804412841797,0.15238222479820251,-0.04115046560764313,-0.7392067313194275,-83,-20,-1007,153,-39,-738,-379,-134,-23,141843.0
00:33:45.316,AUTO,-35.3633433,149.1652053,46167,0.03254307433962822,-0.19655314087867737,-2.7460482120513916,0.04841316491365433,-0.013639235869050026,-0.33325323462486267,-82,-42,-1007,48,-12,-332,-405,-141,-24,141843.0
00:33:45.520,AUTO,-35.3633433,149.1652053,46167,0.03254307433962822,-0.19655314087867737,-2.7460482120513916,0.04841316491365433,-0.013639235869050026,-0.33325323462486267,-82,-42,-1007,48,-12,-332,-405,-141,-24,94514.0
00:33:45.722,AUTO,-35.3633526,149.1652013,46231,0.03888985142111778,-0.1896725445985794,-2.781989812850952,-0.0936446562409401,0.04066421091556549,-0.016569023951888084,-87,-58,-1012,-93,41,-15,-430,-148,-26,94514.0
00:33:45.924,AUTO,-35.3633625,149.165197,46302,0.0379372201859951,-0.17971080541610718,-2.766704559326172,0.007895049639046192,0.045586828142404556,0.09711740165948868,-79,-51,-1010,9,46,97,-452,-155,-30,94514.0
