time_stamp,MODE,lat,lon,relative_alt,roll,pitch,yaw,rollspeed,pitchspeed,yawspeed,xacc,yacc,zacc,xgyro,ygyro,zgyro,vx,vy,vz,RTL_ALT
18:02:27.191,STABILIZE,-35.3632622,149.1652375,0,-0.0007133776671253145,0.000997703056782484,0.025514913722872734,0.0002911177871283144,0.0002701653866097331,0.002137168077751994,0,1,-1000,0,0,0,-1,1,0,1500.0
18:02:27.393,STABILIZE,-35.3632622,149.1652375,0,-0.0007133776671253145,0.000997703056782484,0.025514913722872734,0.0002911177871283144,0.0002701653866097331,0.002137168077751994,0,1,-1000,0,0,0,-1,1,0,1500.0
18:02:27.597,STABILIZE,-35.3632622,149.1652375,0,-0.0007133776671253145,0.000997703056782484,0.025514913722872734,0.0002911177871283144,0.0002701653866097331,0.002137168077751994,0,1,-1000,0,0,0,-1,1,0,1500.0
18:02:27.806,STABILIZE,-35.3632622,149.1652375,0,-0.0007133776671253145,0.000997703056782484,0.025514913722872734,0.0002911177871283144,0.0002701653866097331,0.002137168077751994,0,1,-1000,0,0,0,-1,1,0,1500.0
18:02:28.013,STABILIZE,-35.3632622,149.1652375,0,-0.0007133776671253145,0.000997703056782484,0.025514913722872734,0.0002911177871283144,0.0002701653866097331,0.002137168077751994,0,1,-1000,0,0,0,-1,1,0,1500.0
18:02:28.216,STABILIZE,-35.3632622,149.1652375,0,-0.0007133776671253145,0.000997703056782484,0.025514913722872734,0.0002911177871283144,0.0002701653866097331,0.002137168077751994,0,1,-1000,0,0,0,-1,1,0,1500.0
18:02:28.419,STABILIZE,-35.3632622,149.1652375,0,-0.0007133776671253145,0.000997703056782484,0.025514913722872734,0.0002911177871283144,0.0002701653866097331,0.002137168077751994,0,1,-1000,0,0,0,-1,1,0,1500.0
18:02:28.627,STABILIZE,-35.3632622,149.1652375,0,-0.0007133776671253145,0.000997703056782484,0.025514913722872734,0.0002911177871283144,0.0002701653866097331,0.002137168077751994,0,1,-1000,0,0,0,-1,1,0,1500.0
18:02:28.835,STABILIZE,-35.3632622,149.1652375,0,-0.0007133776671253145,0.000997703056782484,0.025514913722872734,0.0002911177871283144,0.0002701653866097331,0.002137168077751994,0,1,-1000,0,0,0,-1,1,0,1500.0
18:02:29.039,STABILIZE,-35.3632622,149.1652375,0,-0.0007716731051914394,0.0009153941064141691,0.024782247841358185,0.0002631428651511669,0.0002190853701904416,0.001840277574956417,0,1,-1000,1,0,0,-1,1,0,1500.0
18:02:29.242,STABILIZE,-35.3632622,149.1652375,0,-0.0007716731051914394,0.0009153941064141691,0.024782247841358185,0.0002631428651511669,0.0002190853701904416,0.001840277574956417,0,1,-1000,1,0,0,-1,1,0,1500.0
18:02:29.445,STABILIZE,-35.3632622,149.1652375,0,-0.0007716731051914394,0.0009153941064141691,0.024782247841358185,0.0002631428651511669,0.0002190853701904416,0.001840277574956417,0,1,-1000,1,0,0,-1,1,0,1500.0
18:02:29.646,STABILIZE,-35.3632622,149.1652375,0,-0.0007716731051914394,0.0009153941064141691,0.024782247841358185,0.0002631428651511669,0.0002190853701904416,0.001840277574956417,0,1,-1000,1,0,0,-1,1,0,1500.0
18:02:29.853,STABILIZE,-35.3632622,149.1652375,0,-0.0007716731051914394,0.0009153941064141691,0.024782247841358185,0.0002631428651511669,0.0002190853701904416,0.001840277574956417,0,1,-1000,1,0,0,-1,1,0,1500.0
18:02:30.058,STABILIZE,-35.3632622,149.1652375,0,-0.0007716731051914394,0.0009153941064141691,0.024782247841358185,0.0002631428651511669,0.0002190853701904416,0.001840277574956417,0,1,-1000,1,0,0,-1,1,0,1500.0
18:02:30.263,STABILIZE,-35.3632622,149.1652375,0,-0.0007716731051914394,0.0009153941064141691,0.024782247841358185,0.0002631428651511669,0.0002190853701904416,0.001840277574956417,0,1,-1000,1,0,0,-1,1,0,1500.0
18:02:30.465,STABILIZE,-35.3632622,149.1652375,0,-0.0007716731051914394,0.0009153941064141691,0.024782247841358185,0.0002631428651511669,0.0002190853701904416,0.001840277574956417,0,1,-1000,1,0,0,-1,1,0,1500.0
18:02:30.666,STABILIZE,-35.3632622,149.1652375,0,-0.0007716731051914394,0.0009153941064141691,0.024782247841358185,0.0002631428651511669,0.0002190853701904416,0.001840277574956417,0,1,-1000,1,0,0,-1,1,0,1500.0
18:02:30.870,STABILIZE,-35.3632622,149.1652375,0,-0.0007716731051914394,0.0009153941064141691,0.024782247841358185,0.0002631428651511669,0.0002190853701904416,0.001840277574956417,0,1,-1000,1,0,0,-1,1,0,1500.0
18:02:31.073,STABILIZE,-35.3632622,149.1652375,0,-0.0009540999308228493,0.0009703944087959826,0.024036919698119164,0.00017235218547284603,0.0003375435480847955,0.0017335339216515422,0,1,-1000,0,0,0,-1,1,0,1500.0
18:02:31.277,STABILIZE,-35.3632622,149.1652375,0,-0.0009540999308228493,0.0009703944087959826,0.024036919698119164,0.00017235218547284603,0.0003375435480847955,0.0017335339216515422,0,1,-1000,0,0,0,-1,1,0,1500.0
18:02:31.479,STABILIZE,-35.3632622,149.1652375,0,-0.0009540999308228493,0.0009703944087959826,0.024036919698119164,0.00017235218547284603,0.0003375435480847955,0.0017335339216515422,0,1,-1000,0,0,0,-1,1,0,1500.0
18:02:31.684,STABILIZE,-35.3632622,149.1652375,0,-0.0009540999308228493,0.0009703944087959826,0.024036919698119164,0.00017235218547284603,0.0003375435480847955,0.0017335339216515422,0,1,-1000,0,0,0,-1,1,0,1500.0
18:02:31.886,STABILIZE,-35.3632622,149.1652375,0,-0.0009540999308228493,0.0009703944087959826,0.024036919698119164,0.00017235218547284603,0.0003375435480847955,0.0017335339216515422,0,1,-1000,0,0,0,-1,1,0,1500.0
18:02:32.090,STABILIZE,-35.3632622,149.1652375,0,-0.0009540999308228493,0.0009703944087959826,0.024036919698119164,0.00017235218547284603,0.0003375435480847955,0.0017335339216515422,0,1,-1000,0,0,0,-1,1,0,1500.0
18:02:32.295,STABILIZE,-35.3632622,149.1652375,0,-0.0009540999308228493,0.0009703944087959826,0.024036919698119164,0.00017235218547284603,0.0003375435480847955,0.0017335339216515422,0,1,-1000,0,0,0,-1,1,0,1500.0
18:02:32.499,STABILIZE,-35.3632622,149.1652375,0,-0.0009540999308228493,0.0009703944087959826,0.024036919698119164,0.00017235218547284603,0.0003375435480847955,0.0017335339216515422,0,1,-1000,0,0,0,-1,1,0,1500.0
18:02:32.701,STABILIZE,-35.3632622,149.1652375,0,-0.0009540999308228493,0.0009703944087959826,0.024036919698119164,0.00017235218547284603,0.0003375435480847955,0.0017335339216515422,0,1,-1000,0,0,0,-1,1,0,1500.0
18:02:32.905,STABILIZE,-35.3632622,149.1652375,0,-0.0010002789786085486,0.0009746829164214432,0.023807145655155182,0.0002392150927335024,0.00020551972556859255,0.0017553260549902916,0,1,-1000,0,0,0,-1,1,0,1500.0
18:02:33.112,STABILIZE,-35.3632622,149.1652375,0,-0.0010292313527315855,0.00099076924379915,0.023515241220593452,8.689181413501501e-05,0.00030944013269618154,0.0017840919317677617,0,1,-1000,0,0,0,-1,1,0,1500.0
18:02:33.314,STABILIZE,-35.3632622,149.1652375,0,-0.001039832946844399,0.0009990300750359893,0.02339310012757778,0.00023926293943077326,0.00031206884887069464,0.0017704532947391272,0,1,-1000,0,0,0,-1,1,0,1500.0
18:02:33.517,STABILIZE,-35.3632622,149.1652375,0,-0.001039832946844399,0.0009990300750359893,0.02339310012757778,0.00023926293943077326,0.00031206884887069464,0.0017704532947391272,0,1,-1000,0,0,0,-1,1,0,1500.0
18:02:33.718,STABILIZE,-35.3632622,149.1652375,0,-0.001039832946844399,0.0009990300750359893,0.02339310012757778,0.00023926293943077326,0.00031206884887069464,0.0017704532947391272,0,1,-1000,0,0,0,-1,1,0,1500.0
18:02:33.921,STABILIZE,-35.3632622,149.1652375,0,-0.001039832946844399,0.0009990300750359893,0.02339310012757778,0.00023926293943077326,0.00031206884887069464,0.0017704532947391272,0,1,-1000,0,0,0,-1,1,0,1500.0
18:02:34.130,STABILIZE,-35.3632622,149.1652375,0,-0.001039832946844399,0.0009990300750359893,0.02339310012757778,0.00023926293943077326,0.00031206884887069464,0.0017704532947391272,0,1,-1000,0,0,0,-1,1,0,1500.0
18:02:34.332,STABILIZE,-35.3632622,149.1652375,0,-0.001039832946844399,0.0009990300750359893,0.02339310012757778,0.00023926293943077326,0.00031206884887069464,0.0017704532947391272,0,1,-1000,0,0,0,-1,1,0,1500.0
18:02:34.534,STABILIZE,-35.3632622,149.1652375,0,-0.001039832946844399,0.0009990300750359893,0.02339310012757778,0.00023926293943077326,0.00031206884887069464,0.0017704532947391272,0,1,-1000,0,0,0,-1,1,0,1500.0
18:02:34.735,STABILIZE,-35.3632622,149.1652375,0,-0.001039832946844399,0.0009990300750359893,0.02339310012757778,0.00023926293943077326,0.00031206884887069464,0.0017704532947391272,0,1,-1000,0,0,0,-1,1,0,1500.0
18:02:34.936,STABILIZE,-35.3632622,149.1652375,0,-0.0010248607723042369,0.0010033705038949847,0.023163428530097008,0.00028605404077097774,0.0003159603802487254,0.0016996292397379875,0,2,-1000,0,0,0,-1,1,0,1500.0
18:02:35.137,STABILIZE,-35.3632622,149.1652375,0,-0.0010140612721443176,0.0009947549551725388,0.023023590445518494,0.0002942935680039227,0.00019789260113611817,0.0015858790138736367,0,2,-1000,1,0,0,-1,1,0,1500.0
18:02:35.349,STABILIZE,-35.3632622,149.1652375,0,-0.0010140612721443176,0.0009947549551725388,0.023023590445518494,0.0002942935680039227,0.00019789260113611817,0.0015858790138736367,0,2,-1000,1,0,0,-1,1,0,1500.0
18:02:35.554,STABILIZE,-35.3632622,149.1652375,0,-0.0010140612721443176,0.0009947549551725388,0.023023590445518494,0.0002942935680039227,0.00019789260113611817,0.0015858790138736367,0,2,-1000,1,0,0,-1,1,0,1500.0
18:02:35.755,STABILIZE,-35.3632622,149.1652375,0,-0.0010140612721443176,0.0009947549551725388,0.023023590445518494,0.0002942935680039227,0.00019789260113611817,0.0015858790138736367,0,2,-1000,1,0,0,-1,1,0,1500.0
18:02:35.957,STABILIZE,-35.3632622,149.1652375,0,-0.0010140612721443176,0.0009947549551725388,0.023023590445518494,0.0002942935680039227,0.00019789260113611817,0.0015858790138736367,0,2,-1000,1,0,0,-1,1,0,1500.0
18:02:36.160,STABILIZE,-35.3632622,149.1652375,0,-0.0010140612721443176,0.0009947549551725388,0.023023590445518494,0.0002942935680039227,0.00019789260113611817,0.0015858790138736367,0,2,-1000,1,0,0,-1,1,0,1500.0
18:02:36.361,STABILIZE,-35.3632622,149.1652375,0,-0.0010140612721443176,0.0009947549551725388,0.023023590445518494,0.0002942935680039227,0.00019789260113611817,0.0015858790138736367,0,2,-1000,1,0,0,-1,1,0,1500.0
18:02:36.565,STABILIZE,-35.3632622,149.1652375,0,-0.0010140612721443176,0.0009947549551725388,0.023023590445518494,0.0002942935680039227,0.00019789260113611817,0.0015858790138736367,0,2,-1000,1,0,0,-1,1,0,1500.0
18:02:36.771,STABILIZE,-35.3632622,149.1652375,0,-0.0010140612721443176,0.0009947549551725388,0.023023590445518494,0.0002942935680039227,0.00019789260113611817,0.0015858790138736367,0,2,-1000,1,0,0,-1,1,0,1500.0
18:02:36.977,STABILIZE,-35.3632622,149.1652375,0,-0.0010140612721443176,0.0009947549551725388,0.023023590445518494,0.0002942935680039227,0.00019789260113611817,0.0015858790138736367,0,1,-1000,1,0,0,-1,2,1,1500.0
18:02:37.185,STABILIZE,-35.3632622,149.1652375,0,-0.0008530241902917624,0.0009763946873135865,0.022335883229970932,0.00023620546562597156,0.00024273822782561183,0.001594821223989129,0,1,-1000,0,0,0,-1,1,0,1500.0
18:02:37.390,STABILIZE,-35.3632622,149.1652375,0,-0.0008530241902917624,0.0009763946873135865,0.022335883229970932,0.00023620546562597156,0.00024273822782561183,0.001594821223989129,0,1,-1000,0,0,0,-1,1,0,1500.0
18:02:37.592,STABILIZE,-35.3632622,149.1652375,0,-0.0008530241902917624,0.0009763946873135865,0.022335883229970932,0.00023620546562597156,0.00024273822782561183,0.001594821223989129,0,1,-1000,0,0,0,-1,1,0,1500.0
18:02:37.793,STABILIZE,-35.3632622,149.1652375,0,-0.0008530241902917624,0.0009763946873135865,0.022335883229970932,0.00023620546562597156,0.00024273822782561183,0.001594821223989129,0,1,-1000,0,0,0,-1,1,0,1500.0
18:02:37.995,STABILIZE,-35.3632622,149.1652375,0,-0.0008530241902917624,0.0009763946873135865,0.022335883229970932,0.00023620546562597156,0.00024273822782561183,0.001594821223989129,0,1,-1000,0,0,0,-1,1,0,1500.0
18:02:38.197,STABILIZE,-35.3632622,149.1652375,0,-0.0008530241902917624,0.0009763946873135865,0.022335883229970932,0.00023620546562597156,0.00024273822782561183,0.001594821223989129,0,1,-1000,0,0,0,-1,1,0,1500.0
18:02:38.404,STABILIZE,-35.3632622,149.1652375,0,-0.0008530241902917624,0.0009763946873135865,0.022335883229970932,0.00023620546562597156,0.00024273822782561183,0.001594821223989129,0,1,-1000,0,0,0,-1,1,0,1500.0
18:02:38.608,STABILIZE,-35.3632622,149.1652375,0,-0.0008530241902917624,0.0009763946873135865,0.022335883229970932,0.00023620546562597156,0.00024273822782561183,0.001594821223989129,0,1,-1000,0,0,0,-1,1,0,1500.0
18:02:38.810,STABILIZE,-35.3632622,149.1652375,0,-0.0008530241902917624,0.0009763946873135865,0.022335883229970932,0.00023620546562597156,0.00024273822782561183,0.001594821223989129,0,1,-1000,0,0,0,-1,1,0,1500.0
18:02:39.011,STABILIZE,-35.3632622,149.1652375,0,-0.0009289672016166151,0.0009615723975002766,0.022131307050585747,0.00014688738156110048,0.00015228497795760632,0.0016618948429822922,0,2,-1000,1,0,1,-1,1,0,1500.0
18:02:39.214,STABILIZE,-35.3632622,149.1652375,0,-0.0009289672016166151,0.0009615723975002766,0.022131307050585747,0.00014688738156110048,0.00015228497795760632,0.0016618948429822922,0,1,-1000,1,0,1,-1,1,1,1500.0
18:02:39.418,STABILIZE,-35.3632622,149.1652375,0,-0.0009289672016166151,0.0009615723975002766,0.022131307050585747,0.00014688738156110048,0.00015228497795760632,0.0016618948429822922,0,1,-1000,1,0,1,-1,1,1,1500.0
18:02:39.622,STABILIZE,-35.3632622,149.1652375,0,-0.0009289672016166151,0.0009615723975002766,0.022131307050585747,0.00014688738156110048,0.00015228497795760632,0.0016618948429822922,0,1,-1000,1,0,1,-1,1,1,1500.0
18:02:39.824,STABILIZE,-35.3632622,149.1652375,0,-0.0009289672016166151,0.0009615723975002766,0.022131307050585747,0.00014688738156110048,0.00015228497795760632,0.0016618948429822922,0,1,-1000,1,0,1,-1,1,1,1500.0
18:02:40.025,STABILIZE,-35.3632622,149.1652375,0,-0.0009289672016166151,0.0009615723975002766,0.022131307050585747,0.00014688738156110048,0.00015228497795760632,0.0016618948429822922,0,1,-1000,1,0,1,-1,1,1,1500.0
18:02:40.226,STABILIZE,-35.3632622,149.1652375,0,-0.0009289672016166151,0.0009615723975002766,0.022131307050585747,0.00014688738156110048,0.00015228497795760632,0.0016618948429822922,0,1,-1000,1,0,1,-1,1,1,1500.0
18:02:40.432,STABILIZE,-35.3632622,149.1652375,0,-0.0009289672016166151,0.0009615723975002766,0.022131307050585747,0.00014688738156110048,0.00015228497795760632,0.0016618948429822922,0,1,-1000,1,0,1,-1,1,1,1500.0
18:02:40.635,STABILIZE,-35.3632622,149.1652375,0,-0.0009289672016166151,0.0009615723975002766,0.022131307050585747,0.00014688738156110048,0.00015228497795760632,0.0016618948429822922,0,1,-1000,1,0,1,-1,1,1,1500.0
18:02:40.841,STABILIZE,-35.3632622,149.1652375,0,-0.0009289672016166151,0.0009615723975002766,0.022131307050585747,0.00014688738156110048,0.00015228497795760632,0.0016618948429822922,0,1,-1000,1,0,1,-1,1,1,1500.0
18:02:41.042,STABILIZE,-35.3632622,149.1652375,0,-0.0009289672016166151,0.0009615723975002766,0.022131307050585747,0.00014688738156110048,0.00015228497795760632,0.0016618948429822922,0,1,-1000,1,1,1,-1,1,0,1500.0
18:02:41.244,STABILIZE,-35.3632622,149.1652375,0,-0.0009289672016166151,0.0009615723975002766,0.022131307050585747,0.00014688738156110048,0.00015228497795760632,0.0016618948429822922,0,1,-1000,1,1,1,-1,1,0,1500.0
18:02:41.446,STABILIZE,-35.3632622,149.1652375,0,-0.0009289672016166151,0.0009615723975002766,0.022131307050585747,0.00014688738156110048,0.00015228497795760632,0.0016618948429822922,0,1,-1000,1,1,1,-1,1,0,1500.0
18:02:41.651,STABILIZE,-35.3632622,149.1652375,0,-0.0009289672016166151,0.0009615723975002766,0.022131307050585747,0.00014688738156110048,0.00015228497795760632,0.0016618948429822922,0,1,-1000,1,1,1,-1,1,0,1500.0
18:02:41.854,STABILIZE,-35.3632622,149.1652375,0,-0.0009289672016166151,0.0009615723975002766,0.022131307050585747,0.00014688738156110048,0.00015228497795760632,0.0016618948429822922,0,1,-1000,1,1,1,-1,1,0,1500.0
18:02:42.056,STABILIZE,-35.3632622,149.1652375,0,-0.0009289672016166151,0.0009615723975002766,0.022131307050585747,0.00014688738156110048,0.00015228497795760632,0.0016618948429822922,0,1,-1000,1,1,1,-1,1,0,1500.0
18:02:42.259,STABILIZE,-35.3632622,149.1652375,0,-0.0009289672016166151,0.0009615723975002766,0.022131307050585747,0.00014688738156110048,0.00015228497795760632,0.0016618948429822922,0,1,-1000,1,1,1,-1,1,0,1500.0
18:02:42.460,STABILIZE,-35.3632622,149.1652375,0,-0.0009289672016166151,0.0009615723975002766,0.022131307050585747,0.00014688738156110048,0.00015228497795760632,0.0016618948429822922,0,1,-1000,1,1,1,-1,1,0,1500.0
18:02:42.662,STABILIZE,-35.3632622,149.1652375,3,-0.0010470653651282191,0.0009692787425592542,0.021212322637438774,0.0002653232659213245,0.0002738845651037991,0.0013689788756892085,0,1,-1000,0,0,0,-1,1,0,1500.0
18:02:42.865,AUTO,-35.3632622,149.1652375,3,-0.0010512175504118204,0.0009731895988807082,0.021201124414801598,0.0002942262217402458,0.0002661371836438775,0.0015569914830848575,0,1,-1000,1,0,0,-1,1,0,1500.0
18:02:43.070,AUTO,-35.3632622,149.1652375,3,-0.0010512175504118204,0.0009731895988807082,0.021201124414801598,0.0002942262217402458,0.0002661371836438775,0.0015569914830848575,0,1,-1000,1,0,0,-1,1,0,1500.0
18:02:43.274,AUTO,-35.3632622,149.1652375,3,-0.0010512175504118204,0.0009731895988807082,0.021201124414801598,0.0002942262217402458,0.0002661371836438775,0.0015569914830848575,0,1,-1000,1,0,0,-1,1,0,1500.0
18:02:43.476,AUTO,-35.3632622,149.1652375,3,-0.0010512175504118204,0.0009731895988807082,0.021201124414801598,0.0002942262217402458,0.0002661371836438775,0.0015569914830848575,0,1,-1000,1,0,0,-1,1,0,1500.0
18:02:43.679,AUTO,-35.3632622,149.1652375,3,-0.0010512175504118204,0.0009731895988807082,0.021201124414801598,0.0002942262217402458,0.0002661371836438775,0.0015569914830848575,0,1,-1000,1,0,0,-1,1,0,1500.0
18:02:43.881,AUTO,-35.3632622,149.1652375,3,-0.0010512175504118204,0.0009731895988807082,0.021201124414801598,0.0002942262217402458,0.0002661371836438775,0.0015569914830848575,0,1,-1000,1,0,0,-1,1,0,1500.0
18:02:44.086,AUTO,-35.3632622,149.1652375,3,-0.0010512175504118204,0.0009731895988807082,0.021201124414801598,0.0002942262217402458,0.0002661371836438775,0.0015569914830848575,0,1,-1000,1,0,0,-1,1,0,1500.0
18:02:44.293,AUTO,-35.3632622,149.1652375,3,-0.0010512175504118204,0.0009731895988807082,0.021201124414801598,0.0002942262217402458,0.0002661371836438775,0.0015569914830848575,0,1,-1000,1,0,0,-1,1,0,1500.0
18:02:44.496,AUTO,-35.3632622,149.1652375,3,-0.0010512175504118204,0.0009731895988807082,0.021201124414801598,0.0002942262217402458,0.0002661371836438775,0.0015569914830848575,0,1,-1000,1,0,0,-1,1,0,1500.0
18:02:44.700,AUTO,-35.3632622,149.1652375,3,-0.0010512175504118204,0.0009731895988807082,0.021201124414801598,0.0002942262217402458,0.0002661371836438775,0.0015569914830848575,0,1,-1000,1,0,0,-1,1,0,1500.0
18:02:44.903,AUTO,-35.3632622,149.1652375,6,-0.0007750540971755981,0.0013109446736052632,0.020899781957268715,0.0002739907940849662,0.00023180380230769515,0.001415842678397894,0,1,-1000,0,0,1,0,0,0,1500.0
18:02:45.104,AUTO,-35.3632622,149.1652375,6,-0.0007750540971755981,0.0013109446736052632,0.020899781957268715,0.0002739907940849662,0.00023180380230769515,0.001415842678397894,0,1,-1000,0,0,1,0,0,0,1500.0
18:02:45.305,AUTO,-35.3632622,149.1652375,6,-0.0007750540971755981,0.0013109446736052632,0.020899781957268715,0.0002739907940849662,0.00023180380230769515,0.001415842678397894,0,1,-1000,0,0,1,0,0,0,1500.0
18:02:45.510,AUTO,-35.3632622,149.1652375,6,-0.0007750540971755981,0.0013109446736052632,0.020899781957268715,0.0002739907940849662,0.00023180380230769515,0.001415842678397894,0,1,-1000,0,0,1,0,0,0,1500.0
18:02:45.711,AUTO,-35.3632622,149.1652375,6,-0.0007750540971755981,0.0013109446736052632,0.020899781957268715,0.0002739907940849662,0.00023180380230769515,0.001415842678397894,0,1,-1000,0,0,1,0,0,0,1500.0
18:02:45.918,AUTO,-35.3632622,149.1652375,6,-0.0007750540971755981,0.0013109446736052632,0.020899781957268715,0.0002739907940849662,0.00023180380230769515,0.001415842678397894,0,1,-1000,0,0,1,0,0,0,1500.0
18:02:46.121,AUTO,-35.3632622,149.1652375,6,-0.0007750540971755981,0.0013109446736052632,0.020899781957268715,0.0002739907940849662,0.00023180380230769515,0.001415842678397894,0,1,-1000,0,0,1,0,0,0,1500.0
18:02:46.325,AUTO,-35.3632622,149.1652375,6,-0.0007750540971755981,0.0013109446736052632,0.020899781957268715,0.0002739907940849662,0.00023180380230769515,0.001415842678397894,0,1,-1000,0,0,1,0,0,0,1500.0
18:02:50.119,AUTO,-35.3632622,149.1652375,6,-0.0007750540971755981,0.0013109446736052632,0.020899781957268715,0.0002739907940849662,0.00023180380230769515,0.001415842678397894,0,1,-1000,0,0,1,0,0,0,1500.0
18:02:50.321,AUTO,-35.3632622,149.1652375,6,-0.0007750540971755981,0.0013109446736052632,0.020899781957268715,0.0002739907940849662,0.00023180380230769515,0.001415842678397894,0,1,-1000,0,0,1,0,0,0,1500.0
18:02:50.523,AUTO,-35.3632622,149.1652375,8,-0.0003921156458090991,0.0017484838608652353,0.020588727667927742,0.0003095450229011476,0.0002974278759211302,0.001313582295551896,0,1,-1000,1,0,1,0,0,0,1500.0
18:02:50.726,AUTO,-35.3632622,149.1652375,107,0.0033393888734281063,-0.0005877213552594185,0.020564613863825798,0.009199205785989761,0.001495453529059887,0.0011056845542043447,0,0,-1140,10,2,0,0,0,-51,1500.0
18:02:50.929,AUTO,-35.3632622,149.1652375,107,0.0033393888734281063,-0.0005877213552594185,0.020564613863825798,0.009199205785989761,0.001495453529059887,0.0011056845542043447,0,0,-1140,10,2,0,0,0,-51,1500.0
18:02:51.130,AUTO,-35.3632622,149.1652375,107,0.0033393888734281063,-0.0005877213552594185,0.020564613863825798,0.009199205785989761,0.001495453529059887,0.0011056845542043447,0,0,-1140,10,2,0,0,0,-51,1500.0
18:02:51.332,AUTO,-35.3632622,149.1652375,107,0.0033393888734281063,-0.0005877213552594185,0.020564613863825798,0.009199205785989761,0.001495453529059887,0.0011056845542043447,0,0,-1140,10,2,0,0,0,-51,1500.0
18:02:51.536,AUTO,-35.3632622,149.1652375,107,0.0033393888734281063,-0.0005877213552594185,0.020564613863825798,0.009199205785989761,0.001495453529059887,0.0011056845542043447,0,0,-1140,10,2,0,0,0,-51,1500.0
18:02:51.738,AUTO,-35.3632622,149.1652375,107,0.0033393888734281063,-0.0005877213552594185,0.020564613863825798,0.009199205785989761,0.001495453529059887,0.0011056845542043447,0,0,-1140,10,2,0,0,0,-51,1500.0
18:02:51.945,AUTO,-35.3632622,149.1652375,107,0.0033393888734281063,-0.0005877213552594185,0.020564613863825798,0.009199205785989761,0.001495453529059887,0.0011056845542043447,0,0,-1140,10,2,0,0,0,-51,1500.0
18:02:52.154,AUTO,-35.3632622,149.1652375,107,0.0033393888734281063,-0.0005877213552594185,0.020564613863825798,0.009199205785989761,0.001495453529059887,0.0011056845542043447,0,0,-1140,10,2,0,0,0,-51,1500.0
18:02:52.358,AUTO,-35.3632622,149.1652375,107,0.0033393888734281063,-0.0005877213552594185,0.020564613863825798,0.009199205785989761,0.001495453529059887,0.0011056845542043447,0,0,-1140,10,2,0,0,0,-51,1500.0
18:02:52.562,AUTO,-35.3632622,149.1652375,107,0.0033393888734281063,-0.0005877213552594185,0.020564613863825798,0.009199205785989761,0.001495453529059887,0.0011056845542043447,0,0,-1140,10,2,0,0,0,-51,1500.0
18:02:52.765,AUTO,-35.3632621,149.1652375,1178,0.014827924780547619,0.00016263181169051677,0.01981627568602562,0.047667067497968674,-0.006643660366535187,0.0012441151775419712,0,0,-1030,48,-5,1,0,2,-142,1500.0
18:02:52.968,AUTO,-35.3632615,149.1652402,3092,0.05782391503453255,-0.0036811160389333963,-0.01481175608932972,-0.06239793077111244,0.07201486825942993,-0.08867295831441879,0,-9,-990,-61,72,-89,9,47,-147,1500.0
18:02:53.173,AUTO,-35.3632615,149.1652402,3092,0.05782391503453255,-0.0036811160389333963,-0.01481175608932972,-0.06239793077111244,0.07201486825942993,-0.08867295831441879,0,-9,-990,-61,72,-89,9,47,-147,1500.0
18:02:53.378,AUTO,-35.3632615,149.1652402,3092,0.05782391503453255,-0.0036811160389333963,-0.01481175608932972,-0.06239793077111244,0.07201486825942993,-0.08867295831441879,0,-9,-990,-61,72,-89,9,47,-147,1500.0
18:02:53.584,AUTO,-35.3632615,149.1652402,3092,0.05782391503453255,-0.0036811160389333963,-0.01481175608932972,-0.06239793077111244,0.07201486825942993,-0.08867295831441879,0,-9,-990,-61,72,-89,9,47,-147,1500.0
18:02:53.790,AUTO,-35.3632615,149.1652402,3092,0.05782391503453255,-0.0036811160389333963,-0.01481175608932972,-0.06239793077111244,0.07201486825942993,-0.08867295831441879,0,-9,-990,-61,72,-89,9,47,-147,1500.0
18:02:53.994,AUTO,-35.3632615,149.1652402,3092,0.05782391503453255,-0.0036811160389333963,-0.01481175608932972,-0.06239793077111244,0.07201486825942993,-0.08867295831441879,0,-9,-990,-61,72,-89,9,47,-147,1500.0
18:02:54.197,AUTO,-35.3632615,149.1652402,3092,0.05782391503453255,-0.0036811160389333963,-0.01481175608932972,-0.06239793077111244,0.07201486825942993,-0.08867295831441879,0,-9,-990,-61,72,-89,9,47,-147,1500.0
18:02:54.401,AUTO,-35.3632615,149.1652402,3092,0.05782391503453255,-0.0036811160389333963,-0.01481175608932972,-0.06239793077111244,0.07201486825942993,-0.08867295831441879,0,-9,-990,-61,72,-89,9,47,-147,1500.0
18:02:54.605,AUTO,-35.3632615,149.1652402,3092,0.05782391503453255,-0.0036811160389333963,-0.01481175608932972,-0.06239793077111244,0.07201486825942993,-0.08867295831441879,0,-9,-990,-61,72,-89,9,47,-147,1500.0
18:02:54.807,AUTO,-35.3632614,149.1652462,5069,-0.05570176616311073,0.013581877574324608,-0.11276967078447342,-0.06054002046585083,-0.13470028340816498,0.050885848701000214,7,-5,-1000,-44,-74,-24,-20,18,-149,1500.0
18:02:55.011,AUTO,-35.3632624,149.1652457,6230,-0.058562200516462326,-0.03795119374990463,-0.06487052887678146,0.03645205497741699,0.010092453099787235,0.02178340218961239,0,5,-1000,37,10,21,-2,-30,-150,1500.0
18:02:55.215,AUTO,-35.3632624,149.1652457,6230,-0.058562200516462326,-0.03795119374990463,-0.06487052887678146,0.03645205497741699,0.010092453099787235,0.02178340218961239,0,5,-1000,37,10,21,-2,-30,-150,1500.0
18:02:55.419,AUTO,-35.3632624,149.1652457,6230,-0.058562200516462326,-0.03795119374990463,-0.06487052887678146,0.03645205497741699,0.010092453099787235,0.02178340218961239,0,5,-1000,37,10,21,-2,-30,-150,1500.0
18:02:55.621,AUTO,-35.3632624,149.1652457,6230,-0.058562200516462326,-0.03795119374990463,-0.06487052887678146,0.03645205497741699,0.010092453099787235,0.02178340218961239,0,5,-1000,37,10,21,-2,-30,-150,1500.0
18:02:55.824,AUTO,-35.3632624,149.1652457,6230,-0.058562200516462326,-0.03795119374990463,-0.06487052887678146,0.03645205497741699,0.010092453099787235,0.02178340218961239,0,5,-1000,37,10,21,-2,-30,-150,1500.0
18:02:56.032,AUTO,-35.3632624,149.1652457,6230,-0.058562200516462326,-0.03795119374990463,-0.06487052887678146,0.03645205497741699,0.010092453099787235,0.02178340218961239,0,5,-1000,37,10,21,-2,-30,-150,1500.0
18:02:56.236,AUTO,-35.3632624,149.1652457,6230,-0.058562200516462326,-0.03795119374990463,-0.06487052887678146,0.03645205497741699,0.010092453099787235,0.02178340218961239,0,5,-1000,37,10,21,-2,-30,-150,1500.0
18:02:56.438,AUTO,-35.3632624,149.1652457,6230,-0.058562200516462326,-0.03795119374990463,-0.06487052887678146,0.03645205497741699,0.010092453099787235,0.02178340218961239,0,5,-1000,37,10,21,-2,-30,-150,1500.0
18:02:56.641,AUTO,-35.3632624,149.1652457,6230,-0.058562200516462326,-0.03795119374990463,-0.06487052887678146,0.03645205497741699,0.010092453099787235,0.02178340218961239,0,5,-1000,37,10,21,-2,-30,-150,1500.0
18:02:56.843,AUTO,-35.3632624,149.1652457,6230,-0.058562200516462326,-0.03795119374990463,-0.06487052887678146,0.03645205497741699,0.010092453099787235,0.02178340218961239,0,5,-1000,37,10,21,-2,-30,-150,1500.0
18:02:57.046,AUTO,-35.3632622,149.1652424,7226,-0.02721736952662468,-0.026553524658083916,-0.06170329079031944,0.05824257805943489,0.01999274641275406,0.005209837108850479,-8,9,-1001,58,20,5,12,-56,-150,1500.0
18:02:57.250,AUTO,-35.3632607,149.1652359,8780,0.027362022548913956,0.004568002186715603,-0.06936555355787277,0.04885394871234894,0.03819873183965683,-0.015485070645809174,-10,8,-1003,49,38,-15,16,-49,-153,1500.0
18:02:57.453,AUTO,-35.3632601,149.165233,9964,0.05491156503558159,0.035323020070791245,-0.09203406423330307,0.02850675769150257,0.03774472698569298,-0.042887475341558456,-4,3,-1000,29,38,-43,0,-14,-153,1500.0
18:02:57.660,AUTO,-35.3632601,149.165233,9964,0.05491156503558159,0.035323020070791245,-0.09203406423330307,0.02850675769150257,0.03774472698569298,-0.042887475341558456,-4,3,-1000,29,38,-43,0,-14,-153,1500.0
18:02:57.864,AUTO,-35.3632601,149.165233,9964,0.05491156503558159,0.035323020070791245,-0.09203406423330307,0.02850675769150257,0.03774472698569298,-0.042887475341558456,-4,3,-1000,29,38,-43,0,-14,-153,1500.0
18:02:58.065,AUTO,-35.3632601,149.165233,9964,0.05491156503558159,0.035323020070791245,-0.09203406423330307,0.02850675769150257,0.03774472698569298,-0.042887475341558456,-4,3,-1000,29,38,-43,0,-14,-153,1500.0
18:02:58.268,AUTO,-35.3632601,149.165233,9964,0.05491156503558159,0.035323020070791245,-0.09203406423330307,0.02850675769150257,0.03774472698569298,-0.042887475341558456,-4,3,-1000,29,38,-43,0,-14,-153,1500.0
18:02:58.470,AUTO,-35.3632601,149.165233,9964,0.05491156503558159,0.035323020070791245,-0.09203406423330307,0.02850675769150257,0.03774472698569298,-0.042887475341558456,-4,3,-1000,29,38,-43,0,-14,-153,1500.0
18:02:58.673,AUTO,-35.3632601,149.165233,9964,0.05491156503558159,0.035323020070791245,-0.09203406423330307,0.02850675769150257,0.03774472698569298,-0.042887475341558456,-4,3,-1000,29,38,-43,0,-14,-153,1500.0
18:02:58.875,AUTO,-35.3632601,149.165233,9964,0.05491156503558159,0.035323020070791245,-0.09203406423330307,0.02850675769150257,0.03774472698569298,-0.042887475341558456,-4,3,-1000,29,38,-43,0,-14,-153,1500.0
18:02:59.079,AUTO,-35.3632601,149.165233,9964,0.05491156503558159,0.035323020070791245,-0.09203406423330307,0.02850675769150257,0.03774472698569298,-0.042887475341558456,-4,3,-1000,29,38,-43,0,-14,-153,1500.0
18:02:59.282,AUTO,-35.3632626,149.1652364,12353,-0.016921693459153175,-0.012046021409332752,-0.09262227267026901,-0.04514895752072334,-0.029875287786126137,0.011289048939943314,9,-3,-1006,-44,-29,10,-22,33,-150,1500.0
18:02:59.488,AUTO,-35.3632634,149.1652378,13131,-0.027639761567115784,-0.020325470715761185,-0.0941212922334671,-0.004463070537894964,-0.0061009731143713,-0.013367949053645134,5,-2,-1003,-3,-5,-13,-10,17,-152,1500.0
18:02:59.689,AUTO,-35.3632634,149.1652378,13131,-0.027639761567115784,-0.020325470715761185,-0.0941212922334671,-0.004463070537894964,-0.0061009731143713,-0.013367949053645134,5,-2,-1003,-3,-5,-13,-10,17,-152,1500.0
18:02:59.893,AUTO,-35.3632634,149.1652378,13131,-0.027639761567115784,-0.020325470715761185,-0.0941212922334671,-0.004463070537894964,-0.0061009731143713,-0.013367949053645134,5,-2,-1003,-3,-5,-13,-10,17,-152,1500.0
18:03:00.100,AUTO,-35.3632634,149.1652378,13131,-0.027639761567115784,-0.020325470715761185,-0.0941212922334671,-0.004463070537894964,-0.0061009731143713,-0.013367949053645134,5,-2,-1003,-3,-5,-13,-10,17,-152,1500.0
18:03:00.308,AUTO,-35.3632634,149.1652378,13131,-0.027639761567115784,-0.020325470715761185,-0.0941212922334671,-0.004463070537894964,-0.0061009731143713,-0.013367949053645134,5,-2,-1003,-3,-5,-13,-10,17,-152,1500.0
18:03:00.513,AUTO,-35.3632634,149.1652378,13131,-0.027639761567115784,-0.020325470715761185,-0.0941212922334671,-0.004463070537894964,-0.0061009731143713,-0.013367949053645134,5,-2,-1003,-3,-5,-13,-10,17,-152,1500.0
18:03:00.717,AUTO,-35.3632633,149.1652379,14854,-0.009381123818457127,-0.011051563546061516,-0.12746812403202057,0.025499995797872543,0.017350146546959877,-0.03458498418331146,-3,0,-1000,26,17,-34,8,-10,-153,1500.0
18:03:00.922,AUTO,-35.3632631,149.1652375,15246,-0.0031022957991808653,-0.006453095935285091,-0.13635537028312683,0.022780995815992355,0.01849159225821495,-0.03159288316965103,-4,0,-1000,23,19,-31,10,-13,-153,1500.0
18:03:01.124,AUTO,-35.3632631,149.1652375,15246,-0.0031022957991808653,-0.006453095935285091,-0.13635537028312683,0.022780995815992355,0.01849159225821495,-0.03159288316965103,-4,0,-1000,23,19,-31,10,-13,-153,1500.0
18:03:01.328,AUTO,-35.3632631,149.1652375,15246,-0.0031022957991808653,-0.006453095935285091,-0.13635537028312683,0.022780995815992355,0.01849159225821495,-0.03159288316965103,-4,0,-1000,23,19,-31,10,-13,-153,1500.0
18:03:01.531,AUTO,-35.3632631,149.1652375,15246,-0.0031022957991808653,-0.006453095935285091,-0.13635537028312683,0.022780995815992355,0.01849159225821495,-0.03159288316965103,-4,0,-1000,23,19,-31,10,-13,-153,1500.0
18:03:01.737,AUTO,-35.3632631,149.1652375,15246,-0.0031022957991808653,-0.006453095935285091,-0.13635537028312683,0.022780995815992355,0.01849159225821495,-0.03159288316965103,-4,0,-1000,23,19,-31,10,-13,-153,1500.0
18:03:01.939,AUTO,-35.3632631,149.1652375,15246,-0.0031022957991808653,-0.006453095935285091,-0.13635537028312683,0.022780995815992355,0.01849159225821495,-0.03159288316965103,-4,0,-1000,23,19,-31,10,-13,-153,1500.0
18:03:02.141,AUTO,-35.3632631,149.1652375,15246,-0.0031022957991808653,-0.006453095935285091,-0.13635537028312683,0.022780995815992355,0.01849159225821495,-0.03159288316965103,-4,0,-1000,23,19,-31,10,-13,-153,1500.0
18:03:02.345,AUTO,-35.3632616,149.1652354,17830,0.012800868600606918,0.010627049952745438,-0.17258138954639435,-0.003421192988753319,0.0015253263991326094,-0.011636273004114628,-1,0,-1000,-2,2,-11,3,-1,-153,1500.0
18:03:02.554,AUTO,-35.3632616,149.1652354,17830,0.012800868600606918,0.010627049952745438,-0.17258138954639435,-0.003421192988753319,0.0015253263991326094,-0.011636273004114628,-1,0,-1000,-2,2,-11,3,-1,-153,1500.0
18:03:02.756,AUTO,-35.3632615,149.1652354,18220,0.011629021726548672,0.01042469684034586,-0.17519350349903107,-0.0022765009198337793,-0.0007210528710857034,-0.012239145115017891,-1,0,-1000,-1,0,-12,1,1,-153,1500.0
18:03:02.961,AUTO,-35.3632615,149.1652354,18220,0.011629021726548672,0.01042469684034586,-0.17519350349903107,-0.0022765009198337793,-0.0007210528710857034,-0.012239145115017891,-1,0,-1000,-1,0,-12,1,1,-153,1500.0
18:03:03.168,AUTO,-35.3632615,149.1652354,18220,0.011629021726548672,0.01042469684034586,-0.17519350349903107,-0.0022765009198337793,-0.0007210528710857034,-0.012239145115017891,-1,0,-1000,-1,0,-12,1,1,-153,1500.0
18:03:03.374,AUTO,-35.3632615,149.1652354,18220,0.011629021726548672,0.01042469684034586,-0.17519350349903107,-0.0022765009198337793,-0.0007210528710857034,-0.012239145115017891,-1,0,-1000,-1,0,-12,1,1,-153,1500.0
18:03:03.578,AUTO,-35.3632615,149.1652354,18220,0.011629021726548672,0.01042469684034586,-0.17519350349903107,-0.0022765009198337793,-0.0007210528710857034,-0.012239145115017891,-1,0,-1000,-1,0,-12,1,1,-153,1500.0
18:03:03.785,AUTO,-35.3632615,149.1652354,18220,0.011629021726548672,0.01042469684034586,-0.17519350349903107,-0.0022765009198337793,-0.0007210528710857034,-0.012239145115017891,-1,0,-1000,-1,0,-12,1,1,-153,1500.0
18:03:03.987,AUTO,-35.3632615,149.1652354,18220,0.011629021726548672,0.01042469684034586,-0.17519350349903107,-0.0022765009198337793,-0.0007210528710857034,-0.012239145115017891,-1,0,-1000,-1,0,-12,1,1,-153,1500.0
18:03:04.190,AUTO,-35.3632613,149.1652357,20402,0.003566226689144969,0.0061930385418236256,-0.1900128722190857,-0.00567865464836359,-0.004482126794755459,-0.012570480816066265,1,0,-1000,-4,-3,-12,-3,7,-153,1500.0
18:03:04.391,AUTO,-35.3632614,149.1652359,20793,0.0025497598107904196,0.00499282730743289,-0.1932498663663864,-0.0030716622713953257,-0.003984367474913597,-0.014399513602256775,0,0,-1000,-2,-3,-14,-4,7,-153,1500.0
18:03:04.593,AUTO,-35.3632614,149.165236,21184,0.001686324249021709,0.0037695474456995726,-0.19655776023864746,-0.0009657227783463895,-0.0029038581997156143,-0.014886409975588322,1,0,-1000,0,-1,-15,-4,7,-153,1500.0
18:03:04.797,AUTO,-35.3632614,149.165236,21184,0.001686324249021709,0.0037695474456995726,-0.19655776023864746,-0.0009657227783463895,-0.0029038581997156143,-0.014886409975588322,1,0,-1000,0,-1,-15,-4,7,-153,1500.0
18:03:04.999,AUTO,-35.3632614,149.165236,21184,0.001686324249021709,0.0037695474456995726,-0.19655776023864746,-0.0009657227783463895,-0.0029038581997156143,-0.014886409975588322,1,0,-1000,0,-1,-15,-4,7,-153,1500.0
18:03:05.201,AUTO,-35.3632614,149.165236,21184,0.001686324249021709,0.0037695474456995726,-0.19655776023864746,-0.0009657227783463895,-0.0029038581997156143,-0.014886409975588322,1,0,-1000,0,-1,-15,-4,7,-153,1500.0
18:03:05.409,AUTO,-35.3632614,149.165236,21184,0.001686324249021709,0.0037695474456995726,-0.19655776023864746,-0.0009657227783463895,-0.0029038581997156143,-0.014886409975588322,1,0,-1000,0,-1,-15,-4,7,-153,1500.0
18:03:05.615,AUTO,-35.3632614,149.165236,21184,0.001686324249021709,0.0037695474456995726,-0.19655776023864746,-0.0009657227783463895,-0.0029038581997156143,-0.014886409975588322,1,0,-1000,0,-1,-15,-4,7,-153,1500.0
18:03:05.821,AUTO,-35.3632614,149.165236,21184,0.001686324249021709,0.0037695474456995726,-0.19655776023864746,-0.0009657227783463895,-0.0029038581997156143,-0.014886409975588322,1,0,-1000,0,-1,-15,-4,7,-153,1500.0
18:03:06.024,AUTO,-35.3632614,149.165236,21184,0.001686324249021709,0.0037695474456995726,-0.19655776023864746,-0.0009657227783463895,-0.0029038581997156143,-0.014886409975588322,1,0,-1000,0,-1,-15,-4,7,-153,1500.0
18:03:06.230,AUTO,-35.3632614,149.165236,21184,0.001686324249021709,0.0037695474456995726,-0.19655776023864746,-0.0009657227783463895,-0.0029038581997156143,-0.014886409975588322,1,0,-1000,0,-1,-15,-4,7,-153,1500.0
18:03:06.433,AUTO,-35.3632614,149.165236,21184,0.001686324249021709,0.0037695474456995726,-0.19655776023864746,-0.0009657227783463895,-0.0029038581997156143,-0.014886409975588322,1,0,-1000,0,-1,-15,-4,7,-153,1500.0
18:03:06.636,AUTO,-35.3632617,149.1652366,23527,0.0008113646181300282,0.0022439868189394474,-0.22428932785987854,0.002251866040751338,0.0004100035293959081,-0.020531363785266876,0,0,-1000,3,1,-20,-3,3,-153,1500.0
18:03:06.841,AUTO,-35.3632617,149.1652366,24309,0.001219155383296311,0.002199877519160509,-0.23454664647579193,-0.0007491371361538768,0.0011888851877301931,-0.020922766998410225,0,0,-1000,0,2,-21,-2,3,-153,1500.0
18:03:07.043,AUTO,-35.3632617,149.1652366,24309,0.001219155383296311,0.002199877519160509,-0.23454664647579193,-0.0007491371361538768,0.0011888851877301931,-0.020922766998410225,0,0,-1000,0,2,-21,-2,3,-153,1500.0
18:03:07.250,AUTO,-35.3632617,149.1652366,24309,0.001219155383296311,0.002199877519160509,-0.23454664647579193,-0.0007491371361538768,0.0011888851877301931,-0.020922766998410225,0,0,-1000,0,2,-21,-2,3,-153,1500.0
18:03:07.453,AUTO,-35.3632617,149.1652366,24309,0.001219155383296311,0.002199877519160509,-0.23454664647579193,-0.0007491371361538768,0.0011888851877301931,-0.020922766998410225,0,0,-1000,0,2,-21,-2,3,-153,1500.0
18:03:07.664,AUTO,-35.3632617,149.1652366,24309,0.001219155383296311,0.002199877519160509,-0.23454664647579193,-0.0007491371361538768,0.0011888851877301931,-0.020922766998410225,0,0,-1000,0,2,-21,-2,3,-153,1500.0
18:03:07.866,AUTO,-35.3632617,149.1652366,24309,0.001219155383296311,0.002199877519160509,-0.23454664647579193,-0.0007491371361538768,0.0011888851877301931,-0.020922766998410225,0,0,-1000,0,2,-21,-2,3,-153,1500.0
18:03:08.070,AUTO,-35.3632617,149.1652366,24309,0.001219155383296311,0.002199877519160509,-0.23454664647579193,-0.0007491371361538768,0.0011888851877301931,-0.020922766998410225,0,0,-1000,0,2,-21,-2,3,-153,1500.0
18:03:08.277,AUTO,-35.3632617,149.1652366,24309,0.001219155383296311,0.002199877519160509,-0.23454664647579193,-0.0007491371361538768,0.0011888851877301931,-0.020922766998410225,0,0,-1000,0,2,-21,-2,3,-153,1500.0
18:03:08.483,AUTO,-35.3632619,149.1652364,26263,0.0048628561198711395,0.004873156081885099,-0.24990074336528778,0.03358124569058418,0.0007906886748969555,0.010133725591003895,0,1,-1000,34,1,10,-5,-3,-154,1500.0
18:03:08.687,AUTO,-35.3632621,149.1652363,27435,0.013438339345157146,0.0027160998433828354,-0.2341223955154419,0.0004745494807139039,-0.0006558976601809263,0.024877361953258514,0,0,-999,1,0,24,-4,4,-153,1500.0
18:03:08.894,AUTO,-35.3632621,149.1652363,27435,0.013438339345157146,0.0027160998433828354,-0.2341223955154419,0.0004745494807139039,-0.0006558976601809263,0.024877361953258514,0,0,-999,1,0,24,-4,4,-153,1500.0
18:03:09.097,AUTO,-35.3632621,149.1652363,27435,0.013438339345157146,0.0027160998433828354,-0.2341223955154419,0.0004745494807139039,-0.0006558976601809263,0.024877361953258514,0,0,-999,1,0,24,-4,4,-153,1500.0
18:03:09.300,AUTO,-35.3632621,149.1652363,27435,0.013438339345157146,0.0027160998433828354,-0.2341223955154419,0.0004745494807139039,-0.0006558976601809263,0.024877361953258514,0,0,-999,1,0,24,-4,4,-153,1500.0
18:03:09.504,AUTO,-35.3632621,149.1652363,27435,0.013438339345157146,0.0027160998433828354,-0.2341223955154419,0.0004745494807139039,-0.0006558976601809263,0.024877361953258514,0,0,-999,1,0,24,-4,4,-153,1500.0
18:03:09.708,AUTO,-35.3632621,149.1652363,27435,0.013438339345157146,0.0027160998433828354,-0.2341223955154419,0.0004745494807139039,-0.0006558976601809263,0.024877361953258514,0,0,-999,1,0,24,-4,4,-153,1500.0
18:03:09.914,AUTO,-35.3632621,149.1652363,27435,0.013438339345157146,0.0027160998433828354,-0.2341223955154419,0.0004745494807139039,-0.0006558976601809263,0.024877361953258514,0,0,-999,1,0,24,-4,4,-153,1500.0
18:03:10.116,AUTO,-35.3632621,149.1652363,27435,0.013438339345157146,0.0027160998433828354,-0.2341223955154419,0.0004745494807139039,-0.0006558976601809263,0.024877361953258514,0,0,-999,1,0,24,-4,4,-153,1500.0
18:03:10.318,AUTO,-35.3632621,149.1652363,27435,0.013438339345157146,0.0027160998433828354,-0.2341223955154419,0.0004745494807139039,-0.0006558976601809263,0.024877361953258514,0,0,-999,1,0,24,-4,4,-153,1500.0
18:03:10.520,AUTO,-35.3632623,149.1652374,29997,0.00015214206359814852,0.0021685250103473663,-0.19714435935020447,-0.004991492256522179,-0.00023250438971444964,0.0194582287222147,1,-1,-1000,-6,2,21,0,8,-153,1500.0
18:03:10.725,AUTO,-35.3632623,149.1652376,30386,-0.0010019000619649887,0.002139293821528554,-0.19219602644443512,-0.005626273341476917,-0.0011175177060067654,0.019164979457855225,0,-1,-1000,-4,0,19,0,7,-153,1500.0
18:03:10.930,AUTO,-35.3632623,149.1652376,30386,-0.0010019000619649887,0.002139293821528554,-0.19219602644443512,-0.005626273341476917,-0.0011175177060067654,0.019164979457855225,0,-1,-1000,-4,0,19,0,7,-153,1500.0
18:03:11.132,AUTO,-35.3632623,149.1652376,30386,-0.0010019000619649887,0.002139293821528554,-0.19219602644443512,-0.005626273341476917,-0.0011175177060067654,0.019164979457855225,0,-1,-1000,-4,0,19,0,7,-153,1500.0
18:03:11.344,AUTO,-35.3632623,149.1652376,30386,-0.0010019000619649887,0.002139293821528554,-0.19219602644443512,-0.005626273341476917,-0.0011175177060067654,0.019164979457855225,0,-1,-1000,-4,0,19,0,7,-153,1500.0
18:03:11.546,AUTO,-35.3632623,149.1652376,30386,-0.0010019000619649887,0.002139293821528554,-0.19219602644443512,-0.005626273341476917,-0.0011175177060067654,0.019164979457855225,0,-1,-1000,-4,0,19,0,7,-153,1500.0
18:03:11.748,AUTO,-35.3632623,149.1652376,30386,-0.0010019000619649887,0.002139293821528554,-0.19219602644443512,-0.005626273341476917,-0.0011175177060067654,0.019164979457855225,0,-1,-1000,-4,0,19,0,7,-153,1500.0
18:03:11.951,AUTO,-35.3632623,149.1652376,30386,-0.0010019000619649887,0.002139293821528554,-0.19219602644443512,-0.005626273341476917,-0.0011175177060067654,0.019164979457855225,0,-1,-1000,-4,0,19,0,7,-153,1500.0
18:03:12.155,AUTO,-35.3632623,149.1652376,30386,-0.0010019000619649887,0.002139293821528554,-0.19219602644443512,-0.005626273341476917,-0.0011175177060067654,0.019164979457855225,0,-1,-1000,-4,0,19,0,7,-153,1500.0
18:03:12.359,AUTO,-35.3632623,149.1652376,30386,-0.0013250000774860382,0.0017710271058604121,-0.17867156863212585,0.0013647517189383507,-0.00063658959697932,0.019373713061213493,0,-1,-1000,-4,0,19,0,7,-153,1500.0
18:03:12.564,AUTO,-35.3632623,149.1652381,33113,6.757688970537856e-05,0.0013368724612519145,-0.16289211809635162,-0.0018750124145299196,-0.00024386623408645391,0.014485804364085197,0,0,-999,0,0,14,0,1,-153,1500.0
18:03:12.765,AUTO,-35.3632623,149.165238,33502,0.0005166179034858942,0.0011629582149907947,-0.1593765914440155,0.0022842951584607363,-0.0017644406761974096,0.014707561582326889,0,0,-1000,3,0,14,0,0,-153,1500.0
18:03:12.972,AUTO,-35.3632623,149.165238,33502,0.0005166179034858942,0.0011629582149907947,-0.1593765914440155,0.0022842951584607363,-0.0017644406761974096,0.014707561582326889,0,0,-1000,3,0,14,0,0,-153,1500.0
18:03:13.174,AUTO,-35.3632623,149.165238,33502,0.0005166179034858942,0.0011629582149907947,-0.1593765914440155,0.0022842951584607363,-0.0017644406761974096,0.014707561582326889,0,0,-1000,3,0,14,0,0,-153,1500.0
18:03:13.378,AUTO,-35.3632623,149.165238,33502,0.0005166179034858942,0.0011629582149907947,-0.1593765914440155,0.0022842951584607363,-0.0017644406761974096,0.014707561582326889,0,0,-1000,3,0,14,0,0,-153,1500.0
18:03:13.582,AUTO,-35.3632623,149.165238,33502,0.0005166179034858942,0.0011629582149907947,-0.1593765914440155,0.0022842951584607363,-0.0017644406761974096,0.014707561582326889,0,0,-1000,3,0,14,0,0,-153,1500.0
18:03:13.785,AUTO,-35.3632623,149.165238,33502,0.0005166179034858942,0.0011629582149907947,-0.1593765914440155,0.0022842951584607363,-0.0017644406761974096,0.014707561582326889,0,0,-1000,3,0,14,0,0,-153,1500.0
18:03:13.990,AUTO,-35.3632623,149.165238,33502,0.0005166179034858942,0.0011629582149907947,-0.1593765914440155,0.0022842951584607363,-0.0017644406761974096,0.014707561582326889,0,0,-1000,3,0,14,0,0,-153,1500.0
18:03:14.195,AUTO,-35.3632623,149.165238,33502,0.0005166179034858942,0.0011629582149907947,-0.1593765914440155,0.0022842951584607363,-0.0017644406761974096,0.014707561582326889,0,0,-1000,3,0,14,0,0,-153,1500.0
18:03:14.406,AUTO,-35.3632623,149.165238,33502,0.0005166179034858942,0.0011629582149907947,-0.1593765914440155,0.0022842951584607363,-0.0017644406761974096,0.014707561582326889,0,0,-1000,3,0,14,0,0,-153,1500.0
18:03:14.612,AUTO,-35.3632623,149.165238,34671,0.0013652861816808581,0.0010638339444994926,-0.14913229644298553,0.0008232495747506618,0.001492645824328065,0.014229731634259224,0,0,-1000,1,2,14,0,0,-153,1500.0
18:03:14.818,AUTO,-35.3632622,149.1652379,36238,0.0012298637302592397,0.000886840745806694,-0.13741503655910492,-0.00031865749042481184,0.0005861629033461213,0.011022137477993965,0,0,-999,0,1,13,0,0,-153,1500.0
18:03:15.023,AUTO,-35.3632622,149.1652378,37017,0.001385442796163261,0.001046460005454719,-0.13220562040805817,-0.001327740028500557,0.0005676447181031108,0.00992343109101057,0,0,-999,0,1,10,0,0,-153,1500.0
18:03:15.224,AUTO,-35.3632622,149.1652378,37017,0.001385442796163261,0.001046460005454719,-0.13220562040805817,-0.001327740028500557,0.0005676447181031108,0.00992343109101057,0,0,-999,0,1,10,0,0,-153,1500.0
18:03:15.428,AUTO,-35.3632622,149.1652378,37017,0.001385442796163261,0.001046460005454719,-0.13220562040805817,-0.001327740028500557,0.0005676447181031108,0.00992343109101057,0,0,-999,0,1,10,0,0,-153,1500.0
18:03:15.632,AUTO,-35.3632622,149.1652378,37017,0.001385442796163261,0.001046460005454719,-0.13220562040805817,-0.001327740028500557,0.0005676447181031108,0.00992343109101057,0,0,-999,0,1,10,0,0,-153,1500.0
18:03:15.849,AUTO,-35.3632622,149.1652378,37017,0.001385442796163261,0.001046460005454719,-0.13220562040805817,-0.001327740028500557,0.0005676447181031108,0.00992343109101057,0,0,-999,0,1,10,0,0,-153,1500.0
18:03:16.052,AUTO,-35.3632622,149.1652378,37017,0.001385442796163261,0.001046460005454719,-0.13220562040805817,-0.001327740028500557,0.0005676447181031108,0.00992343109101057,0,0,-999,0,1,10,0,0,-153,1500.0
18:03:16.256,AUTO,-35.3632622,149.1652378,37017,0.001385442796163261,0.001046460005454719,-0.13220562040805817,-0.001327740028500557,0.0005676447181031108,0.00992343109101057,0,0,-999,0,1,10,0,0,-153,1500.0
18:03:16.460,AUTO,-35.3632622,149.1652377,38103,0.002440014388412237,0.001573567045852542,-0.12322602421045303,0.0035416320897638798,-0.0008411536691710353,0.009497451595962048,0,0,-1000,2,2,9,0,0,-153,1500.0
18:03:16.663,AUTO,-35.3632621,149.1652375,39661,0.0024997047148644924,0.0017816985491663218,-0.11656903475522995,0.002395857125520706,-0.0008824593969620764,0.008269859477877617,0,0,-1001,3,0,8,0,0,-153,1500.0
18:03:16.876,AUTO,-35.3632621,149.1652375,39661,0.0024997047148644924,0.0017816985491663218,-0.11656903475522995,0.002395857125520706,-0.0008824593969620764,0.008269859477877617,0,0,-1001,3,0,8,0,0,-153,1500.0
18:03:17.081,AUTO,-35.3632621,149.1652375,39661,0.0024997047148644924,0.0017816985491663218,-0.11656903475522995,0.002395857125520706,-0.0008824593969620764,0.008269859477877617,0,0,-1001,3,0,8,0,0,-153,1500.0
18:03:17.292,AUTO,-35.3632621,149.1652375,39661,0.0024997047148644924,0.0017816985491663218,-0.11656903475522995,0.002395857125520706,-0.0008824593969620764,0.008269859477877617,0,0,-1001,3,0,8,0,0,-153,1500.0
18:03:17.495,AUTO,-35.3632621,149.1652375,39661,0.0024997047148644924,0.0017816985491663218,-0.11656903475522995,0.002395857125520706,-0.0008824593969620764,0.008269859477877617,0,0,-1001,3,0,8,0,0,-153,1500.0
18:03:17.699,AUTO,-35.3632621,149.1652375,39661,0.0024997047148644924,0.0017816985491663218,-0.11656903475522995,0.002395857125520706,-0.0008824593969620764,0.008269859477877617,0,0,-1001,3,0,8,0,0,-153,1500.0
18:03:17.907,AUTO,-35.3632621,149.1652375,39661,0.0024997047148644924,0.0017816985491663218,-0.11656903475522995,0.002395857125520706,-0.0008824593969620764,0.008269859477877617,0,0,-1001,3,0,8,0,0,-153,1500.0
18:03:18.112,AUTO,-35.3632621,149.1652375,39661,0.0024997047148644924,0.0017816985491663218,-0.11656903475522995,0.002395857125520706,-0.0008824593969620764,0.008269859477877617,0,0,-1001,3,0,8,0,0,-153,1500.0
18:03:18.314,AUTO,-35.3632621,149.1652375,41302,0.0017499524401500821,0.0017994580557569861,-0.10861237347126007,0.00118753791321069,0.0015895484248176217,0.006726366467773914,0,0,-1001,0,0,7,-1,0,-153,1500.0
18:03:18.517,AUTO,-35.363262,149.1652374,42859,0.0017560808919370174,0.0014737469609826803,-0.10217292606830597,-0.003970220685005188,-0.0010824718046933413,0.006198131013661623,0,0,-1000,4,2,8,-1,1,-153,1500.0
18:03:18.720,AUTO,-35.363262,149.1652374,42859,0.0017560808919370174,0.0014737469609826803,-0.10217292606830597,-0.003970220685005188,-0.0010824718046933413,0.006198131013661623,0,0,-999,-2,0,6,-1,1,-153,1500.0
18:03:18.922,AUTO,-35.363262,149.1652374,42859,0.0017560808919370174,0.0014737469609826803,-0.10217292606830597,-0.003970220685005188,-0.0010824718046933413,0.006198131013661623,0,0,-999,-2,0,6,-1,1,-153,1500.0
18:03:19.125,AUTO,-35.363262,149.1652374,42859,0.0017560808919370174,0.0014737469609826803,-0.10217292606830597,-0.003970220685005188,-0.0010824718046933413,0.006198131013661623,0,0,-999,-2,0,6,-1,1,-153,1500.0
18:03:19.330,AUTO,-35.363262,149.1652374,42859,0.0017560808919370174,0.0014737469609826803,-0.10217292606830597,-0.003970220685005188,-0.0010824718046933413,0.006198131013661623,0,0,-999,-2,0,6,-1,1,-153,1500.0
18:03:19.534,AUTO,-35.363262,149.1652374,42859,0.0017560808919370174,0.0014737469609826803,-0.10217292606830597,-0.003970220685005188,-0.0010824718046933413,0.006198131013661623,0,0,-999,-2,0,6,-1,1,-153,1500.0
18:03:19.737,AUTO,-35.363262,149.1652374,42859,0.0017560808919370174,0.0014737469609826803,-0.10217292606830597,-0.003970220685005188,-0.0010824718046933413,0.006198131013661623,0,0,-999,-2,0,6,-1,1,-153,1500.0
18:03:19.939,AUTO,-35.363262,149.1652374,42859,0.0017560808919370174,0.0014737469609826803,-0.10217292606830597,-0.003970220685005188,-0.0010824718046933413,0.006198131013661623,0,0,-999,-2,0,6,-1,1,-153,1500.0
18:03:20.145,AUTO,-35.363262,149.1652374,42859,0.0017560808919370174,0.0014737469609826803,-0.10217292606830597,-0.003970220685005188,-0.0010824718046933413,0.006198131013661623,0,0,-999,-2,0,6,-1,1,-153,1500.0
18:03:20.348,AUTO,-35.363262,149.1652374,44418,0.0016832497203722596,0.0012730301823467016,-0.09590275585651398,0.0052751898765563965,0.0006255495827645063,0.008654349483549595,0,0,-999,-3,2,7,-1,1,-153,1500.0
18:03:20.553,AUTO,-35.363262,149.1652374,45590,0.0019421273609623313,0.0013042434584349394,-0.09164503216743469,0.0003562761703506112,0.00029948202427476645,0.004765105899423361,0,0,-1000,1,1,5,-1,1,-153,1500.0
18:03:20.758,AUTO,-35.363262,149.1652374,45979,0.0018966743955388665,0.001195052987895906,-0.08997263759374619,-0.0016100138891488314,0.0007461850764229894,0.005797231569886208,0,0,-1000,0,2,6,-1,1,-153,1500.0
18:03:20.969,AUTO,-35.363262,149.1652374,45979,0.0018966743955388665,0.001195052987895906,-0.08997263759374619,-0.0016100138891488314,0.0007461850764229894,0.005797231569886208,0,0,-1000,0,2,6,-1,1,-153,1500.0
18:03:21.223,AUTO,-35.363262,149.1652374,45979,0.0018966743955388665,0.001195052987895906,-0.08997263759374619,-0.0016100138891488314,0.0007461850764229894,0.005797231569886208,0,0,-1000,0,2,6,-1,1,-153,1500.0
18:03:21.434,AUTO,-35.363262,149.1652374,45979,0.0018966743955388665,0.001195052987895906,-0.08997263759374619,-0.0016100138891488314,0.0007461850764229894,0.005797231569886208,0,0,-1000,0,2,6,-1,1,-153,1500.0
18:03:21.656,AUTO,-35.363262,149.1652374,45979,0.0018966743955388665,0.001195052987895906,-0.08997263759374619,-0.0016100138891488314,0.0007461850764229894,0.005797231569886208,0,0,-1000,0,2,6,-1,1,-153,1500.0
18:03:21.883,AUTO,-35.363262,149.1652374,45979,0.0018966743955388665,0.001195052987895906,-0.08997263759374619,-0.0016100138891488314,0.0007461850764229894,0.005797231569886208,0,0,-1000,0,2,6,-1,1,-153,1500.0
18:03:22.105,AUTO,-35.363262,149.1652374,45979,0.0018966743955388665,0.001195052987895906,-0.08997263759374619,-0.0016100138891488314,0.0007461850764229894,0.005797231569886208,0,0,-1000,0,2,6,-1,1,-153,1500.0
18:03:25.892,AUTO,-35.363262,149.1652374,45979,0.0018966743955388665,0.001195052987895906,-0.08997263759374619,-0.0016100138891488314,0.0007461850764229894,0.005797231569886208,0,0,-1000,0,2,6,-1,1,-153,1500.0
18:03:26.094,AUTO,-35.3632635,149.1652352,48471,-0.01956022158265114,-0.006699549034237862,0.28276658058166504,0.1135297417640686,-0.17356309294700623,0.13126727938652039,5,11,-947,114,-172,131,-31,-38,-105,1500.0
18:03:26.295,AUTO,-35.3632641,149.1652342,48724,0.005312703084200621,-0.03815702721476555,0.30318623781204224,0.08635476231575012,-0.09095784276723862,0.048237089067697525,3,11,-954,87,-89,48,-24,-35,-93,1500.0
18:03:26.497,AUTO,-35.3632641,149.1652342,48724,0.005312703084200621,-0.03815702721476555,0.30318623781204224,0.08635476231575012,-0.09095784276723862,0.048237089067697525,3,11,-954,87,-89,48,-24,-35,-93,1500.0
18:03:26.699,AUTO,-35.3632641,149.1652342,48724,0.005312703084200621,-0.03815702721476555,0.30318623781204224,0.08635476231575012,-0.09095784276723862,0.048237089067697525,3,11,-954,87,-89,48,-24,-35,-93,1500.0
18:03:26.904,AUTO,-35.3632641,149.1652342,48724,0.005312703084200621,-0.03815702721476555,0.30318623781204224,0.08635476231575012,-0.09095784276723862,0.048237089067697525,3,11,-954,87,-89,48,-24,-35,-93,1500.0
18:03:27.115,AUTO,-35.3632641,149.1652342,48724,0.005312703084200621,-0.03815702721476555,0.30318623781204224,0.08635476231575012,-0.09095784276723862,0.048237089067697525,3,11,-954,87,-89,48,-24,-35,-93,1500.0
18:03:27.316,AUTO,-35.3632641,149.1652342,48724,0.005312703084200621,-0.03815702721476555,0.30318623781204224,0.08635476231575012,-0.09095784276723862,0.048237089067697525,3,11,-954,87,-89,48,-24,-35,-93,1500.0
18:03:27.518,AUTO,-35.3632641,149.1652342,48724,0.005312703084200621,-0.03815702721476555,0.30318623781204224,0.08635476231575012,-0.09095784276723862,0.048237089067697525,3,11,-954,87,-89,48,-24,-35,-93,1500.0
18:03:27.722,AUTO,-35.3632641,149.1652342,48724,0.005312703084200621,-0.03815702721476555,0.30318623781204224,0.08635476231575012,-0.09095784276723862,0.048237089067697525,3,11,-954,87,-89,48,-24,-35,-93,1500.0
18:03:27.927,AUTO,-35.3632643,149.1652326,49617,0.03542274981737137,-0.028089676052331924,0.27860698103904724,-0.059884123504161835,0.043047890067100525,-0.03789703547954559,-2,-8,-977,-59,44,-37,16,18,-51,1500.0
18:03:28.129,BRAKE,-35.3632629,149.1652345,49938,0.02055719681084156,0.020954370498657227,0.2538360357284546,0.15052062273025513,0.06630118936300278,-0.028530266135931015,-4,14,-970,539,65,-24,17,30,-33,1500.0
18:03:28.336,BRAKE,-35.3632629,149.1652345,49938,0.02055719681084156,0.020954370498657227,0.2538360357284546,0.15052062273025513,0.06630118936300278,-0.028530266135931015,-2,-9,-985,149,67,-28,17,30,-33,1500.0
18:03:28.588,BRAKE,-35.3632629,149.1652345,49938,0.02055719681084156,0.020954370498657227,0.2538360357284546,0.15052062273025513,0.06630118936300278,-0.028530266135931015,-2,-9,-985,149,67,-28,17,30,-33,1500.0
18:03:28.829,BRAKE,-35.3632629,149.1652345,49938,0.02055719681084156,0.020954370498657227,0.2538360357284546,0.15052062273025513,0.06630118936300278,-0.028530266135931015,-2,-9,-985,149,67,-28,17,30,-33,1500.0
18:03:29.105,BRAKE,-35.3632629,149.1652345,49938,0.02055719681084156,0.020954370498657227,0.2538360357284546,0.15052062273025513,0.06630118936300278,-0.028530266135931015,-2,-9,-985,149,67,-28,17,30,-33,1500.0
18:03:29.335,BRAKE,-35.3632629,149.1652345,49938,0.02055719681084156,0.020954370498657227,0.2538360357284546,0.15052062273025513,0.06630118936300278,-0.028530266135931015,-2,-9,-985,149,67,-28,17,30,-33,1500.0
18:03:29.542,BRAKE,-35.3632629,149.1652345,49938,0.02055719681084156,0.020954370498657227,0.2538360357284546,0.15052062273025513,0.06630118936300278,-0.028530266135931015,-2,-9,-985,149,67,-28,17,30,-33,1500.0
18:03:29.777,BRAKE,-35.3632629,149.1652345,49938,0.02055719681084156,0.020954370498657227,0.2538360357284546,0.15052062273025513,0.06630118936300278,-0.028530266135931015,-2,-9,-985,149,67,-28,17,30,-33,1500.0
18:03:30.016,BRAKE,-35.3632629,149.1652345,49938,0.02055719681084156,0.020954370498657227,0.2538360357284546,0.15052062273025513,0.06630118936300278,-0.028530266135931015,-2,-9,-985,149,67,-28,17,30,-33,1500.0
18:03:30.232,BRAKE,-35.3632615,149.1652389,50316,-0.002305607544258237,0.0033975928090512753,0.20750515162944794,0.6555778980255127,-0.0030921916477382183,-0.02002817392349243,0,36,-983,816,0,-18,4,14,-16,1500.0
18:03:30.435,BRAKE,-35.3632615,149.1652392,50352,0.0007380454335361719,0.0029853908345103264,0.20208746194839478,0.874356210231781,-0.0026340908370912075,-0.019532527774572372,1,30,-1003,877,-1,-19,4,11,-15,1500.0
18:03:30.641,BRAKE,-35.3632615,149.1652392,50352,0.0007380454335361719,0.0029853908345103264,0.20208746194839478,0.874356210231781,-0.0026340908370912075,-0.019532527774572372,1,30,-1003,877,-1,-19,4,11,-15,1500.0
18:03:30.848,BRAKE,-35.3632615,149.1652392,50352,0.0007380454335361719,0.0029853908345103264,0.20208746194839478,0.874356210231781,-0.0026340908370912075,-0.019532527774572372,1,30,-1003,877,-1,-19,4,11,-15,1500.0
18:03:31.054,BRAKE,-35.3632615,149.1652392,50352,0.0007380454335361719,0.0029853908345103264,0.20208746194839478,0.874356210231781,-0.0026340908370912075,-0.019532527774572372,1,30,-1003,877,-1,-19,4,11,-15,1500.0
18:03:31.257,BRAKE,-35.3632615,149.1652392,50352,0.0007380454335361719,0.0029853908345103264,0.20208746194839478,0.874356210231781,-0.0026340908370912075,-0.019532527774572372,1,30,-1003,877,-1,-19,4,11,-15,1500.0
18:03:31.459,BRAKE,-35.3632615,149.1652392,50352,0.0007380454335361719,0.0029853908345103264,0.20208746194839478,0.874356210231781,-0.0026340908370912075,-0.019532527774572372,1,30,-1003,877,-1,-19,4,11,-15,1500.0
18:03:31.661,BRAKE,-35.3632615,149.1652392,50352,0.0007380454335361719,0.0029853908345103264,0.20208746194839478,0.874356210231781,-0.0026340908370912075,-0.019532527774572372,1,30,-1003,877,-1,-19,4,11,-15,1500.0
18:03:31.869,BRAKE,-35.3632615,149.1652392,50352,0.0007380454335361719,0.0029853908345103264,0.20208746194839478,0.874356210231781,-0.0026340908370912075,-0.019532527774572372,1,30,-1003,877,-1,-19,4,11,-15,1500.0
18:03:32.073,BRAKE,-35.3632611,149.1652406,50510,-0.020502524450421333,0.0005263169878162444,0.1720152348279953,-0.5271870493888855,-0.001754616852849722,-0.014026499353349209,0,-11,-981,-523,0,-13,4,-2,-7,1500.0
18:03:32.277,ALT_HOLD,-35.3632611,149.1652408,50540,-0.004531924147158861,0.0009692020830698311,0.16332049667835236,0.49572494626045227,0.004404409322887659,-0.009346035309135914,1,32,-989,500,5,-8,3,-5,-6,1500.0
