time_stamp,MODE,lat,lon,relative_alt,roll,pitch,yaw,rollspeed,pitchspeed,yawspeed,xacc,yacc,zacc,xgyro,ygyro,zgyro,vx,vy,vz,RTL_ALT
06:33:52.902,STABILIZE,-35.3632621,149.1652374,0,-0.00042191881220787764,0.0014281292678788304,0.028900980949401855,0.00031240275711752474,0.0001715412363409996,0.002422003075480461,0,1,-1000,0,0,0,0,0,-2,1500.0
06:33:53.103,STABILIZE,-35.3632621,149.1652374,0,-0.00042191881220787764,0.0014281292678788304,0.028900980949401855,0.00031240275711752474,0.0001715412363409996,0.002422003075480461,0,1,-1000,0,0,0,0,0,-2,1500.0
06:33:53.304,STABILIZE,-35.3632621,149.1652374,0,-0.00042191881220787764,0.0014281292678788304,0.028900980949401855,0.00031240275711752474,0.0001715412363409996,0.002422003075480461,0,1,-1000,0,0,0,0,0,-2,1500.0
06:33:53.505,STABILIZE,-35.3632621,149.1652374,0,-0.00042191881220787764,0.0014281292678788304,0.028900980949401855,0.00031240275711752474,0.0001715412363409996,0.002422003075480461,0,1,-1000,0,0,0,0,0,-2,1500.0
06:33:53.706,STABILIZE,-35.3632621,149.1652374,0,-0.00042191881220787764,0.0014281292678788304,0.028900980949401855,0.00031240275711752474,0.0001715412363409996,0.002422003075480461,0,1,-1000,0,0,0,0,0,-2,1500.0
06:33:53.907,STABILIZE,-35.3632621,149.1652374,0,-0.0003237432101741433,0.0016229833709076047,0.028287174180150032,0.00018730355077423155,0.0003127650707028806,0.002426540944725275,0,1,-1000,0,0,0,-1,0,-1,1500.0
06:33:54.125,STABILIZE,-35.3632621,149.1652374,0,-0.0003237432101741433,0.0016229833709076047,0.028287174180150032,0.00018730355077423155,0.0003127650707028806,0.002426540944725275,0,1,-1000,0,0,0,-1,0,-1,1500.0
06:33:54.326,STABILIZE,-35.3632621,149.1652374,0,-0.0003237432101741433,0.0016229833709076047,0.028287174180150032,0.00018730355077423155,0.0003127650707028806,0.002426540944725275,0,1,-1000,0,0,0,-1,0,-1,1500.0
06:33:54.527,STABILIZE,-35.3632621,149.1652374,0,-0.0003237432101741433,0.0016229833709076047,0.028287174180150032,0.00018730355077423155,0.0003127650707028806,0.002426540944725275,0,1,-1000,0,0,0,-1,0,-1,1500.0
06:33:54.728,STABILIZE,-35.3632621,149.1652374,0,-0.0003237432101741433,0.0016229833709076047,0.028287174180150032,0.00018730355077423155,0.0003127650707028806,0.002426540944725275,0,1,-1000,0,0,0,-1,0,-1,1500.0
06:33:54.929,STABILIZE,-35.3632621,149.1652374,0,-0.0003237432101741433,0.0016229833709076047,0.028287174180150032,0.00018730355077423155,0.0003127650707028806,0.002426540944725275,0,1,-1000,0,0,0,-1,0,-1,1500.0
06:33:55.130,STABILIZE,-35.3632621,149.1652374,0,-0.0003237432101741433,0.0016229833709076047,0.028287174180150032,0.00018730355077423155,0.0003127650707028806,0.002426540944725275,0,1,-1000,0,0,0,-1,0,-1,1500.0
06:33:55.331,STABILIZE,-35.3632622,149.1652374,0,-0.00011715177970472723,0.0015256005572155118,0.027424391359090805,0.00016185728600248694,0.00025250070029869676,0.002161677461117506,0,1,-1000,1,0,0,-2,1,-1,1500.0
06:33:55.532,STABILIZE,-35.3632622,149.1652374,0,-0.00011715177970472723,0.0015256005572155118,0.027424391359090805,0.00016185728600248694,0.00025250070029869676,0.002161677461117506,0,1,-1000,0,0,0,-2,1,-1,1500.0
06:33:55.734,STABILIZE,-35.3632622,149.1652374,0,-0.00011715177970472723,0.0015256005572155118,0.027424391359090805,0.00016185728600248694,0.00025250070029869676,0.002161677461117506,0,1,-1000,0,0,0,-2,1,-1,1500.0
06:33:55.936,STABILIZE,-35.3632622,149.1652374,0,-0.00011715177970472723,0.0015256005572155118,0.027424391359090805,0.00016185728600248694,0.00025250070029869676,0.002161677461117506,0,1,-1000,0,0,0,-2,1,-1,1500.0
06:33:56.137,STABILIZE,-35.3632622,149.1652374,0,-0.00011715177970472723,0.0015256005572155118,0.027424391359090805,0.00016185728600248694,0.00025250070029869676,0.002161677461117506,0,1,-1000,0,0,0,-2,1,-1,1500.0
06:33:56.339,STABILIZE,-35.3632622,149.1652374,0,-0.00011715177970472723,0.0015256005572155118,0.027424391359090805,0.00016185728600248694,0.00025250070029869676,0.002161677461117506,0,1,-1000,0,0,0,-2,1,-1,1500.0
06:33:56.541,STABILIZE,-35.3632622,149.1652374,0,-0.0003181850479450077,0.0012507090577855706,0.026738416403532028,0.0002491480263415724,0.00029068696312606335,0.0022353515960276127,0,1,-1000,0,0,0,-1,1,-1,1500.0
06:33:56.742,STABILIZE,-35.3632622,149.1652374,0,-0.0003181850479450077,0.0012507090577855706,0.026738416403532028,0.0002491480263415724,0.00029068696312606335,0.0022353515960276127,0,1,-1000,0,0,0,-1,1,-1,1500.0
06:33:56.943,STABILIZE,-35.3632622,149.1652375,0,-0.0003626497637014836,0.0012005534954369068,0.026612937450408936,0.00022658228408545256,0.0003149537951685488,0.0022892409469932318,0,1,-1000,0,0,0,-1,1,-1,1500.0
06:33:57.145,STABILIZE,-35.3632622,149.1652375,0,-0.0003626497637014836,0.0012005534954369068,0.026612937450408936,0.00022658228408545256,0.0003149537951685488,0.0022892409469932318,0,1,-1000,0,0,0,-1,1,-1,1500.0
06:33:57.346,STABILIZE,-35.3632622,149.1652375,0,-0.00045738168410025537,0.0011096319649368525,0.026348236948251724,9.364678408019245e-05,9.874047827906907e-05,0.002029891824349761,0,1,-1000,0,0,0,-1,1,-1,1500.0
06:33:57.547,STABILIZE,-35.3632622,149.1652375,0,-0.00045738168410025537,0.0011096319649368525,0.026348236948251724,9.364678408019245e-05,9.874047827906907e-05,0.002029891824349761,0,1,-1000,0,0,0,-1,1,-1,1500.0
06:33:57.749,STABILIZE,-35.3632622,149.1652375,0,-0.00045738168410025537,0.0011096319649368525,0.026348236948251724,9.364678408019245e-05,9.874047827906907e-05,0.002029891824349761,0,1,-1000,0,0,0,-1,1,-1,1500.0
06:33:57.950,STABILIZE,-35.3632622,149.1652375,0,-0.0005407958524301648,0.0010424165520817041,0.026103340089321136,0.0003554157156031579,0.0002162463788408786,0.0020269304513931274,0,1,-1000,0,0,0,-1,1,-1,1500.0
06:33:58.152,STABILIZE,-35.3632622,149.1652375,0,-0.0005407958524301648,0.0010424165520817041,0.026103340089321136,0.0003554157156031579,0.0002162463788408786,0.0020269304513931274,0,1,-1000,0,0,0,-1,1,-1,1500.0
06:33:58.353,STABILIZE,-35.3632622,149.1652375,0,-0.0005407958524301648,0.0010424165520817041,0.026103340089321136,0.0003554157156031579,0.0002162463788408786,0.0020269304513931274,0,1,-1000,0,0,0,-1,1,-1,1500.0
06:33:58.554,STABILIZE,-35.3632622,149.1652375,0,-0.0005407958524301648,0.0010424165520817041,0.026103340089321136,0.0003554157156031579,0.0002162463788408786,0.0020269304513931274,0,1,-1000,0,0,0,-1,1,-1,1500.0
06:33:58.756,STABILIZE,-35.3632622,149.1652375,0,-0.0005407958524301648,0.0010424165520817041,0.026103340089321136,0.0003554157156031579,0.0002162463788408786,0.0020269304513931274,0,1,-1000,0,0,0,-1,2,1,1500.0
06:33:58.957,STABILIZE,-35.3632621,149.1652375,0,-0.0004745254700537771,0.0009672410087659955,0.025593101978302002,0.00018530688248574734,0.0002476760128047317,0.002013004384934902,0,1,-1000,0,0,0,-1,2,1,1500.0
06:33:59.158,STABILIZE,-35.3632621,149.1652375,0,-0.0005539474659599364,0.0009592223796062171,0.025500250980257988,0.00025675538927316666,0.00023999676341190934,0.0019175081979483366,0,1,-1000,0,0,0,-1,2,1,1500.0
06:33:59.359,STABILIZE,-35.3632621,149.1652375,0,-0.0006269651930779219,0.0009524064371362329,0.025374677032232285,0.00022693106438964605,0.00015100277960300446,0.002097776625305414,0,1,-1000,1,1,0,-1,2,1,1500.0
06:33:59.561,STABILIZE,-35.3632621,149.1652375,0,-0.0006269651930779219,0.0009524064371362329,0.025374677032232285,0.00022693106438964605,0.00015100277960300446,0.002097776625305414,0,1,-1000,1,1,0,-1,2,1,1500.0
06:33:59.762,STABILIZE,-35.3632621,149.1652375,0,-0.0006269651930779219,0.0009524064371362329,0.025374677032232285,0.00022693106438964605,0.00015100277960300446,0.002097776625305414,0,1,-1000,1,1,0,-1,2,1,1500.0
06:33:59.963,STABILIZE,-35.3632621,149.1652375,0,-0.0007602865225635469,0.0009360270341858268,0.025181597098708153,9.210564894601703e-05,0.0002553325321059674,0.0018517719581723213,0,1,-1000,0,1,0,-1,2,1,1500.0
06:34:00.164,STABILIZE,-35.3632621,149.1652375,0,-0.0007602865225635469,0.0009360270341858268,0.025181597098708153,9.210564894601703e-05,0.0002553325321059674,0.0018517719581723213,0,1,-1000,0,1,0,-1,2,1,1500.0
06:34:00.366,STABILIZE,-35.3632621,149.1652375,0,-0.0007602865225635469,0.0009360270341858268,0.025181597098708153,9.210564894601703e-05,0.0002553325321059674,0.0018517719581723213,0,1,-1000,0,1,0,-1,2,1,1500.0
06:34:00.567,STABILIZE,-35.3632621,149.1652375,0,-0.0007602865225635469,0.0009360270341858268,0.025181597098708153,9.210564894601703e-05,0.0002553325321059674,0.0018517719581723213,0,1,-1000,0,1,0,-1,2,1,1500.0
06:34:00.768,STABILIZE,-35.3632621,149.1652375,0,-0.0007602865225635469,0.0009360270341858268,0.025181597098708153,9.210564894601703e-05,0.0002553325321059674,0.0018517719581723213,0,1,-1000,0,1,0,-1,2,1,1500.0
06:34:00.970,STABILIZE,-35.3632621,149.1652375,0,-0.0009735205094330013,0.0009276820346713066,0.024828506633639336,0.00016272877110168338,0.00026192498626187444,0.0019383577164262533,0,1,-1000,0,1,0,-1,2,1,1500.0
06:34:01.171,STABILIZE,-35.3632621,149.1652375,0,-0.0010061600478366017,0.0009256004705093801,0.024725692346692085,0.00026623677695170045,0.00013486092211678624,0.001874501002021134,0,2,-1000,0,1,0,-1,1,0,1500.0
06:34:01.372,STABILIZE,-35.3632621,149.1652375,0,-0.0010061600478366017,0.0009256004705093801,0.024725692346692085,0.00026623677695170045,0.00013486092211678624,0.001874501002021134,0,2,-1000,0,1,0,-1,1,0,1500.0
06:34:01.573,STABILIZE,-35.3632621,149.1652375,0,-0.0010061600478366017,0.0009256004705093801,0.024725692346692085,0.00026623677695170045,0.00013486092211678624,0.001874501002021134,0,2,-1000,0,1,0,-1,1,0,1500.0
06:34:01.774,STABILIZE,-35.3632621,149.1652375,0,-0.0010594545165076852,0.0009272759198211133,0.02459763176739216,0.00017580040730535984,0.00022297335090115666,0.0018258183263242245,0,2,-1000,0,1,0,-1,1,0,1500.0
06:34:01.976,STABILIZE,-35.3632621,149.1652375,0,-0.0010594545165076852,0.0009272759198211133,0.02459763176739216,0.00017580040730535984,0.00022297335090115666,0.0018258183263242245,0,1,-1000,0,0,0,-1,1,0,1500.0
06:34:02.177,STABILIZE,-35.3632621,149.1652375,0,-0.0010594545165076852,0.0009272759198211133,0.02459763176739216,0.00017580040730535984,0.00022297335090115666,0.0018258183263242245,0,1,-1000,0,0,0,-1,1,0,1500.0
06:34:02.378,STABILIZE,-35.3632621,149.1652375,0,-0.0010594545165076852,0.0009272759198211133,0.02459763176739216,0.00017580040730535984,0.00022297335090115666,0.0018258183263242245,0,1,-1000,0,0,0,-1,1,0,1500.0
06:34:02.580,STABILIZE,-35.3632621,149.1652375,0,-0.0010594545165076852,0.0009272759198211133,0.02459763176739216,0.00017580040730535984,0.00022297335090115666,0.0018258183263242245,0,1,-1000,0,0,0,-1,1,0,1500.0
06:34:02.781,STABILIZE,-35.3632621,149.1652375,0,-0.0011328033870086074,0.0009243748500011861,0.024319827556610107,0.00014671467943117023,0.0002836192143149674,0.0017851295415312052,0,2,-1000,0,0,0,-1,0,0,1500.0
06:34:02.982,STABILIZE,-35.3632621,149.1652375,0,-0.0011328033870086074,0.0009243748500011861,0.024319827556610107,0.00014671467943117023,0.0002836192143149674,0.0017851295415312052,0,1,-1000,0,0,0,-1,0,0,1500.0
06:34:03.184,STABILIZE,-35.3632621,149.1652375,0,-0.0011328033870086074,0.0009243748500011861,0.024319827556610107,0.00014671467943117023,0.0002836192143149674,0.0017851295415312052,0,1,-1000,0,0,0,-1,0,0,1500.0
06:34:03.385,STABILIZE,-35.3632621,149.1652375,0,-0.0011486830189824104,0.0009338739328086376,0.024131974205374718,0.00029758037999272346,0.000272647594101727,0.0017850371077656746,0,1,-1000,0,1,0,-1,0,0,1500.0
06:34:03.587,STABILIZE,-35.3632621,149.1652375,0,-0.0011486830189824104,0.0009338739328086376,0.024131974205374718,0.00029758037999272346,0.000272647594101727,0.0017850371077656746,0,1,-1000,0,1,0,-1,0,0,1500.0
06:34:03.788,STABILIZE,-35.3632621,149.1652375,0,-0.0011486830189824104,0.0009338739328086376,0.024131974205374718,0.00029758037999272346,0.000272647594101727,0.0017850371077656746,0,1,-1000,0,1,0,-1,0,0,1500.0
06:34:03.989,STABILIZE,-35.3632621,149.1652375,0,-0.0011638671858236194,0.0009393912041559815,0.023986928164958954,0.0001484495005570352,0.00030772940954193473,0.001690989127382636,0,1,-1000,0,0,0,-1,0,0,1500.0
06:34:04.191,STABILIZE,-35.3632621,149.1652375,0,-0.0011638671858236194,0.0009393912041559815,0.023986928164958954,0.0001484495005570352,0.00030772940954193473,0.001690989127382636,0,1,-1000,0,0,0,-1,0,0,1500.0
06:34:04.393,STABILIZE,-35.3632621,149.1652375,0,-0.0011638671858236194,0.0009393912041559815,0.023986928164958954,0.0001484495005570352,0.00030772940954193473,0.001690989127382636,0,1,-1000,0,0,0,-1,0,0,1500.0
06:34:04.594,STABILIZE,-35.3632621,149.1652375,0,-0.0011638671858236194,0.0009393912041559815,0.023986928164958954,0.0001484495005570352,0.00030772940954193473,0.001690989127382636,0,1,-1000,0,0,0,-1,0,0,1500.0
06:34:04.795,STABILIZE,-35.3632622,149.1652375,0,-0.0011715199798345566,0.0009521081810817122,0.02378787472844124,0.00017542520072311163,0.0002503843861632049,0.0016598892398178577,0,1,-1000,0,1,0,-1,0,0,1500.0
06:34:04.997,STABILIZE,-35.3632622,149.1652375,0,-0.0011792994337156415,0.0009576827869750559,0.023730771616101265,0.0002051058690994978,0.00018588599050417542,0.0016910580452531576,0,1,-1000,0,1,0,-1,0,0,1500.0
06:34:05.198,STABILIZE,-35.3632622,149.1652375,0,-0.0011835468467324972,0.0009626500541344285,0.023672284558415413,0.00021296617342159152,0.00028102006763219833,0.0016490791458636522,0,1,-1000,0,1,1,-1,0,0,1500.0
06:34:05.399,STABILIZE,-35.3632622,149.1652375,0,-0.001019471324980259,0.0009641649667173624,0.023592427372932434,0.0001479818020015955,0.00024480692809447646,0.0017451760359108448,0,1,-1000,0,1,1,-1,0,-1,1500.0
06:34:05.601,STABILIZE,-35.3632622,149.1652375,0,-0.001019471324980259,0.0009641649667173624,0.023592427372932434,0.0001479818020015955,0.00024480692809447646,0.0017451760359108448,0,1,-1000,0,1,1,-1,0,-1,1500.0
06:34:05.802,STABILIZE,-35.3632622,149.1652375,0,-0.001019471324980259,0.0009641649667173624,0.023592427372932434,0.0001479818020015955,0.00024480692809447646,0.0017451760359108448,0,1,-1000,0,1,1,-1,0,-1,1500.0
06:34:06.004,STABILIZE,-35.3632622,149.1652375,0,-0.0009603335056453943,0.0009563659550622106,0.023495234549045563,0.0003583058132790029,0.00023467419669032097,0.0017216592095792294,0,1,-1000,0,0,0,-1,0,-1,1500.0
06:34:06.206,STABILIZE,-35.3632622,149.1652375,0,-0.0009603335056453943,0.0009563659550622106,0.023495234549045563,0.0003583058132790029,0.00023467419669032097,0.0017216592095792294,0,1,-1000,0,0,0,-1,0,-1,1500.0
06:34:06.409,STABILIZE,-35.3632622,149.1652375,0,-0.0009603335056453943,0.0009563659550622106,0.023495234549045563,0.0003583058132790029,0.00023467419669032097,0.0017216592095792294,0,1,-1000,0,0,0,-1,0,-1,1500.0
06:34:06.618,STABILIZE,-35.3632622,149.1652375,0,-0.0009603335056453943,0.0009563659550622106,0.023495234549045563,0.0003583058132790029,0.00023467419669032097,0.0017216592095792294,0,1,-1000,0,0,0,-1,0,-1,1500.0
06:34:06.820,STABILIZE,-35.3632622,149.1652375,0,-0.0009603335056453943,0.0009563659550622106,0.023495234549045563,0.0003583058132790029,0.00023467419669032097,0.0017216592095792294,0,1,-1000,0,0,0,-1,0,-1,1500.0
06:34:07.021,STABILIZE,-35.3632622,149.1652375,0,-0.0009603335056453943,0.0009563659550622106,0.023495234549045563,0.0003583058132790029,0.00023467419669032097,0.0017216592095792294,0,1,-1000,0,0,0,-1,0,-1,1500.0
06:34:07.223,STABILIZE,-35.3632622,149.1652375,0,-0.0008250169339589775,0.0009698211215436459,0.023153511807322502,0.0003716100472956896,0.0001898756599985063,0.001584696350619197,0,2,-1000,1,0,0,-1,0,-1,1500.0
06:34:07.424,STABILIZE,-35.3632622,149.1652375,0,-0.0008026041323319077,0.0009716740460135043,0.02309590019285679,0.0002006351132877171,0.00036252790596336126,0.0016762911109253764,0,2,-1000,1,0,1,-1,1,-1,1500.0
06:34:07.626,STABILIZE,-35.3632622,149.1652375,0,-0.0008026041323319077,0.0009716740460135043,0.02309590019285679,0.0002006351132877171,0.00036252790596336126,0.0016762911109253764,0,2,-1000,1,0,1,-1,1,-1,1500.0
06:34:07.827,STABILIZE,-35.3632622,149.1652375,0,-0.0008026041323319077,0.0009716740460135043,0.02309590019285679,0.0002006351132877171,0.00036252790596336126,0.0016762911109253764,0,2,-1000,1,0,1,-1,1,-1,1500.0
06:34:08.029,STABILIZE,-35.3632622,149.1652375,0,-0.0008026041323319077,0.0009716740460135043,0.02309590019285679,0.0002006351132877171,0.00036252790596336126,0.0016762911109253764,0,2,-1000,1,0,1,-1,1,-1,1500.0
06:34:08.231,STABILIZE,-35.3632622,149.1652375,0,-0.0008026041323319077,0.0009716740460135043,0.02309590019285679,0.0002006351132877171,0.00036252790596336126,0.0016762911109253764,0,2,-1000,1,0,1,-1,1,-1,1500.0
06:34:08.433,STABILIZE,-35.3632622,149.1652375,0,-0.0008026041323319077,0.0009716740460135043,0.02309590019285679,0.0002006351132877171,0.00036252790596336126,0.0016762911109253764,0,2,-1000,1,0,1,-1,1,-1,1500.0
06:34:08.634,STABILIZE,-35.3632622,149.1652375,0,-0.0007782721659168601,0.0009990243706852198,0.022726239636540413,0.000211908423807472,0.00021211500279605389,0.0015728780999779701,0,2,-1000,0,0,1,-1,1,0,1500.0
06:34:08.836,STABILIZE,-35.3632622,149.1652375,0,-0.0007782721659168601,0.0009990243706852198,0.022726239636540413,0.000211908423807472,0.00021211500279605389,0.0015728780999779701,0,2,-1000,0,0,1,-1,1,0,1500.0
06:34:09.037,STABILIZE,-35.3632622,149.1652375,0,-0.0007782721659168601,0.0009990243706852198,0.022726239636540413,0.000211908423807472,0.00021211500279605389,0.0015728780999779701,0,2,-1000,0,0,1,-1,1,0,1500.0
06:34:09.239,STABILIZE,-35.3632622,149.1652375,0,-0.0006645388784818351,0.0010045513045042753,0.022581567987799644,0.00021090911468490958,0.00031605252297595143,0.0014794995076954365,0,2,-1000,0,0,1,-1,2,0,1500.0
06:34:09.440,STABILIZE,-35.3632622,149.1652375,0,-0.0006645388784818351,0.0010045513045042753,0.022581567987799644,0.00021090911468490958,0.00031605252297595143,0.0014794995076954365,0,1,-1000,1,0,0,-1,2,0,1500.0
06:34:09.642,STABILIZE,-35.3632622,149.1652375,0,-0.0007352585671469569,0.0009979258757084608,0.02243470959365368,0.000270670629106462,0.00016563356621190906,0.0015846904134377837,0,1,-1000,1,0,0,-1,2,0,1500.0
06:34:09.843,STABILIZE,-35.3632622,149.1652375,0,-0.0007352585671469569,0.0009979258757084608,0.02243470959365368,0.000270670629106462,0.00016563356621190906,0.0015846904134377837,0,1,-1000,1,0,0,-1,2,0,1500.0
06:34:10.045,STABILIZE,-35.3632622,149.1652375,0,-0.0007860290352255106,0.0009953995468094945,0.022376595064997673,0.00028032955015078187,0.00028246373403817415,0.0015490339137613773,0,2,-1000,1,0,0,-1,2,0,1500.0
06:34:10.247,AUTO,-35.3632622,149.1652375,0,-0.0007860290352255106,0.0009953995468094945,0.022376595064997673,0.00028032955015078187,0.00028246373403817415,0.0015490339137613773,0,2,-1000,1,0,0,-1,2,0,1500.0
06:34:10.449,AUTO,-35.3632622,149.1652375,0,-0.0007860290352255106,0.0009953995468094945,0.022376595064997673,0.00028032955015078187,0.00028246373403817415,0.0015490339137613773,0,2,-1000,1,0,0,-1,2,0,1500.0
06:34:10.651,AUTO,-35.3632622,149.1652375,8,-0.0008806814439594746,0.0010156946955248713,0.022218899801373482,0.0002145877224393189,0.00019579485524445772,0.0015192501014098525,0,1,-1000,1,1,1,-1,1,0,1500.0
06:34:10.852,AUTO,-35.3632622,149.1652375,8,-0.0008806814439594746,0.0010156946955248713,0.022218899801373482,0.0002145877224393189,0.00019579485524445772,0.0015192501014098525,0,1,-1000,1,1,1,-1,1,0,1500.0
06:34:11.054,AUTO,-35.3632622,149.1652375,8,-0.000903437496162951,0.0010186330182477832,0.022158771753311157,0.0002812123275361955,0.0002467696904204786,0.0014574092347174883,0,1,-1000,1,0,0,-1,1,0,1500.0
06:34:11.278,AUTO,-35.3632621,149.1652375,8,-0.0009110500104725361,0.0010413076961413026,0.022086532786488533,0.000276492559351027,0.0003399403067305684,0.0015455688117071986,0,2,-1000,0,1,0,0,1,0,1500.0
06:34:11.537,AUTO,-35.3632621,149.1652375,8,-0.0008922556298784912,0.0010747689520940185,0.02203398011624813,0.0003187870606780052,0.0004102899692952633,0.0014440225204452872,0,2,-1000,0,0,0,0,0,0,1500.0
06:34:11.764,AUTO,-35.3632621,149.1652375,7,-0.0008637277642264962,0.0011235481360927224,0.021981850266456604,0.0003074457636103034,0.0002530264900997281,0.001486877677962184,0,1,-1000,1,0,1,0,0,0,1500.0
06:34:11.971,AUTO,-35.3632621,149.1652375,7,-0.0008281221380457282,0.0011772556463256478,0.021913208067417145,0.0002644875203259289,0.00022484618239104748,0.0014831116423010826,0,2,-1000,1,0,0,0,0,0,1500.0
06:34:12.224,AUTO,-35.3632621,149.1652375,7,-0.0008281221380457282,0.0011772556463256478,0.021913208067417145,0.0002644875203259289,0.00022484618239104748,0.0014831116423010826,0,2,-1000,1,0,0,0,0,0,1500.0
06:34:12.468,AUTO,-35.3632621,149.1652375,7,-0.0008281221380457282,0.0011772556463256478,0.021913208067417145,0.0002644875203259289,0.00022484618239104748,0.0014831116423010826,0,2,-1000,1,0,0,0,0,0,1500.0
06:34:12.670,AUTO,-35.3632621,149.1652375,7,-0.0006881952867843211,0.0013685667654499412,0.0217592790722847,0.0002620580489747226,0.0002693704445846379,0.0015115566784515977,0,2,-1000,0,1,0,0,0,0,1500.0
06:34:12.871,AUTO,-35.3632621,149.1652375,7,-0.0006237407797016203,0.0014403951354324818,0.021690452471375465,0.0003362712450325489,0.0002628086367622018,0.0014323425712063909,0,2,-1000,0,0,0,0,0,0,1500.0
06:34:13.083,AUTO,-35.3632621,149.1652375,7,-0.0006237407797016203,0.0014403951354324818,0.021690452471375465,0.0003362712450325489,0.0002628086367622018,0.0014323425712063909,0,2,-1000,0,0,0,0,0,0,1500.0
06:34:13.285,AUTO,-35.3632621,149.1652374,7,-0.0005687079974450171,0.0015082756290212274,0.02163815312087536,0.0002678963355720043,0.0002818415523506701,0.0013828974915668368,0,1,-1000,1,0,0,0,0,0,101513.0
06:34:13.487,AUTO,-35.3632621,149.1652374,7,-0.0005080211558379233,0.0015852167271077633,0.021579476073384285,0.0003334286739118397,0.0002399109653197229,0.0014330565463751554,0,1,-1000,1,0,1,0,0,0,101513.0
06:34:13.689,AUTO,-35.3632621,149.1652374,7,-0.000449787505203858,0.0016556783812120557,0.02150813303887844,0.00033437361707910895,0.0003190120914950967,0.0014682909240946174,0,1,-1000,0,0,0,0,0,0,101513.0
06:34:13.891,AUTO,-35.3632621,149.1652374,7,-0.0003783101565204561,0.0017345112282782793,0.021447811275720596,0.0003872591769322753,0.00040946289664134383,0.0014063483104109764,0,1,-1000,1,0,0,0,0,0,101513.0
06:34:14.092,AUTO,-35.3632621,149.1652374,7,-0.0003783101565204561,0.0017345112282782793,0.021447811275720596,0.0003872591769322753,0.00040946289664134383,0.0014063483104109764,0,1,-1000,1,0,0,0,0,0,101513.0
06:34:14.294,AUTO,-35.3632621,149.1652374,7,-0.0003783101565204561,0.0017345112282782793,0.021447811275720596,0.0003872591769322753,0.00040946289664134383,0.0014063483104109764,0,1,-1000,1,0,0,0,0,0,101513.0
06:34:14.496,AUTO,-35.3632621,149.1652374,7,-0.0003783101565204561,0.0017345112282782793,0.021447811275720596,0.0003872591769322753,0.00040946289664134383,0.0014063483104109764,0,1,-1000,1,0,0,0,0,0,101513.0
06:34:14.698,AUTO,-35.3632621,149.1652375,193,0.00340390601195395,7.109922444215044e-05,0.02132844738662243,0.008004757575690746,0.004529924131929874,0.003002885263413191,0,0,-1130,8,5,2,0,0,-69,101513.0
06:34:14.899,AUTO,-35.3632621,149.1652375,402,0.0018473764648661017,0.001126056769862771,0.021219847723841667,-0.011008824221789837,0.0035478572826832533,0.0017068799352273345,0,0,-1110,-10,4,1,0,0,-98,101513.0
06:34:15.101,AUTO,-35.3632621,149.1652375,402,0.0018473764648661017,0.001126056769862771,0.021219847723841667,-0.011008824221789837,0.0035478572826832533,0.0017068799352273345,0,0,-1110,-10,4,1,0,0,-98,101513.0
06:34:15.303,AUTO,-35.3632621,149.1652375,680,0.001250287052243948,0.0017330730333924294,0.021256597712635994,0.0008255453431047499,0.0006160337943583727,0.0008170781657099724,0,0,-1090,1,1,0,0,0,-122,101513.0
06:34:15.505,AUTO,-35.3632621,149.1652375,1016,0.00978532712906599,0.0009939861483871937,0.021016504615545273,0.04725268855690956,-0.0060033430345356464,0.0014177433913573623,0,0,-1043,47,-5,0,0,1,-138,101513.0
06:34:15.707,AUTO,-35.3632621,149.1652375,1379,0.02165033482015133,-0.0007172288605943322,0.021053362637758255,0.04689113795757294,-0.007159554865211248,0.0023465356789529324,0,0,-1018,47,-6,1,0,5,-144,101513.0
06:34:15.910,AUTO,-35.363262,149.1652377,1756,0.033077649772167206,-0.0026607841718941927,0.02121288888156414,0.04543023183941841,-0.0078943045809865,0.002996879629790783,0,-1,-1007,46,-7,2,1,11,-147,101513.0
06:34:16.112,AUTO,-35.363262,149.1652377,1756,0.033077649772167206,-0.0026607841718941927,0.02121288888156414,0.04543023183941841,-0.0078943045809865,0.002996879629790783,0,-1,-1007,46,-7,2,1,11,-147,101513.0
06:34:16.314,AUTO,-35.363262,149.1652377,1756,0.033077649772167206,-0.0026607841718941927,0.02121288888156414,0.04543023183941841,-0.0078943045809865,0.002996879629790783,0,-1,-1007,46,-7,2,1,11,-147,101513.0
06:34:16.523,AUTO,-35.363262,149.1652377,1756,0.033077649772167206,-0.0026607841718941927,0.02121288888156414,0.04543023183941841,-0.0078943045809865,0.002996879629790783,0,-1,-1007,46,-7,2,1,11,-147,101513.0
06:34:16.725,AUTO,-35.3632616,149.1652397,2909,0.06206006556749344,-0.009524602442979813,-0.007149785757064819,-0.0014870702289044857,0.011432943865656853,-0.036657314747571945,1,-8,-993,0,12,-37,8,42,-148,101513.0
06:34:16.926,AUTO,-35.3632614,149.1652409,3289,0.04401904344558716,0.01088800560683012,-0.02835327759385109,-0.13001379370689392,0.10625720769166946,-0.10497742891311646,2,-10,-990,-129,106,-105,10,52,-145,101513.0
06:34:17.139,AUTO,-35.3632612,149.1652424,3667,-0.000382591417292133,0.02390631102025509,-0.04982979595661163,-0.16780473291873932,0.0055917175486683846,-0.07745890319347382,4,-15,-1002,-166,6,-77,7,54,-144,101513.0
06:34:17.348,AUTO,-35.3632612,149.1652424,3667,-0.000382591417292133,0.02390631102025509,-0.04982979595661163,-0.16780473291873932,0.0055917175486683846,-0.07745890319347382,4,-15,-1002,-166,6,-77,7,54,-144,101513.0
06:34:17.700,AUTO,-35.3632609,149.1652449,4426,-0.03421441838145256,0.017075326293706894,-0.07703997939825058,-0.02999858930706978,-0.013863589614629745,-0.04670354723930359,5,-10,-1005,-29,-13,-47,0,37,-149,101513.0
06:34:18.026,AUTO,-35.3632609,149.1652458,4812,-0.04641022905707359,0.010519653558731079,-0.08455027639865875,-0.06559772044420242,-0.032154232263565063,-0.021610714495182037,5,-6,-1000,-65,-31,-22,-2,25,-149,101513.0
06:34:18.241,AUTO,-35.3632609,149.1652458,4812,-0.04641022905707359,0.010519653558731079,-0.08455027639865875,-0.06559772044420242,-0.032154232263565063,-0.021610714495182037,5,-6,-1000,-65,-31,-22,-2,25,-149,101513.0
06:34:18.446,AUTO,-35.3632609,149.1652458,4812,-0.04641022905707359,0.010519653558731079,-0.08455027639865875,-0.06559772044420242,-0.032154232263565063,-0.021610714495182037,5,-6,-1000,-65,-31,-22,-2,25,-149,101513.0
06:34:18.649,AUTO,-35.363261,149.1652458,5960,-0.06949062645435333,-0.008486374281346798,-0.08911887556314468,0.048456426709890366,-0.0017953563947230577,-0.006904447451233864,-1,4,-1002,49,0,-7,-2,-27,-149,101513.0
06:34:18.851,AUTO,-35.363261,149.1652458,5960,-0.06949062645435333,-0.008486374281346798,-0.08911887556314468,0.048456426709890366,-0.0017953563947230577,-0.006904447451233864,-1,4,-1002,49,0,-7,-2,-27,-149,101513.0
06:34:19.053,AUTO,-35.3632611,149.165245,6344,-0.05597423389554024,-0.008662783540785313,-0.0912436842918396,0.057305511087179184,0.0017337859608232975,-0.0035602920688688755,-4,7,-1001,57,2,-4,-2,-41,-149,17468.0
06:34:19.255,AUTO,-35.3632611,149.1652437,6728,-0.04115379974246025,-0.00750272860750556,-0.09261463582515717,0.060979533940553665,0.007299182005226612,-0.0013218536041676998,-6,12,-1001,61,8,-1,-2,-51,-149,17468.0
06:34:19.458,AUTO,-35.3632612,149.1652422,7112,-0.02559472620487213,-0.005109232384711504,-0.09312959015369415,0.06348996609449387,0.011032518930733204,0.0006189695559442043,-6,8,-1002,64,11,0,-2,-57,-149,17468.0
06:34:19.660,AUTO,-35.3632612,149.1652405,7497,-0.009523333981633186,-0.0019433406414464116,-0.09305813908576965,0.06705696135759354,0.01387142762541771,0.0016750204376876354,-6,9,-1003,67,14,1,-3,-60,-150,17468.0
06:34:19.862,AUTO,-35.3632612,149.1652405,7497,-0.009523333981633186,-0.0019433406414464116,-0.09305813908576965,0.06705696135759354,0.01387142762541771,0.0016750204376876354,-6,9,-1003,67,14,1,-3,-60,-150,17468.0
06:34:20.066,AUTO,-35.3632613,149.1652388,7884,0.007055077236145735,0.0016030992846935987,-0.09259629249572754,0.06707827746868134,0.014332858845591545,0.0027782644610852003,-6,12,-1004,67,14,2,-4,-58,-151,17468.0
06:34:20.268,AUTO,-35.3632613,149.1652388,7884,0.007055077236145735,0.0016030992846935987,-0.09259629249572754,0.06707827746868134,0.014332858845591545,0.0027782644610852003,-6,12,-1004,67,14,2,-4,-58,-151,17468.0
06:34:20.470,AUTO,-35.3632613,149.1652388,7884,0.007055077236145735,0.0016030992846935987,-0.09259629249572754,0.06707827746868134,0.014332858845591545,0.0027782644610852003,-6,12,-1004,67,14,2,-4,-58,-151,17468.0
06:34:20.672,AUTO,-35.3632618,149.1652348,9063,0.05536121875047684,0.009457793086767197,-0.08970164507627487,0.061813388019800186,0.005001513287425041,0.004497692454606295,-2,7,-1002,62,5,4,-8,-29,-153,17468.0
06:34:20.874,AUTO,-35.363262,149.1652342,9456,0.06981673836708069,0.009676415473222733,-0.08819960802793503,0.049419332295656204,-0.005337112117558718,0.017034469172358513,0,4,-1000,50,-4,16,-9,-12,-153,17468.0
06:34:21.076,AUTO,-35.363262,149.1652342,9456,0.06981673836708069,0.009676415473222733,-0.08819960802793503,0.049419332295656204,-0.005337112117558718,0.017034469172358513,0,4,-1000,50,-4,16,-9,-12,-153,17468.0
06:34:21.278,AUTO,-35.3632622,149.165234,9847,0.06640136986970901,0.0008048041490837932,-0.08093591779470444,-0.06516721099615097,-0.037701889872550964,0.02975507453083992,0,2,-991,-64,-36,29,-9,4,-151,17468.0
06:34:21.480,AUTO,-35.3632624,149.1652343,10233,0.04264412447810173,-0.005379567854106426,-0.07683076709508896,-0.10338054597377777,-0.011261874809861183,0.008277195505797863,2,0,-995,-103,-10,7,-6,17,-149,17468.0
06:34:21.683,AUTO,-35.3632625,149.1652347,10623,0.017737437039613724,-0.0064702085219323635,-0.07726840674877167,-0.08903317898511887,-0.00017604895401746035,-0.007270356640219688,3,-2,-1000,-88,0,-7,-3,23,-148,17468.0
06:34:21.885,AUTO,-35.3632625,149.1652353,11005,2.9708488000323996e-05,-0.006114245392382145,-0.08120137453079224,-0.05734863132238388,0.003972755279392004,-0.020819207653403282,3,-3,-1003,-56,4,-21,0,22,-149,17468.0
06:34:22.152,AUTO,-35.3632625,149.1652353,11005,2.9708488000323996e-05,-0.006114245392382145,-0.08120137453079224,-0.05734863132238388,0.003972755279392004,-0.020819207653403282,3,-3,-1003,-56,4,-21,0,22,-149,17468.0
06:34:22.446,AUTO,-35.3632625,149.1652353,11005,2.9708488000323996e-05,-0.006114245392382145,-0.08120137453079224,-0.05734863132238388,0.003972755279392004,-0.020819207653403282,3,-3,-1003,-56,4,-21,0,22,-149,17468.0
06:34:22.656,AUTO,-35.3632625,149.1652353,11005,2.9708488000323996e-05,-0.006114245392382145,-0.08120137453079224,-0.05734863132238388,0.003972755279392004,-0.020819207653403282,3,-3,-1003,-56,4,-21,0,22,-149,17468.0
06:34:22.866,AUTO,-35.3632624,149.1652367,12543,-0.016224892809987068,-0.002139523159712553,-0.11027057468891144,0.011787999421358109,0.006327160634100437,-0.030763190239667892,0,-2,-1002,3,6,-28,5,2,-152,17468.0
06:34:23.155,AUTO,-35.3632622,149.1652367,12933,-0.01245728600770235,-0.0008212188840843737,-0.11767639964818954,0.018377922475337982,0.006180201657116413,-0.02931990474462509,-1,0,-1001,18,6,-29,5,-1,-152,17468.0
06:34:23.357,AUTO,-35.3632622,149.1652367,12933,-0.01245728600770235,-0.0008212188840843737,-0.11767639964818954,0.018377922475337982,0.006180201657116413,-0.02931990474462509,-1,0,-1001,18,6,-29,5,-1,-152,17468.0
06:34:23.559,AUTO,-35.3632621,149.1652366,13322,-0.007447777781635523,0.0010636289371177554,-0.12483932077884674,0.022287990897893906,0.008533114567399025,-0.02588936686515808,-1,0,-1000,23,9,-26,5,-4,-152,17468.0
06:34:23.762,AUTO,-35.363262,149.1652365,13713,-0.002582080662250519,0.0028262834530323744,-0.13117948174476624,0.017654290422797203,0.007215786725282669,-0.023133888840675354,-2,0,-1000,18,8,-23,4,-6,-152,17468.0
06:34:23.965,AUTO,-35.3632619,149.1652362,14103,0.0017822840018197894,0.004424840211868286,-0.13681407272815704,0.0146363889798522,0.0054885754361748695,-0.017992909997701645,-1,0,-999,15,6,-18,3,-7,-152,13328.0
06:34:24.167,AUTO,-35.3632619,149.1652362,14103,0.0017822840018197894,0.004424840211868286,-0.13681407272815704,0.0146363889798522,0.0054885754361748695,-0.017992909997701645,-1,0,-999,15,6,-18,3,-7,-152,13328.0
06:34:24.368,AUTO,-35.3632619,149.1652362,14103,0.0017822840018197894,0.004424840211868286,-0.13681407272815704,0.0146363889798522,0.0054885754361748695,-0.017992909997701645,-1,0,-999,15,6,-18,3,-7,-152,13328.0
06:34:24.570,AUTO,-35.3632619,149.1652362,14103,0.0017822840018197894,0.004424840211868286,-0.13681407272815704,0.0146363889798522,0.0054885754361748695,-0.017992909997701645,-1,0,-999,15,6,-18,3,-7,-152,13328.0
06:34:24.772,AUTO,-35.3632616,149.1652356,15272,0.009291688911616802,0.007060433272272348,-0.14979515969753265,0.0029869808349758387,0.0008113258518278599,-0.013160870410501957,-1,1,-999,3,1,-13,0,-3,-152,13328.0
06:34:24.974,AUTO,-35.3632616,149.1652355,15662,0.009795954450964928,0.006961355917155743,-0.15285047888755798,0.001861365744844079,-0.00022246903972700238,-0.010688681155443192,-1,0,-1000,2,0,-10,0,-1,-152,13328.0
06:34:25.175,AUTO,-35.3632616,149.1652354,16049,0.0004158368974458426,0.006713741458952427,-0.15578269958496094,-0.06649790704250336,-0.0007698870613239706,-0.011356905102729797,0,0,-995,-65,0,-12,-1,0,-151,13328.0
06:34:25.377,AUTO,-35.3632616,149.1652353,16436,-0.020496618002653122,0.0060569471679627895,-0.15873640775680542,-0.09498850256204605,-0.0026362393982708454,-0.01410853210836649,0,0,-996,-94,-1,-14,-3,-3,-150,13328.0
06:34:25.579,AUTO,-35.3632616,149.1652353,16436,-0.020496618002653122,0.0060569471679627895,-0.15873640775680542,-0.09498850256204605,-0.0026362393982708454,-0.01410853210836649,0,0,-996,-94,-1,-14,-3,-3,-150,13328.0
06:34:25.780,AUTO,-35.3632616,149.1652351,16820,-0.04490252584218979,0.005732418037950993,-0.1615467518568039,-0.08982019871473312,0.005314935930073261,0.004990921821445227,0,1,-995,-88,6,4,-5,-11,-149,13328.0
06:34:25.982,AUTO,-35.3632617,149.1652346,17197,-0.05361362174153328,0.02361668273806572,-0.12757037580013275,-0.003800939070060849,0.1014193668961525,0.25858819484710693,-2,3,-980,-3,102,258,-9,-23,-145,13328.0
06:34:26.184,AUTO,-35.3632617,149.1652346,17197,-0.05361362174153328,0.02361668273806572,-0.12757037580013275,-0.003800939070060849,0.1014193668961525,0.25858819484710693,-2,3,-980,-3,102,258,-9,-23,-145,13328.0
06:34:26.387,AUTO,-35.3632617,149.1652346,17197,-0.05361362174153328,0.02361668273806572,-0.12757037580013275,-0.003800939070060849,0.1014193668961525,0.25858819484710693,-2,3,-980,-3,102,258,-9,-23,-145,13328.0
06:34:26.589,AUTO,-35.3632617,149.1652346,17197,-0.05361362174153328,0.02361668273806572,-0.12757037580013275,-0.003800939070060849,0.1014193668961525,0.25858819484710693,-2,3,-980,-3,102,258,-9,-23,-145,13328.0
06:34:26.792,AUTO,-35.363263,149.1652315,18213,0.025996586307883263,-0.008805406279861927,0.05917498841881752,0.13598646223545074,-0.12065393477678299,0.034323353320360184,0,12,-955,136,-119,34,-29,-35,-116,13328.0
06:34:26.994,AUTO,-35.3632636,149.1652306,18497,0.05219794809818268,-0.029482580721378326,0.05790247023105621,0.07920517772436142,-0.05222684144973755,-0.030760031193494797,1,8,-959,80,-51,-30,-24,-24,-105,13328.0
06:34:27.196,AUTO,-35.363264,149.1652301,18753,0.06537389755249023,-0.03553089126944542,0.048549480736255646,0.025152506306767464,-0.00927985180169344,-0.042673442512750626,1,5,-962,25,-8,-42,-16,-8,-95,13328.0
06:34:27.475,AUTO,-35.3632642,149.16523,18985,0.06729830801486969,-0.0341855026781559,0.0401499979197979,-0.00522577902302146,0.012737412005662918,-0.03149421140551567,1,1,-966,-4,13,-31,-7,7,-85,13328.0
06:34:27.719,AUTO,-35.3632643,149.1652302,19197,0.06104673445224762,-0.028245799243450165,0.03526567295193672,-0.0372784249484539,0.028946734964847565,-0.012143515981733799,1,-2,-970,-36,29,-12,0,22,-77,13328.0
06:34:28.165,AUTO,-35.3632643,149.1652308,19385,0.049507033079862595,-0.020353704690933228,0.0331745520234108,-0.05383157357573509,0.032542336732149124,-0.004685514606535435,1,-6,-973,-53,33,-4,6,33,-70,13328.0
06:34:28.447,AUTO,-35.3632643,149.1652308,19385,0.049507033079862595,-0.020353704690933228,0.0331745520234108,-0.05383157357573509,0.032542336732149124,-0.004685514606535435,1,-6,-973,-53,33,-4,6,33,-70,13328.0
06:34:28.663,AUTO,-35.3632633,149.1652339,19849,0.012699388898909092,0.002100058365613222,0.0322122760117054,-0.039956651628017426,0.02294209785759449,0.005882787983864546,2,-11,-977,-38,24,5,15,45,-52,13328.0
06:34:28.866,AUTO,-35.3632633,149.1652339,19849,0.012699388898909092,0.002100058365613222,0.0322122760117054,-0.039956651628017426,0.02294209785759449,0.005882787983864546,2,-11,-977,-38,24,5,15,45,-52,13328.0
06:34:29.068,AUTO,-35.3632629,149.1652351,19973,0.004222650546580553,0.007530949078500271,0.03176200017333031,-0.0252839382737875,0.019405154511332512,0.0030704839155077934,0,-10,-978,-24,20,2,15,43,-46,13328.0
06:34:29.272,AUTO,-35.3632626,149.1652362,20082,-0.003202719148248434,0.011311919428408146,0.03133092448115349,-0.028948692604899406,0.011497939005494118,0.0022653499618172646,0,-10,-977,-27,12,1,14,40,-41,35565.0
06:34:29.473,AUTO,-35.3632622,149.1652371,20177,-0.008781828917562962,0.013153569772839546,0.03082643263041973,-0.027441134676337242,0.007112078368663788,0.0007044859230518341,1,-9,-977,-26,8,0,12,35,-35,35565.0
06:34:29.675,AUTO,-35.3632619,149.165238,20257,-0.011878184974193573,0.014108588919043541,0.030459998175501823,-0.00119971320964396,0.0021775171626359224,-0.001253448543138802,1,-6,-976,0,3,-1,10,30,-29,35565.0
06:34:29.877,AUTO,-35.3632617,149.1652387,20321,-0.013160355389118195,0.01412756647914648,0.029978932812809944,0.008993903174996376,-0.0009853094816207886,-0.0008687962545081973,1,-6,-974,10,0,-1,7,25,-22,35565.0
06:34:30.079,AUTO,-35.3632617,149.1652387,20321,-0.013160355389118195,0.01412756647914648,0.029978932812809944,0.008993903174996376,-0.0009853094816207886,-0.0008687962545081973,1,-6,-974,10,0,-1,7,25,-22,35565.0
06:34:30.281,AUTO,-35.3632617,149.1652387,20321,-0.013160355389118195,0.01412756647914648,0.029978932812809944,0.008993903174996376,-0.0009853094816207886,-0.0008687962545081973,1,-6,-974,10,0,-1,7,25,-22,35565.0
06:34:30.483,AUTO,-35.3632617,149.1652387,20321,-0.013160355389118195,0.01412756647914648,0.029978932812809944,0.008993903174996376,-0.0009853094816207886,-0.0008687962545081973,1,-6,-974,10,0,-1,7,25,-22,35565.0
06:34:30.685,AUTO,-35.3632613,149.16524,20405,-0.02744862623512745,0.016858255490660667,0.02802739106118679,-0.09028684347867966,0.1067080870270729,-0.0024767168797552586,0,5,-932,-88,107,-2,0,9,1,35565.0
06:34:30.887,AUTO,-35.3632613,149.1652401,20376,-0.0456671267747879,0.024703498929739,0.027042346075177193,-0.11157561838626862,0.005459972191601992,-0.004703924059867859,0,-16,-971,-111,6,-4,-3,-1,15,35565.0
06:34:31.089,AUTO,-35.3632613,149.1652401,20376,-0.0456671267747879,0.024703498929739,0.027042346075177193,-0.11157561838626862,0.005459972191601992,-0.004703924059867859,0,-16,-971,-111,6,-4,-3,-1,15,35565.0
06:34:31.291,AUTO,-35.3632613,149.16524,20326,-0.038131795823574066,0.0264310110360384,0.026616664603352547,-0.6377024054527283,0.01496310904622078,-0.000712531094904989,0,-34,-984,-636,15,0,-8,-11,21,35565.0
06:34:31.492,AUTO,-35.3632615,149.1652396,20268,-0.01294831931591034,0.03200289234519005,0.026743603870272636,-0.025489743798971176,0.025206243619322777,0.0020000368822366,0,26,-1016,-23,26,1,-15,-13,19,35565.0
06:34:31.694,AUTO,-35.3632619,149.1652392,20222,0.011118238791823387,0.038679350167512894,0.026866069063544273,0.6931155920028687,0.029602985829114914,-0.002933584386482835,1,42,-1028,694,30,-3,-23,-12,13,35565.0
06:34:31.896,AUTO,-35.3632624,149.1652388,20189,0.02100968547165394,0.04575921222567558,0.026643380522727966,0.34212085604667664,0.024381445720791817,-0.011919141747057438,4,5,-1020,342,25,-12,-32,-11,8,35565.0
06:34:32.098,AUTO,-35.3632624,149.1652388,20189,0.02100968547165394,0.04575921222567558,0.026643380522727966,0.34212085604667664,0.024381445720791817,-0.011919141747057438,4,5,-1020,342,25,-12,-32,-11,8,35565.0
06:34:32.300,AUTO,-35.3632624,149.1652388,20189,0.02100968547165394,0.04575921222567558,0.026643380522727966,0.34212085604667664,0.024381445720791817,-0.011919141747057438,4,5,-1020,342,25,-12,-32,-11,8,35565.0
06:34:32.502,AUTO,-35.3632624,149.1652388,20189,0.02100968547165394,0.04575921222567558,0.026643380522727966,0.34212085604667664,0.024381445720791817,-0.011919141747057438,4,5,-1020,342,25,-12,-32,-11,8,35565.0
06:34:32.704,AUTO,-35.3632656,149.1652382,20147,0.013687375001609325,0.06855457276105881,0.04938647523522377,-0.5884802937507629,0.02500852756202221,0.26286688446998596,10,0,-1005,-586,26,262,-67,5,0,35565.0
06:34:32.906,AUTO,-35.3632672,149.1652382,20145,0.03346605598926544,0.0740589052438736,0.19015339016914368,0.25982987880706787,0.05147130414843559,0.7663300037384033,18,32,-1021,261,52,766,-81,12,-3,35565.0
06:34:33.108,AUTO,-35.3632672,149.1652382,20145,0.03346605598926544,0.0740589052438736,0.19015339016914368,0.25982987880706787,0.05147130414843559,0.7663300037384033,18,32,-1021,261,52,766,-81,12,-3,35565.0
06:34:33.317,AUTO,-35.3632692,149.1652385,20152,0.061305418610572815,0.07553903013467789,0.4011019170284271,0.5533985495567322,0.06869547814130783,0.8659003376960754,21,20,-1017,554,69,865,-97,18,-5,35565.0
06:34:33.619,AUTO,-35.3632716,149.165239,20163,0.07343926280736923,0.07313624024391174,0.614381730556488,-0.12698471546173096,0.03927265852689743,0.8099576234817505,26,-19,-1006,-127,40,809,-114,24,-6,35565.0
06:34:33.865,AUTO,-35.3632743,149.1652397,20174,0.08395422995090485,0.0680411085486412,0.8152231574058533,-0.4683554470539093,0.03641967847943306,0.7714682221412659,30,-24,-1004,-466,37,771,-133,31,-6,35565.0
06:34:34.149,AUTO,-35.3632775,149.1652406,20185,0.10888052731752396,0.06082671880722046,1.0003173351287842,0.13710881769657135,0.04694611579179764,0.7373303174972534,25,-5,-1005,138,48,737,-155,36,-6,35565.0
06:34:34.384,AUTO,-35.3632775,149.1652406,20185,0.10888052731752396,0.06082671880722046,1.0003173351287842,0.13710881769657135,0.04694611579179764,0.7373303174972534,25,-5,-1005,138,48,737,-155,36,-6,35565.0
06:34:34.594,AUTO,-35.3632775,149.1652406,20185,0.10888052731752396,0.06082671880722046,1.0003173351287842,0.13710881769657135,0.04694611579179764,0.7373303174972534,25,-5,-1005,138,48,737,-155,36,-6,35565.0
06:34:34.797,AUTO,-35.3632904,149.1652445,20228,0.160405233502388,0.014013935811817646,1.5261784791946411,-0.3326801657676697,0.009685147553682327,0.7200031280517578,23,-61,-1002,-331,10,719,-229,52,-8,35565.0
06:34:35.000,AUTO,-35.3632958,149.1652462,20244,0.1781003326177597,-0.012787810526788235,1.7012940645217896,0.21476395428180695,0.018847256898880005,0.7214478254318237,14,-43,-1010,216,19,721,-258,56,-8,35565.0
06:34:35.202,AUTO,-35.363302,149.165248,20262,0.17943809926509857,-0.03904575854539871,1.8779056072235107,0.18423734605312347,0.037948835641145706,0.7227703928947449,0,-68,-1011,184,38,722,-286,60,-9,95183.0
06:34:35.404,AUTO,-35.3633087,149.1652499,20283,0.1668774038553238,-0.06561180204153061,2.055396795272827,-0.18423281610012054,0.018924204632639885,0.7232668995857239,-10,-84,-1006,-183,20,723,-314,63,-10,95183.0
06:34:35.606,AUTO,-35.3633087,149.1652499,20283,0.1668774038553238,-0.06561180204153061,2.055396795272827,-0.18423281610012054,0.018924204632639885,0.7232668995857239,-10,-84,-1006,-183,20,723,-314,63,-10,95183.0
06:34:35.808,AUTO,-35.3633161,149.1652518,20308,0.15610018372535706,-0.09388002008199692,2.2324330806732178,0.015669681131839752,-0.008347632363438606,0.720975935459137,-31,-67,-1007,16,-7,720,-340,66,-12,95183.0
06:34:36.010,AUTO,-35.3633239,149.1652538,20336,0.14287251234054565,-0.12703850865364075,2.408811092376709,0.17688032984733582,-0.03331266716122627,0.7186265587806702,-47,-64,-1004,177,-32,718,-365,68,-12,95183.0
06:34:36.213,AUTO,-35.3633239,149.1652538,20336,0.14287251234054565,-0.12703850865364075,2.408811092376709,0.17688032984733582,-0.03331266716122627,0.7186265587806702,-47,-64,-1004,177,-32,718,-365,68,-12,95183.0
06:34:36.416,AUTO,-35.3633239,149.1652538,20336,0.14287251234054565,-0.12703850865364075,2.408811092376709,0.17688032984733582,-0.03331266716122627,0.7186265587806702,-47,-64,-1004,177,-32,718,-365,68,-12,95183.0
06:34:36.618,AUTO,-35.3633239,149.1652538,20336,0.14287251234054565,-0.12703850865364075,2.408811092376709,0.17688032984733582,-0.03331266716122627,0.7186265587806702,-47,-64,-1004,177,-32,718,-365,68,-12,95183.0
06:34:36.822,AUTO,-35.363351,149.1652605,20428,0.066560760140419,-0.19845432043075562,2.9394538402557373,0.044980064034461975,-0.02050366997718811,0.6197824478149414,-85,-53,-1004,46,-19,619,-445,82,-14,95183.0
06:34:37.025,AUTO,-35.3633612,149.165263,20463,0.049495797604322433,-0.21318623423576355,3.0383355617523193,0.026680991053581238,-0.040375836193561554,0.21168449521064758,-92,-52,-999,27,-39,211,-472,86,-14,95183.0
06:34:37.227,AUTO,-35.363372,149.1652655,20498,0.0450432188808918,-0.22272062301635742,3.052729606628418,-0.03955341875553131,-0.02541407197713852,-0.03092856891453266,-98,-41,-996,-38,-24,-31,-500,90,-14,95183.0
06:34:37.429,AUTO,-35.3633834,149.1652681,20534,0.04869787395000458,-0.22003428637981415,3.030369520187378,0.016866575926542282,0.03612141311168671,-0.11125154048204422,-123,-38,-1013,17,37,-111,-527,94,-16,95183.0
06:34:37.631,AUTO,-35.3633955,149.1652708,20578,0.053417522460222244,-0.20930814743041992,3.0040717124938965,0.009682680480182171,0.04363388940691948,-0.09640832245349884,-122,-55,-1015,10,44,-96,-552,99,-19,95183.0
06:34:37.833,AUTO,-35.3633955,149.1652708,20578,0.053417522460222244,-0.20930814743041992,3.0040717124938965,0.009682680480182171,0.04363388940691948,-0.09640832245349884,-122,-55,-1015,10,44,-96,-552,99,-19,95183.0
06:34:38.036,AUTO,-35.3634081,149.1652737,20631,0.05924089998006821,-0.20201770961284637,2.9866092205047607,-0.004040072672069073,0.02272314950823784,-0.050068873912096024,-113,-41,-1004,-2,23,-50,-574,103,-23,95183.0
06:34:38.243,AUTO,-35.3634081,149.1652737,20631,0.05924089998006821,-0.20201770961284637,2.9866092205047607,-0.004040072672069073,0.02272314950823784,-0.050068873912096024,-113,-41,-1004,-2,23,-50,-574,103,-23,95183.0
06:34:38.446,AUTO,-35.3634081,149.1652737,20631,0.05924089998006821,-0.20201770961284637,2.9866092205047607,-0.004040072672069073,0.02272314950823784,-0.050068873912096024,-113,-41,-1004,-2,23,-50,-574,103,-23,95183.0
06:34:38.654,AUTO,-35.3634482,149.165283,20822,0.07456525415182114,-0.185805544257164,2.9791932106018066,0.048933468759059906,0.062319956719875336,-0.0054099466651678085,-114,-79,-1000,50,63,-5,-626,118,-28,95183.0
06:34:38.857,AUTO,-35.3634482,149.165283,20822,0.07456525415182114,-0.185805544257164,2.9791932106018066,0.048933468759059906,0.062319956719875336,-0.0054099466651678085,-114,-79,-1000,50,63,-5,-626,118,-28,95183.0
06:34:39.059,AUTO,-35.3634622,149.1652863,20894,0.07421042025089264,-0.1777881383895874,2.980570077896118,-0.016769753769040108,0.013006587512791157,0.002900875872001052,-120,-84,-986,-15,14,2,-637,119,-30,95183.0
06:34:39.288,AUTO,-35.3634765,149.1652897,20967,0.07848469167947769,-0.17239777743816376,2.981114149093628,-0.016009563580155373,0.020986026152968407,0.011784461326897144,-133,-75,-994,-15,22,11,-648,121,-30,95183.0
06:34:39.623,AUTO,-35.363506,149.1652964,21114,0.07446295022964478,-0.16547660529613495,2.9810845851898193,-0.028622765094041824,0.01889745704829693,-0.00042281075729988515,-137,-76,-989,-27,20,0,-664,122,-29,95183.0
06:34:39.976,AUTO,-35.363521,149.1652997,21186,0.07294047623872757,-0.15645518898963928,2.9816551208496094,0.0014528899919241667,0.03998822346329689,-0.00030454903026111424,-160,-86,-1013,2,40,0,-668,124,-31,95183.0
06:34:40.286,AUTO,-35.363521,149.1652997,21186,0.07294047623872757,-0.15645518898963928,2.9816551208496094,0.0014528899919241667,0.03998822346329689,-0.00030454903026111424,-160,-86,-1013,2,40,0,-668,124,-31,95183.0
06:34:40.489,AUTO,-35.363521,149.1652997,21186,0.07294047623872757,-0.15645518898963928,2.9816551208496094,0.0014528899919241667,0.03998822346329689,-0.00030454903026111424,-160,-86,-1013,2,40,0,-668,124,-31,95183.0
06:34:40.692,AUTO,-35.3635662,149.1653098,21402,0.07277790457010269,-0.12934696674346924,2.9804041385650635,-0.006846707779914141,0.02480953186750412,-0.005631502717733383,-142,-71,-992,-6,25,-5,-674,125,-31,95183.0
06:34:40.895,AUTO,-35.3635813,149.1653132,21476,0.07715506106615067,-0.12238164246082306,2.979729413986206,-0.01307098288089037,0.016104232519865036,-0.004987703636288643,-137,-71,-987,-12,17,-4,-672,127,-30,95183.0
06:34:41.098,AUTO,-35.3635813,149.1653132,21476,0.07715506106615067,-0.12238164246082306,2.979729413986206,-0.01307098288089037,0.016104232519865036,-0.004987703636288643,-137,-71,-987,-12,17,-4,-672,127,-30,25749.0
06:34:41.300,AUTO,-35.3635963,149.1653166,21546,0.07454869151115417,-0.13029810786247253,2.9784061908721924,0.0021474449895322323,-0.040030427277088165,0.00014055304927751422,-117,-75,-958,2,-39,0,-669,126,-26,25749.0
06:34:41.502,AUTO,-35.3636113,149.16532,21604,0.07311876118183136,-0.1368728131055832,2.9782698154449463,0.021875031292438507,-0.016456851735711098,0.0032230012584477663,-134,-75,-980,22,-15,3,-669,126,-23,25749.0
06:34:41.704,AUTO,-35.3636263,149.1653234,21657,0.07403572648763657,-0.14380022883415222,2.977797031402588,0.024687323719263077,-0.04700962454080582,0.0008157910779118538,-138,-73,-974,25,-45,0,-668,126,-20,25749.0
06:34:41.907,AUTO,-35.3636413,149.1653268,21703,0.07219325006008148,-0.14660096168518066,2.97753643989563,-0.049092624336481094,0.0056998711079359055,0.005969693884253502,-133,-61,-988,-48,6,5,-670,127,-18,25749.0
06:34:42.109,AUTO,-35.3636413,149.1653268,21703,0.07219325006008148,-0.14660096168518066,2.97753643989563,-0.049092624336481094,0.0056998711079359055,0.005969693884253502,-133,-61,-988,-48,6,5,-670,127,-18,25749.0
06:34:42.312,AUTO,-35.3636413,149.1653268,21703,0.07219325006008148,-0.14660096168518066,2.97753643989563,-0.049092624336481094,0.0056998711079359055,0.005969693884253502,-133,-61,-988,-48,6,5,-670,127,-18,25749.0
06:34:42.514,AUTO,-35.3636413,149.1653268,21703,0.07219325006008148,-0.14660096168518066,2.97753643989563,-0.049092624336481094,0.0056998711079359055,0.005969693884253502,-133,-61,-988,-48,6,5,-670,127,-18,25749.0
06:34:42.716,AUTO,-35.3636868,149.1653374,21845,0.07804058492183685,-0.13639011979103088,2.974642753601074,0.0078114718198776245,0.0071754856035113335,-0.005966425407677889,-136,-59,-995,8,7,-6,-676,129,-22,25749.0
06:34:42.918,AUTO,-35.363702,149.165341,21902,0.07618483901023865,-0.13757283985614777,2.9743669033050537,-0.020203733816742897,-0.025261415168642998,0.003796732984483242,-157,-82,-992,-19,-24,3,-675,129,-24,25749.0
06:34:43.120,AUTO,-35.363702,149.165341,21902,0.07618483901023865,-0.13757283985614777,2.9743669033050537,-0.020203733816742897,-0.025261415168642998,0.003796732984483242,-157,-82,-992,-19,-24,3,-675,129,-24,25749.0
06:34:43.322,AUTO,-35.3637171,149.1653445,21958,0.07699047774076462,-0.14006125926971436,2.9743552207946777,-0.0014313182327896357,-0.0021902560256421566,-0.00185396836604923,-163,-81,-1007,0,-1,-1,-675,129,-23,25749.0
06:34:43.524,AUTO,-35.3637321,149.1653481,22013,0.08020344376564026,-0.14171898365020752,2.973748207092285,0.015278708189725876,-0.005848396569490433,-0.003818105673417449,-137,-74,-989,16,-4,-3,-676,130,-22,25749.0
06:34:43.726,AUTO,-35.3637473,149.1653516,22067,0.07644487172365189,-0.14042730629444122,2.9738595485687256,-0.03279590979218483,0.024581851437687874,-0.0015278750797733665,-126,-106,-996,-31,25,-1,-678,129,-22,25749.0
06:34:43.929,AUTO,-35.3637628,149.1653552,22126,0.07701757550239563,-0.1353185921907425,2.9731428623199463,-0.0031045004725456238,0.022391198202967644,-0.0018752444302663207,-139,-73,-994,-2,23,-1,-677,129,-23,25749.0
06:34:44.138,AUTO,-35.3637628,149.1653552,22126,0.07701757550239563,-0.1353185921907425,2.9731428623199463,-0.0031045004725456238,0.022391198202967644,-0.0018752444302663207,-139,-73,-994,-2,23,-1,-677,129,-23,25749.0
06:34:44.342,AUTO,-35.3637628,149.1653552,22126,0.07701757550239563,-0.1353185921907425,2.9731428623199463,-0.0031045004725456238,0.022391198202967644,-0.0018752444302663207,-139,-73,-994,-2,23,-1,-677,129,-23,25749.0
06:34:44.546,AUTO,-35.3637628,149.1653552,22126,0.07701757550239563,-0.1353185921907425,2.9731428623199463,-0.0031045004725456238,0.022391198202967644,-0.0018752444302663207,-139,-73,-994,-2,23,-1,-677,129,-23,25749.0
06:34:44.750,AUTO,-35.3638077,149.1653657,22337,0.07992776483297348,-0.08958495408296585,2.973127603530884,0.009368772618472576,0.09500788152217865,-0.004037358332425356,-115,-70,-987,10,96,-4,-662,126,-31,25749.0
06:34:44.951,AUTO,-35.3638225,149.1653692,22420,0.0814211368560791,-0.07272525876760483,2.972972869873047,-0.014518617652356625,0.03564633056521416,-0.009639398194849491,-138,-85,-993,-13,36,-9,-648,124,-33,25749.0
06:34:45.211,AUTO,-35.3638369,149.1653725,22502,0.08048887550830841,-0.06100131943821907,2.9733219146728516,-0.040541455149650574,0.04231831803917885,-3.2823943911353126e-05,-129,-71,-983,-39,43,0,-633,120,-31,25749.0
06:34:45.422,AUTO,-35.363851,149.1653758,22579,0.08002486079931259,-0.0489787682890892,2.9735028743743896,-0.025132087990641594,0.04160230979323387,0.004217916168272495,-130,-70,-983,-24,42,4,-616,117,-29,25749.0
06:34:45.718,AUTO,-35.3638646,149.1653789,22650,0.07932287454605103,-0.04179400950670242,2.973400592803955,-0.03346046805381775,0.027876991778612137,0.005170096177607775,-139,-71,-986,-32,29,5,-596,113,-26,25749.0
06:34:45.943,AUTO,-35.3638779,149.1653819,22712,0.07682282477617264,-0.028185751289129257,2.973231077194214,0.01394551433622837,0.06397685408592224,-0.004615568555891514,-122,-75,-989,14,65,-4,-577,109,-23,25749.0
06:34:46.170,AUTO,-35.3638779,149.1653819,22712,0.07682282477617264,-0.028185751289129257,2.973231077194214,0.01394551433622837,0.06397685408592224,-0.004615568555891514,-122,-75,-989,14,65,-4,-577,109,-23,25749.0
06:34:46.374,AUTO,-35.3638779,149.1653819,22712,0.07682282477617264,-0.028185751289129257,2.973231077194214,0.01394551433622837,0.06397685408592224,-0.004615568555891514,-122,-75,-989,14,65,-4,-577,109,-23,25749.0
06:34:46.577,AUTO,-35.3638779,149.1653819,22712,0.07682282477617264,-0.028185751289129257,2.973231077194214,0.01394551433622837,0.06397685408592224,-0.004615568555891514,-122,-75,-989,14,65,-4,-577,109,-23,25749.0
06:34:46.780,AUTO,-35.3639147,149.1653903,22867,0.07231775671243668,0.00845186784863472,2.9734396934509277,-0.01395508460700512,0.047481320798397064,0.0001926726254168898,-99,-63,-987,-12,48,0,-506,95,-16,25749.0
06:34:46.982,AUTO,-35.363926,149.1653928,22907,0.0727715790271759,0.018827443942427635,2.973363161087036,0.12152957171201706,0.049420297145843506,-0.005239451304078102,-94,-52,-988,122,50,-5,-478,89,-13,106123.0
06:34:47.184,AUTO,-35.3639365,149.1653951,22941,0.059700481593608856,0.031497303396463394,2.973604440689087,-0.43025004863739014,0.048728857189416885,0.01592816784977913,-96,-92,-993,-429,49,16,-449,84,-11,106123.0
06:34:47.386,AUTO,-35.3639464,149.1653973,22968,0.056524597108364105,0.04418547824025154,2.973405599594116,0.17270086705684662,0.05883532017469406,-0.03431032970547676,-83,-29,-980,175,59,-34,-419,77,-8,106123.0
06:34:47.588,AUTO,-35.3639464,149.1653973,22968,0.056524597108364105,0.04418547824025154,2.973405599594116,0.17270086705684662,0.05883532017469406,-0.03431032970547676,-83,-29,-980,175,59,-34,-419,77,-8,106123.0
06:34:47.790,AUTO,-35.3639555,149.1653993,22986,0.06404027342796326,0.052604563534259796,2.9731993675231934,0.7342591285705566,-0.0020038653165102005,-0.03172767907381058,-81,-18,-991,735,-1,-31,-388,71,-4,106123.0
06:34:47.992,AUTO,-35.3639639,149.1654011,22998,0.06177219748497009,0.04909290000796318,2.9733614921569824,0.21875344216823578,-0.029280243441462517,0.03337052837014198,-85,-51,-998,218,-28,33,-356,66,-3,106123.0
06:34:48.195,AUTO,-35.3639639,149.1654011,22998,0.06177219748497009,0.04909290000796318,2.9733614921569824,0.21875344216823578,-0.029280243441462517,0.03337052837014198,-85,-51,-998,218,-28,33,-356,66,-3,106123.0
06:34:48.397,AUTO,-35.3639639,149.1654011,22998,0.06177219748497009,0.04909290000796318,2.9733614921569824,0.21875344216823578,-0.029280243441462517,0.03337052837014198,-85,-51,-998,218,-28,33,-356,66,-3,106123.0
06:34:48.600,AUTO,-35.3639639,149.1654011,22998,0.06177219748497009,0.04909290000796318,2.9733614921569824,0.21875344216823578,-0.029280243441462517,0.03337052837014198,-85,-51,-998,218,-28,33,-356,66,-3,106123.0
06:34:48.802,AUTO,-35.3639853,149.1654059,23025,0.03993498906493187,0.05423378199338913,2.972883701324463,-0.13705754280090332,0.037693582475185394,-0.021312909200787544,-54,-26,-997,-135,38,-21,-276,51,-3,106123.0
06:34:49.004,AUTO,-35.3639912,149.1654073,23034,0.04562221094965935,0.06043771281838417,2.9734671115875244,0.5409952402114868,0.027761297300457954,-0.02452980913221836,-53,4,-1010,542,28,-24,-250,44,-3,106123.0
06:34:49.206,AUTO,-35.3639966,149.1654085,23043,0.049230728298425674,0.06599722057580948,2.9730849266052246,0.6553542017936707,0.0275169238448143,-0.008183153346180916,-45,-7,-992,655,28,-7,-223,39,-3,106123.0
06:34:49.409,AUTO,-35.3640014,149.1654097,23053,0.03697359189391136,0.07337088882923126,2.973606824874878,-0.23804590106010437,0.022834189236164093,0.011921724304556847,-42,-54,-1003,-238,23,12,-195,35,-5,106123.0
06:34:49.611,AUTO,-35.3640014,149.1654097,23053,0.03697359189391136,0.07337088882923126,2.973606824874878,-0.23804590106010437,0.022834189236164093,0.011921724304556847,-42,-54,-1003,-238,23,12,-195,35,-5,106123.0
06:34:49.813,AUTO,-35.3640056,149.1654107,23065,0.02302662469446659,0.08064225316047668,2.973557949066162,-0.7432820200920105,0.027451781556010246,0.005187171045690775,-32,-53,-1002,-742,28,5,-168,28,-4,106123.0
06:34:50.031,AUTO,-35.3640092,149.1654115,23073,0.02292805351316929,0.08378641307353973,2.972691059112549,-0.18282845616340637,-0.0050166817381978035,-0.018472809344530106,-30,-10,-1007,-180,-3,-18,-140,22,-2,106123.0
06:34:50.319,AUTO,-35.3640092,149.1654115,23073,0.02292805351316929,0.08378641307353973,2.972691059112549,-0.18282845616340637,-0.0050166817381978035,-0.018472809344530106,-30,-10,-1007,-180,-3,-18,-140,22,-2,106123.0
06:34:50.531,AUTO,-35.3640092,149.1654115,23073,0.02292805351316929,0.08378641307353973,2.972691059112549,-0.18282845616340637,-0.0050166817381978035,-0.018472809344530106,-30,-10,-1007,-180,-3,-18,-140,22,-2,106123.0
06:34:50.786,AUTO,-35.3640166,149.1654136,23089,0.024308811873197556,0.05989885330200195,2.97149920463562,-0.35568076372146606,-0.02378086745738983,0.004767649807035923,-17,-35,-1001,-355,-22,4,-74,8,-2,106123.0
06:34:51.086,AUTO,-35.3640182,149.1654142,23091,0.01592818833887577,0.05448688939213753,2.9711170196533203,-0.6010187864303589,-0.020138418301939964,0.001212417846545577,-14,-23,-1011,-599,-18,1,-57,4,-1,106123.0
06:34:51.288,AUTO,-35.3640194,149.1654147,23095,0.018877673894166946,0.050191834568977356,2.9707415103912354,0.22413669526576996,-0.018593262881040573,-0.006706003099679947,-12,12,-1007,226,-17,-6,-43,0,-2,106123.0
06:34:51.491,AUTO,-35.3640203,149.1654151,23095,0.02933477610349655,0.04699010029435158,2.9700300693511963,0.5980308055877686,-0.011175280436873436,-0.005535692907869816,-8,30,-1011,599,-9,-5,-30,-3,0,106123.0
06:34:51.694,AUTO,-35.364021,149.1654155,23096,0.024541672319173813,0.04264288395643234,2.9688289165496826,0.38756558299064636,-0.015996253117918968,-8.226955833379179e-05,-4,3,-988,387,-14,0,-19,-6,0,106123.0
06:34:51.896,AUTO,-35.3640214,149.1654157,23098,0.01829383708536625,0.0380445271730423,2.9684622287750244,-0.37987565994262695,-0.018754463642835617,0.008033432066440582,-3,-36,-987,-379,-17,7,-9,-8,0,19929.0
