time_stamp,MODE,lat,lon,relative_alt,roll,pitch,yaw,rollspeed,pitchspeed,yawspeed,xacc,yacc,zacc,xgyro,ygyro,zgyro,vx,vy,vz,RTL_ALT,LAND_SPEED
17:10:42.644,GUIDED,-35.3632621,149.1652374,0,-0.00029713165713474154,0.0015726230340078473,0.028193583711981773,0.00023869023425504565,0.00033548250212334096,0.002505666809156537,0,1,-1000,0,0,0,-1,0,-2,1500.0,30.0
17:10:42.846,GUIDED,-35.3632621,149.1652374,0,-0.00026901866658590734,0.0016010283725336194,0.028020838275551796,0.000170990388141945,0.0003813135845120996,0.002416245173662901,0,1,-1000,0,0,0,-1,0,-2,1500.0,30.0
17:10:43.050,GUIDED,-35.3632621,149.1652374,0,-0.00026901866658590734,0.0016010283725336194,0.028020838275551796,0.000170990388141945,0.0003813135845120996,0.002416245173662901,0,1,-1000,0,0,0,-1,0,-2,1500.0,30.0
17:10:43.256,GUIDED,-35.3632621,149.1652374,0,-0.00026901866658590734,0.0016010283725336194,0.028020838275551796,0.000170990388141945,0.0003813135845120996,0.002416245173662901,0,1,-1000,0,0,0,-1,0,-2,1500.0,30.0
17:10:43.458,GUIDED,-35.3632621,149.1652374,0,-0.00026901866658590734,0.0016010283725336194,0.028020838275551796,0.000170990388141945,0.0003813135845120996,0.002416245173662901,0,1,-1000,0,0,0,-1,0,-2,1500.0,30.0
17:10:43.660,GUIDED,-35.3632621,149.1652374,0,-0.00026901866658590734,0.0016010283725336194,0.028020838275551796,0.000170990388141945,0.0003813135845120996,0.002416245173662901,0,1,-1000,0,0,0,-1,0,-2,1500.0,30.0
17:10:43.863,GUIDED,-35.3632621,149.1652374,0,-0.00026901866658590734,0.0016010283725336194,0.028020838275551796,0.000170990388141945,0.0003813135845120996,0.002416245173662901,0,1,-1000,0,0,0,-1,0,-2,1500.0,30.0
17:10:44.069,GUIDED,-35.3632621,149.1652374,0,-0.00026901866658590734,0.0016010283725336194,0.028020838275551796,0.000170990388141945,0.0003813135845120996,0.002416245173662901,0,1,-1000,0,0,0,-1,0,-2,1500.0,30.0
17:10:44.272,GUIDED,-35.3632621,149.1652374,0,-0.00026901866658590734,0.0016010283725336194,0.028020838275551796,0.000170990388141945,0.0003813135845120996,0.002416245173662901,0,1,-1000,0,0,0,-1,0,-2,1500.0,30.0
17:10:44.474,GUIDED,-35.3632621,149.1652374,0,-0.0002720246557146311,0.0015693475725129247,0.027383172884583473,0.00021774202468805015,0.000366659282008186,0.002212178660556674,0,1,-1000,0,0,0,-2,1,-1,1500.0,30.0
17:10:44.675,GUIDED,-35.3632622,149.1652375,7,-0.00045887523447163403,0.0013747477205470204,0.026787715032696724,0.0003890905645675957,0.00025781564181670547,0.002244881819933653,0,1,-1000,0,0,0,-2,1,-1,1500.0,30.0
17:10:44.878,GUIDED,-35.3632622,149.1652375,7,-0.00045887523447163403,0.0013747477205470204,0.026787715032696724,0.0003890905645675957,0.00025781564181670547,0.002244881819933653,0,1,-1000,0,0,0,-2,1,-1,1500.0,30.0
17:10:45.079,GUIDED,-35.3632622,149.1652375,7,-0.00045887523447163403,0.0013747477205470204,0.026787715032696724,0.0003890905645675957,0.00025781564181670547,0.002244881819933653,0,1,-1000,0,0,0,-2,1,-1,1500.0,30.0
17:10:45.283,GUIDED,-35.3632622,149.1652375,7,-0.00045887523447163403,0.0013747477205470204,0.026787715032696724,0.0003890905645675957,0.00025781564181670547,0.002244881819933653,0,1,-1000,0,0,0,-2,1,-1,1500.0,30.0
17:10:45.487,GUIDED,-35.3632622,149.1652375,7,-0.00045887523447163403,0.0013747477205470204,0.026787715032696724,0.0003890905645675957,0.00025781564181670547,0.002244881819933653,0,1,-1000,0,0,0,-2,1,-1,1500.0,30.0
17:10:45.690,GUIDED,-35.3632622,149.1652375,7,-0.00045887523447163403,0.0013747477205470204,0.026787715032696724,0.0003890905645675957,0.00025781564181670547,0.002244881819933653,0,1,-1000,0,0,0,-2,1,-1,1500.0,30.0
17:10:45.893,GUIDED,-35.3632622,149.1652375,7,-0.00045887523447163403,0.0013747477205470204,0.026787715032696724,0.0003890905645675957,0.00025781564181670547,0.002244881819933653,0,1,-1000,0,0,0,-2,1,-1,1500.0,30.0
17:10:46.096,GUIDED,-35.3632622,149.1652375,7,-0.00045887523447163403,0.0013747477205470204,0.026787715032696724,0.0003890905645675957,0.00025781564181670547,0.002244881819933653,0,1,-1000,0,0,0,-2,1,-1,1500.0,30.0
17:10:46.298,GUIDED,-35.3632622,149.1652375,11,-0.0006258958019316196,0.0012420180719345808,0.02639334462583065,0.0003164358204230666,0.0002166818012483418,0.0020351558923721313,0,1,-1000,0,0,0,-1,1,-1,1500.0,30.0
17:10:46.500,GUIDED,-35.3632622,149.1652374,13,-0.0006125004729256034,0.0013225439470261335,0.02588496170938015,0.00013185915304347873,0.00033516407711431384,0.002173769986256957,0,1,-1000,0,0,0,0,0,-1,1500.0,30.0
17:10:46.701,GUIDED,-35.3632622,149.1652374,14,-0.0005691673140972853,0.0013731986982747912,0.02577698789536953,0.0003217991325072944,0.00022347824415192008,0.0021010939963161945,0,1,-1000,0,0,1,0,0,-1,1500.0,30.0
17:10:46.903,GUIDED,-35.3632622,149.1652374,14,-0.0005691673140972853,0.0013731986982747912,0.02577698789536953,0.0003217991325072944,0.00022347824415192008,0.0021010939963161945,0,1,-1000,0,0,1,0,0,-1,1500.0,30.0
17:10:47.104,GUIDED,-35.3632622,149.1652374,14,-0.0005691673140972853,0.0013731986982747912,0.02577698789536953,0.0003217991325072944,0.00022347824415192008,0.0021010939963161945,0,1,-1000,0,0,1,0,0,-1,1500.0,30.0
17:10:47.307,GUIDED,-35.3632622,149.1652374,14,-0.0005691673140972853,0.0013731986982747912,0.02577698789536953,0.0003217991325072944,0.00022347824415192008,0.0021010939963161945,0,1,-1000,0,0,1,0,0,-1,1500.0,30.0
17:10:47.509,GUIDED,-35.3632622,149.1652374,14,-0.0005691673140972853,0.0013731986982747912,0.02577698789536953,0.0003217991325072944,0.00022347824415192008,0.0021010939963161945,0,1,-1000,0,0,1,0,0,-1,1500.0,30.0
17:10:47.711,GUIDED,-35.3632622,149.1652374,14,-0.0005691673140972853,0.0013731986982747912,0.02577698789536953,0.0003217991325072944,0.00022347824415192008,0.0021010939963161945,0,1,-1000,0,0,1,0,0,-1,1500.0,30.0
17:10:47.913,GUIDED,-35.3632622,149.1652374,14,-0.0005691673140972853,0.0013731986982747912,0.02577698789536953,0.0003217991325072944,0.00022347824415192008,0.0021010939963161945,0,1,-1000,0,0,1,0,0,-1,1500.0,30.0
17:10:48.115,GUIDED,-35.3632622,149.1652374,14,-0.0005691673140972853,0.0013731986982747912,0.02577698789536953,0.0003217991325072944,0.00022347824415192008,0.0021010939963161945,0,1,-1000,0,0,1,0,0,-1,1500.0,30.0
17:10:48.317,GUIDED,-35.3632622,149.1652374,14,-0.0005691673140972853,0.0013731986982747912,0.02577698789536953,0.0003217991325072944,0.00022347824415192008,0.0021010939963161945,0,1,-1000,0,0,1,0,0,-1,1500.0,30.0
17:10:48.524,GUIDED,-35.3632621,149.1652374,15,-0.000332454452291131,0.0017076031072065234,0.025153761729598045,0.00025838316651061177,0.0002478902752045542,0.0020338124595582485,0,1,-1000,0,0,0,0,0,0,1500.0,30.0
17:10:48.727,GUIDED,-35.3632622,149.1652374,20,0.0016817706637084484,0.0008843237883411348,0.02481752634048462,0.02312600240111351,-0.009825099259614944,0.0025484999641776085,0,0,-1122,23,-9,1,0,0,-10,1500.0,30.0
17:10:48.929,GUIDED,-35.3632622,149.1652374,20,0.0016817706637084484,0.0008843237883411348,0.02481752634048462,0.02312600240111351,-0.009825099259614944,0.0025484999641776085,0,0,-1122,23,-9,1,0,0,-10,1500.0,30.0
17:10:49.134,GUIDED,-35.3632622,149.1652374,20,0.0016817706637084484,0.0008843237883411348,0.02481752634048462,0.02312600240111351,-0.009825099259614944,0.0025484999641776085,0,0,-1122,23,-9,1,0,0,-10,1500.0,30.0
17:10:49.336,GUIDED,-35.3632622,149.1652374,20,0.0016817706637084484,0.0008843237883411348,0.02481752634048462,0.02312600240111351,-0.009825099259614944,0.0025484999641776085,0,0,-1122,23,-9,1,0,0,-10,1500.0,30.0
17:10:49.538,GUIDED,-35.3632622,149.1652374,20,0.0016817706637084484,0.0008843237883411348,0.02481752634048462,0.02312600240111351,-0.009825099259614944,0.0025484999641776085,0,0,-1122,23,-9,1,0,0,-10,1500.0,30.0
17:10:49.740,GUIDED,-35.3632622,149.1652374,20,0.0016817706637084484,0.0008843237883411348,0.02481752634048462,0.02312600240111351,-0.009825099259614944,0.0025484999641776085,0,0,-1122,23,-9,1,0,0,-10,1500.0,30.0
17:10:49.944,GUIDED,-35.3632622,149.1652374,20,0.0016817706637084484,0.0008843237883411348,0.02481752634048462,0.02312600240111351,-0.009825099259614944,0.0025484999641776085,0,0,-1122,23,-9,1,0,0,-10,1500.0,30.0
17:10:50.146,GUIDED,-35.3632622,149.1652374,20,0.0016817706637084484,0.0008843237883411348,0.02481752634048462,0.02312600240111351,-0.009825099259614944,0.0025484999641776085,0,0,-1122,23,-9,1,0,0,-10,1500.0,30.0
17:10:50.349,GUIDED,-35.3632621,149.1652374,766,0.00246506929397583,0.0017060120590031147,0.02444804087281227,0.02123461477458477,-0.0007709524361416698,-1.0851770639419556e-05,0,0,-1080,21,0,-1,0,0,-128,1500.0,30.0
17:10:50.552,GUIDED,-35.363262,149.1652377,1861,0.03642071411013603,-0.0032150011975318193,0.024138517677783966,0.04444095864892006,-0.008381410501897335,0.0032597417011857033,0,-1,-1006,45,-7,2,2,13,-148,1500.0,30.0
17:10:50.754,GUIDED,-35.3632619,149.1652382,2244,0.047187693417072296,-0.005499289836734533,0.024259688332676888,0.04203890264034271,-0.009406458586454391,0.003837820142507553,0,-3,-1002,42,-8,3,3,22,-149,1500.0,30.0
17:10:50.955,GUIDED,-35.3632619,149.1652382,2244,0.047187693417072296,-0.005499289836734533,0.024259688332676888,0.04203890264034271,-0.009406458586454391,0.003837820142507553,0,-3,-1002,42,-8,3,3,22,-149,1500.0,30.0
17:10:51.158,GUIDED,-35.3632619,149.1652382,2244,0.047187693417072296,-0.005499289836734533,0.024259688332676888,0.04203890264034271,-0.009406458586454391,0.003837820142507553,0,-3,-1002,42,-8,3,3,22,-149,1500.0,30.0
17:10:51.364,GUIDED,-35.3632619,149.1652382,2244,0.047187693417072296,-0.005499289836734533,0.024259688332676888,0.04203890264034271,-0.009406458586454391,0.003837820142507553,0,-3,-1002,42,-8,3,3,22,-149,1500.0,30.0
17:10:51.565,GUIDED,-35.3632619,149.1652382,2244,0.047187693417072296,-0.005499289836734533,0.024259688332676888,0.04203890264034271,-0.009406458586454391,0.003837820142507553,0,-3,-1002,42,-8,3,3,22,-149,1500.0,30.0
17:10:51.771,GUIDED,-35.3632619,149.1652382,2244,0.047187693417072296,-0.005499289836734533,0.024259688332676888,0.04203890264034271,-0.009406458586454391,0.003837820142507553,0,-3,-1002,42,-8,3,3,22,-149,1500.0,30.0
17:10:51.972,GUIDED,-35.3632619,149.1652382,2244,0.047187693417072296,-0.005499289836734533,0.024259688332676888,0.04203890264034271,-0.009406458586454391,0.003837820142507553,0,-3,-1002,42,-8,3,3,22,-149,1500.0,30.0
17:10:52.175,GUIDED,-35.3632619,149.1652382,2244,0.047187693417072296,-0.005499289836734533,0.024259688332676888,0.04203890264034271,-0.009406458586454391,0.003837820142507553,0,-3,-1002,42,-8,3,3,22,-149,1500.0,30.0
17:10:52.381,GUIDED,-35.3632619,149.1652382,2244,0.047187693417072296,-0.005499289836734533,0.024259688332676888,0.04203890264034271,-0.009406458586454391,0.003837820142507553,0,-3,-1002,42,-8,3,3,22,-149,1500.0,30.0
17:10:52.582,GUIDED,-35.3632611,149.1652451,4526,-0.038797467947006226,0.054219868034124374,-0.12649403512477875,-0.011451195925474167,0.005929077975451946,-0.10586370527744293,6,-7,-1004,-10,6,-107,-13,34,-149,1500.0,30.0
17:10:52.784,GUIDED,-35.363262,149.1652463,5302,-0.06472426652908325,0.0009769625030457973,-0.11457151174545288,-0.03668336570262909,-0.12287238985300064,0.06478866934776306,6,-1,-1003,-36,-122,63,-26,6,-149,1500.0,30.0
17:10:52.987,GUIDED,-35.363262,149.1652463,5302,-0.06472426652908325,0.0009769625030457973,-0.11457151174545288,-0.03668336570262909,-0.12287238985300064,0.06478866934776306,6,-1,-1003,-36,-122,63,-26,6,-149,1500.0,30.0
17:10:53.191,GUIDED,-35.363262,149.1652463,5302,-0.06472426652908325,0.0009769625030457973,-0.11457151174545288,-0.03668336570262909,-0.12287238985300064,0.06478866934776306,6,-1,-1003,-36,-122,63,-26,6,-149,1500.0,30.0
17:10:53.397,GUIDED,-35.363262,149.1652463,5302,-0.06472426652908325,0.0009769625030457973,-0.11457151174545288,-0.03668336570262909,-0.12287238985300064,0.06478866934776306,6,-1,-1003,-36,-122,63,-26,6,-149,1500.0,30.0
17:10:53.599,GUIDED,-35.363262,149.1652463,5302,-0.06472426652908325,0.0009769625030457973,-0.11457151174545288,-0.03668336570262909,-0.12287238985300064,0.06478866934776306,6,-1,-1003,-36,-122,63,-26,6,-149,1500.0,30.0
17:10:53.803,GUIDED,-35.363262,149.1652463,5302,-0.06472426652908325,0.0009769625030457973,-0.11457151174545288,-0.03668336570262909,-0.12287238985300064,0.06478866934776306,6,-1,-1003,-36,-122,63,-26,6,-149,1500.0,30.0
17:10:54.004,GUIDED,-35.363262,149.1652463,5302,-0.06472426652908325,0.0009769625030457973,-0.11457151174545288,-0.03668336570262909,-0.12287238985300064,0.06478866934776306,6,-1,-1003,-36,-122,63,-26,6,-149,1500.0,30.0
17:10:54.207,GUIDED,-35.363262,149.1652463,5302,-0.06472426652908325,0.0009769625030457973,-0.11457151174545288,-0.03668336570262909,-0.12287238985300064,0.06478866934776306,6,-1,-1003,-36,-122,63,-26,6,-149,1500.0,30.0
17:10:54.408,GUIDED,-35.3632634,149.1652427,7223,-0.01312977448105812,-0.034623075276613235,-0.06746852397918701,0.06031287461519241,0.007696123793721199,0.020199038088321686,-6,8,-1001,60,8,19,6,-48,-150,1500.0,30.0
17:10:54.610,GUIDED,-35.363263,149.16524,8000,0.014903679490089417,-0.026258055120706558,-0.06326596438884735,0.03499274700880051,0.037469930946826935,-0.010325738228857517,-9,7,-1000,35,37,-11,18,-45,-151,1500.0,30.0
17:10:54.812,GUIDED,-35.3632625,149.1652388,8388,0.02104722522199154,-0.012620998546481133,-0.07011085748672485,0.019480174407362938,0.06316210329532623,-0.03600386157631874,-9,6,-1000,20,63,-36,21,-39,-151,1500.0,30.0
17:10:55.016,GUIDED,-35.3632625,149.1652388,8388,0.02104722522199154,-0.012620998546481133,-0.07011085748672485,0.019480174407362938,0.06316210329532623,-0.03600386157631874,-9,6,-1000,20,63,-36,21,-39,-151,1500.0,30.0
17:10:55.219,GUIDED,-35.3632625,149.1652388,8388,0.02104722522199154,-0.012620998546481133,-0.07011085748672485,0.019480174407362938,0.06316210329532623,-0.03600386157631874,-9,6,-1000,20,63,-36,21,-39,-151,1500.0,30.0
17:10:55.422,GUIDED,-35.3632625,149.1652388,8388,0.02104722522199154,-0.012620998546481133,-0.07011085748672485,0.019480174407362938,0.06316210329532623,-0.03600386157631874,-9,6,-1000,20,63,-36,21,-39,-151,1500.0,30.0
17:10:55.625,GUIDED,-35.3632625,149.1652388,8388,0.02104722522199154,-0.012620998546481133,-0.07011085748672485,0.019480174407362938,0.06316210329532623,-0.03600386157631874,-9,6,-1000,20,63,-36,21,-39,-151,1500.0,30.0
17:10:55.826,GUIDED,-35.3632625,149.1652388,8388,0.02104722522199154,-0.012620998546481133,-0.07011085748672485,0.019480174407362938,0.06316210329532623,-0.03600386157631874,-9,6,-1000,20,63,-36,21,-39,-151,1500.0,30.0
17:10:56.028,GUIDED,-35.3632625,149.1652388,8388,0.02104722522199154,-0.012620998546481133,-0.07011085748672485,0.019480174407362938,0.06316210329532623,-0.03600386157631874,-9,6,-1000,20,63,-36,21,-39,-151,1500.0,30.0
17:10:56.231,GUIDED,-35.3632614,149.1652364,9400,0.023623492568731308,0.013668028637766838,-0.09124581515789032,-0.011238155886530876,0.013671470806002617,-0.017596429213881493,-9,6,-1000,20,63,-36,15,-23,-151,1500.0,30.0
17:10:56.433,GUIDED,-35.3632607,149.1652348,10962,0.015619759447872639,0.014758249744772911,-0.09812295436859131,-0.008508759550750256,-0.007297221105545759,0.0024295346811413765,-1,1,-1000,-8,-7,1,0,-4,-151,1500.0,30.0
17:10:56.635,GUIDED,-35.3632607,149.1652347,11350,0.013628249987959862,0.012909825891256332,-0.09763330221176147,-0.005848797503858805,-0.006846089381724596,0.0033797891810536385,0,1,-1000,-5,-6,2,-2,0,-151,1500.0,30.0
17:10:56.837,GUIDED,-35.3632607,149.1652347,11350,0.013628249987959862,0.012909825891256332,-0.09763330221176147,-0.005848797503858805,-0.006846089381724596,0.0033797891810536385,0,1,-1000,-5,-6,2,-2,0,-151,1500.0,30.0
17:10:57.039,GUIDED,-35.3632607,149.1652347,11350,0.013628249987959862,0.012909825891256332,-0.09763330221176147,-0.005848797503858805,-0.006846089381724596,0.0033797891810536385,0,1,-1000,-5,-6,2,-2,0,-151,1500.0,30.0
17:10:57.242,GUIDED,-35.3632607,149.1652347,11350,0.013628249987959862,0.012909825891256332,-0.09763330221176147,-0.005848797503858805,-0.006846089381724596,0.0033797891810536385,0,1,-1000,-5,-6,2,-2,0,-151,1500.0,30.0
17:10:57.444,GUIDED,-35.3632607,149.1652347,11350,0.013628249987959862,0.012909825891256332,-0.09763330221176147,-0.005848797503858805,-0.006846089381724596,0.0033797891810536385,0,1,-1000,-5,-6,2,-2,0,-151,1500.0,30.0
17:10:57.646,GUIDED,-35.3632607,149.1652347,11350,0.013628249987959862,0.012909825891256332,-0.09763330221176147,-0.005848797503858805,-0.006846089381724596,0.0033797891810536385,0,1,-1000,-5,-6,2,-2,0,-151,1500.0,30.0
17:10:57.848,GUIDED,-35.3632607,149.1652347,11350,0.013628249987959862,0.012909825891256332,-0.09763330221176147,-0.005848797503858805,-0.006846089381724596,0.0033797891810536385,0,1,-1000,-5,-6,2,-2,0,-151,1500.0,30.0
17:10:58.050,GUIDED,-35.3632607,149.1652347,11350,0.013628249987959862,0.012909825891256332,-0.09763330221176147,-0.005848797503858805,-0.006846089381724596,0.0033797891810536385,0,1,-1000,-5,-6,2,-2,0,-151,1500.0,30.0
17:10:58.252,GUIDED,-35.3632607,149.1652347,11350,0.013628249987959862,0.012909825891256332,-0.09763330221176147,-0.005848797503858805,-0.006846089381724596,0.0033797891810536385,0,1,-1000,-5,-6,2,-2,0,-151,1500.0,30.0
17:10:58.454,GUIDED,-35.3632613,149.1652351,13680,0.0034370534121990204,0.0022071129642426968,-0.10431402176618576,-0.0035104297567158937,-0.004054670222103596,-0.011486615054309368,1,0,-1000,-5,-3,-10,-6,6,-152,1500.0,30.0
17:10:58.657,GUIDED,-35.3632615,149.1652353,14463,0.0013726704055443406,0.0005841633537784219,-0.11218452453613281,-0.002090494381263852,-0.000457274989457801,-0.018192123621702194,1,0,-1000,-1,0,-18,-5,6,-152,1500.0,30.0
17:10:58.859,GUIDED,-35.3632615,149.1652353,14463,0.0013726704055443406,0.0005841633537784219,-0.11218452453613281,-0.002090494381263852,-0.000457274989457801,-0.018192123621702194,1,0,-1000,-1,0,-18,-5,6,-152,1500.0,30.0
17:10:59.069,GUIDED,-35.3632615,149.1652353,14463,0.0013726704055443406,0.0005841633537784219,-0.11218452453613281,-0.002090494381263852,-0.000457274989457801,-0.018192123621702194,1,0,-1000,-1,0,-18,-5,6,-152,1500.0,30.0
17:10:59.270,GUIDED,-35.3632615,149.1652353,14463,0.0013726704055443406,0.0005841633537784219,-0.11218452453613281,-0.002090494381263852,-0.000457274989457801,-0.018192123621702194,1,0,-1000,-1,0,-18,-5,6,-152,1500.0,30.0
17:10:59.472,GUIDED,-35.3632615,149.1652353,14463,0.0013726704055443406,0.0005841633537784219,-0.11218452453613281,-0.002090494381263852,-0.000457274989457801,-0.018192123621702194,1,0,-1000,-1,0,-18,-5,6,-152,1500.0,30.0
17:10:59.678,GUIDED,-35.3632615,149.1652353,14463,0.0013726704055443406,0.0005841633537784219,-0.11218452453613281,-0.002090494381263852,-0.000457274989457801,-0.018192123621702194,1,0,-1000,-1,0,-18,-5,6,-152,1500.0,30.0
17:10:59.881,GUIDED,-35.3632615,149.1652353,14463,0.0013726704055443406,0.0005841633537784219,-0.11218452453613281,-0.002090494381263852,-0.000457274989457801,-0.018192123621702194,1,0,-1000,-1,0,-18,-5,6,-152,1500.0,30.0
17:11:00.083,GUIDED,-35.3632615,149.1652353,14463,0.0013726704055443406,0.0005841633537784219,-0.11218452453613281,-0.002090494381263852,-0.000457274989457801,-0.018192123621702194,1,0,-1000,-1,0,-18,-5,6,-152,1500.0,30.0
17:11:00.286,GUIDED,-35.3632617,149.1652357,16024,0.0017040134407579899,0.0008530830382369459,-0.13314442336559296,0.0021617687307298183,0.0008374982862733305,-0.021347112953662872,0,0,-1000,2,1,-22,-2,3,-152,1500.0,30.0
17:11:00.488,GUIDED,-35.3632617,149.1652358,17203,0.003368119243532419,0.0031299435067921877,-0.15150369703769684,0.0024845332372933626,0.0024792898911982775,-0.02227277122437954,0,0,-1000,3,3,-23,-1,2,-152,1500.0,30.0
17:11:00.689,GUIDED,-35.3632617,149.1652358,17594,0.0038605311419814825,0.003452783217653632,-0.15723782777786255,0.005048844497650862,0.0027638981118798256,-0.023689057677984238,0,0,-1000,5,3,-24,-1,2,-152,1500.0,30.0
17:11:00.893,GUIDED,-35.3632617,149.1652358,17594,0.0038605311419814825,0.003452783217653632,-0.15723782777786255,0.005048844497650862,0.0027638981118798256,-0.023689057677984238,0,0,-1000,5,3,-24,-1,2,-152,1500.0,30.0
17:11:01.095,GUIDED,-35.3632617,149.1652358,17594,0.0038605311419814825,0.003452783217653632,-0.15723782777786255,0.005048844497650862,0.0027638981118798256,-0.023689057677984238,0,0,-1000,5,3,-24,-1,2,-152,1500.0,30.0
17:11:01.297,GUIDED,-35.3632617,149.1652358,17594,0.0038605311419814825,0.003452783217653632,-0.15723782777786255,0.005048844497650862,0.0027638981118798256,-0.023689057677984238,0,0,-1000,5,3,-24,-1,2,-152,1500.0,30.0
17:11:01.500,GUIDED,-35.3632617,149.1652358,17594,0.0038605311419814825,0.003452783217653632,-0.15723782777786255,0.005048844497650862,0.0027638981118798256,-0.023689057677984238,0,0,-1000,5,3,-24,-1,2,-152,1500.0,30.0
17:11:01.706,GUIDED,-35.3632617,149.1652358,17594,0.0038605311419814825,0.003452783217653632,-0.15723782777786255,0.005048844497650862,0.0027638981118798256,-0.023689057677984238,0,0,-1000,5,3,-24,-1,2,-152,1500.0,30.0
17:11:01.907,GUIDED,-35.3632617,149.1652358,17594,0.0038605311419814825,0.003452783217653632,-0.15723782777786255,0.005048844497650862,0.0027638981118798256,-0.023689057677984238,0,0,-1000,5,3,-24,-1,2,-152,1500.0,30.0
17:11:02.111,GUIDED,-35.3632617,149.1652358,17594,0.0038605311419814825,0.003452783217653632,-0.15723782777786255,0.005048844497650862,0.0027638981118798256,-0.023689057677984238,0,0,-1000,5,3,-24,-1,2,-152,1500.0,30.0
17:11:02.313,GUIDED,-35.3632617,149.1652358,17594,0.0038605311419814825,0.003452783217653632,-0.15723782777786255,0.005048844497650862,0.0027638981118798256,-0.023689057677984238,0,0,-1000,5,3,-24,-1,2,-152,1500.0,30.0
17:11:02.517,GUIDED,-35.3632617,149.1652358,17594,0.0038605311419814825,0.003452783217653632,-0.15723782777786255,0.005048844497650862,0.0027638981118798256,-0.023689057677984238,0,0,-1000,5,3,-24,-1,2,-152,1500.0,30.0
17:11:02.721,GUIDED,-35.3632617,149.1652361,20320,0.003516117110848427,0.004135674796998501,-0.19314520061016083,0.000370727910194546,-0.0012472276575863361,-0.01899789273738861,0,0,-1000,0,0,-19,-2,4,-153,1500.0,30.0
17:11:02.922,GUIDED,-35.3632617,149.1652362,20711,0.0032278939615935087,0.004046977497637272,-0.19800807535648346,-0.0006682104431092739,-0.0008305407827720046,-0.02178834192454815,0,0,-1000,0,0,-22,-2,4,-153,1500.0,30.0
17:11:03.126,GUIDED,-35.3632617,149.1652362,20711,0.0032278939615935087,0.004046977497637272,-0.19800807535648346,-0.0006682104431092739,-0.0008305407827720046,-0.02178834192454815,0,0,-1000,0,0,-22,-2,4,-153,1500.0,30.0
17:11:03.330,GUIDED,-35.3632617,149.1652362,20711,0.0032278939615935087,0.004046977497637272,-0.19800807535648346,-0.0006682104431092739,-0.0008305407827720046,-0.02178834192454815,0,0,-1000,0,0,-22,-2,4,-153,1500.0,30.0
17:11:03.533,GUIDED,-35.3632617,149.1652362,20711,0.0032278939615935087,0.004046977497637272,-0.19800807535648346,-0.0006682104431092739,-0.0008305407827720046,-0.02178834192454815,0,0,-1000,0,0,-22,-2,4,-153,1500.0,30.0
17:11:03.735,GUIDED,-35.3632617,149.1652362,20711,0.0032278939615935087,0.004046977497637272,-0.19800807535648346,-0.0006682104431092739,-0.0008305407827720046,-0.02178834192454815,0,0,-1000,0,0,-22,-2,4,-153,1500.0,30.0
17:11:03.937,GUIDED,-35.3632617,149.1652362,20711,0.0032278939615935087,0.004046977497637272,-0.19800807535648346,-0.0006682104431092739,-0.0008305407827720046,-0.02178834192454815,0,0,-1000,0,0,-22,-2,4,-153,1500.0,30.0
17:11:04.141,GUIDED,-35.3632617,149.1652362,20711,0.0032278939615935087,0.004046977497637272,-0.19800807535648346,-0.0006682104431092739,-0.0008305407827720046,-0.02178834192454815,0,0,-1000,0,0,-22,-2,4,-153,1500.0,30.0
17:11:04.344,GUIDED,-35.3632617,149.1652362,20711,0.0032278939615935087,0.004046977497637272,-0.19800807535648346,-0.0006682104431092739,-0.0008305407827720046,-0.02178834192454815,0,0,-1000,0,0,-22,-2,4,-153,1500.0,30.0
17:11:04.546,GUIDED,-35.3632618,149.1652366,22665,0.001976403407752514,0.0029015946201980114,-0.2217937856912613,0.00020364340161904693,0.00010233587818220258,-0.01889192871749401,0,0,-1000,0,-1,-19,-2,4,-153,1500.0,30.0
17:11:04.748,GUIDED,-35.3632619,149.1652367,23838,0.001899143448099494,0.002766889287158847,-0.23612235486507416,0.002978850621730089,-0.0008477312512695789,-0.01944204978644848,0,0,-1000,3,0,-20,-2,3,-153,1500.0,30.0
17:11:04.950,GUIDED,-35.3632619,149.1652367,23838,0.001899143448099494,0.002766889287158847,-0.23612235486507416,0.002978850621730089,-0.0008477312512695789,-0.01944204978644848,0,0,-1000,3,0,-20,-2,3,-153,1500.0,30.0
17:11:05.154,GUIDED,-35.3632619,149.1652367,23838,0.001899143448099494,0.002766889287158847,-0.23612235486507416,0.002978850621730089,-0.0008477312512695789,-0.01944204978644848,0,0,-1000,3,0,-20,-2,3,-153,1500.0,30.0
17:11:05.359,GUIDED,-35.3632619,149.1652367,23838,0.001899143448099494,0.002766889287158847,-0.23612235486507416,0.002978850621730089,-0.0008477312512695789,-0.01944204978644848,0,0,-1000,3,0,-20,-2,3,-153,1500.0,30.0
17:11:05.561,GUIDED,-35.3632619,149.1652367,23838,0.001899143448099494,0.002766889287158847,-0.23612235486507416,0.002978850621730089,-0.0008477312512695789,-0.01944204978644848,0,0,-1000,3,0,-20,-2,3,-153,1500.0,30.0
17:11:05.762,GUIDED,-35.3632619,149.1652367,23838,0.001899143448099494,0.002766889287158847,-0.23612235486507416,0.002978850621730089,-0.0008477312512695789,-0.01944204978644848,0,0,-1000,3,0,-20,-2,3,-153,1500.0,30.0
17:11:05.964,GUIDED,-35.3632619,149.1652367,23838,0.001899143448099494,0.002766889287158847,-0.23612235486507416,0.002978850621730089,-0.0008477312512695789,-0.01944204978644848,0,0,-1000,3,0,-20,-2,3,-153,1500.0,30.0
17:11:06.165,GUIDED,-35.3632619,149.1652367,23838,0.001899143448099494,0.002766889287158847,-0.23612235486507416,0.002978850621730089,-0.0008477312512695789,-0.01944204978644848,0,0,-1000,3,0,-20,-2,3,-153,1500.0,30.0
17:11:06.368,GUIDED,-35.3632619,149.1652367,23838,0.001899143448099494,0.002766889287158847,-0.23612235486507416,0.002978850621730089,-0.0008477312512695789,-0.01944204978644848,0,0,-1000,3,0,-20,-2,3,-153,1500.0,30.0
17:11:06.570,GUIDED,-35.3632622,149.1652368,26576,0.007033701986074448,0.003975937608629465,-0.22952964901924133,0.01787770912051201,-0.00674948887899518,0.028795700520277023,0,0,-1000,18,-6,27,-5,-1,-153,1500.0,30.0
17:11:06.771,GUIDED,-35.3632622,149.1652367,26966,0.009976976551115513,0.002694364869967103,-0.22224554419517517,0.008404833264648914,-0.0022777351550757885,0.028460264205932617,0,1,-999,9,-1,27,-5,0,-153,1500.0,30.0
17:11:06.973,GUIDED,-35.3632622,149.1652367,26966,0.009976976551115513,0.002694364869967103,-0.22224554419517517,0.008404833264648914,-0.0022777351550757885,0.028460264205932617,0,1,-999,9,-1,27,-5,0,-153,1500.0,30.0
17:11:07.176,GUIDED,-35.3632622,149.1652367,26966,0.009976976551115513,0.002694364869967103,-0.22224554419517517,0.008404833264648914,-0.0022777351550757885,0.028460264205932617,0,1,-999,9,-1,27,-5,0,-153,1500.0,30.0
17:11:07.378,GUIDED,-35.3632622,149.1652367,26966,0.009976976551115513,0.002694364869967103,-0.22224554419517517,0.008404833264648914,-0.0022777351550757885,0.028460264205932617,0,1,-999,9,-1,27,-5,0,-153,1500.0,30.0
17:11:07.580,GUIDED,-35.3632622,149.1652367,26966,0.009976976551115513,0.002694364869967103,-0.22224554419517517,0.008404833264648914,-0.0022777351550757885,0.028460264205932617,0,1,-999,9,-1,27,-5,0,-153,1500.0,30.0
17:11:07.782,GUIDED,-35.3632622,149.1652367,26966,0.009976976551115513,0.002694364869967103,-0.22224554419517517,0.008404833264648914,-0.0022777351550757885,0.028460264205932617,0,1,-999,9,-1,27,-5,0,-153,1500.0,30.0
17:11:07.984,GUIDED,-35.3632622,149.1652367,26966,0.009976976551115513,0.002694364869967103,-0.22224554419517517,0.008404833264648914,-0.0022777351550757885,0.028460264205932617,0,1,-999,9,-1,27,-5,0,-153,1500.0,30.0
17:11:08.187,GUIDED,-35.3632622,149.1652367,26966,0.009976976551115513,0.002694364869967103,-0.22224554419517517,0.008404833264648914,-0.0022777351550757885,0.028460264205932617,0,1,-999,9,-1,27,-5,0,-153,1500.0,30.0
17:11:08.391,GUIDED,-35.3632624,149.1652369,28523,0.007434213999658823,0.0009332380723208189,-0.19819600880146027,-0.004817842040210962,0.001295670634135604,0.021741142496466637,0,0,-999,-7,0,22,-1,7,-153,1500.0,30.0
17:11:08.593,GUIDED,-35.3632624,149.1652374,29690,0.0015608812682330608,0.0018326477147638798,-0.18367592990398407,-0.004654256626963615,6.809219485148787e-05,0.01920543983578682,0,-1,-1001,-3,1,18,0,8,-153,1500.0,30.0
17:11:08.795,GUIDED,-35.3632624,149.1652376,30080,0.00019009016978088766,0.001841201912611723,-0.17907144129276276,-0.0054040406830608845,0.0012051044031977654,0.02028474770486355,0,-1,-1000,-4,1,19,0,7,-153,1500.0,30.0
17:11:08.998,GUIDED,-35.3632624,149.1652376,30080,0.00019009016978088766,0.001841201912611723,-0.17907144129276276,-0.0054040406830608845,0.0012051044031977654,0.02028474770486355,0,-1,-1000,-4,1,19,0,7,-153,1500.0,30.0
17:11:09.199,GUIDED,-35.3632624,149.1652376,30080,0.00019009016978088766,0.001841201912611723,-0.17907144129276276,-0.0054040406830608845,0.0012051044031977654,0.02028474770486355,0,-1,-1000,-4,1,19,0,7,-153,1500.0,30.0
17:11:09.402,GUIDED,-35.3632624,149.1652376,30080,0.00019009016978088766,0.001841201912611723,-0.17907144129276276,-0.0054040406830608845,0.0012051044031977654,0.02028474770486355,0,-1,-1000,-4,1,19,0,7,-153,1500.0,30.0
17:11:09.603,GUIDED,-35.3632624,149.1652376,30080,0.00019009016978088766,0.001841201912611723,-0.17907144129276276,-0.0054040406830608845,0.0012051044031977654,0.02028474770486355,0,-1,-1000,-4,1,19,0,7,-153,1500.0,30.0
17:11:09.805,GUIDED,-35.3632624,149.1652376,30080,0.00019009016978088766,0.001841201912611723,-0.17907144129276276,-0.0054040406830608845,0.0012051044031977654,0.02028474770486355,0,-1,-1000,-4,1,19,0,7,-153,1500.0,30.0
17:11:10.006,GUIDED,-35.3632624,149.1652376,30080,0.00019009016978088766,0.001841201912611723,-0.17907144129276276,-0.0054040406830608845,0.0012051044031977654,0.02028474770486355,0,-1,-1000,-4,1,19,0,7,-153,1500.0,30.0
17:11:10.210,GUIDED,-35.3632624,149.1652376,30080,0.00019009016978088766,0.001841201912611723,-0.17907144129276276,-0.0054040406830608845,0.0012051044031977654,0.02028474770486355,0,-1,-1000,-4,1,19,0,7,-153,1500.0,30.0
17:11:10.413,GUIDED,-35.3632624,149.1652376,30080,0.00019009016978088766,0.001841201912611723,-0.17907144129276276,-0.0054040406830608845,0.0012051044031977654,0.02028474770486355,0,-1,-1000,-4,1,19,0,7,-153,1500.0,30.0
17:11:10.617,GUIDED,-35.3632623,149.1652381,32418,-0.0002869505842681974,0.0013010259717702866,-0.15446436405181885,0.00022885238286107779,-0.0006721247918903828,0.011632357724010944,0,0,-1000,1,0,11,0,1,-153,1500.0,30.0
17:11:10.820,GUIDED,-35.3632623,149.165238,33197,0.0007513532182201743,0.0011631044326350093,-0.14751002192497253,0.002561016706749797,-0.0006252783932723105,0.017214760184288025,0,0,-999,3,0,16,0,0,-153,1500.0,30.0
17:11:11.022,GUIDED,-35.3632623,149.165238,33197,0.0007513532182201743,0.0011631044326350093,-0.14751002192497253,0.002561016706749797,-0.0006252783932723105,0.017214760184288025,0,0,-999,3,0,16,0,0,-153,1500.0,30.0
17:11:11.226,GUIDED,-35.3632623,149.165238,33197,0.0007513532182201743,0.0011631044326350093,-0.14751002192497253,0.002561016706749797,-0.0006252783932723105,0.017214760184288025,0,0,-999,3,0,16,0,0,-153,1500.0,30.0
17:11:11.430,GUIDED,-35.3632623,149.165238,33197,0.0007513532182201743,0.0011631044326350093,-0.14751002192497253,0.002561016706749797,-0.0006252783932723105,0.017214760184288025,0,0,-999,3,0,16,0,0,-153,1500.0,30.0
17:11:11.634,GUIDED,-35.3632623,149.165238,33197,0.0007513532182201743,0.0011631044326350093,-0.14751002192497253,0.002561016706749797,-0.0006252783932723105,0.017214760184288025,0,0,-999,3,0,16,0,0,-153,1500.0,30.0
17:11:11.838,GUIDED,-35.3632623,149.165238,33197,0.0007513532182201743,0.0011631044326350093,-0.14751002192497253,0.002561016706749797,-0.0006252783932723105,0.017214760184288025,0,0,-999,3,0,16,0,0,-153,1500.0,30.0
17:11:12.039,GUIDED,-35.3632623,149.165238,33197,0.0007513532182201743,0.0011631044326350093,-0.14751002192497253,0.002561016706749797,-0.0006252783932723105,0.017214760184288025,0,0,-999,3,0,16,0,0,-153,1500.0,30.0
17:11:12.243,GUIDED,-35.3632623,149.165238,33197,0.0007513532182201743,0.0011631044326350093,-0.14751002192497253,0.002561016706749797,-0.0006252783932723105,0.017214760184288025,0,0,-999,3,0,16,0,0,-153,1500.0,30.0
17:11:12.450,GUIDED,-35.3632623,149.165238,34367,0.00128545006737113,0.0013237888924777508,-0.13777819275856018,-0.00012844993034377694,-0.0003339286195114255,0.01364721916615963,0,0,-999,3,0,16,0,0,-153,1500.0,30.0
17:11:12.653,GUIDED,-35.3632622,149.1652379,35928,0.0012763238046318293,0.0013298853300511837,-0.12635590136051178,-0.004942791536450386,-0.0008513340726494789,0.010703003965318203,0,0,-1000,-4,0,10,0,0,-153,1500.0,30.0
17:11:12.857,GUIDED,-35.3632622,149.1652379,36317,0.0013068069238215685,0.0013376468559727073,-0.12375843524932861,0.005312758032232523,0.001265710685402155,0.011082613840699196,0,0,-1001,6,1,10,0,0,-153,1500.0,30.0
17:11:13.062,GUIDED,-35.3632622,149.1652379,36317,0.0013068069238215685,0.0013376468559727073,-0.12375843524932861,0.005312758032232523,0.001265710685402155,0.011082613840699196,0,0,-1001,6,1,10,0,0,-153,1500.0,30.0
17:11:13.265,GUIDED,-35.3632622,149.1652379,36317,0.0013068069238215685,0.0013376468559727073,-0.12375843524932861,0.005312758032232523,0.001265710685402155,0.011082613840699196,0,0,-1001,6,1,10,0,0,-153,1500.0,30.0
17:11:13.471,GUIDED,-35.3632622,149.1652379,36317,0.0013068069238215685,0.0013376468559727073,-0.12375843524932861,0.005312758032232523,0.001265710685402155,0.011082613840699196,0,0,-1001,6,1,10,0,0,-153,1500.0,30.0
17:11:13.677,GUIDED,-35.3632622,149.1652379,36317,0.0013068069238215685,0.0013376468559727073,-0.12375843524932861,0.005312758032232523,0.001265710685402155,0.011082613840699196,0,0,-1001,6,1,10,0,0,-153,1500.0,30.0
17:11:13.880,GUIDED,-35.3632622,149.1652379,36317,0.0013068069238215685,0.0013376468559727073,-0.12375843524932861,0.005312758032232523,0.001265710685402155,0.011082613840699196,0,0,-1001,6,1,10,0,0,-153,1500.0,30.0
17:11:14.083,GUIDED,-35.3632622,149.1652379,36317,0.0013068069238215685,0.0013376468559727073,-0.12375843524932861,0.005312758032232523,0.001265710685402155,0.011082613840699196,0,0,-1001,6,1,10,0,0,-153,1500.0,30.0
17:11:14.286,GUIDED,-35.3632622,149.1652379,36317,0.0013068069238215685,0.0013376468559727073,-0.12375843524932861,0.005312758032232523,0.001265710685402155,0.011082613840699196,0,0,-1001,6,1,10,0,0,-153,1500.0,30.0
17:11:14.490,GUIDED,-35.3632621,149.1652377,37873,0.0019037562888115644,0.00123966031242162,-0.11437128484249115,-0.0016896757297217846,-0.0008308670949190855,0.009479833766818047,0,0,-1000,0,0,9,0,0,-153,1500.0,30.0
17:11:14.692,GUIDED,-35.3632621,149.1652376,39041,0.002612167503684759,0.0015928944339975715,-0.10794303566217422,0.00023297930601984262,0.0009608934633433819,0.010431014001369476,0,0,-999,1,1,10,0,0,-153,1500.0,30.0
17:11:14.899,GUIDED,-35.3632621,149.1652376,39431,0.002413785783573985,0.0014429171569645405,-0.10609070211648941,0.0012523168697953224,0.0005223630578257143,0.01050045806914568,0,0,-1000,2,1,10,0,0,-153,1500.0,30.0
17:11:15.103,GUIDED,-35.3632621,149.1652376,39431,0.002413785783573985,0.0014429171569645405,-0.10609070211648941,0.0012523168697953224,0.0005223630578257143,0.01050045806914568,0,0,-1000,2,1,10,0,0,-153,1500.0,30.0
17:11:15.308,GUIDED,-35.3632621,149.1652376,39431,0.002413785783573985,0.0014429171569645405,-0.10609070211648941,0.0012523168697953224,0.0005223630578257143,0.01050045806914568,0,0,-1000,2,1,10,0,0,-153,1500.0,30.0
17:11:15.509,GUIDED,-35.3632621,149.1652376,39431,0.002413785783573985,0.0014429171569645405,-0.10609070211648941,0.0012523168697953224,0.0005223630578257143,0.01050045806914568,0,0,-1000,2,1,10,0,0,-153,1500.0,30.0
17:11:15.712,GUIDED,-35.3632621,149.1652376,39431,0.002413785783573985,0.0014429171569645405,-0.10609070211648941,0.0012523168697953224,0.0005223630578257143,0.01050045806914568,0,0,-1000,2,1,10,0,0,-153,1500.0,30.0
17:11:15.915,GUIDED,-35.3632621,149.1652376,39431,0.002413785783573985,0.0014429171569645405,-0.10609070211648941,0.0012523168697953224,0.0005223630578257143,0.01050045806914568,0,0,-1000,2,1,10,0,0,-153,1500.0,30.0
17:11:16.120,GUIDED,-35.3632621,149.1652376,39431,0.002413785783573985,0.0014429171569645405,-0.10609070211648941,0.0012523168697953224,0.0005223630578257143,0.01050045806914568,0,0,-1000,2,1,10,0,0,-153,1500.0,30.0
17:11:16.322,GUIDED,-35.3632621,149.1652375,40442,0.0023018885403871536,0.001320441486313939,-0.10124190151691437,-0.0027396720834076405,0.001071052742190659,0.008581310510635376,0,0,-1000,2,1,10,0,0,-153,1500.0,30.0
17:11:16.526,GUIDED,-35.363262,149.1652374,42001,0.0020447152201086283,0.0015907480847090483,-0.09453800320625305,-0.0013745068572461605,-8.587830234318972e-05,0.004330767318606377,0,0,-1000,0,0,4,-1,0,-153,1500.0,30.0
17:11:16.728,GUIDED,-35.363262,149.1652374,42391,0.0018459988059476018,0.0014482272090390325,-0.09295403212308884,0.0016845110803842545,-0.0004130791639909148,0.008940690197050571,0,0,-1000,2,0,9,-1,1,-153,1500.0,30.0
17:11:16.931,GUIDED,-35.363262,149.1652374,42391,0.0018459988059476018,0.0014482272090390325,-0.09295403212308884,0.0016845110803842545,-0.0004130791639909148,0.008940690197050571,0,0,-1000,2,0,9,-1,1,-153,1500.0,30.0
17:11:17.136,GUIDED,-35.363262,149.1652374,42391,0.0018459988059476018,0.0014482272090390325,-0.09295403212308884,0.0016845110803842545,-0.0004130791639909148,0.008940690197050571,0,0,-1000,2,0,9,-1,1,-153,1500.0,30.0
17:11:17.340,GUIDED,-35.363262,149.1652374,42391,0.0018459988059476018,0.0014482272090390325,-0.09295403212308884,0.0016845110803842545,-0.0004130791639909148,0.008940690197050571,0,0,-1000,2,0,9,-1,1,-153,1500.0,30.0
17:11:17.542,GUIDED,-35.363262,149.1652374,42391,0.0018459988059476018,0.0014482272090390325,-0.09295403212308884,0.0016845110803842545,-0.0004130791639909148,0.008940690197050571,0,0,-1000,2,0,9,-1,1,-153,1500.0,30.0
17:11:17.744,GUIDED,-35.363262,149.1652374,42391,0.0018459988059476018,0.0014482272090390325,-0.09295403212308884,0.0016845110803842545,-0.0004130791639909148,0.008940690197050571,0,0,-1000,2,0,9,-1,1,-153,1500.0,30.0
17:11:17.946,GUIDED,-35.363262,149.1652374,42391,0.0018459988059476018,0.0014482272090390325,-0.09295403212308884,0.0016845110803842545,-0.0004130791639909148,0.008940690197050571,0,0,-1000,2,0,9,-1,1,-153,1500.0,30.0
17:11:18.147,GUIDED,-35.363262,149.1652374,42391,0.0018459988059476018,0.0014482272090390325,-0.09295403212308884,0.0016845110803842545,-0.0004130791639909148,0.008940690197050571,0,0,-1000,2,0,9,-1,1,-153,1500.0,30.0
17:11:18.349,GUIDED,-35.363262,149.1652374,43559,0.0017863179091364145,0.0013468238757923245,-0.0881398618221283,0.004026961978524923,0.0010139313526451588,0.009360918775200844,0,0,-1000,2,0,9,-1,1,-153,1500.0,30.0
17:11:18.551,GUIDED,-35.363262,149.1652374,45125,0.002101732650771737,0.0012593325227499008,-0.08226008713245392,0.0014040947426110506,0.001931496663019061,0.0069558448158204556,0,0,-1000,2,2,7,-1,1,-153,1500.0,30.0
17:11:18.753,GUIDED,-35.363262,149.1652373,45514,0.0021177183371037245,0.001169824507087469,-0.08085409551858902,0.002001458778977394,0.001139905070886016,0.005405345465987921,0,0,-1000,2,1,5,-1,1,-153,1500.0,30.0
17:11:18.955,GUIDED,-35.363262,149.1652373,45514,0.0021177183371037245,0.001169824507087469,-0.08085409551858902,0.002001458778977394,0.001139905070886016,0.005405345465987921,0,0,-1000,2,1,5,-1,1,-153,1500.0,30.0
17:11:19.162,GUIDED,-35.363262,149.1652373,45514,0.0021177183371037245,0.001169824507087469,-0.08085409551858902,0.002001458778977394,0.001139905070886016,0.005405345465987921,0,0,-1000,2,1,5,-1,1,-153,1500.0,30.0
17:11:19.365,GUIDED,-35.363262,149.1652373,45514,0.0021177183371037245,0.001169824507087469,-0.08085409551858902,0.002001458778977394,0.001139905070886016,0.005405345465987921,0,0,-1000,2,1,5,-1,1,-153,1500.0,30.0
17:11:19.571,GUIDED,-35.363262,149.1652373,45514,0.0021177183371037245,0.001169824507087469,-0.08085409551858902,0.002001458778977394,0.001139905070886016,0.005405345465987921,0,0,-1000,2,1,5,-1,1,-153,1500.0,30.0
17:11:19.775,GUIDED,-35.363262,149.1652373,45514,0.0021177183371037245,0.001169824507087469,-0.08085409551858902,0.002001458778977394,0.001139905070886016,0.005405345465987921,0,0,-1000,2,1,5,-1,1,-153,1500.0,30.0
17:11:19.980,GUIDED,-35.363262,149.1652373,45514,0.0021177183371037245,0.001169824507087469,-0.08085409551858902,0.002001458778977394,0.001139905070886016,0.005405345465987921,0,0,-1000,2,1,5,-1,1,-153,1500.0,30.0
17:11:20.182,GUIDED,-35.363262,149.1652373,45514,0.0021177183371037245,0.001169824507087469,-0.08085409551858902,0.002001458778977394,0.001139905070886016,0.005405345465987921,0,0,-1000,2,1,5,-1,1,-153,1500.0,30.0
17:11:20.387,GUIDED,-35.363262,149.1652373,47454,0.0015765883726999164,0.0012483700411394238,-0.07428527623414993,-0.0010295327519997954,0.0011856688652187586,0.007267403416335583,0,0,-1000,0,1,5,-1,1,-153,1500.0,30.0
17:11:20.589,GUIDED,-35.363262,149.1652373,48232,0.0016922911163419485,0.001122991438023746,-0.0714765414595604,0.0010618814267218113,0.000774126616306603,0.006322753615677357,0,0,-1000,1,1,6,-1,1,-153,1500.0,30.0
17:11:20.790,GUIDED,-35.363262,149.1652373,48621,0.001815521507523954,0.0011363779194653034,-0.07047612965106964,0.0017604301683604717,0.00023293966660276055,0.003356486326083541,0,0,-1001,2,1,3,-1,1,-153,1500.0,30.0
17:11:20.994,GUIDED,-35.363262,149.1652373,48621,0.001815521507523954,0.0011363779194653034,-0.07047612965106964,0.0017604301683604717,0.00023293966660276055,0.003356486326083541,0,0,-1001,2,1,3,-1,1,-153,1500.0,30.0
17:11:21.195,GUIDED,-35.363262,149.1652373,48621,0.001815521507523954,0.0011363779194653034,-0.07047612965106964,0.0017604301683604717,0.00023293966660276055,0.003356486326083541,0,0,-1001,2,1,3,-1,1,-153,1500.0,30.0
17:11:21.397,GUIDED,-35.363262,149.1652373,48621,0.001815521507523954,0.0011363779194653034,-0.07047612965106964,0.0017604301683604717,0.00023293966660276055,0.003356486326083541,0,0,-1001,2,1,3,-1,1,-153,1500.0,30.0
17:11:21.601,GUIDED,-35.363262,149.1652373,48621,0.001815521507523954,0.0011363779194653034,-0.07047612965106964,0.0017604301683604717,0.00023293966660276055,0.003356486326083541,0,0,-1001,2,1,3,-1,1,-153,1500.0,30.0
17:11:21.802,GUIDED,-35.363262,149.1652373,48621,0.001815521507523954,0.0011363779194653034,-0.07047612965106964,0.0017604301683604717,0.00023293966660276055,0.003356486326083541,0,0,-1001,2,1,3,-1,1,-153,1500.0,30.0
17:11:22.007,GUIDED,-35.363262,149.1652373,48621,0.001815521507523954,0.0011363779194653034,-0.07047612965106964,0.0017604301683604717,0.00023293966660276055,0.003356486326083541,0,0,-1001,2,1,3,-1,1,-153,1500.0,30.0
17:11:22.211,GUIDED,-35.363262,149.1652373,48621,0.001815521507523954,0.0011363779194653034,-0.07047612965106964,0.0017604301683604717,0.00023293966660276055,0.003356486326083541,0,0,-1001,2,1,3,-1,1,-153,1500.0,30.0
17:11:22.413,GUIDED,-35.363262,149.1652373,49799,0.0018310497980564833,0.0008774803136475384,-0.06667984277009964,0.0013206563889980316,0.0003520430764183402,0.005376166198402643,0,0,-1001,2,1,5,-1,1,-153,1500.0,30.0
17:11:22.616,GUIDED,-35.363262,149.1652373,51356,0.002265445189550519,0.0011917920783162117,-0.061744749546051025,0.0051386053673923016,0.0005831386661157012,0.005208862945437431,0,0,-1000,6,1,5,-1,1,-153,1500.0,30.0
17:11:22.817,GUIDED,-35.363262,149.1652373,51745,0.0025324521120637655,0.0011090700281783938,-0.06065116450190544,-0.0033253179863095284,-0.0006595459417439997,0.004915752448141575,0,0,-999,-2,0,5,-1,1,-153,1500.0,30.0
17:11:23.022,LAND,-35.363262,149.1652373,51745,0.0025324521120637655,0.0011090700281783938,-0.06065116450190544,-0.0033253179863095284,-0.0006595459417439997,0.004915752448141575,0,0,-999,-2,0,5,-1,1,-153,1500.0,30.0
17:11:23.226,LAND,-35.363262,149.1652373,51745,0.0025324521120637655,0.0011090700281783938,-0.06065116450190544,-0.0033253179863095284,-0.0006595459417439997,0.004915752448141575,0,0,-999,-2,0,5,-1,1,-153,1500.0,30.0
17:11:23.428,LAND,-35.363262,149.1652373,51745,0.0025324521120637655,0.0011090700281783938,-0.06065116450190544,-0.0033253179863095284,-0.0006595459417439997,0.004915752448141575,0,0,-999,-2,0,5,-1,1,-153,1500.0,30.0
17:11:23.630,LAND,-35.363262,149.1652373,51745,0.0025324521120637655,0.0011090700281783938,-0.06065116450190544,-0.0033253179863095284,-0.0006595459417439997,0.004915752448141575,0,0,-999,-2,0,5,-1,1,-153,1500.0,30.0
17:11:23.832,LAND,-35.363262,149.1652373,51745,0.0025324521120637655,0.0011090700281783938,-0.06065116450190544,-0.0033253179863095284,-0.0006595459417439997,0.004915752448141575,0,0,-999,-2,0,5,-1,1,-153,1500.0,30.0
17:11:24.036,LAND,-35.363262,149.1652373,51745,0.0025324521120637655,0.0011090700281783938,-0.06065116450190544,-0.0033253179863095284,-0.0006595459417439997,0.004915752448141575,0,0,-999,-2,0,5,-1,1,-153,1500.0,30.0
17:11:24.243,LAND,-35.363262,149.1652373,51745,0.0025324521120637655,0.0011090700281783938,-0.06065116450190544,-0.0033253179863095284,-0.0006595459417439997,0.004915752448141575,0,0,-999,-2,0,5,-1,1,-153,1500.0,30.0
17:11:24.445,LAND,-35.363262,149.1652373,51745,0.0025324521120637655,0.0011090700281783938,-0.06065116450190544,-0.0033253179863095284,-0.0006595459417439997,0.004915752448141575,0,0,-999,-2,0,5,-1,1,-153,1500.0,30.0
17:11:24.648,LAND,-35.363262,149.1652372,52915,0.002289628144353628,0.0008973823278211057,-0.05757523328065872,-0.0007566208951175213,0.0020180894061923027,0.006943621207028627,0,0,-999,-2,0,5,-1,1,-153,1500.0,30.0
17:11:24.850,LAND,-35.363263,149.1652357,54622,-0.035705212503671646,0.016958847641944885,0.30478841066360474,0.10722048580646515,-0.21305014193058014,0.201849564909935,3,10,-911,108,-212,202,-30,-37,-90,1500.0,130.0
17:11:25.051,LAND,-35.3632636,149.1652346,54826,-0.008307141251862049,-0.025364823639392853,0.3401179611682892,0.08695182204246521,-0.13402125239372253,0.09593531489372253,3,9,-917,88,-133,96,-27,-38,-69,1500.0,130.0
17:11:25.253,LAND,-35.3632636,149.1652346,54826,-0.008307141251862049,-0.025364823639392853,0.3401179611682892,0.08695182204246521,-0.13402125239372253,0.09593531489372253,3,9,-917,88,-133,96,-27,-38,-69,1500.0,130.0
17:11:25.456,LAND,-35.3632636,149.1652346,54826,-0.008307141251862049,-0.025364823639392853,0.3401179611682892,0.08695182204246521,-0.13402125239372253,0.09593531489372253,3,9,-917,88,-133,96,-27,-38,-69,1500.0,130.0
17:11:25.658,LAND,-35.3632636,149.1652346,54826,-0.008307141251862049,-0.025364823639392853,0.3401179611682892,0.08695182204246521,-0.13402125239372253,0.09593531489372253,3,9,-917,88,-133,96,-27,-38,-69,1500.0,130.0
17:11:25.860,LAND,-35.3632636,149.1652346,54826,-0.008307141251862049,-0.025364823639392853,0.3401179611682892,0.08695182204246521,-0.13402125239372253,0.09593531489372253,3,9,-917,88,-133,96,-27,-38,-69,1500.0,130.0
17:11:26.075,LAND,-35.3632636,149.1652346,54826,-0.008307141251862049,-0.025364823639392853,0.3401179611682892,0.08695182204246521,-0.13402125239372253,0.09593531489372253,3,9,-917,88,-133,96,-27,-38,-69,1500.0,130.0
17:11:26.306,LAND,-35.3632636,149.1652346,54826,-0.008307141251862049,-0.025364823639392853,0.3401179611682892,0.08695182204246521,-0.13402125239372253,0.09593531489372253,3,9,-917,88,-133,96,-27,-38,-69,1500.0,130.0
17:11:26.516,LAND,-35.3632636,149.1652346,54826,-0.008307141251862049,-0.025364823639392853,0.3401179611682892,0.08695182204246521,-0.13402125239372253,0.09593531489372253,3,9,-917,88,-133,96,-27,-38,-69,1500.0,130.0
17:11:26.730,LAND,-35.3632636,149.1652346,54826,-0.008307141251862049,-0.025364823639392853,0.3401179611682892,0.08695182204246521,-0.13402125239372253,0.09593531489372253,3,9,-917,88,-133,96,-27,-38,-69,1500.0,130.0
17:11:26.935,LAND,-35.3632634,149.1652335,54959,0.03863514959812164,-0.010945750400424004,0.305397093296051,0.39826080203056335,0.037492357194423676,-0.04029448702931404,-3,-20,-972,393,38,-39,19,28,41,1500.0,130.0
17:11:27.154,LAND,-35.3632634,149.1652335,54959,0.03863514959812164,-0.010945750400424004,0.305397093296051,0.39826080203056335,0.037492357194423676,-0.04029448702931404,-3,-20,-972,393,38,-39,19,28,41,1500.0,130.0
17:11:27.368,LAND,-35.3632634,149.1652335,54959,0.03863514959812164,-0.010945750400424004,0.305397093296051,0.39826080203056335,0.037492357194423676,-0.04029448702931404,-3,-20,-972,393,38,-39,19,28,41,1500.0,130.0
17:11:27.605,LAND,-35.3632634,149.1652335,54959,0.03863514959812164,-0.010945750400424004,0.305397093296051,0.39826080203056335,0.037492357194423676,-0.04029448702931404,-3,-20,-972,393,38,-39,19,28,41,1500.0,130.0
17:11:27.808,LAND,-35.3632634,149.1652335,54959,0.03863514959812164,-0.010945750400424004,0.305397093296051,0.39826080203056335,0.037492357194423676,-0.04029448702931404,-3,-20,-972,393,38,-39,19,28,41,1500.0,130.0
17:11:28.014,LAND,-35.3632634,149.1652335,54959,0.03863514959812164,-0.010945750400424004,0.305397093296051,0.39826080203056335,0.037492357194423676,-0.04029448702931404,-3,-20,-972,393,38,-39,19,28,41,1500.0,130.0
17:11:28.215,LAND,-35.3632634,149.1652335,54959,0.03863514959812164,-0.010945750400424004,0.305397093296051,0.39826080203056335,0.037492357194423676,-0.04029448702931404,-3,-20,-972,393,38,-39,19,28,41,1500.0,130.0
17:11:28.418,LAND,-35.3632634,149.1652335,54959,0.03863514959812164,-0.010945750400424004,0.305397093296051,0.39826080203056335,0.037492357194423676,-0.04029448702931404,-3,-20,-972,393,38,-39,19,28,41,1500.0,130.0
17:11:28.619,LAND,-35.3632614,149.1652366,54222,-0.0026135242078453302,0.013140957802534103,0.26386508345603943,0.41272127628326416,0.015533136203885078,-0.057039059698581696,-3,67,-898,422,16,-56,9,30,88,1500.0,130.0
17:11:28.820,LAND,-35.3632608,149.1652379,53476,-0.006241939961910248,0.011206121183931828,0.2465529590845108,-0.30172982811927795,-0.007126861251890659,-0.03079993464052677,-1,10,-1102,-295,-6,-30,1,20,70,1500.0,30.0
17:11:29.022,LAND,-35.3632608,149.1652379,53476,-0.006241939961910248,0.011206121183931828,0.2465529590845108,-0.30172982811927795,-0.007126861251890659,-0.03079993464052677,-1,10,-1102,-295,-6,-30,1,20,70,1500.0,30.0
17:11:29.229,LAND,-35.3632608,149.1652379,53476,-0.006241939961910248,0.011206121183931828,0.2465529590845108,-0.30172982811927795,-0.007126861251890659,-0.03079993464052677,-1,10,-1102,-295,-6,-30,1,20,70,1500.0,30.0
17:11:29.432,LAND,-35.3632608,149.1652379,53476,-0.006241939961910248,0.011206121183931828,0.2465529590845108,-0.30172982811927795,-0.007126861251890659,-0.03079993464052677,-1,10,-1102,-295,-6,-30,1,20,70,1500.0,30.0
17:11:29.634,LAND,-35.3632608,149.1652379,53476,-0.006241939961910248,0.011206121183931828,0.2465529590845108,-0.30172982811927795,-0.007126861251890659,-0.03079993464052677,-1,10,-1102,-295,-6,-30,1,20,70,1500.0,30.0
17:11:29.836,LAND,-35.3632608,149.1652379,53476,-0.006241939961910248,0.011206121183931828,0.2465529590845108,-0.30172982811927795,-0.007126861251890659,-0.03079993464052677,-1,10,-1102,-295,-6,-30,1,20,70,1500.0,30.0
17:11:30.039,LAND,-35.3632608,149.1652379,53476,-0.006241939961910248,0.011206121183931828,0.2465529590845108,-0.30172982811927795,-0.007126861251890659,-0.03079993464052677,-1,10,-1102,-295,-6,-30,1,20,70,1500.0,30.0
17:11:30.242,LAND,-35.3632608,149.1652379,53476,-0.006241939961910248,0.011206121183931828,0.2465529590845108,-0.30172982811927795,-0.007126861251890659,-0.03079993464052677,-1,10,-1102,-295,-6,-30,1,20,70,1500.0,30.0
17:11:30.446,LAND,-35.3632608,149.1652385,53104,0.0010133679024875164,0.0007261396967805922,0.21892501413822174,-0.44935908913612366,-0.004460392519831657,-0.031507790088653564,0,5,-1022,431,-12,-27,-5,8,5,1500.0,30.0
17:11:30.650,LAND,-35.363261,149.1652383,53046,-0.00978164654225111,-0.0018727632705122232,0.20783153176307678,-0.7312719821929932,0.0005698733730241656,-0.0188413355499506,1,-20,-974,-728,1,-18,-5,5,11,1500.0,30.0
17:11:30.854,LAND,-35.3632611,149.1652382,53008,-0.004045066889375448,-0.002965020015835762,0.2021857053041458,-0.1919700801372528,-0.0006256491178646684,-0.025255993008613586,0,15,-997,-186,0,-24,-5,6,12,1500.0,30.0
17:11:31.065,LAND,-35.3632611,149.1652382,53008,-0.004045066889375448,-0.002965020015835762,0.2021857053041458,-0.1919700801372528,-0.0006256491178646684,-0.025255993008613586,0,15,-997,-186,0,-24,-5,6,12,1500.0,30.0
17:11:31.270,LAND,-35.3632611,149.1652382,53008,-0.004045066889375448,-0.002965020015835762,0.2021857053041458,-0.1919700801372528,-0.0006256491178646684,-0.025255993008613586,0,15,-997,-186,0,-24,-5,6,12,1500.0,30.0
17:11:31.471,LAND,-35.3632611,149.1652382,53008,-0.004045066889375448,-0.002965020015835762,0.2021857053041458,-0.1919700801372528,-0.0006256491178646684,-0.025255993008613586,0,15,-997,-186,0,-24,-5,6,12,1500.0,30.0
17:11:31.672,LAND,-35.3632611,149.1652382,53008,-0.004045066889375448,-0.002965020015835762,0.2021857053041458,-0.1919700801372528,-0.0006256491178646684,-0.025255993008613586,0,15,-997,-186,0,-24,-5,6,12,1500.0,30.0
17:11:31.873,LAND,-35.3632611,149.1652382,53008,-0.004045066889375448,-0.002965020015835762,0.2021857053041458,-0.1919700801372528,-0.0006256491178646684,-0.025255993008613586,0,15,-997,-186,0,-24,-5,6,12,1500.0,30.0
17:11:32.075,LAND,-35.3632611,149.1652382,53008,-0.004045066889375448,-0.002965020015835762,0.2021857053041458,-0.1919700801372528,-0.0006256491178646684,-0.025255993008613586,0,15,-997,-186,0,-24,-5,6,12,1500.0,30.0
17:11:32.280,LAND,-35.3632611,149.1652382,53008,-0.004045066889375448,-0.002965020015835762,0.2021857053041458,-0.1919700801372528,-0.0006256491178646684,-0.025255993008613586,0,15,-997,-186,0,-24,-5,6,12,1500.0,30.0
17:11:32.483,LAND,-35.3632614,149.1652377,52882,0.017118919640779495,-0.005633566062897444,0.18788760900497437,0.49042877554893494,-0.003639426315203309,-0.02755340002477169,0,6,-997,489,-2,-27,-4,6,14,1500.0,30.0
17:11:32.688,LAND,-35.3632617,149.1652376,52683,-0.00852170865982771,-0.0032250487711280584,0.17061400413513184,-0.34075626730918884,0.0036961142905056477,-0.017191946506500244,1,1,-993,-335,4,-16,-1,7,18,1500.0,30.0
17:11:32.889,LAND,-35.3632618,149.1652377,52631,-0.0007014094153419137,-0.003108713775873184,0.16691116988658905,0.3613393008708954,0.0009646003600209951,-0.015788966789841652,2,32,-1011,367,1,-15,0,7,16,1500.0,30.0
17:11:33.091,LAND,-35.3632618,149.1652377,52631,-0.0007014094153419137,-0.003108713775873184,0.16691116988658905,0.3613393008708954,0.0009646003600209951,-0.015788966789841652,2,32,-1011,367,1,-15,0,7,16,1500.0,30.0
17:11:33.295,LAND,-35.3632618,149.1652377,52631,-0.0007014094153419137,-0.003108713775873184,0.16691116988658905,0.3613393008708954,0.0009646003600209951,-0.015788966789841652,2,32,-1011,367,1,-15,0,7,16,1500.0,30.0
17:11:33.499,LAND,-35.3632618,149.1652377,52631,-0.0007014094153419137,-0.003108713775873184,0.16691116988658905,0.3613393008708954,0.0009646003600209951,-0.015788966789841652,2,32,-1011,367,1,-15,0,7,16,1500.0,30.0
17:11:33.700,LAND,-35.3632618,149.1652377,52631,-0.0007014094153419137,-0.003108713775873184,0.16691116988658905,0.3613393008708954,0.0009646003600209951,-0.015788966789841652,2,32,-1011,367,1,-15,0,7,16,1500.0,30.0
17:11:33.901,LAND,-35.3632618,149.1652377,52631,-0.0007014094153419137,-0.003108713775873184,0.16691116988658905,0.3613393008708954,0.0009646003600209951,-0.015788966789841652,2,32,-1011,367,1,-15,0,7,16,1500.0,30.0
17:11:34.103,LAND,-35.3632618,149.1652377,52631,-0.0007014094153419137,-0.003108713775873184,0.16691116988658905,0.3613393008708954,0.0009646003600209951,-0.015788966789841652,2,32,-1011,367,1,-15,0,7,16,1500.0,30.0
17:11:34.305,LAND,-35.3632618,149.1652377,52631,-0.0007014094153419137,-0.003108713775873184,0.16691116988658905,0.3613393008708954,0.0009646003600209951,-0.015788966789841652,2,32,-1011,367,1,-15,0,7,16,1500.0,30.0
17:11:34.507,LAND,-35.3632623,149.1652394,52251,-0.035408422350883484,-0.0036611987743526697,0.14408323168754578,-1.004825234413147,0.0016617155633866787,-0.011221906170248985,3,-45,-941,-1003,2,-10,2,-5,42,1500.0,200.0
17:11:34.708,LAND,-35.3632624,149.1652397,52118,-0.038771163672208786,-0.0036473041400313377,0.14144518971443176,-0.9891405701637268,0.0063844239339232445,-0.012906479649245739,0,-24,-912,-984,7,-12,3,-8,60,1500.0,200.0
17:11:34.910,LAND,-35.3632624,149.1652397,52118,-0.038771163672208786,-0.0036473041400313377,0.14144518971443176,-0.9891405701637268,0.0063844239339232445,-0.012906479649245739,0,-24,-912,-984,7,-12,3,-8,60,1500.0,200.0
17:11:35.114,LAND,-35.3632624,149.1652397,52118,-0.038771163672208786,-0.0036473041400313377,0.14144518971443176,-0.9891405701637268,0.0063844239339232445,-0.012906479649245739,0,-24,-912,-984,7,-12,3,-8,60,1500.0,200.0
17:11:35.315,LAND,-35.3632624,149.1652397,52118,-0.038771163672208786,-0.0036473041400313377,0.14144518971443176,-0.9891405701637268,0.0063844239339232445,-0.012906479649245739,0,-24,-912,-984,7,-12,3,-8,60,1500.0,200.0
17:11:35.518,LAND,-35.3632624,149.1652397,52118,-0.038771163672208786,-0.0036473041400313377,0.14144518971443176,-0.9891405701637268,0.0063844239339232445,-0.012906479649245739,0,-24,-912,-984,7,-12,3,-8,60,1500.0,200.0
17:11:35.720,LAND,-35.3632624,149.1652397,52118,-0.038771163672208786,-0.0036473041400313377,0.14144518971443176,-0.9891405701637268,0.0063844239339232445,-0.012906479649245739,0,-24,-912,-984,7,-12,3,-8,60,1500.0,200.0
17:11:35.922,LAND,-35.3632624,149.1652397,52118,-0.038771163672208786,-0.0036473041400313377,0.14144518971443176,-0.9891405701637268,0.0063844239339232445,-0.012906479649245739,0,-24,-912,-984,7,-12,3,-8,60,1500.0,200.0
17:11:36.124,LAND,-35.3632624,149.1652397,52118,-0.038771163672208786,-0.0036473041400313377,0.14144518971443176,-0.9891405701637268,0.0063844239339232445,-0.012906479649245739,0,-24,-912,-984,7,-12,3,-8,60,1500.0,200.0
17:11:36.349,LAND,-35.3632624,149.1652397,52118,-0.038771163672208786,-0.0036473041400313377,0.14144518971443176,-0.9891405701637268,0.0063844239339232445,-0.012906479649245739,0,-24,-912,-984,7,-12,3,-8,60,1500.0,200.0
17:11:36.559,LAND,-35.3632629,149.1652412,50132,-0.020413020625710487,-0.006351119838654995,0.12573276460170746,-0.9208095669746399,-0.011698042042553425,0.0180771853774786,3,-95,-1024,-2005,-6,17,6,-24,156,1500.0,200.0
17:11:36.785,LAND,-35.3632629,149.1652416,49354,0.002593314042314887,-0.007672674022614956,0.12234266847372055,1.1615899801254272,0.004316846374422312,-0.006420684512704611,3,19,-1110,1158,5,-6,7,-25,131,1500.0,200.0
17:11:36.991,LAND,-35.3632629,149.1652416,49354,0.002593314042314887,-0.007672674022614956,0.12234266847372055,1.1615899801254272,0.004316846374422312,-0.006420684512704611,3,19,-1110,1158,5,-6,7,-25,131,1500.0,200.0
17:11:37.204,LAND,-35.3632629,149.1652416,49354,0.002593314042314887,-0.007672674022614956,0.12234266847372055,1.1615899801254272,0.004316846374422312,-0.006420684512704611,3,19,-1110,1158,5,-6,7,-25,131,1500.0,200.0
17:11:37.429,LAND,-35.3632629,149.1652416,49354,0.002593314042314887,-0.007672674022614956,0.12234266847372055,1.1615899801254272,0.004316846374422312,-0.006420684512704611,3,19,-1110,1158,5,-6,7,-25,131,1500.0,200.0
17:11:37.635,LAND,-35.3632629,149.1652416,49354,0.002593314042314887,-0.007672674022614956,0.12234266847372055,1.1615899801254272,0.004316846374422312,-0.006420684512704611,3,19,-1110,1158,5,-6,7,-25,131,1500.0,200.0
17:11:37.837,LAND,-35.3632629,149.1652416,49354,0.002593314042314887,-0.007672674022614956,0.12234266847372055,1.1615899801254272,0.004316846374422312,-0.006420684512704611,3,19,-1110,1158,5,-6,7,-25,131,1500.0,200.0
17:11:38.041,LAND,-35.3632629,149.1652416,49354,0.002593314042314887,-0.007672674022614956,0.12234266847372055,1.1615899801254272,0.004316846374422312,-0.006420684512704611,3,19,-1110,1158,5,-6,7,-25,131,1500.0,200.0
17:11:38.244,LAND,-35.3632629,149.1652416,49354,0.002593314042314887,-0.007672674022614956,0.12234266847372055,1.1615899801254272,0.004316846374422312,-0.006420684512704611,3,19,-1110,1158,5,-6,7,-25,131,1500.0,200.0
17:11:38.446,LAND,-35.3632632,149.1652424,47997,-0.01703510619699955,-0.01080329529941082,0.11272039264440536,1.5014252662658691,-0.0034877825528383255,-0.0038661796133965254,0,78,-1064,1506,-2,-3,8,-32,119,1500.0,200.0
