time_stamp,roll,pitch,yaw,rollspeed,pitchspeed,yawspeed,lat,lon,relative_alt,vx,vy,vz,xacc,yacc,zacc,xgyro,ygyro,zgyro,RTL_ALT,MODE
17:46:26,-0.0007127967352668444,0.0009789948429291446,0.02281515548626582,0.00023769548473258814,0.00027688039699569345,0.001633295789361,-35.363262133333336,149.1652374,0.0,-1.0,0.6666666666666666,-1.0,0.0,1.0,-1000.0,0.0,0.0,0.0,179377.0,STABILIZE
17:46:31,-0.0005483540589921176,0.001131135388277471,0.021214377755920093,0.0008582775869096319,0.00033052649814635515,0.0014652564035107691,-35.3632621,149.16523746666667,11.333333333333334,0.0,0.0,-1.0,0.0,-8.0,-1014.6666666666666,1.0,0.6666666666666666,0.6666666666666666,179377.0,AUTO
17:46:32,-0.0003749430470634252,0.001321181111658613,0.020994591837128002,0.00029749008050809306,0.0002863753082541128,0.001412645021143059,-35.3632621,149.1652374,14.666666666666666,0.0,0.0,-1.0,0.0,1.3333333333333333,-1000.0,0.3333333333333333,0.0,0.6666666666666666,300000.0,AUTO
17:46:33,-6.240546736080432e-05,0.0016436008154414594,0.020641877315938473,0.00033978797728195786,0.00025926626403816044,0.0014052136684767902,-35.3632621,149.1652375,14.0,0.0,0.0,0.0,0.0,2.0,-1000.0,0.5,0.5,0.5,300000.0,AUTO
17:46:35,0.03486319569249948,-0.003098250327942272,0.020255136614044506,0.044794743259747825,-0.007806666971494754,0.0028638726410766444,-35.36326196666666,149.1652377,1798.6666666666667,1.6666666666666667,12.333333333333334,-146.66666666666666,0.0,-0.5,-1011.5,46.0,-5.5,1.5,300000.0,AUTO
17:46:36,0.05333980669577917,-0.0011279055227835972,-0.0063929253568251925,-0.03932260846098264,0.034273624109725155,-0.04545431459943453,-35.363261599999994,149.1652398,2944.6666666666665,7.333333333333333,43.0,-146.66666666666666,0.75,-5.75,-996.5,-18.0,24.0,-33.5,217303.0,AUTO
17:46:37,-0.0486878901720047,0.015288744742671648,-0.09441179037094116,-0.05567407483855883,-0.06627377262338996,0.0007619988173246384,-35.36326113333334,149.1652456666667,4840.333333333333,-8.333333333333334,24.666666666666668,-148.0,5.0,-6.5,-1002.5,-48.0,-44.0,-29.0,217303.0,AUTO
17:46:39,-0.0027456688694655895,-0.00943375239148736,-0.07663185149431229,0.06482622027397156,0.01840448472648859,0.005113664083182812,-35.363261449999996,149.16523965,7716.5,6.5,-60.0,-149.5,-9.0,10.0,-1003.5,65.0,18.0,4.0,217303.0,AUTO
17:46:40,0.0416549239307642,0.00651359889889136,-0.07702318020164967,0.04614827781915665,0.028747334610670805,-0.010115065379068255,-35.36326105,149.16523535,8890.25,4.0,-37.75,-151.75,-6.75,7.75,-1001.75,46.25,28.75,-10.25,129734.0,AUTO
17:46:41,0.03024921752512455,0.020204424392431974,-0.10301218181848526,-0.08320346474647522,-0.056471746414899826,0.017866299953311682,-35.3632615,149.16523410000002,10828.5,-17.0,25.0,-148.0,4.5,-0.5,-997.5,-82.0,-55.5,17.5,129734.0,AUTO
17:46:43,-0.010663214139640331,-0.009500149171799421,-0.11947537958621979,0.020474678836762905,0.010379179380834103,-0.02733605820685625,-35.363263,149.1652373,13923.5,4.0,-4.0,-151.0,-0.5,0.0,-1000.5,20.5,10.5,-27.0,129734.0,AUTO
17:46:44,0.002478062000591308,-0.0009448084892937914,-0.1403423212468624,0.014903390081599355,0.012503242352977395,-0.026239460334181786,-35.363262575,149.16523665,15095.75,6.75,-8.5,-152.0,-2.25,0.0,-1000.0,15.0,12.75,-26.0,200.0,AUTO
17:46:45,0.011146603152155876,0.00821263575926423,-0.1655697599053383,-0.00038911952287890017,0.0029442489612847567,-0.01545664295554161,-35.36326175,149.16523554999998,17041.0,2.5,-1.0,-152.0,-2.0,0.0,-1000.0,0.0,3.0,-15.5,200.0,AUTO
17:46:47,0.0036031646886840463,0.0045960526913404465,-0.190531387925148,-0.0027098770951852202,-0.0015585340443067253,-0.016620080918073654,-35.3632615,149.16523585,20154.5,-3.0,6.0,-152.0,0.0,0.0,-999.5,-1.5,-0.5,-16.0,200.0,AUTO
17:46:48,0.0017465202836319804,0.003546858031768352,-0.20329344645142555,-0.0009397168032592162,8.960035484051332e-05,-0.01930183917284012,-35.3632616,149.16523615,21323.25,-3.0,5.5,-152.0,0.0,0.0,-1000.0,-0.25,0.25,-19.0,44276.0,AUTO
17:46:49,0.0013787418138235807,0.0028157527558505535,-0.22743093967437744,0.0021312517928890884,0.00044259612332098186,-0.020766601897776127,-35.3632617,149.16523654999997,23269.0,-3.0,3.0,-152.0,0.0,0.0,-1000.5,2.5,1.0,-20.5,44276.0,AUTO
17:46:51,0.00479967740830034,0.005042757140472531,-0.24819527566432953,0.029032074846327305,-0.0013481350906658918,0.01698477193713188,-35.363261949999995,149.16523654999997,26389.5,-5.0,-1.5,-152.0,0.0,0.5,-1000.0,29.5,-0.5,16.0,44276.0,AUTO
17:46:52,0.011165571631863713,0.0022278592077782378,-0.23060353845357895,-0.00026266611530445516,-0.0027028245094697922,0.02397258160635829,-35.3632622,149.16523645,27555.75,-4.0,3.75,-152.0,0.0,0.25,-999.25,0.75,-1.5,23.5,15437.0,AUTO
17:46:53,0.0026180873392149806,0.0017648153589107096,-0.20266170054674149,-0.006086841691285372,0.0009631194407120347,0.021406633779406548,-35.3632623,149.1652372,29494.5,-0.5,8.5,-152.0,0.0,-1.0,-1000.0,-4.5,1.5,20.5,15437.0,AUTO
17:46:55,-0.0004637285164790228,0.0013549140421673656,-0.16706767678260803,0.0016087261028587818,-5.524352309294045e-05,0.015331759117543697,-35.3632623,149.165238,32599.0,0.0,1.5,-152.0,0.0,0.0,-1000.0,2.0,0.5,15.0,15437.0,AUTO
17:46:56,0.0007583220176456962,0.0010961423977278173,-0.1562095507979393,0.001288356026634574,-0.0008107603352982551,0.013693069340661168,-35.3632623,149.165238,33767.5,0.0,0.25,-152.0,0.0,0.0,-1000.25,2.25,0.25,13.0,274588.0,AUTO
17:46:57,0.0014255511341616511,0.0008468332525808364,-0.13958869129419327,-0.00016077852342277765,0.00031822401797398925,0.011557419784367085,-35.3632622,149.1652379,35861.0,0.0,0.0,-152.0,0.0,0.0,-1000.0,0.5,0.5,11.0,274588.0,AUTO
17:46:59,-0.037537925876677036,0.025612544151954353,0.20515641570091248,0.09139037877321243,-0.1854689046740532,0.19442784413695335,-35.36326315,149.16523615,38810.5,-30.5,-33.0,-114.5,3.0,9.0,-945.0,92.0,-184.0,194.0,274588.0,AUTO
17:47:00,0.02717535139527172,-0.04593035578727722,0.2382325381040573,0.06296764500439167,-0.028633067064220086,-0.013400728814303875,-35.363264625,149.1652335,39540.5,-12.5,-21.0,-81.0,1.25,6.75,-962.75,63.5,-28.0,-12.75,223321.0,AUTO
17:47:01,0.025517732836306095,-0.014084102120250463,0.20049916207790375,-0.22919601574540138,0.04002118296921253,-0.02368838805705309,-35.363263950000004,149.16523354999998,40334.0,20.0,25.5,-44.5,-2.0,-21.0,-971.5,-228.5,40.5,-23.0,223321.0,AUTO
17:47:03,-0.03924182057380676,0.036328401416540146,0.16299062967300415,-0.017075687646865845,0.057916260324418545,-0.036461628042161465,-35.363261,149.16523895,40742.0,2.0,9.0,7.0,2.5,18.5,-982.5,-15.0,59.0,-35.5,223321.0,AUTO
17:47:04,-0.03122862009331584,0.01876636384986341,0.149387639015913,0.11978107690811157,-0.032148891128599644,-0.009800305590033531,-35.363261475,149.16523875000001,40627.75,-12.75,-18.25,12.5,1.5,0.5,-1001.5,120.25,-30.75,-9.25,186876.0,AUTO
17:47:05,-0.04646328464150429,0.010258756577968597,0.13141663372516632,0.48593856394290924,0.016239131800830364,-0.008448661072179675,-35.36326365,149.16523485,40463.0,-20.0,-50.5,11.0,-0.5,49.5,-996.5,487.0,17.0,-7.5,186876.0,AUTO
17:47:07,0.01034609752241522,-0.029535172507166862,-1.1968169808387756,0.9115131199359894,-0.01183794206008315,-0.7225065529346466,-35.36326965,149.1652176,39946.5,-33.0,-99.0,30.5,-21.0,44.0,-1015.5,912.5,-10.5,-721.5,186876.0,AUTO
17:47:08,0.017581831431016326,-0.010670589297660626,-1.703594595193863,-0.3326353933662176,0.00817119493149221,-0.539287131279707,-35.3632719,149.16521015,39687.5,-30.0,-92.5,31.75,-20.5,-37.25,-1013.25,-332.25,8.5,-538.25,105924.0,AUTO
17:47:09,0.016479439102113247,0.011149524245411158,-1.8581240773200989,0.5343475043773651,0.01488431729376316,0.03556225402280688,-35.3632748,149.1652,39315.0,-17.5,-64.5,19.5,-11.5,26.0,-1027.0,535.5,15.5,35.5,105924.0,AUTO
17:47:11,0.003675515064969659,-0.0014120223931968212,-1.8657990097999573,0.5709948539733887,-0.05087989568710327,-0.000865002628415823,-35.3632757,149.1651932,39121.0,0.5,-5.0,-2.5,0.0,29.0,-1014.5,571.5,-49.5,-0.5,105924.0,AUTO
17:47:12,-0.014745161985047162,-0.058824872598052025,-1.8688124120235443,-0.17338554840534925,-0.08865494839847088,-0.0052809862536378205,-35.363275625,149.16519227499998,39126.25,-11.75,-21.25,1.25,-4.5,-11.0,-984.75,-172.75,-87.25,-4.5,216150.0,AUTO
17:47:13,-7.460976485162973e-05,-0.0682438388466835,-1.8760375380516052,-0.6801639199256897,0.04523423360660672,-0.0011764555238187313,-35.363278300000005,149.16518489999999,38971.0,-46.5,-87.0,24.5,-20.0,-48.5,-985.5,-679.5,45.5,-1.0,216150.0,AUTO
17:47:15,0.017106504645198584,0.06113562360405922,-1.8844927549362183,-0.025509461760520935,-0.0536783579736948,0.0024521690793335438,-35.3632838,149.1651702,38485.0,-1.0,-7.0,8.5,0.5,-22.5,-1011.0,-26.0,-52.5,2.5,216150.0,AUTO
17:47:16,-0.008451878384221345,-0.004921704676235095,-1.8883980214595795,-0.022186964750289917,-0.1012498326599598,-0.00487238256027922,-35.36328315,149.1651706,38461.75,6.25,9.75,-0.75,4.0,8.25,-1010.0,-21.5,-100.0,-4.0,300000.0,AUTO
17:47:17,-0.025029330514371395,-0.11294133961200714,-1.8920777440071106,-0.28511205315589905,-0.018381621688604355,-9.707617573440075e-05,-35.36328265,149.1651693,38438.5,-28.5,-50.0,11.0,-11.0,-2.5,-986.0,-284.0,-17.5,0.5,300000.0,AUTO
17:47:19,0.009943435899913311,0.08803201094269753,-1.8996091485023499,-0.026295721530914307,0.05171585455536842,-0.0066504058631835505,-35.36328915,149.16515205000002,37973.0,-24.5,-40.5,18.5,-11.0,17.5,-1015.0,-25.0,51.5,-6.0,300000.0,AUTO
17:47:20,0.01619720202870667,0.03721276530995965,-1.9012658298015594,0.019991055130958557,-0.11330474726855755,0.0033694960875436664,-35.363289925000004,149.16515147500002,37896.75,1.75,10.5,3.25,0.25,-3.75,-1019.75,20.0,-111.75,4.0,227063.0,AUTO
17:47:21,0.015008003450930119,-0.09702659025788307,-1.9057671427726746,0.0022278279066085815,-0.08997109532356262,0.004791203886270523,-35.36329035,149.16515314999998,37894.0,-1.0,-21.0,3.0,-5.0,-15.5,-991.5,2.0,-89.0,5.0,227063.0,AUTO
17:47:23,0.025383634492754936,0.07176731340587139,-1.9125138521194458,-0.7087255418300629,0.10312076285481453,-0.0005281728517729789,-35.36329625,149.1651367,37482.5,-15.5,-73.0,23.0,-17.0,-56.0,-1018.0,-708.5,103.5,0.0,227063.0,AUTO
17:47:24,0.010028434218838811,0.07813859637826681,-1.9131434261798859,0.14032108895480633,-0.07604282069951296,-0.007661149080377072,-35.363296575,149.165133675,37372.5,13.25,-8.25,7.25,1.5,10.25,-1027.75,141.25,-75.25,-6.5,11223.0,AUTO
17:47:25,-0.017067781649529934,-0.0644444078207016,-1.9151643514633179,-0.18526031076908112,-0.12645292282104492,-0.013133840635418892,-35.3632948,149.1651348,37358.5,7.5,2.5,-1.0,1.5,7.0,-998.0,-184.0,-125.5,-12.0,11223.0,AUTO
17:47:27,0.04290915094316006,0.047511279582977295,-1.9227255582809448,0.6978843808174133,0.12152735143899918,-0.004139479948207736,-35.36330015,149.16512175,37018.5,-33.5,-79.0,23.5,-17.5,13.5,-1019.5,698.0,122.0,-3.0,11223.0,AUTO
17:47:28,0.019717901712283492,0.08555732760578394,-1.9210556745529175,-0.3423916157335043,-0.03953294735401869,-0.007557767326943576,-35.363301675,149.165117925,36884.25,0.75,-18.5,11.0,-2.25,-18.5,-1015.25,-341.25,-39.0,-6.5,233538.0,AUTO
17:47:29,-0.01370291574858129,-0.040476515889167786,-1.9226300716400146,-0.5510726869106293,-0.10649440810084343,0.006125863030320033,-35.36330035,149.16511895,36855.5,13.0,9.0,-2.5,5.0,-35.5,-992.0,-550.0,-105.5,6.5,233538.0,AUTO
17:47:31,0.008021706948056817,0.027205548249185085,-1.9272773265838623,-0.14003460109233856,0.14524540305137634,0.007615501759573817,-35.3633036,149.16510745,36576.0,-42.0,-85.0,24.0,-20.5,-0.5,-1008.5,-138.0,145.5,8.0,233538.0,AUTO
17:47:32,0.021634332370013,0.08650905638933182,-1.9270854890346527,0.09647689014673233,0.0035810470581054688,0.004775773035362363,-35.363305600000004,149.165102875,36428.0,-13.25,-27.0,12.75,-6.25,-5.5,-1029.25,97.0,4.5,5.75,300000.0,AUTO
17:47:33,0.014522474724799395,-0.03232775256037712,-1.9277876019477844,0.48513540625572205,-0.08700409904122353,0.00806939578615129,-35.36330565,149.16510385,36383.0,12.0,13.5,-1.5,5.0,15.0,-1000.5,485.5,-86.0,8.5,300000.0,AUTO
17:47:35,0.013258104678243399,0.007772224023938179,-1.9337260127067566,-0.7593617141246796,0.16311917454004288,0.0004065721295773983,-35.36330935,149.1650935,36135.5,-35.0,-97.0,26.5,-20.0,-51.0,-995.5,-758.0,163.5,1.5,300000.0,AUTO
17:47:36,0.020941598108038306,0.08617601078003645,-1.9327918887138367,0.18738456442952156,0.048627594485878944,0.012166896951384842,-35.36331125,149.16508762499998,35964.75,-10.25,-45.75,17.75,-8.25,5.25,-1030.5,188.5,49.0,12.75,200.0,AUTO
17:47:37,-0.012805620208382607,-0.014581737807020545,-1.9331095218658447,-0.28200538828969,-0.09446276351809502,-0.006253644241951406,-35.363310600000005,149.16508695,35883.0,17.0,19.0,-1.5,6.0,1.5,-998.5,-280.5,-93.5,-5.5,200.0,AUTO
17:47:39,0.031492676585912704,-0.04111350141465664,-1.9378185272216797,0.8538197576999664,0.18133079260587692,-0.0032867728441487998,-35.3633133,149.16507875000002,35678.0,-45.0,-100.5,27.5,-23.0,22.0,-1002.0,855.0,181.5,-2.0,200.0,AUTO
17:47:40,0.028727753087878227,0.060869519133120775,-1.937003642320633,-0.2827673777937889,0.09731005877256393,-0.0010206504084635526,-35.36331645,149.1650717,35474.75,-27.75,-69.75,24.0,-17.75,-30.25,-1022.75,-281.75,97.5,0.25,180265.0,AUTO
17:47:41,0.027166351675987244,0.02298619062639773,-1.9350696802139282,0.2857474416960031,-0.1494492068886757,-2.4641165509819984e-05,-35.3633181,149.16506895,35318.5,24.0,15.5,1.0,5.0,7.0,-1017.5,286.5,-148.0,1.0,180265.0,AUTO
17:47:43,0.017434378620237112,-0.07882420346140862,-1.9415093660354614,-0.638390064239502,0.14089450240135193,0.008701605955138803,-35.3633195,149.16506435,35184.0,-26.5,-97.0,24.5,-21.5,-38.5,-992.5,-636.0,141.0,9.0,180265.0,AUTO
17:47:44,0.038699399679899216,0.041105322539806366,-1.941960871219635,0.29805785743519664,0.13277668319642544,0.011343250749632716,-35.36332265,149.165057,34991.25,-16.0,-86.75,25.0,-19.75,24.75,-1020.75,301.25,132.75,12.0,300000.0,AUTO
17:47:45,0.03320731408894062,0.04505179077386856,-1.9345951080322266,-0.41226087510585785,-0.1580582708120346,0.012038300279527903,-35.363325,149.16505260000002,34806.5,33.5,8.5,3.5,1.5,-27.0,-1022.0,-410.5,-157.0,12.5,300000.0,AUTO
17:47:47,0.033571445383131504,-0.09622382372617722,-1.9445935487747192,0.32637400925159454,0.08159727603197098,0.0005540862330235541,-35.363326400000005,149.16504995,34718.5,0.5,-99.0,24.0,-16.5,21.5,-982.0,329.5,82.0,1.5,300000.0,AUTO
17:47:48,0.04373809415847063,0.00236331089399755,-1.9463868737220764,-0.0971262976527214,0.1437965426594019,0.0018894547392847016,-35.363329050000004,149.165041725,34506.75,-7.0,-111.5,30.25,-20.5,-31.25,-1002.0,-94.5,143.75,2.75,40795.0,AUTO
17:47:49,0.01709927013143897,0.0852343961596489,-1.940592646598816,0.2718724124133587,-0.07900169491767883,-0.006882395828142762,-35.3633313,149.16503275,34220.5,34.0,-20.5,11.0,0.0,32.0,-1027.0,276.0,-77.5,-5.0,40795.0,AUTO
17:47:51,0.0022769262868678197,-0.1153685636818409,-1.9412842392921448,0.2023436352610588,-0.014093736186623573,-0.00036537647247314453,-35.3633288,149.1650323,34172.0,-3.0,-52.5,12.5,-7.0,-20.5,-973.0,205.0,-13.5,1.0,40795.0,AUTO
17:47:52,0.002723117475397885,-0.04760718741454184,-1.943520039319992,-0.1270097903907299,0.14956043846905231,0.004433728405274451,-35.363330250000004,149.16502585,34026.25,-31.5,-93.75,24.0,-18.75,-12.25,-989.5,-123.25,150.0,5.5,193084.0,AUTO
17:47:53,-0.004206425219308585,0.09404794126749039,-1.9431948065757751,-0.7477941513061523,0.026125843171030283,0.0028632047469727695,-35.3633331,149.1650149,33730.5,-15.0,-32.0,16.0,-4.5,-45.0,-1034.0,-744.0,26.5,3.5,193084.0,AUTO
17:47:55,-0.012328386772423983,-0.09598752111196518,-1.9429135918617249,0.6266063451766968,-0.08048005402088165,0.0015670396387577057,-35.363331349999996,149.1650151,33666.5,-21.0,-13.5,4.5,-3.5,22.5,-996.5,629.5,-79.0,3.0,193084.0,AUTO
17:47:56,-0.011058056319598109,-0.08091336023062468,-1.9425191581249237,-0.17805590108036995,0.0894813546910882,-0.0002911996270995587,-35.3633327,149.165010925,33570.5,-50.0,-66.5,19.5,-17.75,-16.0,-975.0,-174.5,89.75,1.5,126759.0,AUTO
17:47:57,0.0067704953253269196,0.066761689260602,-1.9435824751853943,-0.47913044691085815,0.07294440641999245,0.00011633287067525089,-35.363336849999996,149.1649999,33276.5,-43.5,-48.5,19.5,-14.0,-52.0,-1017.5,-476.0,73.0,1.0,126759.0,AUTO
17:47:59,-0.008549423422664404,-0.05910859815776348,-1.943706750869751,-0.12166207283735275,-0.09394153952598572,-0.008123408071696758,-35.363337650000005,149.16499955,33159.5,-7.5,9.0,-1.5,0.0,14.0,-992.5,-118.0,-92.5,-6.0,126759.0,AUTO
17:48:00,0.012395499157719314,-0.09022977575659752,-1.9443676471710205,0.3397519662976265,0.01690256968140602,-0.005757050705142319,-35.36333865,149.164997975,33117.25,-27.75,-40.75,10.25,-10.5,1.5,-990.5,342.0,17.75,-3.75,146796.0,AUTO
17:48:03,-0.021760232746601105,-0.03316330071538687,-1.9454253911972046,0.606555849313736,-0.08438601717352867,0.008004368748515844,-35.3633409,149.1649859,32754.5,-4.0,15.0,-3.0,5.0,21.5,-997.0,609.0,-83.0,9.5,146796.0,AUTO
17:48:05,-0.004871396609814838,0.014898572757374495,-1.9442687630653381,-0.48462482541799545,0.10618845373392105,-0.007820735452696681,-35.36334315,149.1649775,32560.0,-53.0,-53.5,17.0,-14.5,-41.0,-1007.0,-483.0,106.5,-6.0,181107.0,AUTO
17:48:07,-0.02021211478859186,-0.02063230937346816,-1.9462445974349976,0.08560487627983093,-0.09685081243515015,-0.0014338663313537836,-35.36334465,149.16497355,32387.0,-14.0,20.5,-1.5,1.5,17.0,-1010.0,87.5,-95.5,0.5,181107.0,AUTO
17:48:09,0.022836522199213505,-0.01878463849425316,-1.9457115530967712,0.7263549566268921,0.08227628655731678,-0.0014717073063366115,-35.3633479,149.16496865,32232.5,-38.5,-50.5,15.5,-15.0,30.5,-1029.0,727.5,83.0,0.5,300000.0,AUTO
17:48:11,0.03155768383294344,0.003751453710719943,-1.9449610114097595,0.4854563921689987,-0.06547262333333492,0.006419783574528992,-35.363351949999995,149.16496354999998,32026.5,10.0,2.0,0.5,0.5,10.5,-1007.5,486.0,-64.0,8.0,300000.0,AUTO
17:48:13,0.025156108662486076,-0.018020901363343,-1.9468620419502258,-0.6440385282039642,0.03507991321384907,0.002913267817348242,-35.363354,149.16496105,31958.5,4.0,-41.5,8.0,-8.5,-39.0,-1011.0,-642.0,36.0,4.5,92842.0,AUTO
17:48:15,0.0037013819674029946,0.015002716798335314,-1.945798933506012,-0.4800400957465172,0.0020156254759058356,0.0031189622241072357,-35.363355549999994,149.1649544,31773.0,17.0,-21.5,7.5,-1.5,-13.5,-1002.0,-477.0,2.5,4.5,92842.0,AUTO
17:48:16,0.011681282077915967,0.01415010099299252,-1.945775717496872,0.1328957057558,-0.0035779030877165496,3.237134660594165e-05,-35.363355325,149.16495355,31742.25,18.25,-8.25,1.5,0.5,-1.75,-1006.5,135.0,-2.5,1.75,183877.0,AUTO
17:48:17,0.006891764234751463,-0.007241691695526242,-1.9462772011756897,0.3935898467898369,-0.02295097056776285,0.0021500149741768837,-35.3633543,149.1649535,31745.0,14.5,0.5,-1.5,3.0,5.5,-995.0,395.5,-21.5,3.5,183877.0,AUTO
17:48:19,-0.004575046012178063,-4.0454748159390874e-05,-1.946525752544403,-0.2305983081459999,-0.002796070766635239,0.000791085883975029,-35.3633532,149.16495294999999,31771.5,7.0,-3.5,-4.0,1.0,-2.0,-1003.5,-227.5,-2.0,2.5,183877.0,RTL
17:48:20,-0.004769008868606761,0.0002910667171818204,-1.9464965164661407,-0.1080208383500576,-0.0008147128392010927,0.0007840441248845309,-35.363352750000004,149.16495255,31892.5,2.75,-0.75,-26.5,1.0,-11.5,-1035.5,-105.75,0.0,2.0,300000.0,RTL
17:48:21,-0.0067952703684568405,-0.001395501079969108,-1.9468811750411987,-0.09250470995903015,-0.00322832417441532,-0.0004820050089620054,-35.3633523,149.1649523,32587.5,-2.5,2.5,-79.5,0.0,-6.0,-1025.5,-90.0,-1.5,1.0,300000.0,RTL
17:48:23,-0.0001735711412038654,-0.0021777197252959013,-1.9475038647651672,0.05881540663540363,0.0010249765473417938,0.0004991879686713219,-35.3633524,149.1649523,34413.0,-4.0,3.5,-81.5,0.0,2.0,-981.0,61.0,1.5,2.0,300000.0,RTL
17:48:24,0.000647682467388222,-0.0015837987011764199,-1.9474178552627563,-0.03206495940685272,0.0012325071438681334,-0.0005386893171817064,-35.3633526,149.1649523,34978.25,-3.25,4.0,-62.5,-1.0,-1.0,-969.75,-29.75,2.0,0.75,150602.0,RTL
17:48:25,0.002786067489068955,-0.00040792983054416254,-1.9470176100730896,-0.41707614064216614,0.0006588204996660352,0.0008778380579315126,-35.36335305,149.1649523,35558.5,-0.5,4.0,-21.0,-0.5,-22.0,-966.0,-415.0,2.0,2.5,150602.0,RTL
17:48:27,0.013154150918126106,-0.00023103451530914754,-1.9466850757598877,0.43405862152576447,-0.0015787079464644194,0.0024235794553533196,-35.3633538,149.16495245,35596.5,7.0,2.5,5.0,-0.5,31.5,-1011.0,437.0,-0.5,3.5,150602.0,RTL
17:48:28,0.013190576108172536,-0.0018121821922250092,-1.9468907415866852,-0.1748779583722353,-0.0005083110154373571,0.0019469300750643015,-35.363354225,149.16495265,35621.25,9.5,1.5,-11.75,-1.5,-8.5,-1032.75,-172.75,0.75,3.5,49417.0,RTL
17:48:29,0.018955235369503498,-0.004898011218756437,-1.9468244910240173,-0.24066400527954102,-0.0024396185763180256,0.0014116961974650621,-35.363354900000004,149.16495325,36045.0,16.0,-1.5,-51.5,-1.0,-5.5,-1014.0,-237.0,-1.0,3.5,49417.0,RTL
17:48:31,0.02643365692347288,-0.003196528065018356,-1.9467962384223938,-0.27608250826597214,-0.0005186647176742554,-0.00010237604146823287,-35.3633558,149.1649539,36748.5,26.5,-8.0,-1.0,0.0,-27.0,-983.5,-273.5,1.0,1.5,49417.0,RTL
17:48:32,0.0246316478587687,-0.0039721979992464185,-1.9468782842159271,0.22811247780919075,0.00040025528869591653,0.001091814978281036,-35.363355875,149.164954025,36739.75,28.75,-9.25,3.5,-0.25,15.5,-1002.5,232.0,2.0,2.5,80388.0,RTL
17:48:33,0.023041896522045135,-0.00329529435839504,-1.9471909999847412,0.028327330946922302,0.0018703560344874859,0.0017736817244440317,-35.3633561,149.1649542,36756.5,32.0,-12.0,-15.0,0.5,8.5,-1038.5,33.5,3.0,3.0,80388.0,RTL
17:48:35,0.002326623478438705,-0.000297108810627833,-1.9468847513198853,-0.049344077706336975,0.0014059852983336896,0.0025506550446152687,-35.363354650000005,149.16495344999998,37593.5,24.0,-9.5,-37.5,2.0,4.0,-967.5,-44.5,2.5,4.0,80388.0,RTL
17:48:36,-0.001161309250164777,-0.0006929199007572606,-1.9470943212509155,-0.08356299996376038,-0.0019224996503908187,0.001510853471700102,-35.363353925,149.16495315,37773.25,17.25,-6.5,-10.0,1.75,-5.5,-963.5,-78.75,0.0,3.25,200.0,RTL
17:48:37,0.0019654614152386785,-0.0027297314954921603,-1.9469356536865234,-0.3647164814174175,-0.0002042811829596758,0.0006590549601241946,-35.3633533,149.1649529,37781.0,7.5,-1.5,5.0,0.5,-29.0,-1005.5,-360.5,1.0,2.0,200.0,RTL
17:48:39,0.0043066011276096106,-0.0031289662001654506,-1.9467275738716125,0.2341790646314621,0.0029522564727813005,0.0008720728801563382,-35.3633532,149.1649528,38210.0,4.5,-1.0,-51.5,0.0,12.0,-1017.0,238.5,4.0,2.5,200.0,RTL
17:48:40,0.0028048988024238497,-0.002435535308904946,-1.9472528398036957,0.05754854157567024,-0.0005662626645062119,0.0005750851123593748,-35.363353124999996,149.1649528,38600.75,3.0,-0.75,-45.5,0.0,2.75,-976.5,62.5,0.75,2.25,140353.0,RTL
17:48:41,-0.004562025394989178,-0.0025927425595000386,-1.947138786315918,-0.10612797737121582,-0.0022101327776908875,0.0005916380323469639,-35.3633531,149.1649527,38929.5,3.0,0.0,-2.5,0.0,15.0,-980.5,-100.5,-0.5,2.0,140353.0,RTL
17:48:43,0.008010444464161992,-0.002828530501574278,-1.9470115900039673,0.15878020972013474,-0.0008338554471265525,-0.00020191853400319815,-35.3633531,149.1649527,38953.5,2.5,0.0,-19.0,0.0,1.0,-1034.0,162.5,0.0,1.5,140353.0,RTL
17:48:44,0.007235818629851565,-0.003929426020476967,-1.9471546113491058,-0.04852838069200516,-0.00014024999109096825,-0.00037535681622102857,-35.36335335,149.164952775,39218.75,2.75,0.0,-45.5,-1.0,-2.5,-1031.25,-43.75,1.5,1.5,174122.0,RTL
17:48:45,0.015258020721375942,-0.0038180677220225334,-1.947645366191864,-0.06043975055217743,0.00036994926631450653,0.0005960318958386779,-35.363353849999996,149.16495305,39880.5,6.5,-1.0,-45.0,-1.0,-9.5,-965.5,-55.5,2.0,2.5,174122.0,RTL
17:48:47,0.01991911046206951,-0.0024372426560148597,-1.9471467733383179,0.5824815630912781,0.0016533674206584692,-0.0021446627215482295,-35.363354349999994,149.1649532,40144.0,12.0,-3.0,4.0,0.0,26.5,-1011.0,588.0,3.0,0.0,174122.0,RTL
17:48:48,0.00993819598807022,-0.0015760581009089947,-1.9472488164901733,-0.1548604415729642,0.002351578645175323,0.001000140851829201,-35.3633543,149.164953175,40134.75,13.25,-3.5,-5.25,0.0,-9.25,-1017.0,-149.75,3.5,2.75,132490.0,RTL
17:48:49,0.005422408110462129,-0.0013603675179183483,-1.9471243023872375,-0.23296281695365906,-0.00025809870567172766,0.0023924646666273475,-35.36335405,149.164953,40455.5,11.5,-2.0,-48.5,0.5,-12.5,-1032.0,-227.5,1.5,4.5,132490.0,RTL
17:48:51,-0.0052579287948901765,-0.00046887573262210935,-1.9472790360450745,0.06864911317825317,0.00136105390265584,0.004656618693843484,-35.36335305,149.16495255,41418.0,5.0,0.0,-17.0,0.0,15.0,-961.0,75.0,3.0,6.5,132490.0,RTL
17:48:52,-0.00897781056119129,-0.00027274837611912517,-1.9468096494674683,-0.15382767841219902,-0.000808746728580445,0.0013190160680096596,-35.36335255,149.16495225,41460.25,0.5,2.0,0.75,1.5,-18.75,-981.75,-148.5,0.75,3.25,145390.0,RTL
17:48:53,-0.010031680343672633,-0.0012097282451577485,-1.9467973709106445,0.1094059944152832,0.0005845072446390986,-0.0023501032264903188,-35.3633517,149.1649519,41427.0,-8.0,5.0,-3.0,1.0,-12.0,-1025.0,114.0,1.5,0.0,145390.0,RTL
17:48:55,-0.012946338392794132,-0.0023339837789535522,-1.9476611614227295,0.01434539258480072,-0.003206607303582132,-0.0010790064698085189,-35.363351,149.1649516,42157.0,-17.5,8.5,-54.0,0.5,-8.0,-988.5,19.0,-1.0,1.0,145390.0,RTL
17:48:56,-0.01604509772732854,-0.002317686565220356,-1.9470588564872742,-0.11956571042537689,0.0010239070979878306,0.0010688945767469704,-35.36335095,149.1649516,42498.25,-18.75,8.5,-32.0,0.0,-9.25,-962.0,-114.5,2.75,3.0,112040.0,RTL
17:48:57,-0.002970160567201674,-0.003562700585462153,-1.9468314051628113,0.3825027197599411,6.810692138969898e-05,0.002530408091843128,-35.3633511,149.1649517,42659.0,-19.5,9.0,3.0,-0.5,1.5,-983.5,386.0,1.5,4.5,112040.0,RTL
17:48:59,-0.004693094320828095,-0.004592767916619778,-1.9474985003471375,-0.09778736531734467,0.0006243315292522311,-0.0009341217810288072,-35.36335185,149.16495214999998,42780.5,-14.5,6.5,-33.0,-1.0,2.5,-1035.5,-93.5,1.5,1.5,112040.0,RTL
17:49:00,-0.002195700682932511,-0.0038942735409364104,-1.9475375711917877,0.07764630392193794,0.0004940975632052869,-0.00024816454970277846,-35.363352075,149.164952275,43134.25,-11.0,4.5,-53.0,0.0,2.75,-1015.0,81.75,2.25,2.0,300000.0,RTL
17:49:01,-0.01034955563955009,-0.0020614376990124583,-1.9476865530014038,0.2871767161414027,0.004200053866952658,0.0022625174606218934,-35.363351949999995,149.1649522,43763.0,-10.0,4.0,-30.5,0.0,17.5,-954.5,291.0,5.5,4.5,300000.0,RTL
17:49:03,-0.009918025694787502,-0.0037683661794289947,-1.9469957947731018,-0.5859737694263458,-0.004915390280075371,-0.0019127465202473104,-35.36335185,149.1649521,43864.0,-13.0,6.0,3.5,-1.5,-28.5,-1010.0,-582.0,-2.0,0.5,300000.0,RTL
17:49:04,0.0003864355785481166,-0.0040211970917880535,-1.9466353952884674,0.054189808666706085,0.0025683746789582074,0.00024725490948185325,-35.3633522,149.16495222499998,43909.5,-10.5,5.5,-16.75,-0.5,6.25,-1025.5,58.25,4.0,2.5,263279.0,RTL
17:49:05,0.004970676265656948,-0.0033459393307566643,-1.9472792744636536,0.29917575418949127,0.004017684026621282,0.001837803516536951,-35.3633528,149.16495245,44389.0,-3.5,2.5,-55.5,-1.0,15.5,-1014.0,302.5,5.5,4.0,263279.0,RTL
17:49:07,1.7433834727853537e-05,-0.0041141805704683065,-1.947041392326355,-0.5453307181596756,-0.0005075766239315271,-0.002242622897028923,-35.3633535,149.16495285000002,45093.0,2.0,0.5,-2.0,-0.5,-12.5,-975.0,-541.0,1.5,0.5,263279.0,RTL
17:49:08,0.016833795700222254,-0.004190017934888601,-1.9469122290611267,0.26447349414229393,0.0009477930725552142,0.00020133241196163,-35.36335385,149.164953025,45080.75,5.25,-0.5,2.5,-0.25,7.0,-993.75,267.75,2.5,2.0,151596.0,RTL
17:49:09,0.014364465605467558,-0.00301246449816972,-1.9475625157356262,0.3401762396097183,0.005165820475667715,0.001352714723907411,-35.3633542,149.1649533,45129.0,11.0,-3.5,-22.5,0.0,14.0,-1050.5,344.0,7.0,3.5,151596.0,RTL
17:49:11,0.005124817253090441,-0.0009625868988223374,-1.947298526763916,0.35957425832748413,0.0018578654271550477,0.0021602073684334755,-35.363353450000005,149.16495275,46099.0,7.5,-1.5,-46.5,0.0,11.5,-969.5,363.0,3.5,4.5,151596.0,RTL
17:49:12,-0.0017725264769978821,-0.0018840455450117588,-1.9469162821769714,0.0774664655327797,-0.0022378561552613974,0.000795389962149784,-35.363353225000004,149.16495264999998,46333.75,4.0,0.0,-17.0,0.0,8.75,-963.0,81.75,0.0,3.0,200.0,RTL
17:49:13,0.00028282462153583765,-0.0032417677575722337,-1.9471579194068909,-0.3959359899163246,-0.0009147587697952986,-0.0008303938084281981,-35.36335335,149.16495275,46374.5,2.5,0.5,2.5,0.0,-9.5,-996.5,-390.5,1.0,1.0,200.0,RTL
17:49:15,0.00931785348802805,-0.0032408955739811063,-1.9474774599075317,-0.015520095825195312,0.0017422952805645764,0.00029255455592647195,-35.3633537,149.1649529,46703.0,6.0,-1.0,-50.0,0.0,-7.5,-1026.5,-11.5,3.0,2.5,200.0,RTL
17:49:16,0.007140686619095504,-0.0026903983671218157,-1.9475542604923248,-0.07726078107953072,0.00018628506222739816,-0.0004883765068370849,-35.36335375,149.16495294999999,47137.25,7.0,-1.0,-58.25,-0.5,-0.5,-994.75,-72.75,2.25,1.75,259465.0,RTL
17:49:17,0.009395469445735216,-0.0022701191483065486,-1.9468712210655212,-0.46479982882738113,-0.0032670064829289913,0.0008757659234106541,-35.363354,149.164953,47690.5,8.0,-1.0,-18.5,0.0,-25.5,-962.0,-461.0,-0.5,3.5,259465.0,RTL
17:49:19,0.007896886207163334,-0.0014967434690333903,-1.947286605834961,0.4503879249095917,0.003277837997302413,0.003969446988776326,-35.363353700000005,149.1649529,47712.0,9.5,-2.0,-1.5,0.5,24.5,-1026.5,455.0,5.0,6.0,259465.0,RTL
17:49:20,-0.0007296616095118225,-0.0015842400607652962,-1.9470056891441345,-0.12266291119158268,0.002026140282396227,-0.00047896982869133353,-35.363353350000004,149.16495275,47821.75,6.5,-0.75,-26.75,0.25,-7.0,-1038.0,-118.25,3.5,1.75,200.0,RTL
17:49:21,-0.0018582995689939708,-0.001642474322579801,-1.9477383494377136,0.184784684330225,0.0013498321059159935,-0.00024348648730665445,-35.36335285,149.1649525,48406.0,1.5,0.5,-57.5,0.0,7.5,-998.0,189.0,3.0,2.0,200.0,RTL
17:49:23,0.001163827138952911,-0.002333085867576301,-1.9468455910682678,0.3706146292388439,0.002355884527787566,0.0015929293585941195,-35.3633527,149.1649524,49028.5,0.0,2.0,1.0,0.0,27.5,-991.0,375.5,4.0,4.0,200.0,RTL
17:49:24,-0.001034828572301194,-0.0027093683602288365,-1.9468665719032288,-0.20786112546920776,0.0005503718857653439,-0.0007849203539080918,-35.363352725,149.164952425,49008.0,-1.0,2.5,4.25,-0.5,-11.5,-996.0,-203.5,2.5,1.5,200.0,RTL
17:49:25,0.003508214605972171,-0.0036419708048924804,-1.9474350810050964,-0.1343613862991333,0.0004821374313905835,0.0021567002404481173,-35.3633528,149.1649526,49076.0,0.0,1.0,-23.5,0.0,-13.0,-1040.0,-130.5,2.5,4.5,200.0,RTL
17:49:27,0.002462497097440064,-0.0030381649266928434,-1.9470704793930054,-0.2175954431295395,-0.00035329500678926706,-0.00013217615196481347,-35.363353,149.16495264999998,49964.5,0.0,1.0,-30.0,0.0,-16.5,-960.0,-213.5,1.5,2.5,200.0,RTL
17:49:28,0.010677650876459666,-0.003540105128195137,-1.9469965994358063,0.21559041365981102,-0.000296297250315547,0.0011518134851939976,-35.363353274999994,149.16495275,50093.25,1.5,0.25,-4.5,0.0,8.75,-975.0,220.0,1.75,3.5,300000.0,RTL
17:49:29,0.005928840604610741,-0.003566968603990972,-1.9467341899871826,-0.07480514049530029,-0.0001802507322281599,-0.0007442038040608168,-35.3633537,149.164953,50075.5,6.5,-1.0,3.0,-1.0,10.5,-1019.5,-69.5,2.0,2.0,300000.0,RTL
17:49:31,0.021268119104206562,-0.004825805313885212,-1.9474939703941345,-0.21274449676275253,-0.003530190559104085,0.0007567147258669138,-35.36335485,149.1649536,50575.5,13.5,-4.5,-52.5,-0.5,-10.5,-1009.5,-207.0,-1.0,3.0,300000.0,RTL
17:49:32,0.019876913400366902,-0.003213270043488592,-1.9474741220474243,-0.0255429744720459,0.0034857993596233428,0.00035782455233857036,-35.36335505,149.16495365,50957.5,18.5,-6.5,-41.75,0.25,-2.0,-970.5,-20.25,5.0,2.75,223978.0,RTL
17:49:33,0.01335527072660625,-0.0016000118921510875,-1.94738107919693,-0.46676307171583176,0.002447830163873732,0.0013645055005326867,-35.36335495,149.1649536,51240.0,19.5,-7.0,-0.5,1.0,-32.5,-977.0,-461.5,4.5,3.5,223978.0,RTL
17:49:35,0.003212871728464961,-0.003358498099260032,-1.9470999240875244,-0.020061403512954712,-0.0007260789861902595,-0.0024113785475492477,-35.36335405,149.1649532,51274.5,13.0,-3.0,-22.0,-0.5,7.0,-1035.5,-14.0,1.0,0.5,223978.0,RTL
17:49:36,0.017851020209491253,-0.00470499531365931,-1.947495013475418,0.05658499151468277,7.457489846274257e-05,0.0003833757364191115,-35.3633543,149.164953325,51562.0,12.5,-3.25,-45.75,-0.5,0.5,-1022.5,62.5,2.25,3.0,55263.0,RTL
17:49:37,0.009577352786436677,-0.002107374428305775,-1.9471544027328491,0.049171268939971924,0.0053241216810420156,0.0022441387409344316,-35.363354349999994,149.16495335000002,52174.5,15.0,-5.5,-35.0,0.0,8.5,-961.5,55.0,7.5,5.0,55263.0,RTL
17:49:39,-0.0016940531932050362,-0.0016396314022131264,-1.946860432624817,-0.3063973896205425,-0.002539257286116481,0.0029174115043133497,-35.3633533,149.1649528,52323.5,6.5,-1.0,4.0,1.0,-30.0,-1007.0,-301.0,-0.5,5.5,55263.0,RTL
17:49:40,0.0006025450129527599,-0.0024070878862403333,-1.9469192922115326,0.002205164637416601,-0.0006472892418969423,7.24357960280031e-05,-35.3633531,149.16495275,52347.0,4.25,0.0,-11.5,0.5,2.25,-1033.25,8.25,1.5,3.25,9264.0,RTL
17:49:41,0.0016616378634353168,-0.0024057052796706557,-1.9473971128463745,0.12653498351573944,-0.0007012853166088462,0.0020636687986552715,-35.3633527,149.1649526,52766.5,0.5,0.0,-52.0,0.5,-4.0,-1015.5,132.0,2.0,4.5,9264.0,RTL
17:49:43,-0.002279504609759897,-0.0021953170653432608,-1.94719660282135,0.48228223621845245,0.002901255851611495,0.004602340050041676,-35.36335185,149.16495214999998,53507.5,-8.0,4.0,-3.0,0.5,5.0,-973.0,487.0,5.0,7.0,9264.0,RTL
17:49:44,-0.01350743614602834,-0.0025560797075740993,-1.9469005465507507,-0.24650127440690994,-0.0011274206917732954,0.0008864596602506936,-35.363351675000004,149.164952075,53498.75,-10.0,5.0,3.0,0.0,-3.0,-1005.5,-240.25,1.0,3.5,300000.0,RTL
17:49:45,-0.009928173385560513,-0.0022557073971256614,-1.9474141001701355,-0.3386542573571205,-0.001437358558177948,-0.001435464946553111,-35.3633516,149.164952,53527.5,-12.5,6.0,-18.5,0.0,-20.5,-1042.0,-333.0,1.0,1.0,300000.0,RTL
17:49:47,-0.013723202049732208,-0.0026124559808522463,-1.9471025466918945,-0.3283136859536171,-0.002489305683411658,0.0003470077645033598,-35.3633515,149.1649519,54427.5,-14.5,7.0,-43.5,0.0,-16.0,-968.0,-323.0,0.0,2.5,300000.0,RTL
17:49:48,-0.006035680882632732,-0.0029048165888525546,-1.9471122026443481,0.0513585451990366,-0.0009148562676273286,0.00036808225559070706,-35.363351650000006,149.164952,54644.5,-14.0,7.0,-15.0,-0.5,-0.5,-966.5,56.0,1.25,3.0,300000.0,RTL
17:49:49,-0.0017270328535232693,-0.002319678314961493,-1.9470553398132324,0.534615620970726,0.0013211796758696437,0.0006213611923158169,-35.36335165,149.164952,54678.5,-11.5,5.5,4.0,0.0,21.0,-1002.0,539.5,3.5,3.5,300000.0,RTL
17:49:51,-0.005203166947467253,-0.003966373857110739,-1.9470232725143433,0.05401763319969177,0.0012134348507970572,-0.0006887776544317603,-35.36335175,149.16495205,55029.5,-13.5,6.0,-49.0,-1.0,9.5,-1028.0,59.0,3.0,2.0,300000.0,RTL
17:49:52,0.002597400307422504,-0.0044912624871358275,-1.9472333788871765,0.05703261122107506,0.00045017391676083207,0.001546364394016564,-35.363352225,149.16495229999998,55434.5,-10.75,5.0,-49.25,-1.5,2.25,-981.25,61.75,2.75,4.25,200.0,RTL
17:49:53,0.008995092008262873,-0.0037815460236743093,-1.947017252445221,0.5097643136978149,0.001949178520590067,0.002317048143595457,-35.36335295,149.16495264999998,55852.0,-3.0,2.0,-6.5,-0.5,30.0,-970.0,514.0,4.0,5.0,200.0,RTL
17:49:55,0.010472015477716923,-0.0016371410456486046,-1.947167456150055,0.2564978450536728,0.0019137106137350202,0.000520505360327661,-35.3633534,149.16495275,55837.0,1.0,0.0,-7.0,0.0,0.5,-1055.5,260.5,4.5,3.5,200.0,RTL
17:49:56,-0.00139657873660326,-0.0010906923853326589,-1.9475080072879791,-0.048200706602074206,0.002789908496197313,0.0026006802218034863,-35.363353125,149.16495255,56018.5,1.75,0.0,-36.5,0.5,-3.75,-1037.5,-43.5,5.0,5.5,200.0,RTL
17:49:57,-0.013580892700701952,0.0006253145111259073,-1.947544276714325,0.09149225056171417,-0.00234352785628289,-0.0003637978807091713,-35.3633521,149.16495195,56639.0,-3.5,3.0,-50.5,1.5,-4.5,-980.5,95.5,0.5,2.5,200.0,RTL
17:49:59,-0.012646941468119621,-0.0025989614659920335,-1.946555733680725,0.495285227894783,-0.001905258628539741,0.0028063615318387747,-35.363351,149.1649516,57011.5,-15.0,8.5,3.5,0.0,29.5,-1007.0,499.5,0.5,6.0,200.0,RTL
17:50:00,-0.013551188167184591,-0.003858703712467104,-1.946321815252304,-0.21272137481719255,-0.0008821098017506301,-9.643076919019222e-05,-35.3633511,149.16495175,56994.5,-18.0,9.0,-1.5,-0.25,-9.5,-1013.75,-208.75,1.5,3.0,300000.0,RTL
17:50:01,-0.0005321353091858327,-0.005510163959115744,-1.9471827745437622,-0.1760676212143153,0.002759346039965749,-0.0014696776634082198,-35.363352,149.16495225,57242.5,-14.0,6.5,-43.0,-2.0,-4.0,-1033.5,-172.0,4.5,1.5,300000.0,RTL
17:50:03,0.0034927126253023744,-0.0037415901897475123,-1.9466280937194824,-0.23552798107266426,0.0008482439443469048,-0.0002114062663167715,-35.3633531,149.16495275,58179.5,-1.0,1.0,-20.0,-1.5,-1.5,-956.5,-231.5,3.0,2.5,300000.0,RTL
17:50:04,0.0065868851961568,-0.003195506811607629,-1.9468226432800293,0.05243312567472458,0.0016985216061584651,0.0016374359256587923,-35.3633533,149.164952825,58240.75,0.75,0.0,-0.25,-0.75,-2.5,-978.25,55.75,4.25,4.75,279622.0,RTL
17:50:05,0.02461108099669218,-0.0038912026211619377,-1.9466049075126648,0.39605746045708656,0.002272866782732308,0.00013730733189731836,-35.36335405,149.1649531,58214.5,5.5,0.0,-1.5,-1.0,7.0,-1020.5,399.5,4.5,3.5,279622.0,RTL
17:50:07,0.01883169636130333,-0.0019026483059860766,-1.947365641593933,0.1391207054257393,0.000387073028832674,-0.0008813366293907166,-35.3633548,149.1649534,58921.5,16.0,-4.0,-54.5,0.0,3.0,-993.5,143.5,3.0,2.0,279622.0,RTL
17:50:08,0.014460224192589521,-0.0020919719245284796,-1.947242796421051,-0.0804600641131401,-0.00015661856741644442,0.00048419309314340353,-35.3633548,149.1649534,59275.25,17.25,-4.25,-34.25,0.0,-2.75,-961.25,-76.0,2.25,3.75,136500.0,RTL
17:50:09,0.020293835550546646,-0.001642734045162797,-1.9467663168907166,0.3936692401766777,0.0026619110722094774,-0.000255606253631413,-35.3633546,149.1649533,59454.5,17.5,-4.5,2.5,1.0,0.5,-987.0,397.0,5.0,3.0,136500.0,RTL
17:50:11,0.011978587601333857,-0.00281773682218045,-1.9468845129013062,-0.123687744140625,0.0006700196536257863,-0.0007527777925133705,-35.3633544,149.1649533,59561.0,15.0,-3.5,-31.0,-0.5,2.5,-1038.5,-118.5,3.5,2.5,136500.0,RTL
17:50:12,0.01508803479373455,-0.0029834812157787383,-1.9473157227039337,0.06034467462450266,-0.0009616677998565137,0.00044944736873731017,-35.363354475,149.164953325,59903.5,15.5,-4.0,-50.25,0.25,1.75,-1014.0,65.25,1.75,3.75,2071.0,RTL
17:50:13,0.015720461029559374,-0.002455284586176276,-1.9469522833824158,0.33491839468479156,0.0016493636649101973,0.002620602725073695,-35.36335445,149.1649534,60495.5,16.5,-4.5,-26.5,0.0,12.5,-959.0,339.5,4.0,5.5,2071.0,RTL
17:50:15,-0.0005059243994764984,-0.0025059941690415144,-1.9466338157653809,-0.5675284266471863,-0.0013712258078157902,0.003130542580038309,-35.3633542,149.1649533,60569.0,14.0,-4.0,6.0,0.0,-7.0,-997.0,-561.0,1.0,6.0,2071.0,RTL
17:50:16,0.014860859606415033,-0.0033270165440626442,-1.9467583894729614,0.25720250234007835,-0.0010457157623022795,0.0006043931934982538,-35.363354275,149.1649533,60593.75,14.25,-4.0,-11.5,-0.25,16.5,-1038.75,262.5,1.5,3.5,216324.0,RTL
17:50:17,0.012737711425870657,-0.003579605370759964,-1.947090744972229,-0.3231576085090637,-0.0026683423202484846,0.0004137372598052025,-35.3633545,149.1649534,60900.5,15.5,-4.5,-43.0,-1.0,-15.0,-1019.0,-317.0,0.0,3.5,216324.0,RTL
17:50:19,0.004054347053170204,-0.0004136370225751307,-1.9467766880989075,-0.0033397353254258633,-0.00019013660494238138,0.0008471398614346981,-35.363353950000004,149.16495315,61621.0,14.5,-4.5,-8.5,1.5,-3.0,-984.5,3.0,2.0,4.0,216324.0,RTL
17:50:20,-0.003060067363549024,-0.001445426169084385,-1.9466822743415833,-0.01627335697412491,0.0006911158852744848,0.0011028306325897574,-35.36335335,149.16495285000002,61634.0,8.5,-1.75,3.25,0.0,3.5,-999.75,-10.0,3.25,4.25,9050.0,RTL
17:50:21,0.0011979245173279196,-0.0021137685980647802,-1.9467028975486755,0.21328552067279816,-0.0010215967195108533,0.0002751210704445839,-35.36335295,149.1649526,61670.5,3.5,0.0,-14.5,0.5,7.0,-1024.0,218.5,1.5,3.5,9050.0,RTL
17:50:23,0.00412760121980682,-0.002581221400760114,-1.9467667937278748,0.15603655856102705,0.0005194826517254114,0.0008360249921679497,-35.3633527,149.1649526,62485.5,-0.5,1.0,-42.5,0.0,-5.0,-969.0,161.0,3.5,4.5,9050.0,RTL
17:50:24,-0.002872771059628576,-0.0024581793695688248,-1.94686821103096,-0.031441960483789444,-0.001055078231729567,0.0003166798851452768,-35.3633526,149.1649526,62781.0,-1.25,1.0,-9.25,0.5,2.0,-967.25,-25.25,1.75,3.5,62066.0,RTL
17:50:25,-0.004491434432566166,-0.0017051906324923038,-1.946845293045044,0.09739210456609726,0.002624832501169294,6.406893953680992e-05,-35.3633524,149.1649524,62790.0,-3.0,1.5,2.5,0.5,1.5,-998.0,103.5,5.0,3.0,62066.0,RTL
17:50:27,-0.01730701792985201,-0.0014904881827533245,-1.947242021560669,-0.2570207193493843,-0.0006935411365702748,0.001177511876448989,-35.3633515,149.1649519,63138.0,-11.0,5.5,-48.0,0.0,-8.0,-1027.5,-251.0,2.0,4.5,62066.0,RTL
17:50:28,-0.012590892612934113,-0.003034557739738375,-1.9473434090614319,-0.10801221802830696,-0.0033512206573504955,0.000638810102827847,-35.363351375,149.164951825,63687.5,-15.0,7.75,-52.75,-0.25,-1.5,-976.25,-102.0,0.0,4.0,55116.0,RTL
17:50:29,-0.005530939088203013,-0.004571098135784268,-1.9467832446098328,-0.17984984815120697,0.0007016914896667004,0.0004052920266985893,-35.363351800000004,149.16495215,64049.5,-13.0,6.5,-17.5,-0.5,2.5,-962.0,-174.0,3.0,4.0,55116.0,RTL
17:50:31,0.01692568836733699,-0.006072273012250662,-1.9465782046318054,0.15681032091379166,0.002137522562406957,-0.000446495832875371,-35.36335345,149.16495305,64105.5,-0.5,1.0,-8.0,-2.5,6.0,-1027.5,161.5,4.5,3.0,55116.0,RTL
17:50:32,0.022089127451181412,-0.00535698770545423,-1.9470404386520386,0.08518863469362259,0.00200776185374707,-0.0007738897693343461,-35.363354375,149.16495345,64329.25,7.5,-2.5,-40.75,-2.0,6.5,-1033.75,91.0,5.0,2.75,200.0,RTL
17:50:33,0.0315446350723505,-0.003924058051779866,-1.9469047784805298,0.3136431649327278,0.004056810867041349,0.0011586234904825687,-35.3633552,149.16495375,64842.5,16.5,-5.5,-51.5,-2.0,7.5,-990.0,319.0,6.5,4.5,200.0,RTL
17:50:35,0.020430895034223795,-0.0010048171097878367,-1.9466586709022522,0.08355769119225442,5.7574943639338017e-05,0.0023693524999544024,-35.36335555,149.16495375,65345.0,26.0,-8.0,2.5,0.5,3.5,-989.5,89.5,3.0,5.5,200.0,RTL
17:50:36,0.012506773229688406,-0.0009133531129918993,-1.9465250968933105,0.14251483231782913,0.002625470864586532,0.0034145572572015226,-35.363355025,149.16495350000002,65323.75,24.25,-7.5,-1.5,0.75,1.75,-1021.0,148.75,5.25,6.75,200.0,RTL
17:50:37,0.005125922441948205,-0.001475789031246677,-1.9466425776481628,-0.3271760493516922,-0.0036063703009858727,-0.00046781357377767563,-35.3633545,149.16495325,65509.0,19.0,-5.0,-33.5,0.5,-17.0,-1036.0,-320.5,0.0,3.0,200.0,RTL
17:50:39,0.006567852338775992,-0.002495941356755793,-1.9467422366142273,-0.05242931842803955,0.0017645865445956588,0.0021022092550992966,-35.3633539,149.16495315,66364.5,13.0,-3.5,-22.0,1.5,-8.5,-954.5,-45.5,4.5,5.5,200.0,RTL
17:50:40,0.0011733578285202384,-0.0025376167031936347,-1.9464703798294067,0.1310305129736662,0.00010172423208132386,0.00043064579949714243,-35.36335345,149.16495304999998,66464.0,9.25,-2.75,1.0,0.75,11.25,-999.5,138.5,2.75,4.0,200.0,RTL
17:50:41,-0.0003522038459777832,-0.003442297107540071,-1.9462817907333374,-0.10354246944189072,-0.0012817532988265157,0.002199486712925136,-35.363353149999995,149.1649529,66449.5,5.0,-1.5,-3.5,0.5,-5.0,-1012.0,-96.5,2.0,5.5,200.0,RTL
17:50:43,0.0024267257831525058,-0.004526619566604495,-1.9471856355667114,0.032288409769535065,0.002903263084590435,0.0012804578291252255,-35.363353,149.1649529,67114.5,1.5,-1.0,-55.0,-0.5,10.0,-998.5,40.0,5.5,5.0,200.0,RTL
17:50:44,0.004791584622580558,-0.003960005298722535,-1.9467338025569916,-0.02559039741754532,-0.0013352514943107963,-9.849743219092488e-05,-35.363353,149.1649529,67591.25,1.0,-1.0,-31.0,0.0,-5.75,-960.75,-18.75,1.75,3.25,200.0,RTL
17:50:45,-0.0013207950978539884,-0.0031024417839944363,-1.9469479322433472,-0.008744724094867706,0.0005598126444965601,0.00027981074526906013,-35.36335285,149.16495285000002,67730.5,0.5,-0.5,-2.0,0.5,-3.5,-982.0,-2.0,3.5,3.5,200.0,RTL
17:50:47,0.0012258945498615503,-0.0034209243021905422,-1.9468331933021545,0.2028285227715969,0.003869813517667353,-0.0008671265095472336,-35.36335235,149.16495255,67835.5,-4.5,1.0,-27.5,-0.5,1.5,-1038.0,209.5,6.5,3.0,200.0,RTL
17:50:48,-0.0004980897065252066,-0.004310529213398695,-1.9468324184417725,0.023637713864445686,-0.001046228630002588,0.00028691068291664124,-35.3633524,149.164952575,68270.0,-4.5,1.0,-55.5,0.0,0.5,-1011.75,30.25,1.75,3.75,115581.0,RTL
17:50:49,-0.0005906443111598492,-0.003949593403376639,-1.9469268321990967,-0.029904991388320923,-0.004323096945881844,0.0015475805848836899,-35.3633524,149.1649526,68781.5,-5.0,1.0,-38.5,0.0,-16.0,-963.0,-23.5,-0.5,5.5,115581.0,RTL
17:50:51,-0.001743445172905922,-0.0031186717096716166,-1.9469785690307617,-0.05082559585571289,-0.0025549696292728186,-0.0013181243557482958,-35.3633523,149.1649526,68999.5,-4.5,0.5,1.5,1.0,-10.5,-1006.0,-44.5,0.5,2.0,115581.0,RTL
17:50:52,-0.013104107696563005,-0.0028753549559041858,-1.946547657251358,-0.01725652627646923,-0.002880664833355695,0.0012705244589596987,-35.36335185,149.16495237499998,69050.0,-7.25,1.5,-19.5,1.0,3.5,-1044.75,-10.25,0.25,5.0,78267.0,RTL
17:50:53,-0.013263693545013666,-0.0048695760779082775,-1.9466798305511475,-0.18895295285619795,-0.0057966302847489715,-0.002062695100903511,-35.3633515,149.16495225,69434.0,-12.5,3.5,-50.0,0.5,-14.0,-1022.0,-182.5,-2.0,2.0,78267.0,RTL
17:50:55,-0.00550803557416657,-0.0046767378225922585,-1.946576178073883,0.022997427731752396,0.0012333341874182224,0.0018098519649356604,-35.363351449999996,149.1649523,70228.0,-15.0,4.0,-9.5,0.0,-6.5,-972.0,29.0,4.0,5.5,78267.0,RTL
17:50:56,-0.010646437629475258,-0.004241398943122476,-1.9465029537677765,0.041257038712501526,0.00035651662619784474,-0.0008956617093645036,-35.363351425,149.164952225,70241.25,-14.75,4.0,3.25,0.0,9.0,-1005.0,48.0,3.5,3.0,47416.0,RTL
17:50:57,-0.0034306336019653827,-0.003877065610140562,-1.946715533733368,0.22912244126200676,0.0016213491326197982,0.001399042084813118,-35.3633515,149.1649522,70270.5,-14.5,4.0,-13.0,0.0,4.5,-1027.0,234.5,4.0,5.0,47416.0,RTL
17:50:59,0.00199546804651618,-0.004934594733640552,-1.946635127067566,0.25344918947666883,-0.0009868383640423417,0.00031054276041686535,-35.36335185,149.16495235000002,71090.5,-13.5,3.5,-44.5,-0.5,5.0,-973.5,258.5,2.5,4.0,47416.0,RTL
17:51:00,-0.0032435826724395156,-0.0052572996355593204,-1.9466602802276611,-0.1908886954188347,-0.001767751935403794,-1.3223907444626093e-05,-35.36335225,149.164952575,71417.75,-9.25,2.5,-11.5,-0.5,-2.5,-965.5,-185.0,1.25,3.75,132620.0,RTL
17:51:01,0.002981926314532757,-0.004769100109115243,-1.9464499354362488,0.07102594524621964,0.00017909705638885498,0.0012861061841249466,-35.36335255,149.16495275,71443.5,-5.0,1.0,3.0,-0.5,3.0,-988.0,76.5,2.5,5.0,132620.0,RTL
17:51:03,-0.0068520475178956985,-0.004021493950858712,-1.946806252002716,-0.24240390211343765,-0.0022549727000296116,0.0010045007802546024,-35.3633526,149.16495275,71687.5,-3.5,0.0,-41.0,0.0,-7.0,-1028.0,-236.5,0.5,5.0,132620.0,RTL
17:51:04,-0.008312855323310941,-0.003892458917107433,-1.9470645189285278,-0.054695820435881615,0.0005824402323924005,0.0003154173609800637,-35.363352250000005,149.1649526,72195.5,-5.0,0.25,-52.5,0.25,-0.75,-988.25,-49.25,3.0,4.0,300000.0,RTL
17:51:05,-0.013967301696538925,-0.003685930627398193,-1.9467072486877441,-0.23231225460767746,-0.0007945721736177802,0.00038798653986305,-35.3633519,149.16495245,72583.0,-8.5,2.0,-21.0,0.0,-4.5,-958.5,-226.5,2.0,4.0,300000.0,RTL
17:51:07,-0.0036001037224195898,-0.004816652741283178,-1.946585476398468,-0.09409463405609131,6.881513400003314e-05,-4.0623126551508904e-05,-35.363351949999995,149.16495245,72650.5,-10.0,2.5,-4.5,0.0,-2.0,-1023.5,-89.0,2.5,3.5,300000.0,RTL
17:51:08,-0.003469922987278551,-0.004962026257999241,-1.9468611180782318,0.03843614086508751,0.0003081943723373115,-0.00028644572012126446,-35.363352025,149.1649525,72838.5,-8.75,1.5,-36.75,0.25,-1.5,-1034.25,43.25,3.25,3.25,218358.0,RTL
17:51:09,-0.00699788867495954,-0.0044300544541329145,-1.9469648003578186,-0.10980958491563797,-0.002464243909344077,0.00044852751307189465,-35.3633519,149.1649525,73328.0,-10.0,1.5,-49.5,0.0,-15.5,-990.5,-105.0,0.5,4.0,218358.0,RTL
17:51:11,-0.0031346961623057723,-0.005141342291608453,-1.9463075399398804,-0.05734878405928612,0.00047582085244357586,-0.0017879288643598557,-35.36335205,149.16495255,73814.0,-10.0,2.5,1.5,0.0,-1.0,-993.0,-52.0,3.0,2.0,218358.0,RTL
17:51:12,-0.0004571486497297883,-0.005541058140806854,-1.946027010679245,0.20410613156855106,0.0004484230885282159,-0.0004023761721327901,-35.363352275000004,149.16495262499998,73793.0,-7.25,1.0,-1.75,-0.5,6.75,-1024.75,208.5,3.0,3.25,300000.0,RTL
17:51:13,-0.00011274893768131733,-0.00533146969974041,-1.9466465711593628,-0.19852088391780853,0.0015572009142488241,-0.0010174134513363242,-35.36335255,149.16495275,73978.0,-5.5,0.5,-34.5,-1.5,-0.5,-1031.0,-193.5,4.0,2.5,300000.0,RTL
17:51:15,0.00248762039700523,-0.0042551979422569275,-1.9466972947120667,-0.2644818536937237,-6.0909194871783257e-05,-0.001078535569831729,-35.3633533,149.16495305,74866.5,1.0,-1.0,-26.0,-1.0,0.0,-959.0,-259.5,2.5,2.5,300000.0,RTL
17:51:16,0.010637338447850198,-0.004292216384783387,-1.945984810590744,0.2817729744128883,-0.0008193480898626149,-0.00017791858408600092,-35.363353450000005,149.1649531,74987.25,3.25,-1.25,0.75,-0.5,10.25,-992.5,286.25,1.5,3.5,104722.0,RTL
17:51:17,0.014003744116052985,-0.005285613005980849,-1.9461205005645752,-0.012960612773895264,0.002423915429972112,-2.9889517463743687e-05,-35.3633538,149.16495325,74973.5,6.0,-2.0,-3.5,-1.0,-2.5,-1017.5,-8.0,5.0,3.5,104722.0,RTL
17:51:19,0.024490782991051674,-0.005589015316218138,-1.9468750357627869,0.25473111122846603,-0.003329062252305448,-0.0006319353124126792,-35.363354799999996,149.1649538,75618.0,15.0,-6.5,-53.5,-0.5,3.0,-999.5,259.0,-0.5,3.0,104722.0,RTL
17:51:20,0.021276616724207997,-0.004350832605268806,-1.9467308521270752,0.031980857253074646,0.001814381335861981,0.00030074932146817446,-35.363354975,149.164953925,76094.0,18.75,-8.75,-30.25,0.0,-3.0,-955.25,37.0,4.5,3.75,300000.0,RTL
17:51:21,0.009937819559127092,-0.0032628211192786694,-1.945979118347168,-0.05690401792526245,0.0006245010299608111,5.399028304964304e-05,-35.3633547,149.16495375,76228.0,19.0,-9.0,-0.5,0.5,2.0,-977.0,-51.0,3.0,4.0,300000.0,RTL
17:51:23,-0.004451648361282423,-0.0029523910488933325,-1.946502685546875,-0.03875094652175903,-0.00372930004959926,-0.000255372142419219,-35.36335345,149.16495315,76336.0,10.0,-5.0,-27.5,0.5,7.5,-1035.5,-32.5,-0.5,3.5,300000.0,RTL
17:51:24,-0.00401334889465943,-0.0031063600326888263,-1.9468901753425598,0.008702732622623444,-0.0014100849512033165,-0.0003472862299531698,-35.363352825,149.164952875,76770.25,3.25,-2.5,-54.25,0.75,-1.0,-1005.75,14.5,1.25,3.25,187623.0,RTL
17:51:25,-0.004380399652291089,-0.003496337099932134,-1.9468500018119812,0.06803412735462189,0.002768615842796862,-0.0006792853819206357,-35.36335245,149.16495275,77265.5,-0.5,-0.5,-36.5,0.0,13.5,-965.0,74.5,5.0,3.0,187623.0,RTL
17:51:27,-0.003397447057068348,-0.0048599462024867535,-1.9462844133377075,-0.08683578670024872,-0.0016849517123773694,-0.0009814088698476553,-35.36335205,149.1649526,77461.0,-6.0,1.0,1.0,-0.5,-8.5,-1006.0,-81.5,1.5,2.5,187623.0,RTL
17:51:28,0.0038933102041482925,-0.00581401854287833,-1.9460663497447968,-0.018161818385124207,-0.0015793053607922047,-0.0004509675782173872,-35.363352400000004,149.16495275,77533.25,-6.25,1.25,-22.5,-1.75,-0.75,-1038.0,-12.75,1.0,3.0,136262.0,RTL
17:51:29,0.01994063938036561,-0.006150511093437672,-1.9464460611343384,0.08942313678562641,-0.0014990846393629909,-0.0013385036727413535,-35.363353399999994,149.16495335,77940.5,-0.5,0.0,-52.0,-2.0,-1.5,-1019.5,94.5,1.0,2.5,136262.0,RTL
17:51:31,0.018811075016856194,-0.005712176440283656,-1.9465216398239136,-0.09446954727172852,0.0033852612832561135,0.0013212120393291116,-35.36335455,149.1649542,78758.5,15.0,-7.0,-10.5,0.0,-10.0,-963.5,-89.0,5.5,5.0,136262.0,RTL
17:51:32,0.006718477699905634,-0.0028158468776382506,-1.9461593925952911,-0.23341134190559387,0.000123196019558236,-0.0011197756975889206,-35.3633543,149.164954,78771.5,16.0,-8.0,3.25,0.25,-6.5,-1003.25,-226.75,2.5,2.75,190745.0,RTL
17:51:33,0.007445948431268334,0.0012412134528858587,-1.9461475610733032,0.10981640219688416,0.0005803704261779785,0.0002803681418299675,-35.36335385,149.16495385000002,78805.0,14.0,-5.0,-15.5,1.0,1.5,-1034.0,116.0,3.0,3.5,190745.0,RTL
17:51:35,0.0020700914901681244,-0.006129317971499404,-1.9465808868408203,0.19984844326972961,-0.01226780191063881,-0.0013414588756859303,-35.3633528,149.16495475,79650.5,9.0,3.5,-47.5,2.0,19.0,-978.0,206.5,-9.0,2.0,190745.0,RTL
17:51:36,0.0013541984371840954,-0.012318090884946287,-1.946695625782013,-0.1110343262553215,0.007612241373863071,-0.0006868212949484587,-35.363352449999994,149.164955375,79986.0,4.25,-1.0,-12.75,0.5,-6.25,-961.75,-105.0,9.75,2.75,200.0,RTL
17:51:37,0.00012217159382998943,-0.0034223415423184633,-1.9462009072303772,0.02012316882610321,0.0023720486788079143,-0.002210637670941651,-35.3633522,149.1649553,80016.5,1.0,-3.0,2.0,1.5,-1.0,-990.5,26.5,5.0,1.5,200.0,RTL
17:51:39,-0.00019317981787025928,0.009412619518116117,-1.9464654326438904,0.1320282258093357,-0.013456536456942558,-0.0005573611706495285,-35.3633514,149.16495615,80262.0,2.5,14.5,-39.5,2.5,-1.0,-1023.5,138.0,-10.5,2.5,200.0,RTL
17:51:40,0.000928416644455865,-0.00821359344990924,-1.9467411041259766,-0.0488121397793293,-0.02822915092110634,8.259719470515847e-05,-35.363350950000005,149.1649583,80736.75,4.0,18.25,-46.0,3.0,-1.0,-981.25,-42.5,-25.25,3.75,300000.0,RTL
17:51:41,0.0007886288221925497,-0.02234741486608982,-1.9463623762130737,-0.21308991312980652,0.010234585031867027,-0.002778566558845341,-35.363350749999995,149.16495985,81062.0,0.0,3.5,-15.5,1.0,-11.5,-969.5,-206.5,13.0,1.0,300000.0,RTL
17:51:43,-0.003303250065073371,0.01765673840418458,-1.9463976621627808,-0.04581756144762039,0.02162723382934928,-0.00332200201228261,-35.363350499999996,149.16495989999999,81111.0,2.0,5.0,-7.0,3.5,-3.5,-1025.0,-39.5,23.5,0.5,300000.0,RTL
17:51:44,-0.01709539140574634,0.024527286645025015,-1.9465545117855072,-0.003478173166513443,-0.019801004673354328,-0.0006613705772906542,-35.363349125,149.164961225,81297.75,6.5,28.0,-31.75,7.5,2.0,-1022.0,2.75,-17.0,2.5,300000.0,RTL
17:51:45,-0.022272842936217785,-0.013910291949287057,-1.9460899233818054,0.08830692619085312,-0.053153254091739655,-0.0025489383842796087,-35.3633473,149.1649645,81672.0,0.5,34.0,-33.5,6.5,16.5,-988.0,95.0,-50.0,1.5,300000.0,RTL
17:51:47,-0.007722053909674287,0.0034460730385035276,-1.944275975227356,0.011036131531000137,0.04699821025133133,-0.004534546751528978,-35.36334665,149.1649667,81931.0,-18.0,2.0,2.0,0.0,5.0,-1010.5,17.0,49.0,-0.5,300000.0,RTL
17:51:48,-0.0147982572671026,0.03911356348544359,-1.945494830608368,-0.20966863632202148,0.01975758990738541,-0.0028343168669380248,-35.363346525,149.1649672,81939.25,-9.0,23.5,-8.25,3.5,-2.25,-1023.75,-203.5,21.75,1.0,300000.0,RTL
17:51:49,-0.010018790606409311,0.02340903552249074,-1.945980191230774,0.31256695091724396,-0.04259716905653477,-0.0019807195058092475,-35.36334535,149.1649714,82144.5,5.0,54.5,-27.5,9.0,18.5,-1013.5,317.5,-39.5,1.5,300000.0,RTL
17:51:51,-0.008383401785977185,-0.03914647130295634,-1.9438686966896057,-0.08128029108047485,0.060042859986424446,-0.00013071694411337376,-35.3633432,149.1649798,82574.0,-13.5,5.0,-3.5,0.5,-1.0,-983.0,-76.0,61.5,3.5,300000.0,RTL
17:51:52,-0.004700144927483052,0.024674409563886,-1.9440401494503021,0.03921368718147278,0.06536627188324928,-0.006254671432543546,-35.363343375,149.164979275,82572.5,-14.0,0.0,2.0,0.5,-4.25,-1006.5,44.25,67.0,-2.25,200.0,RTL
17:51:53,-0.02333253063261509,0.06416399963200092,-1.944965660572052,-0.21965527534484863,0.02022198587656021,0.0015028470661491156,-35.3633421,149.16498095,82613.5,4.5,47.0,-9.5,9.5,-4.0,-1012.0,-214.0,22.5,5.5,200.0,RTL
17:51:55,-0.026172406505793333,-0.06127345934510231,-1.941102147102356,-0.16679729521274567,-0.02362147718667984,-0.005615513771772385,-35.36333655,149.1649956,82969.5,-4.5,55.5,-11.0,10.0,-2.5,-978.5,-163.0,-21.0,-2.0,200.0,RTL
17:51:56,-0.011166029493324459,-0.041383717412827536,-1.9395062625408173,-0.20056116580963135,0.09502396173775196,0.002591089461930096,-35.363336475,149.16499827500002,83027.25,-27.5,0.5,0.75,-4.25,-2.5,-994.0,-195.75,96.75,6.25,87326.0,RTL
17:51:57,0.006208761362358928,0.06728754378855228,-1.9403356313705444,0.0839807391166687,0.09169120341539383,-0.002066575107164681,-35.363337599999994,149.16499844999998,83010.0,-11.0,20.5,-1.0,1.5,7.5,-1010.0,88.5,93.5,1.5,87326.0,RTL
17:51:59,-0.018774887546896935,0.0737883411347866,-1.9393641948699951,-0.2708165720105171,0.01691872626543045,-0.001271500252187252,-35.3633326,149.16501614999999,83150.5,51.5,131.0,-11.0,29.5,5.0,-1000.0,-266.0,19.0,2.5,87326.0,RTL
17:52:00,-0.022956821136176586,0.10075104609131813,-1.940085083246231,0.045609813183546066,0.03241509897634387,0.0023048301809467375,-35.36332695,149.16503325,83237.0,72.75,181.25,-4.75,40.5,25.25,-994.5,50.0,34.25,6.0,183793.0,RTL
17:52:01,-0.037108877673745155,0.12849917635321617,-1.9407352805137634,-0.2497861534357071,0.021626472065690905,-0.015310388058423996,-35.36331885,149.1650571,83244.0,98.0,248.0,2.0,53.0,16.5,-994.0,-246.5,23.5,-11.5,183793.0,RTL
17:52:03,-0.047070298343896866,0.04728624224662781,-1.935873568058014,-0.27750689536333084,-0.03480987157672644,-0.008375732693821192,-35.363297450000005,149.16512355,83251.5,120.0,318.5,-3.0,70.0,30.0,-995.0,-273.0,-32.0,-5.0,183793.0,RTL
17:52:04,-0.036113419104367495,0.02722599939443171,-1.9353026151657104,0.15190092846751213,-0.0327905067242682,-0.0011467649601399899,-35.363286974999994,149.16515805,83265.5,111.75,299.25,0.0,63.75,48.5,-1007.5,155.75,-30.25,2.5,300000.0,RTL
17:52:05,-0.03748960979282856,-0.010083045111969113,-1.9344782829284668,-0.16899319738149643,-0.04187852516770363,0.003453482873737812,-35.36327755,149.16518904999998,83267.0,97.5,256.0,0.0,55.0,33.0,-992.5,-164.5,-39.5,7.5,300000.0,RTL
17:52:07,-0.0056476290337741375,-0.06894677691161633,-1.9337660670280457,0.024668335914611816,0.019136490765959024,0.007808753987774253,-35.3632659,149.16523015,83255.0,40.0,98.5,2.0,22.5,24.5,-1007.5,29.5,21.0,11.0,300000.0,RTL
17:52:08,0.0035105148563161492,-0.03901333827525377,-1.9340185821056366,-0.18810295313596725,0.020730613498017192,0.0008314411388710141,-35.36326390000001,149.16523807500002,83237.25,20.0,37.0,0.75,8.5,-1.25,-1004.0,-184.0,22.5,4.25,300000.0,RTL
17:52:09,0.006651824514847249,-0.022715642116963863,-1.9336943626403809,-0.022555530071258545,0.017564541660249233,-0.0020553225185722113,-35.363263,149.16524075,83235.5,12.0,7.5,0.0,3.5,2.5,-995.5,-18.0,19.0,1.5,300000.0,RTL
17:52:11,-0.000172516331076622,-0.006761422482668422,-1.9334070682525635,-0.021284133195877075,-0.014953517238609493,-0.00366250763181597,-35.36326185,149.1652414,83242.5,6.0,-1.5,0.5,1.0,-1.5,-1005.5,-17.0,-12.5,0.0,300000.0,RTL
17:52:12,-0.00010759038559626788,-0.013466649921610951,-1.9334911704063416,-0.21173073537647724,0.0031275805085897446,0.0002233229170087725,-35.3632616,149.165241375,83244.75,0.75,-7.0,0.25,-0.75,-11.0,-997.25,-207.0,4.5,3.25,252595.0,RTL
17:52:13,0.00469578814227134,-0.0075913891196250916,-1.933429479598999,0.021328210830688477,0.013267341069877148,-0.0011931763729080558,-35.3632616,149.1652406,83244.5,-1.0,-10.5,0.5,-0.5,-5.5,-993.5,26.0,14.5,2.0,252595.0,RTL
