time_stamp,RTL_ALT,roll,pitch,yaw,rollspeed,pitchspeed,yawspeed,lat,lon,relative_alt,vx,vy,vz,MODE,xacc,yacc,zacc,xgyro,ygyro,zgyro
14:23:46,1500.0,-0.000701216806191951,0.001057322253473103,0.0250762440264225,0.00013656506780534983,0.00026905580307357013,0.0021200452465564013,-35.36326215,149.1652375,0.0,-1.0,0.5,-0.5,STABILIZE,0.0,1.0,-1000.0,0.0,0.0,0.0
14:23:59,255737.0,-0.0007807182264514267,0.0010027863706151645,0.020953018218278885,0.0002776459053469201,0.00019627124614392719,0.001423765633565684,-35.3632622,149.1652375,1.5,-1.0,0.5,-1.0,AUTO,0.0,1.6666666666666667,-1000.0,0.3333333333333333,0.3333333333333333,0.3333333333333333
14:24:00,255737.0,-0.0007611348410136998,0.0009970369283109903,0.02083532325923443,0.00021462328732013702,0.00012950447853654623,0.0013735592365264893,-35.3632622,149.1652375,6.0,-1.0,1.0,0.0,AUTO,0.0,1.0,-1000.0,1.0,0.0,0.0
14:24:02,269278.0,-0.00015491889977662746,0.0014203614555299282,0.02030915083984534,0.00036800615877533954,0.0002591136144474149,0.00135217832090954,-35.3632621,149.1652375,25.0,0.0,0.3333333333333333,-1.6666666666666667,AUTO,0.0,1.3333333333333333,-1000.0,0.3333333333333333,0.3333333333333333,0.0
14:24:04,282819.0,0.0018299006624147296,0.00029573551728390157,0.019788453355431557,-0.004366392735391855,0.0034628959838300943,0.001908391248434782,-35.3632621,149.1652375,239.0,0.0,1.0,-77.0,AUTO,0.0,0.0,-1129.0,-3.0,4.0,1.0
14:24:05,156101.0,0.03570177173241973,-0.003302551369415596,0.01994605828076601,0.04444517567753792,-0.008221033494919538,0.002934509248007089,-35.363262,149.165237775,1802.5,1.75,14.0,-146.5,AUTO,0.25,-1.25,-1010.0,44.75,-7.0,2.0
14:24:06,156101.0,0.05820239335298538,-0.003883637604303658,-0.012613493017852306,-0.025790246203541756,0.044782239478081465,-0.05412474391050637,-35.3632616,149.1652398,2951.0,8.5,45.0,-147.0,AUTO,1.0,-7.5,-995.0,-25.5,45.5,-54.5
14:24:08,161408.5,-0.066993722692132,-0.00016631117614451796,-0.0964185893535614,0.051786016672849655,-0.002143175690434873,-0.017147245351225138,-35.3632608,149.16524564999997,5989.0,-2.0,-30.0,-148.0,AUTO,-2.0,3.5,-1001.5,52.0,-1.5,-17.0
14:24:10,166716.0,0.05980943329632282,0.012256449088454247,-0.10099463164806366,0.06192508526146412,-0.0019086900283582509,0.004401639453135431,-35.3632627,149.16523475,9086.5,-19.5,-22.5,-152.0,AUTO,-0.5,8.0,-1002.0,62.0,-1.5,3.5
14:24:11,81568.0,-0.0012385579757392406,-0.03159302822314203,-0.05985707510262728,-0.07358377985656261,0.04389266576617956,-0.0364754656329751,-35.36326345,149.16523585000002,11015.25,14.5,23.0,-147.75,AUTO,0.75,-5.75,-1001.75,-72.0,44.25,-36.5
14:24:12,81568.0,-0.025862841866910458,0.0036355676129460335,-0.1092812791466713,0.006676081335172057,0.030728189274668694,-0.06649314612150192,-35.36326205,149.16523705,12166.5,23.0,3.5,-150.0,AUTO,-3.5,-4.5,-1003.0,7.5,31.0,-66.0
14:24:14,53965.0,0.0150105026550591,0.01404418470337987,-0.16279948502779007,-0.00011606724001467228,-0.011222655419260263,0.002524753101170063,-35.363260499999996,149.16523515,15283.0,-8.0,-1.5,-151.0,AUTO,0.0,1.0,-999.0,0.5,-10.5,1.5
14:24:16,26362.0,0.0006133412316557951,-0.0008766697719693184,-0.17848268896341324,-0.0031296026427298784,0.000379787728888914,-0.02103173639625311,-35.36326185,149.165236,18390.0,-6.0,7.5,-151.0,AUTO,1.5,0.0,-1000.0,-1.5,0.5,-21.0
14:24:17,114249.0,-0.04181875614449382,0.02818710496649146,-0.06648225616663694,0.0396775365807116,-0.01570996269583702,0.263663774356246,-35.363262524999996,149.165235125,20279.5,-18.5,-25.5,-135.5,AUTO,0.0,5.5,-966.25,40.5,-14.75,262.5
14:24:18,114249.0,0.03463374078273773,-0.02961737383157015,0.07193715125322342,0.09845416620373726,-0.07978169247508049,-0.012193617410957813,-35.3632642,149.16523235,21229.5,-26.5,-29.5,-104.0,AUTO,0.5,9.5,-957.0,98.5,-78.0,-12.0
14:24:20,126529.0,0.009122349321842194,0.004557122883852571,0.04154072143137455,-0.029825586825609207,0.022751593962311745,0.0022541997022926807,-35.36326345,149.16523515,22683.0,19.5,39.5,-44.0,AUTO,0.5,-10.0,-978.0,-28.5,23.5,1.5
14:24:22,138809.0,-0.040719082579016685,0.022939398884773254,0.03459836170077324,0.0961553743109107,-0.030486373230814934,-0.003646776167443022,-35.3632612,149.16524005000002,23068.5,-2.0,-1.0,15.5,AUTO,0.0,-9.0,-954.5,96.0,-29.5,-3.5
14:24:23,158511.0,-0.03417726047337055,-0.033121715765446424,0.030852720607072115,0.10739141702651978,-0.02642697189003229,-0.006502759293653071,-35.3632611,149.16523654999997,22855.5,9.25,-43.25,7.25,AUTO,-8.25,10.25,-1014.5,108.5,-24.75,-6.25
14:24:24,158511.0,-0.048470014706254005,-0.05588684417307377,-0.04700497165322304,-0.6163538545370102,-0.013613974675536156,-0.28116942942142487,-35.363259799999994,149.16523180000002,22808.0,32.5,-67.0,2.5,AUTO,-17.5,-12.5,-994.0,-615.0,-12.5,-280.5
14:24:26,175210.0,-0.034076254814863205,-0.15612346678972244,-0.5344049036502838,-0.11618486791849136,-0.043380724266171455,-0.20495280623435974,-35.3632463,149.16520350000002,22676.5,127.5,-196.0,11.5,AUTO,-57.0,-18.0,-996.0,-115.5,-42.0,-204.5
14:24:28,191909.0,0.05718374811112881,-0.16568917036056519,-1.003952980041504,-0.1362975537776947,0.030293227173388004,0.06389724835753441,-35.363213099999996,149.16513865000002,22322.5,241.5,-366.5,19.0,AUTO,-90.0,-57.5,-999.0,-134.5,31.0,63.5
14:24:29,160418.0,0.06260051857680082,-0.1502477154135704,-0.9776555001735687,-0.021744944620877504,0.021078880643472075,-0.0030368591942533385,-35.363183475,149.1650825,22059.0,283.25,-431.75,21.75,AUTO,-112.0,-55.5,-991.5,-20.25,21.25,-3.0
14:24:30,160418.0,0.06902921199798584,-0.13690050691366196,-0.9794314503669739,0.025207776576280594,0.03012271597981453,-0.003973893777583726,-35.3631639,149.16504525,21883.5,299.5,-458.5,22.5,AUTO,-110.5,-58.5,-992.0,26.5,30.5,-3.5
14:24:32,177595.5,0.07007574662566185,-0.10437997430562973,-0.9820417165756226,-0.040745265781879425,0.04640273004770279,0.002166469523217529,-35.36310865,149.1649402,21395.5,308.0,-471.0,27.0,AUTO,-115.0,-70.5,-993.5,-39.5,47.0,2.0
14:24:34,194773.0,0.0682304073125124,-0.0011909760069102049,-0.9861131608486176,0.03653383255004883,0.04578802548348904,0.017795374616980553,-35.3630565,149.1648417,20937.5,253.0,-388.5,21.5,AUTO,-95.5,-72.5,-993.0,37.0,46.0,17.5
14:24:35,205476.0,0.04469407070428133,0.06023628916591406,-0.9850217998027802,0.6350476294755936,0.03379795700311661,-0.012806220212951303,-35.36303115,149.164795625,20687.0,181.0,-279.0,18.75,AUTO,-69.5,-20.75,-1017.25,636.5,34.75,-12.5
14:24:36,205476.0,0.023698631674051285,0.07020222395658493,-0.9838634729385376,-0.539200097322464,0.004625245230272412,0.028209787793457508,-35.3630201,149.16477544999998,20559.5,129.0,-205.5,15.0,AUTO,-48.5,-70.5,-1013.5,-538.0,5.0,28.0
14:24:38,182139.0,-0.0038062650710344315,0.04414983652532101,-0.9862452447414398,0.2395229935646057,-0.017601763363927603,-0.00168511550873518,-35.36300605,149.16475005,20388.0,29.5,-57.0,2.0,AUTO,-11.0,15.0,-1008.0,242.0,-16.0,-1.5
14:24:40,158802.0,-0.010930647840723395,0.00349136063118749,-0.9875657558441162,-0.45287036895751953,-0.029129338450729847,-0.003142023691907525,-35.36300455,149.16474655000002,20395.5,-6.5,-10.0,-1.0,RTL,-0.5,-23.5,-996.0,-452.0,-27.5,-3.0
14:24:41,233009.0,-0.00187420763541013,-0.0010978943901136518,-0.9887375384569168,-0.05376932583749294,0.006784556288039312,-0.003826264110102784,-35.36300502500001,149.16474635,20423.25,-2.25,-12.0,-4.25,RTL,-0.75,-5.25,-1012.0,-53.0,7.0,-3.25
14:24:42,233009.0,0.003893099958077073,0.0023980463156476617,-0.9895547032356262,0.375966414809227,-0.0018740628147497773,-0.0028704203432425857,-35.3630052,149.16474605000002,20518.5,-1.0,-9.5,-22.5,RTL,-1.0,13.5,-1040.0,377.0,-0.5,-2.5
14:24:44,211367.0,-0.012842544820159674,0.006127792876213789,-0.9894573986530304,0.013608510373160243,0.001248473592568189,-0.006116746226325631,-35.3630047,149.16474614999998,21867.5,-2.5,-7.0,-108.0,RTL,0.0,-1.0,-1042.5,14.5,1.0,-5.5
14:24:46,189725.0,0.04486750066280365,-0.0013828648661728948,-0.9882023930549622,0.039875328540802,-0.009006365202367306,0.002641388331539929,-35.36300315,149.1647466,24725.0,18.5,4.0,-149.0,RTL,0.5,-4.5,-999.5,40.0,-8.0,2.0
14:24:48,114263.0,-0.06670304760336876,0.01854639919474721,-1.0662758946418762,-0.011419946327805519,0.07480327412486076,-0.08720852062106133,-35.3629984,149.16474820000002,27785.0,-17.5,-17.0,-148.5,RTL,-3.5,1.5,-1000.0,-11.0,75.0,-86.5
14:24:50,114263.0,0.01798475906252861,-0.0050009917467832565,-1.0705586075782776,0.008173363050445914,-0.07591990754008293,0.08988906815648079,-35.36300675,149.16474625,30888.0,-46.0,14.0,-151.0,RTL,1.0,11.5,-1002.0,8.0,-74.5,89.5
14:24:51,253070.0,0.04225226538255811,-0.04549079202115536,-0.9921190738677979,-0.022238899022340775,0.03399543650448322,0.004129522014409304,-35.3630086,149.164745875,32833.25,21.25,-9.75,-150.5,RTL,-3.25,-2.0,-996.5,-21.5,34.5,4.25
14:24:52,253070.0,-0.005222523468546569,0.008502894954290241,-1.034253478050232,-0.06049910746514797,0.08099376410245895,-0.0990300141274929,-35.3630065,149.16474395,33983.0,42.5,-21.5,-149.0,RTL,-7.0,-10.0,-1006.0,-59.0,81.5,-98.5
14:24:54,96432.0,0.01174178160727024,0.03188390005379915,-1.117891252040863,0.010690585477277637,-0.017992358654737473,0.008450975408777595,-35.36300515,149.16474025000002,37115.5,-9.0,15.0,-152.0,RTL,1.0,2.0,-998.0,11.0,-16.5,8.0
14:24:56,96432.0,-0.0016576555790379643,3.208407724741846e-05,-1.1194071173667908,-0.0011358883639331907,-0.002055192628176883,-0.021553228609263897,-35.36300625,149.16474390000002,40233.0,1.0,18.5,-152.0,RTL,2.5,0.5,-1000.5,-0.5,-1.0,-21.0
14:24:57,113628.0,0.0010620282628224231,0.0028364025201881304,-1.1549797058105469,0.004828214296139777,0.005692748934961855,-0.029860406182706356,-35.363006375000005,149.16474465,42178.75,2.0,5.25,-153.0,RTL,0.0,0.0,-1000.0,5.25,6.0,-28.75
14:24:58,113628.0,0.004615209996700287,0.007325897924602032,-1.1783047914505005,0.004803271847777069,0.006924744928255677,-0.02770216017961502,-35.36300645,149.1647446,43350.0,2.5,3.0,-153.0,RTL,0.0,0.0,-1000.0,5.5,7.5,-27.0
14:25:00,296686.0,0.0039043554570525885,0.01085718721151352,-1.2259188294410706,-0.002348395937588066,0.00076585280476138,-0.020919363014400005,-35.3630063,149.1647444,46468.0,5.0,6.0,-153.0,RTL,0.0,0.0,-1000.0,-1.0,1.5,-19.5
14:25:02,296686.0,0.0009599995973985642,0.00860680639743805,-1.2668657898902893,0.00033122830791398883,0.000929526926483959,-0.01878357771784067,-35.36300585,149.16474475,49586.5,3.0,6.0,-153.0,RTL,0.0,0.0,-1000.0,1.0,1.5,-17.5
14:25:03,80753.0,0.00436553149484098,0.010546296136453748,-1.2643252313137054,-0.00021374400239437819,-0.0004645945009542629,0.022170932963490486,-35.36300575,149.164745025,51525.25,3.5,6.75,-152.0,RTL,0.0,0.0,-999.5,1.0,1.0,22.0
14:25:04,80753.0,0.002563933259807527,0.008847332559525967,-1.245260238647461,-0.002519252069760114,-0.0013525985996238887,0.0277562802657485,-35.36300555,149.16474534999998,52688.0,5.0,7.0,-152.0,RTL,0.0,0.0,-1000.0,-1.0,0.0,28.0
14:25:06,222615.0,0.001034883491229266,0.006365766515955329,-1.1983696818351746,0.001891427906230092,0.00019396666903048754,0.019946519285440445,-35.3630053,149.1647458,55790.0,2.0,3.0,-152.0,RTL,0.0,0.0,-1000.0,2.5,1.0,20.0
14:25:08,222615.0,0.002913498552516103,0.007453346624970436,-1.1644580960273743,0.0029979071114212275,0.002104592102114111,0.015767346136271954,-35.3630054,149.16474565,58897.0,2.0,1.0,-152.0,RTL,0.0,0.0,-1000.0,4.0,3.0,16.5
14:25:09,76685.0,0.00294564722571522,0.007544453372247517,-1.148025929927826,5.8851466747000813e-05,0.0004486814432311803,0.013052556663751602,-35.3630054,149.16474540000002,60837.25,2.0,2.0,-152.0,RTL,0.0,0.0,-1000.0,1.25,1.5,13.5
14:25:10,76685.0,0.002997779054567218,0.007792899617925286,-1.1392472982406616,0.004037377657368779,0.002237904933281243,0.01225782698020339,-35.3630054,149.1647453,62001.0,2.0,2.0,-152.0,RTL,0.0,0.0,-1000.0,5.0,3.0,13.0
14:25:12,21197.0,0.0025217910297214985,0.007309205364435911,-1.1200003623962402,0.0017968111205846071,0.001315909146796912,0.009900246048346162,-35.3630055,149.16474515,65113.0,2.0,3.0,-152.0,RTL,0.0,0.0,-1000.5,3.0,2.5,10.0
14:25:14,21197.0,0.002296936116181314,0.006914602126926184,-1.1055098176002502,0.0024934362154453993,0.0014180983416736126,0.008993643335998058,-35.3630055,149.1647451,68215.0,2.0,3.0,-152.0,RTL,0.0,0.0,-999.5,3.5,2.5,9.0
14:25:15,3498.0,0.002108217333443463,0.007010667352005839,-1.0976523160934448,0.0009441134752705693,0.0008647123468108475,0.007400552160106599,-35.3630055,149.16474505000002,70158.25,2.0,3.0,-152.0,RTL,0.0,0.0,-1000.0,2.25,1.5,8.0
14:25:16,3498.0,0.0019906453089788556,0.007000865880399942,-1.093393325805664,0.001477584766689688,0.0006697271019220352,0.007406332995742559,-35.3630055,149.164745,71323.0,2.0,2.0,-152.0,RTL,0.0,0.0,-1000.0,3.0,1.5,8.0
14:25:18,122122.0,0.0015018818085081875,0.007179296342656016,-1.08273583650589,0.0027236331370659173,0.0005552525981329381,0.006145937601104379,-35.3630055,149.164745,74427.0,1.0,2.0,-152.0,RTL,0.0,0.0,-1000.5,4.0,1.5,7.0
14:25:20,122122.0,0.001925247663166374,0.0067655062302947044,-1.0724434852600098,0.0004846801748499274,0.0023743253550492227,0.004980965983122587,-35.3630055,149.164745,77536.0,1.0,2.0,-152.0,RTL,0.0,0.0,-999.0,2.0,3.5,5.5
14:25:21,79285.0,0.0013446715893223882,0.006908757379278541,-1.067371815443039,-0.00013342892634682357,0.0009003874438349158,0.004315366968512535,-35.3630055,149.164745,79473.25,1.0,2.0,-152.0,RTL,0.0,0.0,-1000.0,1.0,2.0,5.0
14:25:22,79285.0,0.0011697555892169476,0.007231366354972124,-1.064428448677063,0.00041995575884357095,0.0010681863641366363,0.00444237410556525,-35.3630055,149.164745,80639.0,1.0,2.0,-152.0,RTL,0.0,0.0,-1000.0,1.5,2.0,5.0
14:25:24,187606.0,0.0014890991151332855,0.006808204809203744,-1.057491421699524,0.00020827335538342595,0.0025834242696873844,0.004461464588530362,-35.3630055,149.16474505000002,83742.5,1.0,2.0,-152.0,RTL,0.0,0.0,-999.0,1.5,4.0,5.5
14:25:26,187606.0,0.0013541412190534174,0.006651037139818072,-1.0513019561767578,0.0029363911016844213,0.0009395322413183749,0.004852041602134705,-35.3630055,149.164745,86849.0,1.0,2.0,-152.0,RTL,0.0,0.0,-1000.0,4.0,2.5,6.0
14:25:27,134665.0,0.0008870847232174128,0.007063598604872823,-1.0480210483074188,0.00028095292509533465,0.0012149836111348122,0.00372087475261651,-35.363005425,149.164745,88790.0,0.5,2.0,-152.0,RTL,0.0,0.0,-1000.0,2.0,2.75,4.5
14:25:28,134665.0,0.000820171379018575,0.006800784962251782,-1.0458168387413025,0.0005256033618934453,-0.00038929330185055733,0.0036774231120944023,-35.3630054,149.164745,89957.0,0.0,2.0,-152.0,RTL,0.0,0.0,-1000.0,2.0,1.0,4.5
14:25:30,92941.0,0.0011839618673548102,0.006619695574045181,-1.0413246154785156,-0.0006210770807228982,0.0015892607625573874,0.002640478080138564,-35.3630054,149.164745,93062.5,0.0,2.0,-152.0,RTL,0.0,0.0,-999.5,1.0,2.5,3.5
14:25:32,92941.0,0.0013904800289310515,0.006377088604494929,-1.0371003150939941,0.001677997875958681,0.0008316925959661603,0.004649890353903174,-35.3630054,149.1647451,96177.0,0.0,2.0,-152.0,RTL,0.0,0.0,-999.5,3.5,2.5,5.5
14:25:33,148876.0,0.0011423646792536601,0.006476485054008663,-1.0350713729858398,-0.0003572459681890905,-0.00040231752791441977,0.0032170796766877174,-35.3630054,149.164745075,98111.25,0.75,2.0,-152.0,RTL,0.0,0.0,-1000.0,1.25,1.25,4.25
14:25:34,148876.0,0.0006972264673095196,0.0060703682247549295,-1.0337911248207092,0.0024620519252493978,0.0005452538607642055,0.004718579817563295,-35.3630054,149.1647451,99275.5,0.0,1.5,-152.0,RTL,0.0,0.0,-1000.0,4.0,2.0,5.5
14:25:36,103806.0,0.0015379032120108604,0.006766619859263301,-1.029923915863037,0.002979798591695726,0.0024977114517241716,0.003171475022099912,-35.3630054,149.1647451,102390.5,0.0,1.0,-152.0,RTL,0.0,0.0,-1000.0,4.5,4.0,4.0
14:25:38,103806.0,0.0009151514386758208,0.007022404344752431,-1.0269253849983215,0.0005673443665727973,0.0011953405337408185,0.003736955055501312,-35.3630054,149.1647451,105500.0,0.0,2.0,-152.0,RTL,0.0,0.0,-1000.0,2.0,3.0,5.0
14:25:39,153702.0,0.0008452855399809778,0.006965110427699983,-1.0258416533470154,0.0010313003731425852,-0.0005023213743697852,0.002309151488589123,-35.3630054,149.1647451,107438.75,0.0,2.0,-152.0,RTL,0.0,0.0,-1000.0,2.75,1.0,3.5
14:25:40,153702.0,0.0008803458185866475,0.006626680726185441,-1.0248387455940247,0.0024790274910628796,0.000715512374881655,0.003012315137311816,-35.3630054,149.1647451,108606.5,0.0,2.0,-152.0,RTL,0.0,0.0,-1000.0,4.0,2.0,4.0
14:25:42,271014.0,0.0008629291842225939,0.0067196195013821125,-1.0228180885314941,0.001169757335446775,0.0024014193331822753,0.0005312148714438081,-35.3630054,149.1647451,111710.0,0.0,2.0,-152.0,RTL,0.0,0.0,-999.5,2.5,4.0,2.0
14:25:44,271014.0,0.000440273477579467,0.005798427853733301,-1.021372377872467,6.868969649076462e-05,0.0009680177900008857,0.0007278518169187009,-35.3630054,149.1647451,114817.5,0.0,1.0,-152.0,RTL,0.0,0.0,-1000.0,2.0,2.5,2.0
14:25:45,224354.0,0.0006951499381102622,0.00641527574043721,-1.0202403366565704,0.00048704721848480403,0.000978874828433618,0.001334204018348828,-35.3630054,149.1647451,116760.75,0.0,1.0,-152.0,RTL,0.0,0.0,-1000.0,2.25,2.5,2.75
14:25:46,224354.0,0.000773352017858997,0.006526340497657657,-1.019737720489502,0.0008367353584617376,3.3611548133194447e-05,0.0005336226313374937,-35.3630054,149.1647451,117928.0,0.0,1.0,-152.0,RTL,0.0,0.0,-1000.5,2.5,1.5,2.0
14:25:48,136183.0,0.0017387192929163575,0.006940152263268828,-1.018530011177063,0.00034472369588911533,0.00036868907045572996,0.0020323762437328696,-35.3630054,149.1647451,121032.5,0.0,1.0,-152.0,RTL,0.0,0.0,-1000.0,2.0,2.0,3.5
14:25:50,136183.0,0.0009780475520528853,0.006891521625220776,-1.0172326564788818,0.0019899443723261356,-0.0002482478157617152,0.001777293684426695,-35.3630054,149.1647451,124144.5,0.0,2.0,-152.0,RTL,0.0,0.0,-1000.5,4.0,1.5,3.5
14:25:51,114066.0,0.0005009006417822093,0.00708505033981055,-1.0158721506595612,0.0004649933543987572,-5.5466953199356794e-05,0.0030094010289758444,-35.3630054,149.1647451,126083.0,0.0,2.0,-152.0,RTL,0.0,0.0,-1000.0,2.0,1.5,4.25
14:25:52,114066.0,0.0006372583447955549,0.0068878293968737125,-1.0155872106552124,0.001012345077469945,-0.0008559515699744225,0.002790373400785029,-35.3630054,149.1647451,127249.0,0.0,2.0,-152.0,RTL,0.0,0.0,-999.5,3.0,1.0,4.0
14:25:54,254497.0,0.0005137305270181969,0.006151501554995775,-1.0148895382881165,0.00011228141374886036,-0.00013219693209975958,0.002612135955132544,-35.3630054,149.1647451,130354.5,0.0,1.0,-152.0,RTL,0.0,0.0,-1000.0,2.0,1.5,4.5
14:25:56,254497.0,0.0008205616613849998,0.00652945670299232,-1.0142018795013428,-0.0014697208534926176,0.0008001280948519707,-0.0008112018695101142,-35.3630054,149.1647451,133469.0,0.0,1.0,-152.0,RTL,0.0,0.0,-1000.0,1.0,2.5,1.0
14:25:57,12323.0,0.001191000483231619,0.0072023855755105615,-1.0137574076652527,-0.000701586453942582,-0.0002873210469260812,-5.2132614655420184e-05,-35.3630054,149.1647451,135405.25,0.0,1.75,-152.0,RTL,0.0,0.0,-1000.25,1.0,1.5,1.5
14:25:58,12323.0,0.0009880063880700618,0.006830419413745403,-1.0133152604103088,0.0011357604525983334,-0.0004991613677702844,0.0022371895611286163,-35.3630054,149.1647451,136571.0,0.0,2.0,-152.0,RTL,0.0,0.0,-1000.0,3.5,1.0,3.5
14:26:00,181171.0,0.0011294655851088464,0.006466454826295376,-1.0130861401557922,0.0011446772841736674,0.0002780712675303221,0.0012545200297608972,-35.3630054,149.1647451,139677.0,0.0,2.0,-152.0,RTL,0.0,0.0,-1000.0,3.0,2.0,3.0
14:26:02,181171.0,0.0008664570341352373,0.006783841177821159,-1.012599766254425,0.001919521950185299,-0.00040260289097204804,0.0033875841181725264,-35.3630054,149.1647451,142791.0,0.0,2.0,-152.0,RTL,0.0,0.0,-1000.0,4.0,1.5,5.0
14:26:03,241553.0,0.000561454362468794,0.006155856768600643,-1.0122694671154022,0.0007105713011696935,0.001348521444015205,0.001127401425037533,-35.3630054,149.1647451,144733.5,0.0,1.0,-152.0,RTL,0.0,0.0,-999.75,2.5,3.25,2.5
14:26:04,241553.0,0.00041062061791308224,0.006664497312158346,-1.012268602848053,-0.001830392167903483,6.404821760952473e-06,-0.00020572578068822622,-35.3630054,149.1647451,145898.5,0.0,1.0,-152.0,RTL,0.0,0.0,-1000.0,0.5,1.5,1.0
14:26:06,145110.0,0.0009596638556104153,0.0063820187933743,-1.0116536021232605,0.0013462539063766599,0.0011311144335195422,0.00103661953471601,-35.3630054,149.1647451,149005.0,0.0,1.0,-152.0,RTL,0.0,0.0,-999.5,3.5,3.0,2.5
14:26:08,145110.0,0.0009036696574185044,0.006879898486658931,-1.0106018781661987,-0.0002415019553154707,-0.0005321784992702305,0.0001397606683894992,-35.3630054,149.1647451,152116.0,0.0,2.0,-152.0,RTL,0.0,0.0,-1000.0,1.5,1.5,2.0
14:26:09,24606.0,0.00077899030293338,0.006625884212553501,-1.0106684863567352,-0.0008331532590091228,0.00034262335975654423,0.0010570602025836706,-35.3630054,149.1647451,154054.75,0.0,2.0,-152.0,RTL,0.0,0.0,-999.5,1.5,2.25,2.75
14:26:10,24606.0,0.0007225204899441451,0.006707863183692098,-1.0107088088989258,0.00021279044449329376,-0.00041434913873672485,0.0008703443454578519,-35.3630054,149.1647451,155222.0,0.0,2.0,-152.0,RTL,0.0,0.0,-1000.5,2.0,1.5,2.5
14:26:12,296430.0,0.0004564707778627053,0.006380218546837568,-1.0104829668998718,0.0004452674766071141,-0.0003399833803996444,0.001082784729078412,-35.3630054,149.16474515,158325.0,0.0,1.0,-152.0,RTL,0.0,0.0,-1000.0,2.5,1.5,2.5
14:26:14,296430.0,0.0010376867721788585,0.006288659991696477,-1.0102427005767822,0.0008897327352315187,-5.671416874974966e-05,0.0007588623557239771,-35.3630054,149.1647451,161433.0,0.0,1.0,-152.0,RTL,0.0,0.0,-999.5,3.0,2.0,2.5
14:26:15,18809.0,0.0015107208746485412,0.007000430021435022,-1.0102233588695526,-0.0004339616862125695,0.0015187461394816637,0.0008991133072413504,-35.3630054,149.1647451,163377.25,0.0,1.25,-152.0,RTL,0.0,0.0,-999.5,2.0,3.75,2.5
14:26:16,18809.0,0.0010751326917670667,0.006954665062949061,-1.010278344154358,0.00017996726091951132,-0.00013089884305372834,0.00039992155507206917,-35.3630054,149.1647451,164544.0,0.0,2.0,-152.0,RTL,0.0,0.0,-1000.5,2.5,1.5,2.0
14:26:18,117132.0,0.00047033390728756785,0.006901097949594259,-1.0100685358047485,0.0004025867092423141,-0.0003692645113915205,0.0025459175230935216,-35.3630054,149.1647451,167651.0,0.0,2.0,-152.0,RTL,0.0,0.0,-999.5,2.5,1.5,4.5
14:26:20,117132.0,0.0004752347740577534,0.006092539057135582,-1.009912371635437,-0.00029760459437966347,-0.0016254683723673224,0.001327135250903666,-35.3630054,149.1647451,170765.0,0.0,1.5,-152.0,RTL,0.0,0.0,-1000.0,2.0,1.0,3.0
14:26:21,239397.0,0.0005529106347239576,0.00641500623896718,-1.0100087821483612,0.0007734387181699276,0.00039920787094160914,0.0012800086406059563,-35.3630054,149.16474515,172699.75,0.0,1.0,-152.0,RTL,0.0,0.0,-1000.0,3.0,2.75,3.25
14:26:22,239397.0,0.0008260481408797204,0.006517163245007396,-1.010202705860138,0.00011082820128649473,-0.0007245189044624567,0.0002798049245029688,-35.3630054,149.1647451,173872.0,0.0,1.0,-152.0,RTL,0.0,0.0,-1000.0,2.5,1.5,2.5
14:26:24,297364.0,0.0010699148697312921,0.007096056127920747,-1.0090082883834839,0.0016206878935918212,0.0004351097159087658,0.0009924594778567553,-35.3630054,149.1647451,176979.0,0.0,1.0,-152.0,RTL,0.0,0.0,-1000.5,4.0,2.5,3.0
14:26:26,297364.0,0.0012166935484856367,0.006393333664163947,-1.0091755986213684,0.0007266175234690309,-0.0005775825120508671,0.001952980412170291,-35.3630054,149.1647451,180086.5,0.0,2.0,-152.0,RTL,0.0,0.0,-999.5,3.5,1.5,4.0
14:26:27,153556.0,0.000985483085969463,0.006706280051730573,-1.0090787410736084,0.0008895639621187001,0.000981285993475467,0.001937149208970368,-35.3630054,149.1647451,182028.75,0.0,2.0,-152.0,RTL,0.0,0.0,-1000.0,3.5,3.0,3.75
14:26:28,153556.0,0.0009405211894772947,0.006789515493437648,-1.0091342329978943,0.0009513674303889275,0.0006693071918562055,0.0008501176489517093,-35.3630054,149.1647451,183196.0,0.0,2.0,-152.0,RTL,0.0,0.0,-1000.0,3.5,3.0,2.5
14:26:30,230146.0,0.00041239280835725367,0.006386213935911655,-1.0093137621879578,-0.0005928431055508554,0.00010331301018595695,-0.00020712567493319511,-35.3630054,149.1647452,186300.5,0.0,1.0,-152.0,RTL,0.0,0.0,-1000.0,1.5,2.5,1.5
14:26:32,230146.0,0.0007886167732067406,0.006623677676543593,-1.0091452598571777,0.001122286426834762,0.00043326715240255,0.0013426518999040127,-35.3630054,149.1647451,189406.0,0.0,1.0,-152.0,RTL,0.0,0.0,-1000.0,3.5,2.5,3.5
14:26:33,197092.0,0.0009950013482011855,0.00690822082106024,-1.0092645585536957,-1.1375697795301676e-05,0.0010200969991274178,0.000382546684704721,-35.3630054,149.1647451,191347.25,0.0,1.0,-152.0,RTL,0.0,0.0,-999.75,2.75,3.5,2.25
14:26:34,197092.0,0.0011653851834125817,0.007159702014178038,-1.0093053579330444,0.0009136580629274249,-0.0005725534865632653,0.002917530364356935,-35.3630054,149.1647451,192512.5,0.0,2.0,-152.0,RTL,0.0,0.0,-999.5,3.0,2.0,4.5
14:26:36,120018.0,0.0007559336663689464,0.006760186515748501,-1.009243905544281,0.00021431734785437584,5.931477062404156e-05,0.0014984726440161467,-35.3630054,149.1647451,195622.5,0.0,2.0,-152.0,RTL,0.0,0.0,-1000.0,3.0,2.5,3.5
14:26:38,120018.0,0.0007289302011486143,0.005739067681133747,-1.0092151165008545,-0.000520088302437216,-2.704584039747715e-05,-0.0003265485865995288,-35.3630054,149.1647452,198728.0,0.0,1.0,-152.0,RTL,0.0,0.0,-1000.0,2.0,2.5,1.5
14:26:39,193637.0,0.0009246107802027836,0.0064417291432619095,-1.00918710231781,-0.0010920103231910616,0.00021909148199483752,0.0012689296272583306,-35.3630054,149.16474515,200672.75,0.0,1.0,-152.0,RTL,0.0,0.0,-999.75,1.25,2.5,3.25
14:26:40,193637.0,0.0008426488493569195,0.00674356147646904,-1.0083308219909668,0.00023934664204716682,-0.0003414974780753255,0.00165664148516953,-35.3630054,149.1647451,201843.0,0.0,1.0,-152.0,RTL,0.0,0.0,-1000.0,3.0,2.5,4.0
14:26:42,272910.0,0.001013201370369643,0.006698644487187266,-1.00831937789917,-0.00040810415521264076,0.0012306389398872852,0.0005326635437086225,-35.3630054,149.1647451,204943.0,0.0,1.0,-152.0,RTL,0.0,0.0,-1000.0,2.0,3.5,2.5
14:26:44,272910.0,0.0005983277806080878,0.0070992764085531235,-1.0085191130638123,0.0007173347985371947,-0.00046998716425150633,0.0028762436704710126,-35.3630054,149.1647451,208057.0,0.0,2.0,-152.0,RTL,0.0,0.0,-1000.0,3.5,2.0,5.0
14:26:45,156446.0,0.000695266600814648,0.006845864118076861,-1.0089050233364105,0.001364554453175515,-0.0002751780557446182,0.0008069374016486108,-35.3630054,149.1647451,210001.5,0.0,2.0,-152.0,RTL,0.0,0.0,-1000.25,4.0,2.25,2.75
14:26:46,156446.0,0.0006498502916656435,0.0065106675028800964,-1.0088928937911987,0.00031772744841873646,-0.0006093246629461646,0.00012714264448732138,-35.3630054,149.1647451,211168.5,0.0,2.0,-152.0,RTL,0.0,0.0,-1000.0,3.0,2.0,2.5
14:26:48,175628.0,0.0005775911849923432,0.006440422497689724,-1.0088761448860168,0.0007443081121891737,0.00037823361344635487,0.00042042124550789595,-35.3630054,149.1647452,214275.0,0.0,1.0,-152.0,RTL,0.0,0.0,-1000.5,3.5,2.5,3.0
14:26:50,175628.0,0.0007667992322240025,0.006470623658969998,-1.0090116262435913,0.0011170444777235389,-0.00032252154778689146,0.000316814286634326,-35.3630054,149.1647451,217376.5,0.0,1.0,-152.0,RTL,0.0,0.0,-1000.5,4.0,2.5,2.5
14:26:51,181680.0,0.0011320230551064014,0.00698697951156646,-1.0089485049247742,0.001630144368391484,0.0006210700958035886,0.0005438927910290658,-35.3630054,149.1647451,219318.75,0.0,1.0,-152.0,RTL,0.0,0.0,-1000.0,4.25,3.25,2.75
14:26:52,181680.0,0.0014533307985402644,0.006958982907235622,-1.0090889930725098,-0.0011477237567305565,0.00040319026447832584,0.0014211527304723859,-35.3630054,149.1647451,220483.5,0.0,2.0,-152.0,RTL,0.0,0.0,-999.0,1.5,3.5,4.0
14:26:54,102346.0,0.000916770426556468,0.0067366017028689384,-1.0088354349136353,-0.0007446867530234158,0.00019937811885029078,-0.0008456853684037924,-35.3630054,149.1647451,223595.0,0.0,2.0,-152.0,RTL,0.0,0.0,-1000.0,2.0,3.0,1.5
14:26:56,102346.0,0.0004214389336993918,0.006380904465913773,-1.008495807647705,0.0027553533436730504,0.0003237808123230934,0.0006519070593640208,-35.3630054,149.1647452,226700.5,0.0,1.0,-152.0,RTL,0.0,0.0,-1000.5,5.5,3.0,3.0
14:26:57,224220.0,0.0004974792682332918,0.006693459232337773,-1.0085194110870361,-0.0006686447304673493,0.0006814256776124239,0.0003790584160014987,-35.3630054,149.1647452,228645.5,0.0,1.0,-152.0,RTL,0.0,0.0,-999.75,2.25,3.25,3.0
14:26:58,224220.0,0.0006309425516519696,0.006586708128452301,-1.0083659291267395,0.0010556206107139587,0.0008813032181933522,0.0017690742388367653,-35.3630054,149.1647452,229815.5,0.0,1.0,-152.0,RTL,0.0,0.0,-999.5,3.5,3.5,4.0
14:27:00,40870.0,0.0007897648611105978,0.006760922493413091,-1.0086650252342224,-0.0006953413831070065,0.0019811184611171484,0.0017537662060931325,-35.3630054,149.1647451,232922.5,0.0,1.0,-152.0,RTL,0.0,0.0,-999.5,2.0,4.5,4.5
14:27:02,40870.0,0.0009328893502242863,0.006894764257594943,-1.0085832476615906,-9.899272117763758e-05,-0.0004448435502126813,0.0001459456980228424,-35.3630054,149.1647451,236021.5,0.0,2.0,-152.0,RTL,0.0,0.0,-1000.0,2.5,2.0,2.5
14:27:03,81783.0,0.0008288022072520107,0.006734456983394921,-1.008752018213272,0.0008878099033609033,0.001522724167443812,0.0012603357899934053,-35.3630054,149.1647451,237971.0,0.0,2.0,-152.0,RTL,0.0,0.0,-999.25,3.5,4.25,3.5
14:27:04,81783.0,0.0012566170771606266,0.006529957056045532,-1.0087438821792603,0.0004280867287889123,-0.00015609641559422016,0.0012037602718919516,-35.3630054,149.1647451,239136.0,0.0,2.0,-152.0,RTL,0.0,0.0,-1000.0,3.5,2.5,3.5
14:27:06,61111.0,0.0005775158060714602,0.006478360155597329,-1.0090031623840332,-0.0004967788700014353,0.0007317011477425694,1.1707074008882046e-05,-35.3630054,149.1647452,242245.5,0.0,1.0,-152.0,RTL,0.0,0.0,-1000.0,2.5,3.5,2.0
14:27:08,61111.0,0.000917151483008638,0.006586470874026418,-1.0089803338050842,-3.7302146665751934e-05,-3.6111450754106045e-05,0.001300848787650466,-35.3630054,149.1647451,245351.0,0.0,1.0,-152.0,RTL,0.0,0.0,-1000.0,3.0,3.0,3.5
14:27:09,51582.0,0.0009321704128524289,0.00751460250467062,-1.0088561475276947,-0.0007150178425945342,0.0006544701172970235,-0.0001106992713175714,-35.3630054,149.1647451,247290.0,0.0,1.5,-152.0,RTL,0.0,0.0,-1000.0,2.25,3.5,2.25
14:27:10,51582.0,0.0007456811727024615,0.007198728621006012,-1.00900399684906,0.0016527699772268534,-8.662231266498566e-06,0.0012635248713195324,-35.3630054,149.1647451,248454.5,0.0,2.0,-152.0,RTL,0.0,0.0,-1000.0,4.5,3.0,3.5
14:27:12,150261.0,0.0006786596495658159,0.007115250453352928,-1.0080906748771667,-0.0013881722697988153,-0.00017012597527354956,0.0025236805668100715,-35.3630054,149.1647451,251715.5,0.0,2.0,-152.0,RTL,0.0,0.0,-1000.0,2.0,3.0,5.0
14:27:14,150261.0,0.0006444052851293236,0.006254077656194568,-1.008339285850525,0.0012839741539210081,0.0008049681782722473,0.0006005153991281986,-35.3630054,149.1647452,254671.0,0.0,1.0,-152.0,RTL,0.0,0.0,-1000.0,4.0,4.0,3.0
14:27:15,62577.0,0.0009593560680514202,0.006362642510794103,-1.008424073457718,0.0004802750772796571,-0.0005502538988366723,0.00023872236488386989,-35.3630054,149.1647452,256765.5,0.0,1.0,-152.0,RTL,0.0,0.0,-1000.25,3.75,2.5,3.0
14:27:16,62577.0,0.0011403625831007957,0.006427084561437368,-1.0088208317756653,0.0016891461564227939,-8.88423528522253e-06,0.00029697082936763763,-35.3630054,149.1647452,257934.5,0.0,1.0,-152.0,RTL,0.0,0.0,-1000.0,4.5,3.5,3.0
14:27:18,4788.0,0.0011784108355641365,0.0070729185827076435,-1.0087876319885254,0.0016260307747870684,0.0018439595587551594,0.002185489982366562,-35.3630054,149.1647452,260894.0,0.0,1.0,-152.0,RTL,0.0,0.0,-1000.0,5.0,4.5,5.0
14:27:20,4788.0,0.0007581131649203598,0.006780680967494845,-1.0085927248001099,-0.0005480223335325718,-0.000316728837788105,0.0021481631556525826,-35.3630054,149.1647451,264156.0,0.0,2.0,-152.0,RTL,0.0,0.0,-999.5,2.5,3.0,4.5
14:27:21,172782.0,0.00012858124694048456,0.006551593309268355,-1.0088512003421783,-0.0012797127128578722,-0.0004911941941827536,0.00044391624396666884,-35.3630054,149.164745125,266088.75,0.0,1.75,-152.0,RTL,0.0,0.0,-999.75,2.0,2.75,3.25
14:27:22,172782.0,0.00017261617904296145,0.006313534686341882,-1.0087687373161316,-0.0007929295534268022,-0.00011164636816829443,-0.0003200899809598923,-35.3630054,149.1647452,267253.0,0.0,1.0,-152.0,RTL,0.0,0.0,-1000.0,2.5,3.0,2.5
14:27:24,126756.0,0.0007223477005027235,0.006389498943462968,-1.008901298046112,0.0005320764612406492,0.00017862755339592695,0.00011064461432397366,-35.3630054,149.1647452,270368.0,0.0,1.0,-152.0,RTL,0.0,0.0,-1000.0,3.5,3.0,3.0
14:27:26,126756.0,0.0007524286338593811,0.006639902712777257,-1.0088662505149841,-0.0004201859701424837,0.0007373401895165443,0.0004886644892394543,-35.3630054,149.1647452,273479.0,0.0,1.0,-152.0,RTL,0.0,0.0,-999.5,3.0,3.5,3.5
14:27:27,247836.0,0.0010322904854547232,0.006723390892148018,-1.0088838040828705,0.0017372447182424366,0.0008105484303086996,0.0008934502257034183,-35.3630054,149.1647452,275418.0,0.0,1.0,-152.0,RTL,0.0,0.0,-1000.0,5.0,4.25,3.75
14:27:28,247836.0,0.0014621805748902261,0.0071583332028239965,-1.0085422992706299,-0.00024080986622720957,0.0004178722156211734,0.0018592089181765914,-35.3630054,149.16474515,276586.5,0.0,1.5,-152.0,RTL,0.0,0.0,-999.5,2.5,4.0,5.0
14:27:30,287901.0,0.0009021530277095735,0.006777838105335832,-1.0084773898124695,-0.0009353944333270192,-4.8466725274920464e-05,-0.00011987634934484959,-35.3630054,149.1647451,279691.0,0.0,2.0,-152.0,RTL,0.0,0.0,-1000.0,2.0,3.0,2.5
14:27:32,287901.0,0.000632703973678872,0.006204061675816774,-1.0083014965057373,0.0005899326642975211,0.00041658198460936546,0.0007322840392589569,-35.3630054,149.1647452,282795.0,0.0,1.0,-152.0,RTL,0.0,0.0,-1000.5,4.0,4.0,4.0
14:27:33,248954.0,0.0007261398277478293,0.006615788443014026,-1.008493959903717,-0.00033583439653739333,0.0005446988507173955,0.0005626353085972369,-35.3630054,149.16474515,284737.75,0.0,1.0,-152.0,RTL,0.0,0.0,-999.75,3.0,3.5,3.5
14:27:34,248954.0,0.0003366510645719245,0.006743096048012376,-1.0087544918060303,-0.00023345905356109142,-0.00017255963757634163,0.001027626101858914,-35.3630054,149.1647451,285902.0,0.0,1.0,-152.0,RTL,0.0,0.0,-1000.0,3.0,3.0,3.5
14:27:36,216359.0,0.0005564570601563901,0.00634686672128737,-1.0088406801223755,-0.0010621328838169575,-0.000523613765835762,-0.00041535799391567707,-35.3630054,149.16474515,289013.5,0.0,1.0,-152.0,RTL,0.0,0.0,-1000.0,2.5,2.5,3.0
14:27:38,216359.0,0.0009513500845059752,0.0069615591783076525,-1.0087420344352722,-0.0006088981172069907,0.0006743884878233075,-9.449874050915241e-05,-35.3630054,149.1647451,292120.5,0.0,2.0,-152.0,RTL,0.0,0.0,-999.5,2.5,3.5,3.0
14:27:39,136737.0,0.0009284689876949415,0.006643724045716226,-1.0087855458259583,0.0013440789189189672,-0.00039226567605510354,0.0009591139387339354,-35.3630054,149.1647451,294063.25,0.0,2.0,-152.0,RTL,0.0,0.0,-1000.0,4.75,3.0,4.0
14:27:40,136737.0,0.0011458404478617013,0.0065385159105062485,-1.0089130401611328,-0.0009049715008586645,-1.6519916243851185e-05,0.00029406999237835407,-35.3630054,149.1647451,295230.0,0.0,2.0,-152.0,RTL,0.0,0.0,-1000.0,2.5,3.0,3.5
14:27:42,162998.0,0.0008287231903523207,0.006434804294258356,-1.0089759230613708,-0.001652038306929171,0.00032899482175707817,-0.0009634302696213126,-35.3630054,149.1647452,298336.0,0.0,1.0,-152.0,RTL,0.0,0.0,-1000.0,2.0,3.5,2.0
14:27:44,162998.0,0.0007795059646014124,0.006786324083805084,-1.0088769793510437,-0.0003646501572802663,0.0005193781107664108,0.0011084487196058035,-35.3630054,149.1647451,301450.5,0.0,1.0,-152.0,RTL,0.0,0.0,-1000.0,3.0,4.0,4.0
14:27:45,138665.0,0.0009370065090479329,0.006464440957643092,-1.0082792043685913,0.0007373500848188996,0.0007013999857008457,0.00039600813761353493,-35.3630054,149.1647451,303385.5,0.0,1.0,-152.0,RTL,0.0,0.0,-999.75,4.25,4.0,3.25
14:27:46,138665.0,0.0014658017898909748,0.007245990913361311,-1.008174479007721,-3.053655382245779e-05,0.0010383529588580132,-0.0010290920035913587,-35.3630054,149.1647451,304559.0,0.0,1.0,-152.0,RTL,0.0,0.0,-1000.0,3.5,4.0,2.5
14:27:48,291266.0,0.0003676874766824767,0.006955077406018972,-1.0084646940231323,-0.0020386488176882267,-0.0005890016909688711,0.0005272999405860901,-35.3630054,149.1647451,307658.0,0.0,2.0,-152.0,RTL,0.0,0.0,-999.5,2.0,3.0,3.5
14:27:50,291266.0,8.791833533905447e-05,0.005893525201827288,-1.0086546540260315,-0.0008451085304841399,-0.0013906367821618915,0.0018303344259038568,-35.3630054,149.1647452,310771.5,0.0,1.0,-152.0,RTL,0.0,0.0,-1000.0,2.5,2.0,5.0
14:27:51,5565.0,0.0006516987778013572,0.006500459159724414,-1.0088379979133606,0.0003658935893326998,0.0003961536567658186,-5.6144839618355036e-05,-35.3630054,149.1647452,312716.0,0.0,1.0,-152.0,RTL,0.0,0.0,-999.75,4.0,4.0,3.25
14:27:52,5565.0,0.0007008850516285747,0.0063609585631638765,-1.0088083744049072,0.001125570386648178,-0.00042438472155481577,0.0005380286602303386,-35.3630054,149.1647452,313882.0,0.0,1.0,-152.0,RTL,0.0,0.0,-1000.5,4.5,3.5,3.5
14:27:54,121864.0,0.0010431920527480543,0.006375558208674192,-1.008780062198639,-0.0005598601419478655,0.0002636516001075506,-0.0006150589324533939,-35.3630054,149.1647452,316988.0,0.0,1.0,-152.0,RTL,0.0,0.0,-1000.0,3.0,4.0,3.0
14:27:56,121864.0,0.0012938902946189046,0.0071525301318615675,-1.0090270638465881,-0.0009252219460904598,0.0006128072272986174,0.0010527526028454304,-35.3630054,149.16474515,320092.0,0.0,2.0,-152.0,RTL,0.0,0.0,-1000.0,3.0,4.0,4.5
14:27:57,40660.0,0.0008799680217634887,0.006679442478343844,-1.0087997317314148,0.0004223028081469238,0.00019000982865691185,0.0007126572600100189,-35.3630054,149.1647451,322033.25,0.0,2.0,-152.0,RTL,0.0,0.0,-1000.0,4.0,3.75,4.0
14:27:58,40660.0,0.000724140671081841,0.006782520795240998,-1.008922040462494,-0.0007286983309313655,0.0004874786827713251,-0.0014793889131397009,-35.3630054,149.1647451,323198.5,0.0,2.0,-152.0,RTL,0.0,0.0,-1000.0,3.5,4.0,1.5
14:28:00,151974.0,0.0003224780230084434,0.006014622747898102,-1.0090014934539795,8.933898061513901e-05,-0.00031575397588312626,0.0009456730913370848,-35.3630054,149.1647452,326304.5,0.0,1.0,-152.0,RTL,0.0,0.0,-1000.0,4.0,3.0,4.0
14:28:02,151974.0,0.00030583848274545744,0.006311038043349981,-1.0084744095802307,0.0005967314355075359,0.0009585607331246138,-0.0008808756247162819,-35.3630054,149.1647452,329415.5,0.0,1.0,-152.0,RTL,0.0,0.0,-1000.0,4.5,4.5,2.5
14:28:03,278271.0,-6.0603017502103285e-06,0.006197005393914878,-1.008529245853424,-0.00024705304531380534,-0.0002847256837412715,0.00023076531942933798,-35.3630054,149.164745225,331357.0,0.0,0.0,-152.0,RTL,0.0,0.0,-1000.0,3.5,3.5,3.75
14:28:04,278271.0,1.4692774357172311e-05,0.005776359932497144,-1.0084834098815918,-0.0005694958381354809,0.0001413417048752308,0.00038367777597159147,-35.3630054,149.1647453,332521.5,0.0,0.0,-152.0,RTL,0.0,0.0,-1000.0,3.0,4.0,3.5
14:28:06,43968.0,-0.00017562275752425194,0.0059620465617626905,-1.0088016986846924,0.0023941907566040754,0.0016230035107582808,0.0006179723422974348,-35.3630054,149.1647453,335636.0,0.0,0.0,-152.0,RTL,0.0,0.0,-1000.0,6.0,5.0,4.0
14:28:08,43968.0,-0.0004748210485558957,0.005349772982299328,-1.008753776550293,-0.0007943720556795597,-0.0005251099355518818,-0.0007526311092078686,-35.3630054,149.16474534999998,338743.0,0.0,0.0,-152.0,RTL,0.0,0.0,-1000.0,3.0,3.5,2.5
14:28:09,248600.0,-0.0006190347048686817,0.0050663084257394075,-1.0086962282657623,-0.0007105005206540227,-0.0005476876976899803,0.0016315776738338172,-35.3630054,149.1647454,340684.0,0.0,0.0,-152.0,RTL,0.0,0.0,-999.75,2.75,2.75,5.25
14:28:10,248600.0,-0.0007279737328644842,0.004824748262763023,-1.0087036490440369,0.0010719094425439835,0.0016839117743074894,-0.00037907250225543976,-35.3630054,149.1647454,341849.0,0.0,0.0,-152.0,RTL,0.0,0.0,-1000.0,5.0,5.5,3.0
14:28:12,170015.0,-0.0003264393308199942,0.005304166581481695,-1.0088846683502197,0.0010401710169389844,0.001327212667092681,0.00045348936691880226,-35.3630054,149.1647455,344956.5,0.0,0.0,-152.0,RTL,0.0,0.0,-999.5,4.5,5.0,4.0
14:28:14,170015.0,-0.0005066128069302067,0.006089095491915941,-1.008798360824585,0.0001758732832968235,0.0007066971156746149,-0.0006829816848039627,-35.3630054,149.1647455,348066.5,0.0,0.0,-152.0,RTL,0.0,0.0,-1000.0,4.0,4.5,2.5
14:28:15,222439.0,-0.0006591977726202458,0.0054328556871041656,-1.0087081491947174,-0.0006472718669101596,-0.0010367477661930025,0.0008909569005481899,-35.3630054,149.1647455,350005.75,0.0,0.0,-152.0,RTL,0.0,0.0,-999.5,3.25,2.5,4.5
14:28:16,222439.0,-0.0012328247539699078,0.004909120965749025,-1.008855164051056,-0.0010480943601578474,-0.0010310385841876268,0.0010064486414194107,-35.3630054,149.1647455,351174.5,0.0,0.0,-152.0,RTL,0.0,0.0,-999.5,2.5,2.5,4.5
14:28:18,147094.0,-0.000901783729204908,0.004686499014496803,-1.0082855224609375,0.0005013743648305535,0.0002634003758430481,-0.0005992375081405044,-35.3630054,149.1647455,354277.5,0.0,-1.0,-152.0,RTL,0.0,0.0,-1000.0,4.5,4.0,2.5
14:28:20,147094.0,-0.0006934087723493576,0.004748673178255558,-1.0083643794059753,-0.000227699289098382,-0.00044106319546699524,-0.0020284857600927353,-35.3630054,149.1647455,357383.5,0.0,-1.0,-152.0,RTL,0.0,0.0,-1000.0,3.5,3.5,1.5
14:28:21,218842.0,-0.0008758363546803594,0.004978927783668041,-1.008474737405777,0.0006489678053185344,-0.0001072264276444912,0.00048016203800216317,-35.3630054,149.1647455,359328.0,0.0,-1.0,-152.0,RTL,0.0,0.0,-1000.25,4.75,3.5,3.5
14:28:22,218842.0,-0.000766262412071228,0.005061198258772492,-1.0085169672966003,-0.0008124762680381536,-0.0009675517212599516,-0.00010773283429443836,-35.3630054,149.1647455,360494.0,0.0,-1.0,-152.0,RTL,0.0,0.0,-1000.0,3.0,2.5,3.0
14:28:24,132719.0,-0.0012950925738550723,0.0053132406901568174,-1.008574366569519,-0.0017322963103652,0.0005228847730904818,-0.0002968786284327507,-35.3630054,149.1647455,363598.5,0.0,-1.0,-152.0,RTL,0.0,0.0,-1000.0,2.0,4.0,3.0
14:28:26,132719.0,-0.00116102141328156,0.0047541840467602015,-1.0087182521820068,-0.0003765568835660815,-0.00021586567163467407,0.00019772665109485388,-35.3630054,149.1647455,366706.0,0.0,-1.0,-152.0,RTL,0.0,0.0,-999.5,3.0,3.5,3.5
14:28:27,12997.0,-0.001080115995137021,0.004871127661317587,-1.0087373852729797,-0.0009273742325603962,-0.00029533327324315906,-3.5258999560028315e-05,-35.3630054,149.1647455,368650.0,0.0,-1.0,-152.0,RTL,0.0,0.0,-1000.0,2.75,3.25,3.5
14:28:28,12997.0,-0.0010679925326257944,0.004890887765213847,-1.0086677074432373,0.0007760806474834681,0.0004029159899801016,-0.0002821515081450343,-35.3630054,149.1647455,369821.0,0.0,-1.0,-152.0,RTL,0.0,0.0,-1000.0,4.0,4.0,3.0
14:28:30,108743.0,-0.0010999474907293916,0.004565272480249405,-1.0087881088256836,-0.0003612071741372347,-0.0007014765869826078,-0.001953525934368372,-35.3630054,149.1647455,372928.5,0.0,-1.0,-152.0,RTL,0.0,0.0,-1000.0,3.0,3.0,1.5
14:28:32,108743.0,-0.0012572400155477226,0.004958342527970672,-1.0089240074157715,-0.0015552379190921783,-0.001464042579755187,-0.0009408977348357439,-35.3630054,149.1647455,376033.0,0.0,-1.0,-152.0,RTL,0.0,0.0,-1000.0,2.0,2.0,2.5
14:28:33,48947.0,-0.0007824273343430832,0.004631491145119071,-1.0081221759319305,0.0006609667325392365,-0.0004804818890988827,0.0010778679279610515,-35.3630054,149.1647455,377974.5,0.0,-1.0,-152.0,RTL,0.0,0.0,-999.75,4.25,3.0,4.5
14:28:34,48947.0,-0.0007784731860738248,0.004465476609766483,-1.0082383155822754,-0.0020882460521534085,-0.0007488629780709743,-0.00041640340350568295,-35.3630054,149.1647455,379139.0,0.0,-1.0,-152.0,RTL,0.0,0.0,-999.5,1.5,2.5,3.0
14:28:36,199906.0,-0.0011782145593315363,0.004738454474136233,-1.0083791017532349,-0.0007696406682953238,4.2178668081760406e-05,-0.0008161591831594706,-35.3630054,149.1647456,382250.0,0.0,-2.0,-152.0,RTL,0.0,0.0,-1000.0,3.0,3.5,2.5
14:28:38,199906.0,-0.0014531787019222975,0.00490404455922544,-1.0083332061767578,-0.0006403628503903747,-0.0005918617825955153,0.0009017202537506819,-35.3630054,149.1647456,385357.5,0.0,-1.0,-152.0,RTL,0.0,0.0,-1000.0,2.5,2.5,4.5
14:28:39,69525.0,-0.0010158136574318632,0.00484392128419131,-1.008422702550888,-0.0004441331257112324,-0.0005643251352012157,-0.0006402124417945743,-35.3630054,149.1647456,387295.0,0.0,-1.0,-152.0,RTL,0.0,0.0,-1000.0,2.75,2.75,2.75
14:28:40,69525.0,-0.0009676278859842569,0.005172641947865486,-1.0086153149604797,0.00015886989422142506,-0.0011732705170288682,0.00041049299761652946,-35.3630054,149.1647456,388460.5,0.0,-1.0,-152.0,RTL,0.0,0.0,-1000.0,3.5,2.5,4.0
14:28:42,136154.0,-0.0012552975094877183,0.004877748666331172,-1.0086769461631775,-0.00021247495897114277,0.0008920966647565365,0.00038655451498925686,-35.3630054,149.1647456,391577.5,0.0,-1.0,-152.0,RTL,0.0,0.0,-999.5,3.0,4.0,4.0
14:28:44,202783.0,-0.0015106944483704865,0.004687778651714325,-1.0088264346122742,-0.0029145514126867056,-0.0018575276480987668,0.00019641080871224403,-35.3630054,149.1647456,394676.0,0.0,-1.0,-152.0,RTL,0.0,0.0,-1000.0,0.5,1.5,3.5
14:28:45,75223.0,-0.0013746160257142037,0.0044411259004846215,-1.0087535679340363,0.00014246575301513076,-0.000742726493626833,6.165041122585535e-05,-35.3630054,149.1647456,396618.25,0.0,-1.5,-152.0,RTL,0.0,0.0,-999.75,3.5,2.75,3.5
14:28:46,75223.0,-0.0012958543375134468,0.004610526142641902,-1.008838415145874,-0.002218504436314106,-0.0010035245213657618,-0.0002559530548751354,-35.3630054,149.1647456,397783.0,0.0,-2.0,-152.0,RTL,0.0,0.0,-1000.0,2.0,2.0,3.0
14:28:48,98960.5,-0.0012839276459999382,0.004666466265916824,-1.008862316608429,-0.001859914162196219,-0.0006951557006686926,-0.0006796333473175764,-35.3630054,149.1647456,400897.0,0.0,-2.0,-152.0,RTL,0.0,0.0,-1000.0,1.5,3.0,3.0
14:28:50,122698.0,-0.0011741362395696342,0.004453806905075908,-1.0081672072410583,-1.7017358914017677e-05,0.00018886115867644548,-0.0007494402816519141,-35.3630054,149.1647456,404007.0,0.0,-2.0,-152.0,RTL,0.0,0.0,-1000.0,3.5,3.5,2.5
14:28:51,40751.0,-0.0012091502721887082,0.004721238976344466,-1.008251577615738,-0.0011837640777230263,-0.00036531127989292145,-0.00036389147862792015,-35.3630054,149.1647456,405944.25,0.0,-1.5,-152.0,RTL,0.0,0.0,-999.75,2.25,2.75,3.25
14:28:52,40751.0,-0.0012889807112514973,0.0047018330078572035,-1.0082046389579773,0.0009719666559249163,0.0004942158702760935,-0.001109739881940186,-35.3630054,149.1647456,407111.0,0.0,-1.0,-152.0,RTL,0.0,0.0,-1000.0,4.5,4.0,2.0
14:28:54,50696.5,-0.0010695966193452477,0.004874242004007101,-1.008461356163025,-0.0006646894617006183,0.0004737238632515073,-0.0008920453255996108,-35.3630054,149.1647456,410215.0,0.0,-1.5,-152.0,RTL,0.0,0.0,-1000.0,2.5,3.5,2.5
14:28:56,60642.0,-0.0012970722164027393,0.004902704153209925,-1.0084735751152039,0.0003423334565013647,0.0003973465645685792,-0.0007864149520173669,-35.3630054,149.1647456,413323.0,0.0,-1.0,-152.0,RTL,0.0,0.0,-1000.0,4.0,3.5,3.0
14:28:57,143853.0,-0.000826040908577852,0.004459620802663267,-1.0085491836071014,-0.0004603041452355683,-0.00048243458149954677,-0.00016362685710191727,-35.3630054,149.1647456,415267.5,0.0,-1.0,-152.0,RTL,0.0,0.0,-1000.0,2.5,2.75,3.5
14:28:58,143853.0,-0.0009668883576523513,0.0045573974493891,-1.0086185932159424,-0.0017874514451250434,-5.9118727222085e-05,-0.001549844746477902,-35.3630054,149.1647456,416435.0,0.0,-1.0,-152.0,RTL,0.0,0.0,-1000.0,1.5,3.0,1.5
14:29:00,212923.5,-0.001611525018233806,0.004481979412958026,-1.0086272358894348,-0.0019181884126737714,-4.696822725236416e-05,-0.000754416105337441,-35.3630054,149.1647456,419539.0,0.0,-1.5,-152.0,RTL,0.0,0.0,-1000.0,1.0,3.0,2.5
14:29:02,281994.0,-0.0013439381145872176,0.004667181987315416,-1.0087635517120361,-0.0013794618425890803,-0.0007665031589567661,-0.0005859171506017447,-35.3630054,149.1647456,422655.5,0.0,-2.0,-152.0,RTL,0.0,0.0,-1000.0,1.5,2.5,2.5
14:29:03,178092.0,-0.0012417514808475971,0.004607472685165703,-1.0087619125843048,-0.0008030019816942513,-0.0005639594746753573,-0.00047105964040383697,-35.3630054,149.1647456,424589.5,0.0,-1.0,-152.0,RTL,0.0,0.0,-999.75,2.25,2.75,2.75
14:29:04,178092.0,-0.001237663032952696,0.0046352974604815245,-1.0088264346122742,0.0011212386889383197,0.0004558921791613102,0.00019903900101780891,-35.3630054,149.1647456,425762.0,0.0,-1.0,-152.0,RTL,0.0,0.0,-1000.0,4.0,3.0,3.5
14:29:06,94817.0,-0.0012174994335509837,0.0046904501505196095,-1.0082338452339172,-0.0005493201315402985,-0.000700422446243465,-0.0018669876735657454,-35.3630054,149.1647456,428861.0,0.0,-1.0,-152.0,RTL,0.0,0.0,-1000.0,2.5,2.5,1.5
14:29:08,11542.0,-0.001149744144640863,0.004921814193949103,-1.0084242820739746,0.0006789350882172585,0.001331299776211381,-0.00011518725659698248,-35.3630054,149.1647456,431976.0,0.0,-1.0,-152.0,RTL,0.0,0.0,-999.5,4.0,4.5,3.5
14:29:09,298362.0,-0.0012281336530577391,0.005176316248252988,-1.0083012580871582,0.00024387880694121122,0.0044007329270243645,-7.708527846261859e-05,-35.3630054,149.1647456,433919.75,0.0,-1.0,-152.0,RTL,0.0,0.0,-999.5,3.5,7.25,3.0
14:29:10,298362.0,-0.0012739054509438574,0.022658077999949455,-1.0080163478851318,-0.0010388018563389778,0.055007677525281906,-0.0004567691357806325,-35.3630054,149.1647456,435083.0,-2.0,1.5,-151.0,RTL,0.0,0.0,-998.0,2.5,58.0,2.5
14:29:12,206863.0,-0.008904648013412952,0.060031551867723465,-1.0074783563613892,-0.0037716340739279985,-0.05495689436793327,0.004715555463917553,-35.36300945,149.1647538,438122.0,-48.5,77.0,-146.5,RTL,17.0,7.5,-1001.5,0.0,-51.0,8.0
14:29:14,115364.0,-0.011218444677069783,-0.0209402060136199,-0.5403001308441162,0.08831517770886421,-0.08056316524744034,0.1357904151082039,-35.363022099999995,149.16477220000002,440532.0,-91.5,65.5,-48.0,RTL,22.5,10.5,-919.0,91.5,-76.5,138.5
14:29:15,29014.0,0.02795402891933918,0.0009257608326151967,-0.48843493312597275,-0.6390298008918762,0.050301565788686275,-0.02376294252462685,-35.3630286,149.16478145,440590.5,-27.25,71.25,23.5,RTL,19.75,-29.75,-978.25,-635.25,53.25,-19.75
14:29:16,29014.0,0.014278434216976166,0.03409235645085573,-0.5079774856567383,0.4797419384121895,0.02503829449415207,-0.028313844464719296,-35.363029999999995,149.16478815,440384.0,-14.5,84.5,22.5,RTL,23.0,25.0,-1014.0,483.5,28.0,-24.0
14:29:18,99959.0,-0.02672561351209879,0.03365165553987026,-0.60433030128479,0.45580990612506866,-0.016768491826951504,-0.0362603385001421,-35.363035350000004,149.1648093,440167.5,-48.5,79.0,-1.0,RTL,24.5,38.5,-1000.0,459.5,-13.5,-32.0
14:29:20,170904.0,-0.013293216470628977,0.021365555934607983,-0.6791998445987701,0.1551588475704193,0.0012821131385862827,-0.03649079240858555,-35.36304545,149.16482845000002,440174.5,-61.0,65.0,-2.0,RTL,24.0,-1.0,-996.5,157.5,4.0,-32.5
14:29:21,143609.0,-0.01426284248009324,0.02081614127382636,-0.7149908542633057,0.2677541449666023,-0.0015481095761060715,-0.026496445992961526,-35.363052124999996,149.16483964999998,440178.0,-58.75,65.0,-1.25,RTL,20.0,21.75,-1004.0,270.25,1.5,-22.25
14:29:22,143609.0,-0.016678943298757076,0.021041514351963997,-0.7343153655529022,-0.5381421893835068,0.006604196270927787,-0.025257536210119724,-35.3630562,149.16484615000002,440178.0,-58.5,65.0,-0.5,RTL,20.5,-10.5,-1001.5,-535.0,9.0,-21.5
14:29:24,163886.0,-0.0035085477720713243,0.024011913686990738,-0.7739676237106323,0.03102976083755493,0.00018535018898546696,-0.007467423565685749,-35.363067349999994,149.1648629,440175.5,-46.5,79.0,-1.0,RTL,21.0,25.0,-1001.5,34.5,2.5,-3.5
14:29:26,184163.0,0.012655037455260754,0.025000620633363724,-0.8034248352050781,0.47539427876472473,-0.0030922063160687685,-0.014096782309934497,-35.3630777,149.16488075,440194.0,-42.0,87.5,0.5,RTL,23.5,24.0,-989.5,478.0,-0.5,-10.5
14:29:27,56967.0,0.003623891025199555,0.02514715027064085,-0.8188026696443558,0.21193810552358627,0.0009007722255773842,-0.007546431967057288,-35.3630841,149.164892325,440193.75,-37.75,91.25,0.0,RTL,22.25,25.75,-998.75,215.5,3.0,-4.0
14:29:28,56967.0,-0.0025386029155924916,0.02777260821312666,-0.8267667293548584,-0.4993385672569275,0.0050740921869874,-0.021938285790383816,-35.36308765,149.1648995,440195.5,-37.5,91.0,0.0,RTL,23.5,-20.0,-990.5,-496.0,6.5,-17.5
14:29:30,67448.5,-0.010178842581808567,0.028069783002138138,-0.8439841270446777,0.05928319692611694,0.0003565579536370933,0.0013843324268236756,-35.3630968,149.16491885,440196.0,-44.0,89.0,0.0,RTL,21.5,26.5,-1011.0,63.5,2.0,4.5
14:29:32,77930.0,0.0039660336333326995,0.027431759051978588,-0.8575929701328278,0.603120744228363,0.0029400031780824065,0.0007166131399571896,-35.36310695,149.16493765,440197.5,-43.0,89.0,-0.5,RTL,21.0,42.5,-1008.0,607.0,5.5,4.0
14:29:33,168094.0,-0.0068094455054961145,0.027501481119543314,-0.8644380420446396,-0.2757391259074211,0.0022350054350681603,-0.004741633543744683,-35.363113175,149.16494935,440196.25,-42.75,89.25,0.0,RTL,21.25,4.0,-1003.25,-271.5,4.25,-1.25
14:29:34,168094.0,-0.0013895225711166859,0.029800147749483585,-0.868169367313385,0.24401533976197243,0.006365111796185374,-0.013591278344392776,-35.363116649999995,149.16495665,440199.5,-42.5,88.5,0.0,RTL,24.0,8.5,-991.5,247.5,8.0,-10.0
14:29:36,124441.5,-0.035083768889307976,0.030064813792705536,-0.8788070380687714,-0.5465537756681442,-0.0016344995237886906,-0.008665103348903358,-35.363124850000005,149.16497715,440198.0,-55.5,79.5,0.0,RTL,23.5,-10.5,-996.5,-542.5,0.0,-5.5
14:29:38,80789.0,-0.012303618481382728,0.025769044645130634,-0.8873386979103088,0.1761469542980194,-0.0016428274102509022,0.006723590428009629,-35.3631352,149.1649959,440197.5,-61.0,75.0,0.0,RTL,21.0,38.0,-1009.5,180.5,0.5,9.5
14:29:39,270470.0,-0.005207681024330668,0.025022003799676895,-0.8926643282175064,-0.1846097968518734,0.00215615687193349,-0.003270560293458402,-35.363142275,149.16500685,440196.0,-53.5,80.25,0.0,RTL,20.0,10.75,-993.75,-180.75,4.0,0.25
14:29:40,270470.0,0.0032249666401185095,0.026336951181292534,-0.8953259289264679,0.31417805748060346,0.003535884665325284,-0.008410379523411393,-35.3631462,149.16501365,440194.5,-49.0,83.5,-0.5,RTL,21.5,16.5,-1004.5,317.0,5.0,-5.0
14:29:42,240077.5,-0.017463253811001778,0.029407047977050144,-0.9016387065251669,-0.42035024364789325,-0.0026077228443076215,-0.012383367323006192,-35.363154933333334,149.16503156666667,440195.3333333333,-49.666666666666664,85.0,0.0,RTL,21.333333333333332,-12.333333333333334,-990.6666666666666,-416.3333333333333,-1.0,-9.0
14:29:44,209685.0,-0.02277737793823083,0.03008405740062396,-0.907278299331665,-0.11067054172356923,0.0015220590867102146,0.008911387839665016,-35.36316433333334,149.16505103333336,440187.6666666667,-54.333333333333336,82.0,0.0,RTL,22.333333333333332,14.0,-1004.3333333333334,-106.0,3.0,11.666666666666666
14:29:45,160138.0,-0.03018156625330448,0.02857702225446701,-0.9107813636461893,-0.5453101197878519,0.0003606458582604925,-0.008244316326454282,-35.36317006666666,149.1650632666667,440195.3333333333,-58.666666666666664,79.0,0.0,RTL,21.333333333333332,-13.0,-994.3333333333334,-541.6666666666666,1.6666666666666667,-5.0
14:29:46,160138.0,-0.016681984687844913,0.028502680361270905,-0.9125949343045553,0.40643800298372906,-0.0017973443415636818,0.007407671927163999,-35.36317373333333,149.16507053333336,440196.3333333333,-61.0,77.0,-0.3333333333333333,RTL,22.0,29.666666666666668,-1002.3333333333334,409.3333333333333,0.0,10.0
14:29:48,117255.0,-0.013400281313806772,0.02645524311810732,-0.9175529778003693,-0.4265667423605919,0.002263099595438689,-0.012774952687323093,-35.3631847,149.16509035,440198.5,-60.0,77.0,-0.5,RTL,20.333333333333332,-1.3333333333333333,-999.3333333333334,-78.0,2.3333333333333335,-6.333333333333333
14:29:50,74372.0,-9.156922654559214e-05,0.025667219733198483,-0.9209187229474386,-0.39638960858186084,0.0017135248441870015,-0.011093313728148738,-35.363195,149.1651071,440190.3333333333,-51.333333333333336,83.33333333333333,-0.6666666666666666,RTL,20.0,-10.666666666666666,-1003.3333333333334,-393.6666666666667,3.0,-8.0
14:29:51,22959.0,0.00822648840645949,0.02734016130367915,-0.9226562976837158,0.33461087942123413,-0.001690343099956711,-0.009700873401015997,-35.3632017,149.16511830000002,440183.0,-43.666666666666664,89.0,0.0,RTL,21.333333333333332,15.666666666666666,-996.0,337.6666666666667,0.0,-6.666666666666667
14:29:52,22959.0,-0.007763227603087823,0.028886777038375538,-0.9237760106722513,-0.2886022726694743,0.0007993457450841864,0.0028932728649427495,-35.36320536666667,149.1651254,440183.3333333333,-42.0,90.33333333333333,-1.6666666666666667,RTL,22.333333333333332,4.666666666666667,-1001.3333333333334,-284.6666666666667,1.6666666666666667,6.0
14:29:54,97627.5,-0.024266220008333523,0.03106689328948657,-0.9273315072059631,0.2561774055163066,-0.0013109463810299833,0.005359135257701079,-35.36321366666667,149.1651457,440183.6666666667,-50.666666666666664,84.66666666666667,-1.6666666666666667,RTL,23.0,27.333333333333332,-998.6666666666666,260.0,0.3333333333333333,8.0
14:29:56,172296.0,-0.02481340492765109,0.028655993441740673,-0.9292449752489725,0.47956062853336334,-0.0021560275927186012,0.004141106580694516,-35.36322226666667,149.16516586666668,440186.3333333333,-68.33333333333333,72.66666666666667,-1.3333333333333333,RTL,21.666666666666668,27.666666666666668,-1009.0,482.6666666666667,-1.0,7.0
14:29:57,120674.0,-0.03392712585628033,0.027793455868959427,-0.9308400551478068,-0.12467110653718312,-0.002210758781681458,0.0070822146177912755,-35.3632283,149.1651779,440187.0,-71.33333333333333,70.0,-1.0,RTL,20.666666666666668,16.666666666666668,-1000.3333333333334,-120.66666666666667,-0.6666666666666666,9.333333333333334
14:29:58,120674.0,-0.027941982572277386,0.02831561304628849,-0.9318222999572754,0.04564046859741211,-0.0031784434880440435,-0.010612879258890947,-35.3632319,149.1651851,440192.6666666667,-72.33333333333333,68.66666666666667,-0.6666666666666666,RTL,21.333333333333332,0.6666666666666666,-998.0,47.333333333333336,-1.3333333333333333,-7.666666666666667
14:30:00,120222.5,-0.033272583658496536,0.027336813509464264,-0.9338825941085815,-0.3548576198518276,-0.00203376030549407,-0.00322096919020017,-35.36324186666667,149.16520400000002,440197.3333333333,-75.0,67.0,-0.3333333333333333,RTL,20.333333333333332,-1.3333333333333333,-1002.0,-352.3333333333333,-0.3333333333333333,-0.3333333333333333
14:30:02,119771.0,-0.03585738378266493,0.029026721293727558,-0.9353700280189514,0.08793233335018158,-0.0012053803075104952,0.008117460956176123,-35.36325153333333,149.165223,440203.0,-73.0,68.0,0.0,RTL,22.333333333333332,28.333333333333332,-996.3333333333334,90.33333333333333,-0.3333333333333333,10.0
14:30:03,101225.0,-0.04517663518587748,-0.015706940204836428,-0.9349287152290344,-0.47524547576904297,-0.058741812904675804,-0.005254419986158609,-35.36325733333334,149.1652345,440207.6666666667,-68.66666666666667,51.666666666666664,0.3333333333333333,RTL,18.333333333333332,1.6666666666666667,-1001.6666666666666,-472.6666666666667,-57.0,-1.6666666666666667
14:30:04,101225.0,-0.022183984518051147,-0.05003595103820165,-0.9338814616203308,0.36249834174911183,-0.029574185454597075,-0.003295040068527063,-35.36326,149.16523896666664,440209.0,-47.666666666666664,17.0,0.0,RTL,9.0,15.0,-998.6666666666666,363.6666666666667,-27.666666666666668,-0.6666666666666666
14:30:06,101225.0,-0.011629719752818346,0.021921463310718536,-0.9369166890780131,-0.4565255641937256,0.019016871849695843,-0.004754157814507683,-35.3632614,149.1652391,440208.6666666667,-15.666666666666666,-18.666666666666668,0.3333333333333333,RTL,-3.0,-17.666666666666668,-999.0,-455.3333333333333,19.666666666666668,-1.6666666666666667
14:30:07,1055.0,-0.0068961431582768755,0.0051427465708305435,-0.938124934832255,-0.0061827898025512695,-0.015389707249899706,-0.00231527560390532,-35.36326160000001,149.16523930000002,440201.6666666667,-17.0,-5.0,1.0,RTL,0.3333333333333333,-13.666666666666666,-990.6666666666666,-6.333333333333333,-14.0,0.3333333333333333
14:30:08,1055.0,-0.008238775345186392,0.00021704748845271146,-0.9384385546048483,0.07659741987784703,-0.0014129751361906528,0.0018956811012079318,-35.36326196666666,149.1652394,440201.3333333333,-13.333333333333334,-7.333333333333333,-0.3333333333333333,RTL,-0.6666666666666666,15.333333333333334,-997.6666666666666,77.66666666666667,0.0,4.0
14:30:10,212931.0,0.008159394531200329,0.005715447012335062,-0.9386274019877116,0.4156338920195897,0.0014507027032474677,-0.0015579704195261002,-35.36326276666667,149.1652384,440202.3333333333,-0.6666666666666666,-6.333333333333333,0.0,RTL,-1.3333333333333333,21.0,-995.3333333333334,416.0,2.0,1.0
14:30:12,212931.0,0.023207508648435276,0.007492626241097848,-0.938977857430776,0.6351875265439352,0.0015561966380725305,-0.002880151034332812,-35.363263233333335,149.16523726666665,440128.0,5.333333333333333,0.0,27.333333333333332,RTL,0.3333333333333333,6.333333333333333,-942.3333333333334,634.3333333333334,2.0,-0.6666666666666666
