time_stamp,MODE,lat,lon,relative_alt,roll,pitch,yaw,rollspeed,pitchspeed,yawspeed,xacc,yacc,zacc,xgyro,ygyro,zgyro,vx,vy,vz,LAND_SPEED_HIGH,WPNAV_SPEED_DN,RTL_ALT
10:50:37.149,GUIDED,-35.3632621,149.1652374,0,-0.00011761450150515884,0.001531948335468769,0.02844092808663845,0.00023011487792246044,0.00021976890275254846,0.002429411979392171,0,1,-1000,0,0,0,-1,0,-2,0.0,150.0,1500.0
10:50:37.351,GUIDED,-35.3632621,149.1652374,0,-4.840324618271552e-05,0.0015877147670835257,0.028077946975827217,0.00027708287234418094,0.0003358899266459048,0.0023553711362183094,0,1,-1000,0,0,0,-1,0,-2,0.0,150.0,1500.0
10:50:37.554,GUIDED,-35.3632621,149.1652374,0,-4.840324618271552e-05,0.0015877147670835257,0.028077946975827217,0.00027708287234418094,0.0003358899266459048,0.0023553711362183094,0,1,-1000,0,0,0,-1,0,-2,0.0,150.0,1500.0
10:50:37.757,GUIDED,-35.3632621,149.1652374,0,-4.840324618271552e-05,0.0015877147670835257,0.028077946975827217,0.00027708287234418094,0.0003358899266459048,0.0023553711362183094,0,1,-1000,0,0,0,-1,0,-2,0.0,150.0,1500.0
10:50:37.962,GUIDED,-35.3632621,149.1652374,0,-4.840324618271552e-05,0.0015877147670835257,0.028077946975827217,0.00027708287234418094,0.0003358899266459048,0.0023553711362183094,0,1,-1000,0,0,0,-1,0,-2,0.0,150.0,1500.0
10:50:38.166,GUIDED,-35.3632621,149.1652374,0,-4.840324618271552e-05,0.0015877147670835257,0.028077946975827217,0.00027708287234418094,0.0003358899266459048,0.0023553711362183094,0,1,-1000,0,0,0,-1,0,-2,0.0,150.0,1500.0
10:50:38.368,GUIDED,-35.3632621,149.1652374,0,-4.840324618271552e-05,0.0015877147670835257,0.028077946975827217,0.00027708287234418094,0.0003358899266459048,0.0023553711362183094,0,1,-1000,0,0,0,-1,0,-2,0.0,150.0,1500.0
10:50:38.569,GUIDED,-35.3632621,149.1652374,0,-4.840324618271552e-05,0.0015877147670835257,0.028077946975827217,0.00027708287234418094,0.0003358899266459048,0.0023553711362183094,0,1,-1000,0,0,0,-1,0,-2,0.0,150.0,1500.0
10:50:38.770,GUIDED,-35.3632621,149.1652374,0,-4.840324618271552e-05,0.0015877147670835257,0.028077946975827217,0.00027708287234418094,0.0003358899266459048,0.0023553711362183094,0,1,-1000,0,0,0,-1,0,-2,0.0,150.0,1500.0
10:50:38.978,GUIDED,-35.3632621,149.1652374,0,-4.840324618271552e-05,0.0015877147670835257,0.028077946975827217,0.00027708287234418094,0.0003358899266459048,0.0023553711362183094,0,1,-1000,0,0,0,-1,0,-2,0.0,150.0,1500.0
10:50:39.179,GUIDED,-35.3632622,149.1652375,0,-0.00016968893760349602,0.0014827344566583633,0.027072254568338394,0.00014812088920734823,0.0002537973050493747,0.0022713998332619667,0,1,-1000,0,0,0,-2,1,-1,0.0,150.0,1500.0
10:50:39.382,GUIDED,-35.3632622,149.1652375,9,-0.00029711145907640457,0.001384553499519825,0.026795579120516777,0.00020662066526710987,0.0002392840397078544,0.00238821841776371,0,1,-1000,0,0,0,-2,2,-1,0.0,150.0,1500.0
10:50:39.583,GUIDED,-35.3632622,149.1652375,9,-0.00029711145907640457,0.001384553499519825,0.026795579120516777,0.00020662066526710987,0.0002392840397078544,0.00238821841776371,0,1,-1000,0,0,0,-2,2,-1,0.0,150.0,1500.0
10:50:39.786,GUIDED,-35.3632622,149.1652375,9,-0.00029711145907640457,0.001384553499519825,0.026795579120516777,0.00020662066526710987,0.0002392840397078544,0.00238821841776371,0,1,-1000,0,0,0,-2,2,-1,0.0,150.0,1500.0
10:50:39.988,GUIDED,-35.3632622,149.1652375,9,-0.00029711145907640457,0.001384553499519825,0.026795579120516777,0.00020662066526710987,0.0002392840397078544,0.00238821841776371,0,1,-1000,0,0,0,-2,2,-1,0.0,150.0,1500.0
10:50:40.191,GUIDED,-35.3632622,149.1652375,9,-0.00029711145907640457,0.001384553499519825,0.026795579120516777,0.00020662066526710987,0.0002392840397078544,0.00238821841776371,0,1,-1000,0,0,0,-2,2,-1,0.0,150.0,1500.0
10:50:40.396,GUIDED,-35.3632622,149.1652375,9,-0.00029711145907640457,0.001384553499519825,0.026795579120516777,0.00020662066526710987,0.0002392840397078544,0.00238821841776371,0,1,-1000,0,0,0,-2,2,-1,0.0,150.0,1500.0
10:50:40.597,GUIDED,-35.3632622,149.1652375,9,-0.00029711145907640457,0.001384553499519825,0.026795579120516777,0.00020662066526710987,0.0002392840397078544,0.00238821841776371,0,1,-1000,0,0,0,-2,2,-1,0.0,150.0,1500.0
10:50:40.800,GUIDED,-35.3632622,149.1652375,9,-0.00029711145907640457,0.001384553499519825,0.026795579120516777,0.00020662066526710987,0.0002392840397078544,0.00238821841776371,0,1,-1000,0,0,0,-2,2,-1,0.0,150.0,1500.0
10:50:41.006,GUIDED,-35.3632622,149.1652375,9,-0.00029711145907640457,0.001384553499519825,0.026795579120516777,0.00020662066526710987,0.0002392840397078544,0.00238821841776371,0,1,-1000,0,0,0,-2,2,-1,0.0,150.0,1500.0
10:50:41.208,GUIDED,-35.3632621,149.1652375,0,-0.0002481023548170924,0.001282497774809599,0.02617952786386013,0.0002499632246326655,0.0002479114045854658,0.0021398267708718777,0,1,-1000,0,0,0,0,1,1,0.0,150.0,1500.0
10:50:41.411,GUIDED,-35.3632621,149.1652375,0,-0.00018000144336838275,0.0014954108046367764,0.025627901777625084,0.00023469497682526708,0.000223406997974962,0.002073148498311639,0,1,-1000,0,0,0,0,0,1,0.0,150.0,1500.0
10:50:41.618,GUIDED,-35.3632621,149.1652375,0,-0.00018000144336838275,0.0014954108046367764,0.025627901777625084,0.00023469497682526708,0.000223406997974962,0.002073148498311639,0,1,-1000,0,0,0,0,0,1,0.0,150.0,1500.0
10:50:41.822,GUIDED,-35.3632621,149.1652375,0,-0.00018000144336838275,0.0014954108046367764,0.025627901777625084,0.00023469497682526708,0.000223406997974962,0.002073148498311639,0,1,-1000,0,0,0,0,0,1,0.0,150.0,1500.0
10:50:42.026,GUIDED,-35.3632621,149.1652375,0,-0.00018000144336838275,0.0014954108046367764,0.025627901777625084,0.00023469497682526708,0.000223406997974962,0.002073148498311639,0,1,-1000,0,0,0,0,0,1,0.0,150.0,1500.0
10:50:42.229,GUIDED,-35.3632621,149.1652375,0,-0.00018000144336838275,0.0014954108046367764,0.025627901777625084,0.00023469497682526708,0.000223406997974962,0.002073148498311639,0,1,-1000,0,0,0,0,0,1,0.0,150.0,1500.0
10:50:42.433,GUIDED,-35.3632621,149.1652375,0,-0.00018000144336838275,0.0014954108046367764,0.025627901777625084,0.00023469497682526708,0.000223406997974962,0.002073148498311639,0,1,-1000,0,0,0,0,0,1,0.0,150.0,1500.0
10:50:42.635,GUIDED,-35.3632621,149.1652375,0,-0.00018000144336838275,0.0014954108046367764,0.025627901777625084,0.00023469497682526708,0.000223406997974962,0.002073148498311639,0,1,-1000,0,0,0,0,0,1,0.0,150.0,1500.0
10:50:42.839,GUIDED,-35.3632621,149.1652375,0,-0.00018000144336838275,0.0014954108046367764,0.025627901777625084,0.00023469497682526708,0.000223406997974962,0.002073148498311639,0,1,-1000,0,0,0,0,0,1,0.0,150.0,1500.0
10:50:43.046,GUIDED,-35.3632621,149.1652374,0,-4.510039070737548e-05,0.0017000532243400812,0.025197777897119522,0.000268966774456203,0.0002454834175296128,0.0019296584650874138,0,1,-1000,0,0,0,0,0,1,0.0,150.0,1500.0
10:50:43.248,GUIDED,-35.3632621,149.1652374,0,0.00141381926368922,0.0014531415654346347,0.02468550205230713,0.011875421740114689,-0.010851099155843258,0.0026400256901979446,0,0,-1075,12,-10,1,0,0,-3,0.0,150.0,1500.0
10:50:43.452,GUIDED,-35.3632621,149.1652374,50,0.004470061045140028,-0.0004080448707100004,0.02462421916425228,-0.00046916931751184165,-0.0017269934760406613,0.001941625727340579,0,0,-1140,0,-1,0,0,0,-36,0.0,150.0,1500.0
10:50:43.656,GUIDED,-35.3632621,149.1652374,50,0.004470061045140028,-0.0004080448707100004,0.02462421916425228,-0.00046916931751184165,-0.0017269934760406613,0.001941625727340579,0,0,-1140,0,-1,0,0,0,-36,0.0,150.0,1500.0
10:50:43.858,GUIDED,-35.3632621,149.1652374,50,0.004470061045140028,-0.0004080448707100004,0.02462421916425228,-0.00046916931751184165,-0.0017269934760406613,0.001941625727340579,0,0,-1140,0,-1,0,0,0,-36,0.0,150.0,1500.0
10:50:44.063,GUIDED,-35.3632621,149.1652374,50,0.004470061045140028,-0.0004080448707100004,0.02462421916425228,-0.00046916931751184165,-0.0017269934760406613,0.001941625727340579,0,0,-1140,0,-1,0,0,0,-36,0.0,150.0,1500.0
10:50:44.266,GUIDED,-35.3632621,149.1652374,50,0.004470061045140028,-0.0004080448707100004,0.02462421916425228,-0.00046916931751184165,-0.0017269934760406613,0.001941625727340579,0,0,-1140,0,-1,0,0,0,-36,0.0,150.0,1500.0
10:50:44.467,GUIDED,-35.3632621,149.1652374,50,0.004470061045140028,-0.0004080448707100004,0.02462421916425228,-0.00046916931751184165,-0.0017269934760406613,0.001941625727340579,0,0,-1140,0,-1,0,0,0,-36,0.0,150.0,1500.0
10:50:44.669,GUIDED,-35.3632621,149.1652374,50,0.004470061045140028,-0.0004080448707100004,0.02462421916425228,-0.00046916931751184165,-0.0017269934760406613,0.001941625727340579,0,0,-1140,0,-1,0,0,0,-36,0.0,150.0,1500.0
10:50:44.871,GUIDED,-35.3632621,149.1652374,50,0.004470061045140028,-0.0004080448707100004,0.02462421916425228,-0.00046916931751184165,-0.0017269934760406613,0.001941625727340579,0,0,-1140,0,-1,0,0,0,-36,0.0,150.0,1500.0
10:50:45.075,GUIDED,-35.3632621,149.1652375,676,0.0016770861111581326,0.0018968635704368353,0.024616897106170654,-0.0020464605186134577,0.0004265697207301855,0.0006391879869624972,0,0,-1140,0,-1,0,0,0,-122,0.0,150.0,1500.0
10:50:45.279,GUIDED,-35.3632619,149.1652381,2142,0.044408272951841354,-0.004826201591640711,0.024526134133338928,0.0423450842499733,-0.009122844785451889,0.0037201866507530212,0,-3,-1002,42,-8,2,3,19,-148,0.0,150.0,1500.0
10:50:45.481,GUIDED,-35.3632618,149.1652387,2527,0.05458046495914459,-0.00743159931153059,0.024717528373003006,0.039423249661922455,-0.011007185094058514,0.004279335029423237,1,-4,-1000,39,-10,3,5,29,-148,0.0,150.0,1500.0
10:50:45.683,GUIDED,-35.3632618,149.1652387,2527,0.05458046495914459,-0.00743159931153059,0.024717528373003006,0.039423249661922455,-0.011007185094058514,0.004279335029423237,1,-4,-1000,39,-10,3,5,29,-148,0.0,150.0,1500.0
10:50:45.886,GUIDED,-35.3632618,149.1652387,2527,0.05458046495914459,-0.00743159931153059,0.024717528373003006,0.039423249661922455,-0.011007185094058514,0.004279335029423237,1,-4,-1000,39,-10,3,5,29,-148,0.0,150.0,1500.0
10:50:46.088,GUIDED,-35.3632618,149.1652387,2527,0.05458046495914459,-0.00743159931153059,0.024717528373003006,0.039423249661922455,-0.011007185094058514,0.004279335029423237,1,-4,-1000,39,-10,3,5,29,-148,0.0,150.0,1500.0
10:50:46.292,GUIDED,-35.3632618,149.1652387,2527,0.05458046495914459,-0.00743159931153059,0.024717528373003006,0.039423249661922455,-0.011007185094058514,0.004279335029423237,1,-4,-1000,39,-10,3,5,29,-148,0.0,150.0,1500.0
10:50:46.496,GUIDED,-35.3632618,149.1652387,2527,0.05458046495914459,-0.00743159931153059,0.024717528373003006,0.039423249661922455,-0.011007185094058514,0.004279335029423237,1,-4,-1000,39,-10,3,5,29,-148,0.0,150.0,1500.0
10:50:46.701,GUIDED,-35.3632618,149.1652387,2527,0.05458046495914459,-0.00743159931153059,0.024717528373003006,0.039423249661922455,-0.011007185094058514,0.004279335029423237,1,-4,-1000,39,-10,3,5,29,-148,0.0,150.0,1500.0
10:50:46.904,GUIDED,-35.3632612,149.1652418,3510,0.020212892442941666,0.022353224456310272,-0.04240364208817482,-0.1783888041973114,0.046868618577718735,-0.08379489183425903,1,-4,-1000,39,-10,3,8,54,-144,0.0,150.0,1500.0
10:50:47.107,GUIDED,-35.3632609,149.1652461,5041,-0.04857770353555679,0.007562208455055952,-0.08790970593690872,-0.06174040213227272,-0.03544072061777115,-0.011645225808024406,3,-4,-999,-61,-34,-12,-3,18,-149,0.0,150.0,1500.0
10:50:47.309,GUIDED,-35.363261,149.1652464,5426,-0.06755239516496658,-0.002832986880093813,-0.08752033859491348,-0.08357430249452591,-0.04545874521136284,0.00925481878221035,2,-2,-998,-83,-44,8,-4,2,-148,0.0,150.0,1500.0
10:50:47.510,GUIDED,-35.363261,149.1652464,5426,-0.06755239516496658,-0.002832986880093813,-0.08752033859491348,-0.08357430249452591,-0.04545874521136284,0.00925481878221035,2,-2,-998,-83,-44,8,-4,2,-148,0.0,150.0,1500.0
10:50:47.711,GUIDED,-35.363261,149.1652464,5426,-0.06755239516496658,-0.002832986880093813,-0.08752033859491348,-0.08357430249452591,-0.04545874521136284,0.00925481878221035,2,-2,-998,-83,-44,8,-4,2,-148,0.0,150.0,1500.0
10:50:47.912,GUIDED,-35.363261,149.1652464,5426,-0.06755239516496658,-0.002832986880093813,-0.08752033859491348,-0.08357430249452591,-0.04545874521136284,0.00925481878221035,2,-2,-998,-83,-44,8,-4,2,-148,0.0,150.0,1500.0
10:50:48.115,GUIDED,-35.363261,149.1652464,5426,-0.06755239516496658,-0.002832986880093813,-0.08752033859491348,-0.08357430249452591,-0.04545874521136284,0.00925481878221035,2,-2,-998,-83,-44,8,-4,2,-148,0.0,150.0,1500.0
10:50:48.321,GUIDED,-35.363261,149.1652464,5426,-0.06755239516496658,-0.002832986880093813,-0.08752033859491348,-0.08357430249452591,-0.04545874521136284,0.00925481878221035,2,-2,-998,-83,-44,8,-4,2,-148,0.0,150.0,1500.0
10:50:48.523,GUIDED,-35.363261,149.1652464,5426,-0.06755239516496658,-0.002832986880093813,-0.08752033859491348,-0.08357430249452591,-0.04545874521136284,0.00925481878221035,2,-2,-998,-83,-44,8,-4,2,-148,0.0,150.0,1500.0
10:50:48.725,GUIDED,-35.363261,149.1652464,5426,-0.06755239516496658,-0.002832986880093813,-0.08752033859491348,-0.08357430249452591,-0.04545874521136284,0.00925481878221035,2,-2,-998,-83,-44,8,-4,2,-148,0.0,150.0,1500.0
10:50:48.927,GUIDED,-35.363261,149.1652464,5426,-0.06755239516496658,-0.002832986880093813,-0.08752033859491348,-0.08357430249452591,-0.04545874521136284,0.00925481878221035,2,-2,-998,-83,-44,8,-4,2,-148,0.0,150.0,1500.0
10:50:49.129,GUIDED,-35.3632612,149.1652416,7352,-0.0185228381305933,-0.005120267625898123,-0.09194380789995193,0.0645139217376709,0.012704949826002121,0.002169139916077256,-6,9,-1001,63,9,0,-1,-59,-149,0.0,150.0,1500.0
10:50:49.331,GUIDED,-35.3632614,149.1652367,8519,0.03048580512404442,0.005335529334843159,-0.09014371782541275,0.06506957858800888,0.012421539053320885,0.004271570593118668,-6,10,-1004,65,13,3,-4,-48,-152,0.0,150.0,1500.0
10:50:49.533,GUIDED,-35.3632614,149.1652367,8519,0.03048580512404442,0.005335529334843159,-0.09014371782541275,0.06506957858800888,0.012421539053320885,0.004271570593118668,-6,10,-1004,65,13,3,-4,-48,-152,0.0,150.0,1500.0
10:50:49.735,GUIDED,-35.3632614,149.1652367,8519,0.03048580512404442,0.005335529334843159,-0.09014371782541275,0.06506957858800888,0.012421539053320885,0.004271570593118668,-6,10,-1004,65,13,3,-4,-48,-152,0.0,150.0,1500.0
10:50:49.937,GUIDED,-35.3632614,149.1652367,8519,0.03048580512404442,0.005335529334843159,-0.09014371782541275,0.06506957858800888,0.012421539053320885,0.004271570593118668,-6,10,-1004,65,13,3,-4,-48,-152,0.0,150.0,1500.0
10:50:50.140,GUIDED,-35.3632614,149.1652367,8519,0.03048580512404442,0.005335529334843159,-0.09014371782541275,0.06506957858800888,0.012421539053320885,0.004271570593118668,-6,10,-1004,65,13,3,-4,-48,-152,0.0,150.0,1500.0
10:50:50.341,GUIDED,-35.3632614,149.1652367,8519,0.03048580512404442,0.005335529334843159,-0.09014371782541275,0.06506957858800888,0.012421539053320885,0.004271570593118668,-6,10,-1004,65,13,3,-4,-48,-152,0.0,150.0,1500.0
10:50:50.544,GUIDED,-35.3632614,149.1652367,8519,0.03048580512404442,0.005335529334843159,-0.09014371782541275,0.06506957858800888,0.012421539053320885,0.004271570593118668,-6,10,-1004,65,13,3,-4,-48,-152,0.0,150.0,1500.0
10:50:50.747,GUIDED,-35.3632614,149.1652367,8519,0.03048580512404442,0.005335529334843159,-0.09014371782541275,0.06506957858800888,0.012421539053320885,0.004271570593118668,-6,10,-1004,65,13,3,-4,-48,-152,0.0,150.0,1500.0
10:50:50.948,GUIDED,-35.3632614,149.1652367,8519,0.03048580512404442,0.005335529334843159,-0.09014371782541275,0.06506957858800888,0.012421539053320885,0.004271570593118668,-6,10,-1004,65,13,3,-4,-48,-152,0.0,150.0,1500.0
10:50:51.150,GUIDED,-35.3632622,149.1652344,10478,0.012758570723235607,-0.002685441402718425,-0.08243659883737564,-0.07588298618793488,-0.007500981446355581,-0.007805645000189543,2,-1,-997,-90,-11,0,-6,19,-148,0.0,150.0,1500.0
10:50:51.351,GUIDED,-35.3632624,149.165236,11631,-0.012793338857591152,-0.00444595655426383,-0.09128767251968384,-0.026358235627412796,-0.0012321433750912547,-0.021467100828886032,2,-3,-1003,-25,0,-22,0,18,-150,0.0,150.0,1500.0
10:50:51.554,GUIDED,-35.3632624,149.165236,11631,-0.012793338857591152,-0.00444595655426383,-0.09128767251968384,-0.026358235627412796,-0.0012321433750912547,-0.021467100828886032,2,-3,-1003,-25,0,-22,0,18,-150,0.0,150.0,1500.0
10:50:51.756,GUIDED,-35.3632624,149.165236,11631,-0.012793338857591152,-0.00444595655426383,-0.09128767251968384,-0.026358235627412796,-0.0012321433750912547,-0.021467100828886032,2,-3,-1003,-25,0,-22,0,18,-150,0.0,150.0,1500.0
10:50:51.962,GUIDED,-35.3632624,149.165236,11631,-0.012793338857591152,-0.00444595655426383,-0.09128767251968384,-0.026358235627412796,-0.0012321433750912547,-0.021467100828886032,2,-3,-1003,-25,0,-22,0,18,-150,0.0,150.0,1500.0
10:50:52.165,GUIDED,-35.3632624,149.165236,11631,-0.012793338857591152,-0.00444595655426383,-0.09128767251968384,-0.026358235627412796,-0.0012321433750912547,-0.021467100828886032,2,-3,-1003,-25,0,-22,0,18,-150,0.0,150.0,1500.0
10:50:52.367,GUIDED,-35.3632624,149.165236,11631,-0.012793338857591152,-0.00444595655426383,-0.09128767251968384,-0.026358235627412796,-0.0012321433750912547,-0.021467100828886032,2,-3,-1003,-25,0,-22,0,18,-150,0.0,150.0,1500.0
10:50:52.569,GUIDED,-35.3632624,149.165236,11631,-0.012793338857591152,-0.00444595655426383,-0.09128767251968384,-0.026358235627412796,-0.0012321433750912547,-0.021467100828886032,2,-3,-1003,-25,0,-22,0,18,-150,0.0,150.0,1500.0
10:50:52.774,GUIDED,-35.3632624,149.165236,11631,-0.012793338857591152,-0.00444595655426383,-0.09128767251968384,-0.026358235627412796,-0.0012321433750912547,-0.021467100828886032,2,-3,-1003,-25,0,-22,0,18,-150,0.0,150.0,1500.0
10:50:52.975,GUIDED,-35.3632622,149.1652367,13576,-0.0012533972039818764,0.0019681607373058796,-0.1307045966386795,0.017870472744107246,0.007656217087060213,-0.022151006385684013,-1,0,-1000,18,7,-24,4,-5,-152,0.0,150.0,1500.0
10:50:53.177,GUIDED,-35.3632619,149.1652363,14358,0.0030100473668426275,0.0036927254404872656,-0.13631685078144073,0.015665868297219276,0.005909197963774204,-0.020077209919691086,-2,0,-999,16,6,-21,3,-7,-152,0.0,150.0,1500.0
10:50:53.379,GUIDED,-35.3632619,149.1652361,14753,0.006017592269927263,0.005140446592122316,-0.1413770467042923,0.013063781894743443,0.004845264367759228,-0.016704553738236427,-2,0,-1000,13,5,-17,2,-6,-152,0.0,150.0,1500.0
10:50:53.584,GUIDED,-35.3632619,149.1652361,14753,0.006017592269927263,0.005140446592122316,-0.1413770467042923,0.013063781894743443,0.004845264367759228,-0.016704553738236427,-2,0,-1000,13,5,-17,2,-6,-152,0.0,150.0,1500.0
10:50:53.787,GUIDED,-35.3632619,149.1652361,14753,0.006017592269927263,0.005140446592122316,-0.1413770467042923,0.013063781894743443,0.004845264367759228,-0.016704553738236427,-2,0,-1000,13,5,-17,2,-6,-152,0.0,150.0,1500.0
10:50:53.988,GUIDED,-35.3632619,149.1652361,14753,0.006017592269927263,0.005140446592122316,-0.1413770467042923,0.013063781894743443,0.004845264367759228,-0.016704553738236427,-2,0,-1000,13,5,-17,2,-6,-152,0.0,150.0,1500.0
10:50:54.191,GUIDED,-35.3632619,149.1652361,14753,0.006017592269927263,0.005140446592122316,-0.1413770467042923,0.013063781894743443,0.004845264367759228,-0.016704553738236427,-2,0,-1000,13,5,-17,2,-6,-152,0.0,150.0,1500.0
10:50:54.394,GUIDED,-35.3632619,149.1652361,14753,0.006017592269927263,0.005140446592122316,-0.1413770467042923,0.013063781894743443,0.004845264367759228,-0.016704553738236427,-2,0,-1000,13,5,-17,2,-6,-152,0.0,150.0,1500.0
10:50:54.595,GUIDED,-35.3632619,149.1652361,14753,0.006017592269927263,0.005140446592122316,-0.1413770467042923,0.013063781894743443,0.004845264367759228,-0.016704553738236427,-2,0,-1000,13,5,-17,2,-6,-152,0.0,150.0,1500.0
10:50:54.797,GUIDED,-35.3632619,149.1652361,14753,0.006017592269927263,0.005140446592122316,-0.1413770467042923,0.013063781894743443,0.004845264367759228,-0.016704553738236427,-2,0,-1000,13,5,-17,2,-6,-152,0.0,150.0,1500.0
10:50:55.002,GUIDED,-35.3632617,149.1652355,16314,0.010006441734731197,0.006619569845497608,-0.15557584166526794,-0.0008556959219276905,-0.0011854782933369279,-0.012950974516570568,-1,0,-1000,0,0,-13,0,0,-152,0.0,150.0,1500.0
10:50:55.204,GUIDED,-35.3632617,149.1652356,17484,0.00712138507515192,0.005531001836061478,-0.1646580994129181,-0.002899402752518654,-0.0005047598388046026,-0.01319281104952097,0,0,-1000,-2,0,-13,-2,4,-152,0.0,150.0,1500.0
10:50:55.405,GUIDED,-35.3632616,149.1652356,17875,0.006123148836195469,0.005086532793939114,-0.16807414591312408,-0.002531873993575573,-0.0012637374456971884,-0.014471243135631084,0,0,-1000,-1,0,-15,-2,5,-152,0.0,150.0,1500.0
10:50:55.608,GUIDED,-35.3632616,149.1652356,17875,0.006123148836195469,0.005086532793939114,-0.16807414591312408,-0.002531873993575573,-0.0012637374456971884,-0.014471243135631084,0,0,-1000,-1,0,-15,-2,5,-152,0.0,150.0,1500.0
10:50:55.820,GUIDED,-35.3632616,149.1652356,17875,0.006123148836195469,0.005086532793939114,-0.16807414591312408,-0.002531873993575573,-0.0012637374456971884,-0.014471243135631084,0,0,-1000,-1,0,-15,-2,5,-152,0.0,150.0,1500.0
10:50:56.021,GUIDED,-35.3632616,149.1652356,17875,0.006123148836195469,0.005086532793939114,-0.16807414591312408,-0.002531873993575573,-0.0012637374456971884,-0.014471243135631084,0,0,-1000,-1,0,-15,-2,5,-152,0.0,150.0,1500.0
10:50:56.223,GUIDED,-35.3632616,149.1652356,17875,0.006123148836195469,0.005086532793939114,-0.16807414591312408,-0.002531873993575573,-0.0012637374456971884,-0.014471243135631084,0,0,-1000,-1,0,-15,-2,5,-152,0.0,150.0,1500.0
10:50:56.426,GUIDED,-35.3632616,149.1652356,17875,0.006123148836195469,0.005086532793939114,-0.16807414591312408,-0.002531873993575573,-0.0012637374456971884,-0.014471243135631084,0,0,-1000,-1,0,-15,-2,5,-152,0.0,150.0,1500.0
10:50:56.628,GUIDED,-35.3632616,149.1652356,17875,0.006123148836195469,0.005086532793939114,-0.16807414591312408,-0.002531873993575573,-0.0012637374456971884,-0.014471243135631084,0,0,-1000,-1,0,-15,-2,5,-152,0.0,150.0,1500.0
10:50:56.830,GUIDED,-35.3632616,149.1652356,17875,0.006123148836195469,0.005086532793939114,-0.16807414591312408,-0.002531873993575573,-0.0012637374456971884,-0.014471243135631084,0,0,-1000,-1,0,-15,-2,5,-152,0.0,150.0,1500.0
10:50:57.032,GUIDED,-35.3632616,149.1652359,19437,0.003863029181957245,0.004053677432239056,-0.1842324435710907,-0.002713816473260522,0.00020311353728175163,-0.01965360902249813,0,0,-1000,-1,0,-20,-3,5,-152,0.0,150.0,1500.0
10:50:57.234,GUIDED,-35.3632617,149.1652361,20610,0.002620374085381627,0.003719247877597809,-0.19825239479541779,-0.0012451179791241884,-0.0007238242542371154,-0.01932699605822563,0,0,-1000,0,0,-20,-2,5,-153,0.0,150.0,1500.0
10:50:57.435,GUIDED,-35.3632617,149.1652362,21001,0.002468323800712824,0.003593569388613105,-0.20312084257602692,-0.001182589796371758,-0.0011931098997592926,-0.020410213619470596,0,0,-999,0,0,-21,-3,4,-153,0.0,150.0,1500.0
10:50:57.637,GUIDED,-35.3632617,149.1652362,21001,0.002468323800712824,0.003593569388613105,-0.20312084257602692,-0.001182589796371758,-0.0011931098997592926,-0.020410213619470596,0,0,-999,0,0,-21,-3,4,-153,0.0,150.0,1500.0
10:50:57.840,GUIDED,-35.3632617,149.1652362,21001,0.002468323800712824,0.003593569388613105,-0.20312084257602692,-0.001182589796371758,-0.0011931098997592926,-0.020410213619470596,0,0,-999,0,0,-21,-3,4,-153,0.0,150.0,1500.0
10:50:58.042,GUIDED,-35.3632617,149.1652362,21001,0.002468323800712824,0.003593569388613105,-0.20312084257602692,-0.001182589796371758,-0.0011931098997592926,-0.020410213619470596,0,0,-999,0,0,-21,-3,4,-153,0.0,150.0,1500.0
10:50:58.247,GUIDED,-35.3632617,149.1652362,21001,0.002468323800712824,0.003593569388613105,-0.20312084257602692,-0.001182589796371758,-0.0011931098997592926,-0.020410213619470596,0,0,-999,0,0,-21,-3,4,-153,0.0,150.0,1500.0
10:50:58.451,GUIDED,-35.3632617,149.1652362,21001,0.002468323800712824,0.003593569388613105,-0.20312084257602692,-0.001182589796371758,-0.0011931098997592926,-0.020410213619470596,0,0,-999,0,0,-21,-3,4,-153,0.0,150.0,1500.0
10:50:58.652,GUIDED,-35.3632617,149.1652362,21001,0.002468323800712824,0.003593569388613105,-0.20312084257602692,-0.001182589796371758,-0.0011931098997592926,-0.020410213619470596,0,0,-999,0,0,-21,-3,4,-153,0.0,150.0,1500.0
10:50:58.854,GUIDED,-35.3632617,149.1652362,21001,0.002468323800712824,0.003593569388613105,-0.20312084257602692,-0.001182589796371758,-0.0011931098997592926,-0.020410213619470596,0,0,-999,0,0,-21,-3,4,-153,0.0,150.0,1500.0
10:50:59.057,GUIDED,-35.3632617,149.1652364,22174,0.002436842070892453,0.0033341385424137115,-0.217832550406456,-0.0007801956962794065,0.0021092502865940332,-0.022268855944275856,0,0,-1000,0,2,-23,-2,4,-153,0.0,150.0,1500.0
10:50:59.261,GUIDED,-35.3632618,149.1652366,23743,0.0022049967665225267,0.002817513421177864,-0.2374274581670761,-0.00092933519044891,-4.032155266031623e-05,-0.019331185147166252,0,0,-999,0,0,-20,-2,3,-153,0.0,150.0,1500.0
10:50:59.463,GUIDED,-35.3632618,149.1652366,24134,0.002488476224243641,0.0026608374901115894,-0.24218331277370453,0.002274211263284087,-0.0002102485450450331,-0.020153619349002838,0,0,-1000,2,0,-20,-2,3,-153,0.0,150.0,1500.0
10:50:59.664,GUIDED,-35.3632618,149.1652366,24134,0.002488476224243641,0.0026608374901115894,-0.24218331277370453,0.002274211263284087,-0.0002102485450450331,-0.020153619349002838,0,0,-1000,2,0,-20,-2,3,-153,0.0,150.0,1500.0
10:50:59.866,GUIDED,-35.3632618,149.1652366,24134,0.002488476224243641,0.0026608374901115894,-0.24218331277370453,0.002274211263284087,-0.0002102485450450331,-0.020153619349002838,0,0,-1000,2,0,-20,-2,3,-153,0.0,150.0,1500.0
10:51:00.070,GUIDED,-35.3632618,149.1652366,24134,0.002488476224243641,0.0026608374901115894,-0.24218331277370453,0.002274211263284087,-0.0002102485450450331,-0.020153619349002838,0,0,-1000,2,0,-20,-2,3,-153,0.0,150.0,1500.0
10:51:00.276,GUIDED,-35.3632618,149.1652366,24134,0.002488476224243641,0.0026608374901115894,-0.24218331277370453,0.002274211263284087,-0.0002102485450450331,-0.020153619349002838,0,0,-1000,2,0,-20,-2,3,-153,0.0,150.0,1500.0
10:51:00.479,GUIDED,-35.3632618,149.1652366,24134,0.002488476224243641,0.0026608374901115894,-0.24218331277370453,0.002274211263284087,-0.0002102485450450331,-0.020153619349002838,0,0,-1000,2,0,-20,-2,3,-153,0.0,150.0,1500.0
10:51:00.682,GUIDED,-35.3632618,149.1652366,24134,0.002488476224243641,0.0026608374901115894,-0.24218331277370453,0.002274211263284087,-0.0002102485450450331,-0.020153619349002838,0,0,-1000,2,0,-20,-2,3,-153,0.0,150.0,1500.0
10:51:00.885,GUIDED,-35.3632618,149.1652366,24134,0.002488476224243641,0.0026608374901115894,-0.24218331277370453,0.002274211263284087,-0.0002102485450450331,-0.020153619349002838,0,0,-1000,2,0,-20,-2,3,-153,0.0,150.0,1500.0
10:51:01.090,GUIDED,-35.3632619,149.1652367,25689,-0.0069624208845198154,0.004530355334281921,-0.25438544154167175,0.04141420125961304,0.0017975461669266224,0.008246834389865398,0,0,-1003,41,2,7,-4,-2,-153,0.0,150.0,1500.0
10:51:01.294,GUIDED,-35.3632622,149.1652364,26863,0.0123290391638875,0.003277507144957781,-0.24053721129894257,0.0070127639919519424,-0.0036685611121356487,0.024167273193597794,0,1,-1000,7,-3,23,-4,0,-153,0.0,150.0,1500.0
10:51:01.497,GUIDED,-35.3632623,149.1652364,27252,0.012903611175715923,0.0025036786682903767,-0.23432667553424835,-0.001741175539791584,-0.0022396205458790064,0.026546988636255264,0,0,-999,-1,-1,26,-4,3,-153,0.0,150.0,1500.0
10:51:01.699,GUIDED,-35.3632623,149.1652364,27252,0.012903611175715923,0.0025036786682903767,-0.23432667553424835,-0.001741175539791584,-0.0022396205458790064,0.026546988636255264,0,0,-999,-1,-1,26,-4,3,-153,0.0,150.0,1500.0
10:51:01.903,GUIDED,-35.3632623,149.1652364,27252,0.012903611175715923,0.0025036786682903767,-0.23432667553424835,-0.001741175539791584,-0.0022396205458790064,0.026546988636255264,0,0,-999,-1,-1,26,-4,3,-153,0.0,150.0,1500.0
10:51:02.106,GUIDED,-35.3632623,149.1652364,27252,0.012903611175715923,0.0025036786682903767,-0.23432667553424835,-0.001741175539791584,-0.0022396205458790064,0.026546988636255264,0,0,-999,-1,-1,26,-4,3,-153,0.0,150.0,1500.0
10:51:02.310,GUIDED,-35.3632623,149.1652364,27252,0.012903611175715923,0.0025036786682903767,-0.23432667553424835,-0.001741175539791584,-0.0022396205458790064,0.026546988636255264,0,0,-999,-1,-1,26,-4,3,-153,0.0,150.0,1500.0
10:51:02.513,GUIDED,-35.3632623,149.1652364,27252,0.012903611175715923,0.0025036786682903767,-0.23432667553424835,-0.001741175539791584,-0.0022396205458790064,0.026546988636255264,0,0,-999,-1,-1,26,-4,3,-153,0.0,150.0,1500.0
10:51:02.718,GUIDED,-35.3632623,149.1652364,27252,0.012903611175715923,0.0025036786682903767,-0.23432667553424835,-0.001741175539791584,-0.0022396205458790064,0.026546988636255264,0,0,-999,-1,-1,26,-4,3,-153,0.0,150.0,1500.0
10:51:02.921,GUIDED,-35.3632623,149.1652364,27252,0.012903611175715923,0.0025036786682903767,-0.23432667553424835,-0.001741175539791584,-0.0022396205458790064,0.026546988636255264,0,0,-999,-1,-1,26,-4,3,-153,0.0,150.0,1500.0
10:51:03.124,GUIDED,-35.3632623,149.1652364,27252,0.012903611175715923,0.0025036786682903767,-0.23432667553424835,-0.001741175539791584,-0.0022396205458790064,0.026546988636255264,0,0,-999,-1,-1,26,-4,3,-153,0.0,150.0,1500.0
10:51:03.326,GUIDED,-35.3632624,149.1652375,29979,0.00048632340622134507,0.001902096439152956,-0.19547277688980103,-0.006329074967652559,-1.1598342098295689e-05,0.01894747093319893,1,-1,-1001,-5,0,18,0,8,-152,0.0,150.0,1500.0
10:51:03.527,GUIDED,-35.3632624,149.1652376,30368,-0.00027654063887894154,0.0019891499541699886,-0.19093109667301178,0.0029228657949715853,0.0007628704188391566,0.019119609147310257,0,-1,-1001,3,1,18,0,7,-153,0.0,150.0,1500.0
10:51:03.737,GUIDED,-35.3632624,149.1652376,30368,-0.00027654063887894154,0.0019891499541699886,-0.19093109667301178,0.0029228657949715853,0.0007628704188391566,0.019119609147310257,0,-1,-1001,3,1,18,0,7,-153,0.0,150.0,1500.0
10:51:03.939,GUIDED,-35.3632624,149.1652376,30368,-0.00027654063887894154,0.0019891499541699886,-0.19093109667301178,0.0029228657949715853,0.0007628704188391566,0.019119609147310257,0,-1,-1001,3,1,18,0,7,-153,0.0,150.0,1500.0
10:51:04.141,GUIDED,-35.3632624,149.1652376,30368,-0.00027654063887894154,0.0019891499541699886,-0.19093109667301178,0.0029228657949715853,0.0007628704188391566,0.019119609147310257,0,-1,-1001,3,1,18,0,7,-153,0.0,150.0,1500.0
10:51:04.344,GUIDED,-35.3632624,149.1652376,30368,-0.00027654063887894154,0.0019891499541699886,-0.19093109667301178,0.0029228657949715853,0.0007628704188391566,0.019119609147310257,0,-1,-1001,3,1,18,0,7,-153,0.0,150.0,1500.0
10:51:04.547,GUIDED,-35.3632624,149.1652376,30368,-0.00027654063887894154,0.0019891499541699886,-0.19093109667301178,0.0029228657949715853,0.0007628704188391566,0.019119609147310257,0,-1,-1001,3,1,18,0,7,-153,0.0,150.0,1500.0
10:51:04.750,GUIDED,-35.3632624,149.1652376,30368,-0.00027654063887894154,0.0019891499541699886,-0.19093109667301178,0.0029228657949715853,0.0007628704188391566,0.019119609147310257,0,-1,-1001,3,1,18,0,7,-153,0.0,150.0,1500.0
10:51:04.953,GUIDED,-35.3632624,149.1652376,30368,-0.00027654063887894154,0.0019891499541699886,-0.19093109667301178,0.0029228657949715853,0.0007628704188391566,0.019119609147310257,0,-1,-1001,3,1,18,0,7,-153,0.0,150.0,1500.0
10:51:05.162,GUIDED,-35.3632624,149.1652379,31536,-0.0006306207505986094,0.0014140821294859052,-0.17776371538639069,0.0036340784281492233,-0.0012362028937786818,0.018323738127946854,0,-1,-1001,3,1,18,0,4,-153,0.0,150.0,1500.0
10:51:05.364,GUIDED,-35.3632623,149.165238,33095,0.0006350058829411864,0.0011062853736802936,-0.16247150301933289,-0.0022358400747179985,0.0004424020298756659,0.014558396302163601,0,0,-999,-1,1,13,0,1,-153,0.0,150.0,1500.0
10:51:05.567,GUIDED,-35.3632623,149.165238,33485,0.0011307497043162584,0.0013509996933862567,-0.15876080095767975,0.0039288378320634365,0.0019967835396528244,0.015161385759711266,0,0,-1000,4,2,14,0,0,-153,0.0,150.0,1500.0
10:51:05.773,GUIDED,-35.3632623,149.165238,33485,0.0011307497043162584,0.0013509996933862567,-0.15876080095767975,0.0039288378320634365,0.0019967835396528244,0.015161385759711266,0,0,-1000,4,2,14,0,0,-153,0.0,150.0,1500.0
10:51:05.976,GUIDED,-35.3632623,149.165238,33485,0.0011307497043162584,0.0013509996933862567,-0.15876080095767975,0.0039288378320634365,0.0019967835396528244,0.015161385759711266,0,0,-1000,4,2,14,0,0,-153,0.0,150.0,1500.0
10:51:06.177,GUIDED,-35.3632623,149.165238,33485,0.0011307497043162584,0.0013509996933862567,-0.15876080095767975,0.0039288378320634365,0.0019967835396528244,0.015161385759711266,0,0,-1000,4,2,14,0,0,-153,0.0,150.0,1500.0
10:51:06.379,GUIDED,-35.3632623,149.165238,33485,0.0011307497043162584,0.0013509996933862567,-0.15876080095767975,0.0039288378320634365,0.0019967835396528244,0.015161385759711266,0,0,-1000,4,2,14,0,0,-153,0.0,150.0,1500.0
10:51:06.581,GUIDED,-35.3632623,149.165238,33485,0.0011307497043162584,0.0013509996933862567,-0.15876080095767975,0.0039288378320634365,0.0019967835396528244,0.015161385759711266,0,0,-1000,4,2,14,0,0,-153,0.0,150.0,1500.0
10:51:06.783,GUIDED,-35.3632623,149.165238,33485,0.0011307497043162584,0.0013509996933862567,-0.15876080095767975,0.0039288378320634365,0.0019967835396528244,0.015161385759711266,0,0,-1000,4,2,14,0,0,-153,0.0,150.0,1500.0
10:51:06.984,GUIDED,-35.3632622,149.1652379,35282,0.0017509792232885957,0.0011892864713445306,-0.14442119002342224,0.00030055514071136713,-7.512356387451291e-05,0.011828762479126453,0,0,-1000,3,0,11,0,0,-153,0.0,150.0,1500.0
10:51:07.185,GUIDED,-35.3632622,149.1652379,36061,0.0017574081430211663,0.0008379278588108718,-0.13882283866405487,0.003966447431594133,-0.0004159574455115944,0.010314259678125381,0,0,-1001,4,0,9,0,0,-153,0.0,150.0,1500.0
10:51:07.387,GUIDED,-35.3632622,149.1652378,36450,0.0019827233627438545,0.000824674149043858,-0.13610589504241943,-0.0019834795966744423,0.00043070927495136857,0.010509618557989597,0,0,-999,-1,1,10,0,0,-153,0.0,150.0,1500.0
10:51:07.589,GUIDED,-35.3632622,149.1652378,36450,0.0019827233627438545,0.000824674149043858,-0.13610589504241943,-0.0019834795966744423,0.00043070927495136857,0.010509618557989597,0,0,-999,-1,1,10,0,0,-153,0.0,150.0,1500.0
10:51:07.791,GUIDED,-35.3632622,149.1652378,36450,0.0019827233627438545,0.000824674149043858,-0.13610589504241943,-0.0019834795966744423,0.00043070927495136857,0.010509618557989597,0,0,-999,-1,1,10,0,0,-153,0.0,150.0,1500.0
10:51:07.994,GUIDED,-35.3632622,149.1652378,36450,0.0019827233627438545,0.000824674149043858,-0.13610589504241943,-0.0019834795966744423,0.00043070927495136857,0.010509618557989597,0,0,-999,-1,1,10,0,0,-153,0.0,150.0,1500.0
10:51:08.197,GUIDED,-35.3632622,149.1652378,36450,0.0019827233627438545,0.000824674149043858,-0.13610589504241943,-0.0019834795966744423,0.00043070927495136857,0.010509618557989597,0,0,-999,-1,1,10,0,0,-153,0.0,150.0,1500.0
10:51:08.400,GUIDED,-35.3632622,149.1652378,36450,0.0019827233627438545,0.000824674149043858,-0.13610589504241943,-0.0019834795966744423,0.00043070927495136857,0.010509618557989597,0,0,-999,-1,1,10,0,0,-153,0.0,150.0,1500.0
10:51:08.601,GUIDED,-35.3632622,149.1652378,36450,0.0019827233627438545,0.000824674149043858,-0.13610589504241943,-0.0019834795966744423,0.00043070927495136857,0.010509618557989597,0,0,-999,-1,1,10,0,0,-153,0.0,150.0,1500.0
10:51:08.803,GUIDED,-35.3632622,149.1652378,36450,0.0019827233627438545,0.000824674149043858,-0.13610589504241943,-0.0019834795966744423,0.00043070927495136857,0.010509618557989597,0,0,-999,-1,1,10,0,0,-153,0.0,150.0,1500.0
10:51:09.005,GUIDED,-35.3632622,149.1652378,36450,0.0019827233627438545,0.000824674149043858,-0.13610589504241943,-0.0019834795966744423,0.00043070927495136857,0.010509618557989597,0,0,-999,-1,1,10,0,0,-153,0.0,150.0,1500.0
10:51:09.207,GUIDED,-35.3632622,149.1652376,38008,0.002920648315921426,0.0015267332782968879,-0.12631073594093323,-0.0031701596453785896,0.00048780045472085476,0.010661293752491474,0,0,-999,-2,1,10,0,0,-153,0.0,150.0,1500.0
10:51:09.409,GUIDED,-35.3632621,149.1652375,39567,0.0028050572145730257,0.0016274292720481753,-0.11789606511592865,0.0001921248622238636,-0.0006652901647612453,0.009000226855278015,0,0,-1000,0,0,8,0,0,-153,0.0,150.0,1500.0
10:51:09.611,GUIDED,-35.3632621,149.1652375,39567,0.0028050572145730257,0.0016274292720481753,-0.11789606511592865,0.0001921248622238636,-0.0006652901647612453,0.009000226855278015,0,0,-1000,0,0,8,0,0,-153,0.0,150.0,1500.0
10:51:09.815,GUIDED,-35.3632621,149.1652375,39567,0.0028050572145730257,0.0016274292720481753,-0.11789606511592865,0.0001921248622238636,-0.0006652901647612453,0.009000226855278015,0,0,-1000,0,0,8,0,0,-153,0.0,150.0,1500.0
10:51:10.017,GUIDED,-35.3632621,149.1652375,39567,0.0028050572145730257,0.0016274292720481753,-0.11789606511592865,0.0001921248622238636,-0.0006652901647612453,0.009000226855278015,0,0,-1000,0,0,8,0,0,-153,0.0,150.0,1500.0
10:51:10.219,GUIDED,-35.3632621,149.1652375,39567,0.0028050572145730257,0.0016274292720481753,-0.11789606511592865,0.0001921248622238636,-0.0006652901647612453,0.009000226855278015,0,0,-1000,0,0,8,0,0,-153,0.0,150.0,1500.0
10:51:10.423,GUIDED,-35.3632621,149.1652375,39567,0.0028050572145730257,0.0016274292720481753,-0.11789606511592865,0.0001921248622238636,-0.0006652901647612453,0.009000226855278015,0,0,-1000,0,0,8,0,0,-153,0.0,150.0,1500.0
10:51:10.624,GUIDED,-35.3632621,149.1652375,39567,0.0028050572145730257,0.0016274292720481753,-0.11789606511592865,0.0001921248622238636,-0.0006652901647612453,0.009000226855278015,0,0,-1000,0,0,8,0,0,-153,0.0,150.0,1500.0
10:51:10.826,GUIDED,-35.3632621,149.1652375,39567,0.0028050572145730257,0.0016274292720481753,-0.11789606511592865,0.0001921248622238636,-0.0006652901647612453,0.009000226855278015,0,0,-1000,0,0,8,0,0,-153,0.0,150.0,1500.0
10:51:11.027,GUIDED,-35.3632621,149.1652375,39567,0.0028050572145730257,0.0016274292720481753,-0.11789606511592865,0.0001921248622238636,-0.0006652901647612453,0.009000226855278015,0,0,-1000,0,0,8,0,0,-153,0.0,150.0,1500.0
10:51:11.234,GUIDED,-35.3632621,149.1652374,42297,0.0024587232619524,0.0016802073223516345,-0.10511266440153122,0.0027557360008358955,0.0011574586387723684,0.011130423285067081,0,0,-999,3,2,10,0,1,-153,0.0,150.0,1500.0
10:51:11.436,GUIDED,-35.363262,149.1652374,42687,0.0023409125860780478,0.0016483032377436757,-0.10379835218191147,0.00026954186614602804,0.00035428680712357163,0.0054902806878089905,0,0,-1000,1,1,5,-1,1,-153,0.0,150.0,1500.0
10:51:11.639,GUIDED,-35.363262,149.1652374,42687,0.0023409125860780478,0.0016483032377436757,-0.10379835218191147,0.00026954186614602804,0.00035428680712357163,0.0054902806878089905,0,0,-1000,1,1,5,-1,1,-153,0.0,90.0,1500.0
10:51:11.842,GUIDED,-35.363262,149.1652374,42687,0.0023409125860780478,0.0016483032377436757,-0.10379835218191147,0.00026954186614602804,0.00035428680712357163,0.0054902806878089905,0,0,-1000,1,1,5,-1,1,-153,0.0,90.0,1500.0
10:51:12.044,GUIDED,-35.363262,149.1652374,42687,0.0023409125860780478,0.0016483032377436757,-0.10379835218191147,0.00026954186614602804,0.00035428680712357163,0.0054902806878089905,0,0,-1000,1,1,5,-1,1,-153,0.0,90.0,1500.0
10:51:12.246,GUIDED,-35.363262,149.1652374,42687,0.0023409125860780478,0.0016483032377436757,-0.10379835218191147,0.00026954186614602804,0.00035428680712357163,0.0054902806878089905,0,0,-1000,1,1,5,-1,1,-153,0.0,90.0,1500.0
10:51:12.448,GUIDED,-35.363262,149.1652374,42687,0.0023409125860780478,0.0016483032377436757,-0.10379835218191147,0.00026954186614602804,0.00035428680712357163,0.0054902806878089905,0,0,-1000,1,1,5,-1,1,-153,0.0,90.0,1500.0
10:51:12.651,GUIDED,-35.363262,149.1652374,42687,0.0023409125860780478,0.0016483032377436757,-0.10379835218191147,0.00026954186614602804,0.00035428680712357163,0.0054902806878089905,0,0,-1000,1,1,5,-1,1,-153,0.0,90.0,1500.0
10:51:12.855,GUIDED,-35.363262,149.1652374,42687,0.0023409125860780478,0.0016483032377436757,-0.10379835218191147,0.00026954186614602804,0.00035428680712357163,0.0054902806878089905,0,0,-1000,1,1,5,-1,1,-153,0.0,90.0,1500.0
10:51:13.062,GUIDED,-35.363262,149.1652373,44630,0.0023246898781508207,0.0009850242640823126,-0.09594856947660446,0.002416009083390236,0.0007053440203890204,0.007818792015314102,0,0,-1000,3,1,7,-1,1,-153,0.0,90.0,1500.0
10:51:13.265,GUIDED,-35.363262,149.1652373,45409,0.0021495192777365446,0.0011573333758860826,-0.09311343729496002,0.0011025553103536367,0.0029282430186867714,0.00777336535975337,0,0,-999,1,3,7,-1,1,-153,0.0,90.0,1500.0
10:51:13.466,GUIDED,-35.363262,149.1652373,45798,0.0021337075158953667,0.0012622332433238626,-0.0917421206831932,0.0015143222408369184,0.0001326275523751974,0.008188349194824696,0,0,-1000,2,1,8,-1,1,-153,0.0,90.0,1500.0
10:51:13.668,GUIDED,-35.363262,149.1652373,45798,0.0021337075158953667,0.0012622332433238626,-0.0917421206831932,0.0015143222408369184,0.0001326275523751974,0.008188349194824696,0,0,-1000,2,1,8,-1,1,-153,0.0,90.0,1500.0
10:51:13.869,GUIDED,-35.363262,149.1652373,45798,0.0021337075158953667,0.0012622332433238626,-0.0917421206831932,0.0015143222408369184,0.0001326275523751974,0.008188349194824696,0,0,-1000,2,1,8,-1,1,-153,0.0,90.0,1500.0
10:51:14.072,GUIDED,-35.363262,149.1652373,45798,0.0021337075158953667,0.0012622332433238626,-0.0917421206831932,0.0015143222408369184,0.0001326275523751974,0.008188349194824696,0,0,-1000,2,1,8,-1,1,-153,0.0,90.0,1500.0
10:51:14.274,GUIDED,-35.363262,149.1652373,45798,0.0021337075158953667,0.0012622332433238626,-0.0917421206831932,0.0015143222408369184,0.0001326275523751974,0.008188349194824696,0,0,-1000,2,1,8,-1,1,-153,0.0,90.0,1500.0
10:51:14.476,GUIDED,-35.363262,149.1652373,45798,0.0021337075158953667,0.0012622332433238626,-0.0917421206831932,0.0015143222408369184,0.0001326275523751974,0.008188349194824696,0,0,-1000,2,1,8,-1,1,-153,0.0,90.0,1500.0
10:51:14.678,GUIDED,-35.363262,149.1652373,45798,0.0021337075158953667,0.0012622332433238626,-0.0917421206831932,0.0015143222408369184,0.0001326275523751974,0.008188349194824696,0,0,-1000,2,1,8,-1,1,-153,0.0,90.0,1500.0
10:51:14.881,GUIDED,-35.363262,149.1652373,45798,0.0021337075158953667,0.0012622332433238626,-0.0917421206831932,0.0015143222408369184,0.0001326275523751974,0.008188349194824696,0,0,-1000,2,1,8,-1,1,-153,0.0,90.0,1500.0
10:51:15.083,GUIDED,-35.363262,149.1652373,46966,0.0029380402993410826,0.0012362961424514651,-0.08769384771585464,0.003963422030210495,0.001299911760725081,0.007260495331138372,0,0,-1000,5,2,7,-1,1,-153,0.0,90.0,1500.0
10:51:15.285,GUIDED,-35.363262,149.1652372,48524,0.0024303696118295193,0.000972835929132998,-0.08246282488107681,-0.0008080159896053374,0.00023518136003986,0.00656526256352663,0,0,-1000,0,1,6,-1,1,-153,90.0,90.0,1500.0
10:51:15.486,GUIDED,-35.363262,149.1652372,48914,0.002529095858335495,0.0012492494424805045,-0.08140378445386887,0.001152889570221305,0.001650276593863964,0.005047476384788752,0,0,-1001,1,2,5,-1,1,-153,90.0,90.0,1500.0
10:51:15.689,GUIDED,-35.363262,149.1652372,48914,0.002529095858335495,0.0012492494424805045,-0.08140378445386887,0.001152889570221305,0.001650276593863964,0.005047476384788752,0,0,-1001,1,2,5,-1,1,-153,90.0,90.0,1500.0
10:51:15.893,GUIDED,-35.363262,149.1652372,48914,0.002529095858335495,0.0012492494424805045,-0.08140378445386887,0.001152889570221305,0.001650276593863964,0.005047476384788752,0,0,-1001,1,2,5,-1,1,-153,90.0,90.0,1500.0
10:51:16.095,GUIDED,-35.363262,149.1652372,48914,0.002529095858335495,0.0012492494424805045,-0.08140378445386887,0.001152889570221305,0.001650276593863964,0.005047476384788752,0,0,-1001,1,2,5,-1,1,-153,90.0,90.0,1500.0
10:51:16.299,GUIDED,-35.363262,149.1652372,48914,0.002529095858335495,0.0012492494424805045,-0.08140378445386887,0.001152889570221305,0.001650276593863964,0.005047476384788752,0,0,-1001,1,2,5,-1,1,-153,90.0,90.0,1500.0
10:51:16.503,GUIDED,-35.363262,149.1652372,48914,0.002529095858335495,0.0012492494424805045,-0.08140378445386887,0.001152889570221305,0.001650276593863964,0.005047476384788752,0,0,-1001,1,2,5,-1,1,-153,90.0,90.0,1500.0
10:51:16.706,GUIDED,-35.363262,149.1652372,48914,0.002529095858335495,0.0012492494424805045,-0.08140378445386887,0.001152889570221305,0.001650276593863964,0.005047476384788752,0,0,-1001,1,2,5,-1,1,-153,90.0,90.0,1500.0
10:51:16.908,GUIDED,-35.363262,149.1652372,48914,0.002529095858335495,0.0012492494424805045,-0.08140378445386887,0.001152889570221305,0.001650276593863964,0.005047476384788752,0,0,-1001,1,2,5,-1,1,-153,90.0,90.0,1500.0
10:51:17.109,GUIDED,-35.363262,149.1652372,50472,0.0020443706307560205,0.0015266495756804943,-0.07610747963190079,0.00020287150982767344,0.0015233370941132307,0.0058680870570242405,0,0,-1000,1,2,6,-1,1,-153,90.0,90.0,1500.0
10:51:17.311,GUIDED,-35.363262,149.1652372,51644,0.0016907555982470512,0.0010019908659160137,-0.07233256846666336,0.0032500289380550385,0.0005265260115265846,0.0067762634716928005,0,0,-1000,4,1,7,-1,1,-153,90.0,90.0,1500.0
10:51:17.515,LAND,-35.363262,149.1652372,52033,0.0016138298669829965,0.000892162264790386,-0.07124768942594528,-0.0005822040839120746,0.00040875497506931424,0.005931526888161898,0,0,-999,0,1,6,-1,1,-153,90.0,90.0,1500.0
10:51:17.719,LAND,-35.363262,149.1652372,52033,0.0016138298669829965,0.000892162264790386,-0.07124768942594528,-0.0005822040839120746,0.00040875497506931424,0.005931526888161898,0,0,-999,0,1,6,-1,1,-153,430.0,90.0,1500.0
10:51:17.923,LAND,-35.363262,149.1652372,52033,0.0016138298669829965,0.000892162264790386,-0.07124768942594528,-0.0005822040839120746,0.00040875497506931424,0.005931526888161898,0,0,-999,0,1,6,-1,1,-153,430.0,90.0,1500.0
10:51:18.124,LAND,-35.363262,149.1652372,52033,0.0016138298669829965,0.000892162264790386,-0.07124768942594528,-0.0005822040839120746,0.00040875497506931424,0.005931526888161898,0,0,-999,0,1,6,-1,1,-153,430.0,90.0,1500.0
10:51:18.326,LAND,-35.363262,149.1652372,52033,0.0016138298669829965,0.000892162264790386,-0.07124768942594528,-0.0005822040839120746,0.00040875497506931424,0.005931526888161898,0,0,-999,0,1,6,-1,1,-153,430.0,90.0,1500.0
10:51:18.529,LAND,-35.363262,149.1652372,52033,0.0016138298669829965,0.000892162264790386,-0.07124768942594528,-0.0005822040839120746,0.00040875497506931424,0.005931526888161898,0,0,-999,0,1,6,-1,1,-153,430.0,90.0,1500.0
10:51:18.733,LAND,-35.363262,149.1652372,52033,0.0016138298669829965,0.000892162264790386,-0.07124768942594528,-0.0005822040839120746,0.00040875497506931424,0.005931526888161898,0,0,-999,0,1,6,-1,1,-153,430.0,90.0,1500.0
10:51:18.934,LAND,-35.363262,149.1652372,52033,0.0016138298669829965,0.000892162264790386,-0.07124768942594528,-0.0005822040839120746,0.00040875497506931424,0.005931526888161898,0,0,-999,0,1,6,-1,1,-153,430.0,90.0,1500.0
10:51:19.135,LAND,-35.363262,149.1652372,53591,0.001713103149086237,0.0010152916656807065,-0.06750202924013138,-0.0009583104983903468,0.000166630488820374,0.0036000350955873728,0,0,-999,2,1,8,-1,1,-153,430.0,90.0,1500.0
10:51:19.337,LAND,-35.3632623,149.1652368,54673,-0.06496859341859818,0.07520721852779388,0.20163877308368683,0.0055245026014745235,-0.116054005920887,0.4274081289768219,3,4,-907,6,-114,427,-22,-22,-116,430.0,90.0,1500.0
10:51:19.538,LAND,-35.3632629,149.165236,54942,-0.0427003838121891,0.02915002778172493,0.2826467454433441,0.08908814936876297,-0.22695837914943695,0.23367133736610413,4,6,-906,90,-226,234,-30,-35,-92,430.0,90.0,1500.0
10:51:19.740,LAND,-35.3632629,149.165236,54942,-0.0427003838121891,0.02915002778172493,0.2826467454433441,0.08908814936876297,-0.22695837914943695,0.23367133736610413,4,6,-906,90,-226,234,-30,-35,-92,430.0,90.0,1500.0
10:51:19.944,LAND,-35.3632629,149.165236,54942,-0.0427003838121891,0.02915002778172493,0.2826467454433441,0.08908814936876297,-0.22695837914943695,0.23367133736610413,4,6,-906,90,-226,234,-30,-35,-92,430.0,90.0,1500.0
10:51:20.148,LAND,-35.3632629,149.165236,54942,-0.0427003838121891,0.02915002778172493,0.2826467454433441,0.08908814936876297,-0.22695837914943695,0.23367133736610413,4,6,-906,90,-226,234,-30,-35,-92,430.0,90.0,1500.0
10:51:20.350,LAND,-35.3632629,149.165236,54942,-0.0427003838121891,0.02915002778172493,0.2826467454433441,0.08908814936876297,-0.22695837914943695,0.23367133736610413,4,6,-906,90,-226,234,-30,-35,-92,430.0,90.0,1500.0
10:51:20.552,LAND,-35.3632629,149.165236,54942,-0.0427003838121891,0.02915002778172493,0.2826467454433441,0.08908814936876297,-0.22695837914943695,0.23367133736610413,4,6,-906,90,-226,234,-30,-35,-92,430.0,90.0,1500.0
10:51:20.753,LAND,-35.3632629,149.165236,54942,-0.0427003838121891,0.02915002778172493,0.2826467454433441,0.08908814936876297,-0.22695837914943695,0.23367133736610413,4,6,-906,90,-226,234,-30,-35,-92,430.0,90.0,1500.0
10:51:20.956,LAND,-35.3632629,149.165236,54942,-0.0427003838121891,0.02915002778172493,0.2826467454433441,0.08908814936876297,-0.22695837914943695,0.23367133736610413,4,6,-906,90,-226,234,-30,-35,-92,430.0,90.0,1500.0
10:51:21.157,LAND,-35.3632645,149.1652323,55452,0.05006568133831024,-0.039808593690395355,0.3226381838321686,0.883954644203186,0.050950802862644196,-0.033705584704875946,-1,49,-962,887,51,-33,12,11,16,430.0,90.0,1500.0
10:51:21.359,LAND,-35.3632642,149.1652326,55394,0.04757128655910492,-0.027525542303919792,0.31289148330688477,0.8866174817085266,0.04534163698554039,-0.0436885692179203,-2,16,-962,886,46,-43,16,20,27,290.0,90.0,1500.0
10:51:21.560,LAND,-35.3632638,149.1652332,55306,0.04259651154279709,-0.016217362135648727,0.30415454506874084,0.6083323955535889,0.03839036077260971,-0.03755734860897064,-2,0,-982,606,39,-37,19,26,38,290.0,90.0,1500.0
10:51:21.762,LAND,-35.3632638,149.1652332,55306,0.04259651154279709,-0.016217362135648727,0.30415454506874084,0.6083323955535889,0.03839036077260971,-0.03755734860897064,-2,0,-982,606,39,-37,19,26,38,290.0,90.0,1500.0
10:51:21.965,LAND,-35.3632638,149.1652332,55306,0.04259651154279709,-0.016217362135648727,0.30415454506874084,0.6083323955535889,0.03839036077260971,-0.03755734860897064,-2,0,-982,606,39,-37,19,26,38,290.0,90.0,1500.0
10:51:22.167,LAND,-35.3632638,149.1652332,55306,0.04259651154279709,-0.016217362135648727,0.30415454506874084,0.6083323955535889,0.03839036077260971,-0.03755734860897064,-2,0,-982,606,39,-37,19,26,38,290.0,90.0,1500.0
10:51:22.372,LAND,-35.3632638,149.1652332,55306,0.04259651154279709,-0.016217362135648727,0.30415454506874084,0.6083323955535889,0.03839036077260971,-0.03755734860897064,-2,0,-982,606,39,-37,19,26,38,290.0,90.0,1500.0
10:51:22.574,LAND,-35.3632638,149.1652332,55306,0.04259651154279709,-0.016217362135648727,0.30415454506874084,0.6083323955535889,0.03839036077260971,-0.03755734860897064,-2,0,-982,606,39,-37,19,26,38,290.0,90.0,1500.0
10:51:22.779,LAND,-35.3632638,149.1652332,55306,0.04259651154279709,-0.016217362135648727,0.30415454506874084,0.6083323955535889,0.03839036077260971,-0.03755734860897064,-2,0,-982,606,39,-37,19,26,38,290.0,90.0,1500.0
10:51:22.981,LAND,-35.3632638,149.1652332,55306,0.04259651154279709,-0.016217362135648727,0.30415454506874084,0.6083323955535889,0.03839036077260971,-0.03755734860897064,-2,0,-982,606,39,-37,19,26,38,290.0,90.0,1500.0
10:51:23.185,LAND,-35.3632638,149.1652332,55306,0.04259651154279709,-0.016217362135648727,0.30415454506874084,0.6083323955535889,0.03839036077260971,-0.03755734860897064,-2,0,-982,606,39,-37,19,26,38,290.0,90.0,1500.0
10:51:23.390,LAND,-35.3632614,149.165239,53978,0.01648208126425743,0.016734296455979347,0.2442362755537033,0.9830009937286377,0.0013102805241942406,-0.015147226862609386,3,-2,-835,977,2,-14,8,16,139,290.0,90.0,1500.0
10:51:23.595,LAND,-35.3632613,149.1652396,53567,0.013188529759645462,0.016443638131022453,0.23820607364177704,1.8469557762145996,-0.002924668835476041,-0.027330966666340828,0,67,-817,1847,-1,-26,6,14,182,290.0,90.0,1500.0
10:51:23.797,LAND,-35.3632613,149.1652396,53567,0.013188529759645462,0.016443638131022453,0.23820607364177704,1.8469557762145996,-0.002924668835476041,-0.027330966666340828,0,67,-817,1847,-1,-26,6,14,182,290.0,90.0,1500.0
10:51:24.000,LAND,-35.3632613,149.1652396,53567,0.013188529759645462,0.016443638131022453,0.23820607364177704,1.8469557762145996,-0.002924668835476041,-0.027330966666340828,0,67,-817,1847,-1,-26,6,14,182,290.0,90.0,1500.0
10:51:24.202,LAND,-35.3632613,149.1652396,53567,0.013188529759645462,0.016443638131022453,0.23820607364177704,1.8469557762145996,-0.002924668835476041,-0.027330966666340828,0,67,-817,1847,-1,-26,6,14,182,290.0,90.0,1500.0
10:51:24.403,LAND,-35.3632613,149.1652396,53567,0.013188529759645462,0.016443638131022453,0.23820607364177704,1.8469557762145996,-0.002924668835476041,-0.027330966666340828,0,67,-817,1847,-1,-26,6,14,182,290.0,90.0,1500.0
10:51:24.605,LAND,-35.3632613,149.1652396,53567,0.013188529759645462,0.016443638131022453,0.23820607364177704,1.8469557762145996,-0.002924668835476041,-0.027330966666340828,0,67,-817,1847,-1,-26,6,14,182,350.0,90.0,1500.0
10:51:24.808,LAND,-35.3632613,149.1652396,53567,0.013188529759645462,0.016443638131022453,0.23820607364177704,1.8469557762145996,-0.002924668835476041,-0.027330966666340828,0,67,-817,1847,-1,-26,6,14,182,350.0,90.0,1500.0
10:51:25.010,LAND,-35.3632613,149.1652396,53567,0.013188529759645462,0.016443638131022453,0.23820607364177704,1.8469557762145996,-0.002924668835476041,-0.027330966666340828,0,67,-817,1847,-1,-26,6,14,182,350.0,90.0,1500.0
10:51:25.212,LAND,-35.3632614,149.1652413,49883,-0.06803089380264282,0.0037468986120074987,0.1978689730167389,-1.1883116960525513,-0.003325896104797721,-0.019739052280783653,0,3,-996,-1179,-2,-19,0,-11,262,350.0,90.0,1500.0
10:51:25.415,LAND,-35.3632617,149.1652413,48538,-0.019900884479284286,-0.00014214344264473766,0.1847260743379593,-2.1166088581085205,-0.011730615980923176,-0.01977350376546383,3,-125,-1026,-2124,-10,-19,1,-18,253,350.0,90.0,1500.0
10:51:25.617,LAND,-35.3632617,149.1652413,48538,-0.019900884479284286,-0.00014214344264473766,0.1847260743379593,-2.1166088581085205,-0.011730615980923176,-0.01977350376546383,3,-125,-1026,-2124,-10,-19,1,-18,253,350.0,90.0,1500.0
10:51:25.822,LAND,-35.3632617,149.1652413,48538,-0.019900884479284286,-0.00014214344264473766,0.1847260743379593,-2.1166088581085205,-0.011730615980923176,-0.01977350376546383,3,-125,-1026,-2124,-10,-19,1,-18,253,350.0,90.0,1500.0
10:51:26.026,LAND,-35.3632617,149.1652413,48538,-0.019900884479284286,-0.00014214344264473766,0.1847260743379593,-2.1166088581085205,-0.011730615980923176,-0.01977350376546383,3,-125,-1026,-2124,-10,-19,1,-18,253,350.0,90.0,1500.0
10:51:26.229,LAND,-35.3632617,149.1652413,48538,-0.019900884479284286,-0.00014214344264473766,0.1847260743379593,-2.1166088581085205,-0.011730615980923176,-0.01977350376546383,3,-125,-1026,-2124,-10,-19,1,-18,253,350.0,90.0,1500.0
10:51:26.430,LAND,-35.3632617,149.1652413,48538,-0.019900884479284286,-0.00014214344264473766,0.1847260743379593,-2.1166088581085205,-0.011730615980923176,-0.01977350376546383,3,-125,-1026,-2124,-10,-19,1,-18,253,350.0,90.0,1500.0
10:51:26.633,LAND,-35.3632617,149.1652413,48538,-0.019900884479284286,-0.00014214344264473766,0.1847260743379593,-2.1166088581085205,-0.011730615980923176,-0.01977350376546383,3,-125,-1026,-2124,-10,-19,1,-18,253,350.0,90.0,1500.0
10:51:26.836,LAND,-35.3632617,149.1652413,48538,-0.019900884479284286,-0.00014214344264473766,0.1847260743379593,-2.1166088581085205,-0.011730615980923176,-0.01977350376546383,3,-125,-1026,-2124,-10,-19,1,-18,253,350.0,90.0,1500.0
10:51:27.038,LAND,-35.3632621,149.1652411,46232,0.0026186101604253054,-0.0031942285131663084,0.1715146005153656,1.660172700881958,0.01219521276652813,0.005899094045162201,5,116,-1019,1670,13,6,2,-16,237,350.0,90.0,1500.0
10:51:27.242,LAND,-35.3632625,149.1652413,44397,-0.045882854610681534,-0.003604773199185729,0.16047699749469757,-2.315727949142456,-0.003766125300899148,-0.00471707945689559,3,-92,-1008,-2317,-2,-4,6,-24,230,380.0,90.0,1500.0
10:51:27.443,LAND,-35.3632626,149.1652413,43799,-0.019117580726742744,-0.003935787361115217,0.1564626693725586,-1.7215087413787842,-0.006369835697114468,-0.02040163427591324,4,-124,-957,-1730,-5,-20,7,-25,230,380.0,90.0,1500.0
10:51:27.645,LAND,-35.3632626,149.1652413,43799,-0.019117580726742744,-0.003935787361115217,0.1564626693725586,-1.7215087413787842,-0.006369835697114468,-0.02040163427591324,4,-124,-957,-1730,-5,-20,7,-25,230,380.0,90.0,1500.0
10:51:27.848,LAND,-35.3632626,149.1652413,43799,-0.019117580726742744,-0.003935787361115217,0.1564626693725586,-1.7215087413787842,-0.006369835697114468,-0.02040163427591324,4,-124,-957,-1730,-5,-20,7,-25,230,380.0,90.0,1500.0
10:51:28.049,LAND,-35.3632626,149.1652413,43799,-0.019117580726742744,-0.003935787361115217,0.1564626693725586,-1.7215087413787842,-0.006369835697114468,-0.02040163427591324,4,-124,-957,-1730,-5,-20,7,-25,230,380.0,90.0,1500.0
10:51:28.251,LAND,-35.3632626,149.1652413,43799,-0.019117580726742744,-0.003935787361115217,0.1564626693725586,-1.7215087413787842,-0.006369835697114468,-0.02040163427591324,4,-124,-957,-1730,-5,-20,7,-25,230,380.0,90.0,1500.0
10:51:28.457,LAND,-35.3632626,149.1652413,43799,-0.019117580726742744,-0.003935787361115217,0.1564626693725586,-1.7215087413787842,-0.006369835697114468,-0.02040163427591324,4,-124,-957,-1730,-5,-20,7,-25,230,380.0,90.0,1500.0
10:51:28.658,LAND,-35.3632626,149.1652413,43799,-0.019117580726742744,-0.003935787361115217,0.1564626693725586,-1.7215087413787842,-0.006369835697114468,-0.02040163427591324,4,-124,-957,-1730,-5,-20,7,-25,230,380.0,90.0,1500.0
10:51:28.860,LAND,-35.3632626,149.1652413,43799,-0.019117580726742744,-0.003935787361115217,0.1564626693725586,-1.7215087413787842,-0.006369835697114468,-0.02040163427591324,4,-124,-957,-1730,-5,-20,7,-25,230,380.0,90.0,1500.0
10:51:29.061,LAND,-35.3632626,149.1652413,43799,-0.019117580726742744,-0.003935787361115217,0.1564626693725586,-1.7215087413787842,-0.006369835697114468,-0.02040163427591324,4,-124,-957,-1730,-5,-20,7,-25,230,380.0,90.0,1500.0
10:51:29.264,LAND,-35.3632632,149.1652429,39941,-0.06225954741239548,-0.005530830472707748,0.13692396879196167,-0.5892263054847717,0.005906569305807352,-0.0159128587692976,0,46,-985,-578,7,-15,10,-34,251,380.0,90.0,1500.0
10:51:29.466,LAND,-35.3632633,149.1652429,38635,-0.06091662123799324,-0.007804648485034704,0.13125447928905487,-2.1458308696746826,0.0019262629793956876,-0.007921243086457253,0,-61,-978,-2144,2,-7,11,-41,253,380.0,90.0,1500.0
10:51:29.667,LAND,-35.3632633,149.1652429,38635,-0.06091662123799324,-0.007804648485034704,0.13125447928905487,-2.1458308696746826,0.0019262629793956876,-0.007921243086457253,0,-61,-978,-2144,2,-7,11,-41,253,370.0,90.0,1500.0
10:51:29.868,LAND,-35.3632633,149.1652429,38635,-0.06091662123799324,-0.007804648485034704,0.13125447928905487,-2.1458308696746826,0.0019262629793956876,-0.007921243086457253,0,-61,-978,-2144,2,-7,11,-41,253,370.0,90.0,1500.0
10:51:30.070,LAND,-35.3632633,149.1652429,38635,-0.06091662123799324,-0.007804648485034704,0.13125447928905487,-2.1458308696746826,0.0019262629793956876,-0.007921243086457253,0,-61,-978,-2144,2,-7,11,-41,253,370.0,90.0,1500.0
10:51:30.273,LAND,-35.3632633,149.1652429,38635,-0.06091662123799324,-0.007804648485034704,0.13125447928905487,-2.1458308696746826,0.0019262629793956876,-0.007921243086457253,0,-61,-978,-2144,2,-7,11,-41,253,370.0,90.0,1500.0
10:51:30.474,LAND,-35.3632633,149.1652429,38635,-0.06091662123799324,-0.007804648485034704,0.13125447928905487,-2.1458308696746826,0.0019262629793956876,-0.007921243086457253,0,-61,-978,-2144,2,-7,11,-41,253,370.0,90.0,1500.0
10:51:30.676,LAND,-35.3632633,149.1652429,38635,-0.06091662123799324,-0.007804648485034704,0.13125447928905487,-2.1458308696746826,0.0019262629793956876,-0.007921243086457253,0,-61,-978,-2144,2,-7,11,-41,253,370.0,90.0,1500.0
10:51:30.880,LAND,-35.3632633,149.1652429,38635,-0.06091662123799324,-0.007804648485034704,0.13125447928905487,-2.1458308696746826,0.0019262629793956876,-0.007921243086457253,0,-61,-978,-2144,2,-7,11,-41,253,370.0,90.0,1500.0
10:51:31.082,LAND,-35.3632633,149.1652429,38635,-0.06091662123799324,-0.007804648485034704,0.13125447928905487,-2.1458308696746826,0.0019262629793956876,-0.007921243086457253,0,-61,-978,-2144,2,-7,11,-41,253,370.0,90.0,1500.0
10:51:31.283,LAND,-35.3632632,149.1652415,34795,0.02970639243721962,-0.011724130250513554,0.11368227750062943,2.0115597248077393,-0.016185052692890167,-0.012046870775520802,-3,47,-1000,2007,-15,-11,10,-36,242,370.0,90.0,1500.0
