time_stamp,RTL_ALT,xacc,yacc,zacc,xgyro,ygyro,zgyro,MODE,roll,pitch,yaw,rollspeed,pitchspeed,yawspeed,lat,lon,relative_alt,vx,vy,vz
13:36:54,1500.0,0.0,1.0,-1000.0,0.0,0.0,0.0,STABILIZE,-0.000633521587587893,0.0009296845819335431,0.022192589938640594,0.0002512556384317577,0.0002501222479622811,0.0015243195230141282,-35.3632621,149.1652375,0.0,-1.0,1.0,0.0
13:36:56,1500.0,0.0,1.0,-1000.0,0.0,0.0,0.0,STABILIZE,-0.0004011890268884599,0.0009690815932117403,0.021439079195261,0.0003584151854738593,0.0003557410673238337,0.001575597794726491,-35.3632622,149.1652375,0.0,-1.0,2.0,0.0
13:37:00,1500.0,0.0,1.0,-1000.0,1.0,0.0,0.0,STABILIZE,-0.0008972782525233924,0.0010226115118712187,0.020404336974024773,0.0003896713024005294,0.00026143022114410996,0.0014530515763908625,-35.3632622,149.1652375,0.0,-1.0,1.0,1.0
13:37:02,1500.0,0.0,1.0,-1000.0,1.0,1.0,0.0,STABILIZE,-0.000946137763094157,0.001015219371765852,0.02014445699751377,0.0002515410305932164,0.00026170024648308754,0.0013644822756759822,-35.3632622,149.1652375,0.0,-1.0,2.0,2.0
13:37:04,128689.5,0.0,2.0,-1000.0,0.0,0.0,0.0,AUTO,-0.0010639858082868159,0.0010286575416103005,0.019869450479745865,0.00021961776656098664,0.0001738336868584156,0.0014060409157536924,-35.3632622,149.1652375,1.5,-1.0,1.0,1.0
13:37:06,255879.0,0.0,1.5,-1000.0,0.5,0.5,1.0,AUTO,-0.0007678010733798146,0.0013033125433139503,0.01962838228791952,0.00018558924784883857,0.00035810560802929103,0.0013364971382543445,-35.3632621,149.1652375,7.0,0.0,0.0,0.0
13:37:07,60282.0,0.0,1.5,-1000.0,0.75,0.75,0.25,AUTO,-0.000540940607606899,0.0015819278778508306,0.019472798332571983,0.00029933644691482186,0.0002625216875458136,0.0012765090505126864,-35.3632621,149.1652375,9.25,0.0,0.0,0.0
13:37:08,60282.0,0.0,0.5,-1064.0,1.5,2.0,0.5,AUTO,0.0008310267439810559,0.001126266666688025,0.019161374308168888,0.000884699635207653,0.0017157464171759784,0.0014409099821932614,-35.3632621,149.1652375,158.5,0.0,0.5,-46.0
13:37:10,138518.5,0.5,-5.0,-997.0,-0.5,24.0,-37.5,AUTO,0.04856155626475811,-0.0042773609748110175,0.002421570010483265,-0.0016113035380840302,0.023073438555002213,-0.036855072365142405,-35.363261800000004,149.16523890000002,2596.5,5.0,30.0,-148.0
13:37:12,216755.0,-1.5,3.0,-1003.0,37.5,-1.0,-23.0,AUTO,-0.06642157770693302,0.0032046683481894433,-0.0923323780298233,0.03729019174352288,-0.0019039767794311047,-0.022834804840385914,-35.363261,149.16524405,5644.5,-3.5,-25.0,-149.0
13:37:13,259146.0,-5.25,11.5,-1002.75,67.75,9.0,-2.0,AUTO,-0.007452602454577573,0.006624506204389036,-0.104413827881217,0.06731768883764744,0.008823587908409536,-0.0021376904769567773,-35.3632617,149.16523895,7190.75,-12.75,-57.5,-150.5
13:37:14,259146.0,0.5,7.5,-1000.0,19.0,-45.5,46.0,AUTO,0.04968076013028622,0.00276786251924932,-0.09457050636410713,0.017798731103539467,-0.04634304065257311,0.04679071204736829,-35.3632633,149.1652339,8746.5,-19.5,-22.5,-151.5
13:37:16,258693.5,-4.0,-6.5,-1004.0,-5.0,46.0,-74.5,AUTO,-0.021655033342540264,0.0014832010492682457,-0.09677702561020851,-0.006033748388290405,0.04574123863130808,-0.07509508915245533,-35.36326225,149.16523565,11835.5,29.0,8.0,-150.5
13:37:18,258241.0,0.5,1.0,-999.0,1.5,-11.0,1.0,AUTO,0.013417544774711132,0.017647685948759317,-0.1621411293745041,0.0007428731769323349,-0.012102621607482433,0.0013901208294555545,-35.36326015,149.1652345,14956.5,-9.0,-0.5,-152.0
13:37:19,160259.0,2.75,0.0,-1000.0,-8.75,-9.0,-5.75,AUTO,0.0070328259607777,0.004445655751624145,-0.16105781868100166,-0.009961458388715982,-0.010296641499735415,-0.005566974316025153,-35.363261025,149.1652348,16515.25,-13.25,10.0,-152.0
13:37:20,160259.0,1.5,0.0,-1000.5,0.0,-1.0,-21.0,AUTO,0.00013165193377062678,-0.0016580868104938418,-0.17494171112775803,-0.0009146578377112746,-0.001566399121657014,-0.020976006519049406,-35.363261800000004,149.16523565,18069.0,-7.5,8.5,-152.0
13:37:22,82355.0,0.0,0.0,-1000.0,2.5,2.5,-24.0,AUTO,0.002918502315878868,0.0021775870700366795,-0.22627904266119003,0.0024414692306891084,0.002382991835474968,-0.02415960654616356,-35.36326215,149.16523625000002,21186.0,-0.5,2.0,-153.0
13:37:24,4451.0,0.0,0.0,-1000.0,-0.5,1.5,-19.0,AUTO,0.0021838516113348305,0.0032846269896253943,-0.26877017319202423,-0.0017875228368211538,0.0008506097947247326,-0.018955545499920845,-35.3632621,149.16523660000001,24299.5,-1.0,3.5,-153.0
13:37:25,125614.0,0.0,0.25,-999.75,3.0,2.25,22.5,AUTO,-0.003160522668622434,0.005754334386438131,-0.26900096237659454,0.0020334292203187943,0.0015954312111716717,0.023136724485084414,-35.363262125,149.16523665,25855.25,-3.25,0.75,-152.25
13:37:26,125614.0,0.0,0.0,-999.0,1.5,-0.5,25.5,AUTO,0.008659645449370146,0.0024834031355567276,-0.24164997041225433,0.0008220975287258625,-0.0014042284747119993,0.026353374123573303,-35.36326235,149.16523669999998,27407.5,-4.0,3.5,-152.5
13:37:28,130301.0,0.0,-0.5,-1000.0,-2.5,1.0,17.5,AUTO,-0.0004903501721855719,0.0014301707851700485,-0.1990416944026947,-0.004146909341216087,0.0006520182942040265,0.018587284721434116,-35.3632624,149.16523775000002,30509.5,0.0,5.5,-152.0
13:37:30,134988.0,0.0,0.0,-999.5,-0.5,1.0,13.5,AUTO,0.0008139332639984787,0.0012054534745402634,-0.1676490604877472,-0.0019137802883051336,0.0004971220623701811,0.01389009179547429,-35.3632623,149.165238,33614.0,0.0,0.5,-152.0
13:37:31,213047.0,0.0,0.0,-999.75,2.25,1.0,11.75,AUTO,0.0011799206549767405,0.0013150221202522516,-0.15511688217520714,0.0012856916000600904,0.00030325830448418856,0.01229899376630783,-35.363262250000005,149.16523794999998,35170.0,0.0,0.0,-152.0
13:37:32,213047.0,0.0,0.0,-1000.5,3.0,2.0,10.0,AUTO,0.0014328312827274203,0.0011501976987347007,-0.14428971707820892,0.002520800451748073,0.0016423671040683985,0.010583086404949427,-35.3632622,149.16523784999998,36723.5,0.0,0.0,-152.0
13:37:34,218459.0,2.0,6.5,-994.5,61.5,-110.5,131.5,AUTO,-0.013849041424691677,0.00023615732789039612,0.20439060032367706,0.061345139518380165,-0.11208391562104225,0.13155924808233976,-35.363263700000005,149.16523515,39529.5,-23.0,-28.0,-107.5
13:37:36,223871.0,-2.5,-18.0,-962.0,-121.5,34.0,-21.5,AUTO,0.02102562552317977,-0.005889775464311242,0.18711784482002258,-0.12271763756871223,0.033028969541192055,-0.022258389741182327,-35.363263450000005,149.16523435,41225.0,19.5,26.0,-52.5
13:37:37,129874.0,-0.75,-2.0,-965.25,75.5,9.0,-16.0,AUTO,-0.0009967353544197977,0.015071646077558398,0.165870051831007,0.07416679710149765,0.008075496705714613,-0.016526125837117434,-35.3632616,149.1652372,41585.75,13.0,24.25,-17.5
13:37:38,129874.0,-1.0,-22.0,-992.5,-404.0,78.0,25.5,AUTO,-0.026728282682597637,0.004470717161893845,0.15498048067092896,-0.40517643094062805,0.07713465765118599,0.024647783488035202,-35.36326095,149.16523865,41561.5,1.0,2.0,9.5
13:37:40,109343.0,-22.0,-10.0,-1005.5,-39.0,-22.0,-287.0,AUTO,-0.005841435398906469,-0.109295304864645,-0.06547935493290424,-0.04040709137916565,-0.023565939161926508,-0.28751654317602515,-35.363255249999995,149.165235,41524.0,96.0,-36.5,-8.5
13:37:42,88812.0,-60.5,-28.5,-1013.5,178.5,11.0,-22.0,AUTO,0.020046989899128675,-0.15111426264047623,-0.16040779650211334,0.1776072382926941,0.009672692511230707,-0.022733319085091352,-35.3632217,149.16522265,41806.0,288.5,-89.0,-23.0
13:37:43,213586.0,-74.75,-33.75,-998.25,68.5,20.75,-8.75,AUTO,0.03566395351663232,-0.11997979879379272,-0.17181877046823502,0.06787852197885513,0.020196951227262616,-0.008997760036436375,-35.3631933,149.1652125,42072.75,349.0,-104.75,-29.0
13:37:44,213586.0,-77.5,-66.0,-998.5,-293.0,8.5,1.5,AUTO,0.04067830741405487,-0.10283509269356728,-0.1794925108551979,-0.29378846287727356,0.007387983845546842,0.0013421657495200634,-35.36316075,149.16520115,42375.5,377.0,-110.0,-31.0
13:37:46,193371.0,-72.0,-40.5,-1002.0,-12.5,22.5,-13.5,AUTO,0.042135804891586304,-0.06508368626236916,-0.19307778775691986,-0.0140666663646698,0.021790737751871347,-0.014227853156626225,-35.36309235,149.165178,43016.5,377.5,-107.5,-32.0
13:37:48,173156.0,-56.0,-35.0,-989.5,-118.0,47.5,-2.0,AUTO,0.046078914776444435,0.03181784227490425,-0.20121602714061737,-0.11851057410240173,0.04715387150645256,-0.0025167223066091537,-35.363032450000006,149.16515745,43664.5,270.5,-74.0,-23.5
13:37:49,275337.0,-35.5,-6.0,-995.0,153.25,25.25,-9.5,AUTO,0.032915196381509304,0.07785635627806187,-0.20452531054615974,0.15156636200845242,0.02472268883138895,-0.010751442750915885,-35.363012225,149.1651509,43844.5,171.75,-42.5,-11.25
13:37:50,275337.0,-16.0,1.0,-994.0,60.0,-50.0,-3.5,AUTO,0.02354533737525344,0.054226817563176155,-0.20642533153295517,0.058782994747161865,-0.05142427794635296,-0.004219600930809975,-35.363001749999995,149.16514725000002,43907.0,80.0,-16.0,-3.0
13:37:52,165594.0,-1.5,-6.0,-1000.5,8.5,-20.0,-6.0,AUTO,0.017522563692182302,0.006451061286497861,-0.21689210087060928,0.007583320140838623,-0.02109553851187229,-0.007074481807649136,-35.3629962,149.1651442,43944.5,10.5,8.5,-0.5
13:37:54,55851.0,0.5,3.0,-1033.5,86.0,2.0,1.5,RTL,0.012261498952284455,-0.00014671206008642912,-0.22662047296762466,0.08408360183238983,0.0013076125760562718,0.0009172842255793512,-35.3629958,149.16514365,44003.5,8.0,12.5,-14.5
13:37:55,121448.0,1.25,1.0,-1041.75,49.0,-1.0,1.25,RTL,0.007341540629568044,0.0004596999933710322,-0.22951777279376984,0.04733367636799812,-0.0019002647459274158,0.0004764563636854291,-35.362995575,149.1651439,44299.75,4.75,11.75,-49.0
13:37:56,121448.0,1.0,5.0,-1041.0,124.0,0.0,-1.5,RTL,-0.0008521215058863163,-0.0004960147343808785,-0.23246297985315323,0.12291552126407623,-0.0005868329026270658,-0.0026372262509539723,-35.36299545,149.16514475,45018.5,2.5,7.5,-89.0
13:37:58,180541.5,0.0,-2.0,-1009.5,41.0,-5.0,-1.0,RTL,0.01662334422871936,-0.003919238050002605,-0.23753899335861206,0.04029076360166073,-0.006253511877730489,-0.001489719667006284,-35.362995049999995,149.16514625,47535.0,2.5,3.5,-147.0
13:38:00,239635.0,2.0,-5.0,-1004.0,-68.0,-16.0,-34.0,RTL,-0.05627318471670151,0.01290879922453314,-0.3038031905889511,-0.06941189896315336,-0.016911965794861317,-0.035073344595730305,-35.36299265,149.16515199999998,50581.0,2.5,14.0,-147.5
13:38:01,261009.0,-3.75,7.75,-1001.0,59.5,3.75,-6.0,RTL,-0.04761686688289046,0.001957900691195391,-0.32258035987615585,0.058660090900957584,0.0030802843684796244,-0.007628807565197349,-35.36299305,149.16515085,52118.25,-20.75,-42.75,-149.0
13:38:02,261009.0,-5.0,10.5,-1001.0,39.5,-17.0,41.5,RTL,0.002558619249612093,-0.0055504117626696825,-0.30705389380455017,0.038430796936154366,-0.018280250020325184,0.04066176060587168,-35.36299515,149.16514555,53663.5,-28.0,-49.0,-150.5
13:38:04,236706.5,-4.0,3.0,-995.5,30.0,20.5,35.0,RTL,0.017361571546643972,0.0033828276209533215,-0.25684481114149094,0.02879912918433547,0.01983683370053768,0.03437301889061928,-35.362997050000004,149.16513785,56774.0,-3.0,-16.5,-150.0
13:38:06,212404.0,3.0,-7.0,-1000.5,-35.5,8.5,-1.0,RTL,0.024078027345240116,0.006828269921243191,-0.23455562442541122,-0.037126047536730766,0.008123333798721433,-0.0021481444127857685,-35.36299595,149.16513924999998,59838.5,6.0,40.0,-147.5
13:38:07,137903.0,3.5,-6.5,-1002.5,-13.0,0.25,0.75,RTL,-0.006458653009758564,0.00994607387110591,-0.23670916631817818,-0.01495400711428374,-0.0007346726197283715,-0.00016819580923765898,-35.362994825,149.1651433,61368.0,3.5,36.25,-150.0
13:38:08,137903.0,3.0,-4.0,-1001.5,40.5,-15.0,3.0,RTL,0.011302014463581145,-0.000334353419020772,-0.2368401661515236,0.0391568411141634,-0.01628990937024355,0.0020002498640678823,-35.3629942,149.16514610000002,62923.0,2.0,26.5,-152.5
13:38:10,189019.5,2.0,-4.5,-1004.0,-58.0,-21.5,-34.5,RTL,-0.05241491924971342,0.015512992511503398,-0.3155367970466614,-0.05937555152922869,-0.02349975425750017,-0.03610449284315109,-35.36299215,149.1651526,66028.0,-1.5,18.0,-150.5
13:38:12,240136.0,-3.5,9.5,-1001.5,45.5,-13.5,21.5,RTL,0.018212790600955486,-0.0007134310289984569,-0.3289603441953659,0.044316357001662254,-0.014760744757950306,0.02054389414843172,-35.362995299999994,149.16514655,69134.0,-26.5,-36.5,-153.5
13:38:13,132405.0,-1.25,3.5,-997.75,-26.0,-13.5,38.5,RTL,0.031318303663283587,-0.029502036049962044,-0.29047177731990814,-0.028137086832430214,-0.01463715685531497,0.03762186551466584,-35.36299695,149.1651436,70699.25,-5.75,-7.0,-152.25
13:38:14,132405.0,-3.5,-1.5,-1001.0,-8.5,34.5,-40.0,RTL,0.005647137819323689,-0.0041114045307040215,-0.30835361778736115,-0.010326845105737448,0.033800155855715275,-0.04163610562682152,-35.36299615,149.1651427,72251.0,12.5,-1.0,-151.5
13:38:16,196026.5,0.0,0.0,-1000.0,0.5,-4.0,-10.0,RTL,0.008307135198265314,0.010780015029013157,-0.35974080860614777,-0.0010735145770013332,-0.005744627327658236,-0.011963535100221634,-35.3629945,149.16514165,75371.5,-3.5,5.0,-152.5
13:38:18,259648.0,0.5,0.5,-1001.0,5.5,0.0,-18.5,RTL,-0.008132340153679252,-0.00034745450830087066,-0.389197900891304,0.003706728108227253,-0.0017260147142224014,-0.02027639653533697,-35.3629951,149.1651426,78475.5,-8.5,1.5,-152.0
13:38:19,142929.0,0.0,2.0,-999.25,17.0,4.25,-9.5,RTL,0.0021830722398590297,-0.002219890448031947,-0.406421422958374,0.015452397987246513,0.002872712764656171,-0.010929383686743677,-35.3629957,149.165142225,80031.75,-8.25,-3.5,-152.75
13:38:20,142929.0,0.5,0.0,-1001.0,47.5,-4.5,1.5,RTL,0.03526325523853302,-0.0038593380013480783,-0.41128601133823395,0.04648478887975216,-0.006924004759639502,0.0007677576504647732,-35.36299605,149.165142,81593.0,0.0,9.5,-153.0
13:38:22,119642.0,1.5,-2.5,-1003.0,2.0,-1.0,-33.5,RTL,-0.0279126213863492,0.003596229013055563,-0.47896021604537964,-1.0020099580287933e-05,-0.0035607953323051333,-0.03554350696504116,-35.3629942,149.16514665,84695.0,4.0,14.0,-152.0
13:38:24,96355.0,0.0,4.5,-1000.5,16.5,17.5,119.0,RTL,0.001037902431562543,0.020783429965376854,-0.39354443550109863,0.015199672430753708,0.01630852121161297,0.11818009614944458,-35.362995749999996,149.1651453,87788.5,-24.5,-8.5,-150.0
13:38:25,169080.0,5.75,6.0,-993.75,-17.5,43.5,93.75,RTL,0.004984336264897138,0.050638251937925816,-0.29913710802793503,-0.019277720828540623,0.0422466485761106,0.0929673071950674,-35.3629988,149.165144875,89313.75,-49.25,8.25,-147.5
13:38:26,169080.0,17.5,9.5,-976.0,28.0,-0.5,87.0,RTL,-0.0018288363935425878,0.09271975234150887,-0.18089326471090317,0.026590929366648197,-0.0026676427805796266,0.08582043275237083,-35.36300545,149.16514669999998,90770.5,-103.5,26.0,-132.5
13:38:28,131577.0,55.0,23.5,-961.5,-20.5,-5.0,-7.0,RTL,-0.003239219542592764,0.14497452974319458,-0.13579701632261276,-0.02281629666686058,-0.006684960797429085,-0.009089422645047307,-35.3630364,149.16515905,92519.0,-252.0,89.0,-36.0
13:38:30,94074.0,73.0,28.0,-996.0,-244.5,-15.0,-13.5,RTL,-0.04964648745954037,0.11169765889644623,-0.15180828422307968,-0.24635760113596916,-0.017548853531479836,-0.015159586444497108,-35.36309265,149.1651823,92607.5,-362.0,105.0,4.5
13:38:31,271601.0,81.0,47.75,-998.5,82.0,-25.5,-2.25,RTL,-0.047057720832526684,0.08542460203170776,-0.15758046507835388,0.08000085409730673,-0.02775111747905612,-0.004210475774016231,-35.363126199999996,149.16519384999998,92600.25,-381.25,102.0,-3.0
13:38:32,271601.0,76.5,39.5,-999.5,-39.0,-24.5,-12.5,RTL,-0.04410727694630623,0.06437402218580246,-0.16261163353919983,-0.04048618674278259,-0.026010219007730484,-0.014681446889881045,-35.36316065,149.16520485,92613.5,-377.5,99.5,-1.5
13:38:34,229382.0,63.5,16.0,-1001.0,-304.0,-43.5,-34.5,RTL,-0.052390795201063156,-0.025789735140278935,-0.1691192388534546,-0.3054930344223976,-0.04564587399363518,-0.03635738044977188,-35.3632226,149.16522535000001,92632.0,-283.0,71.0,0.0
13:38:36,187163.0,18.0,9.0,-994.5,-31.5,25.0,-5.5,RTL,-0.022645863704383373,-0.07163596712052822,-0.17899632453918457,-0.033229127526283264,0.023722120560705662,-0.007140834350138903,-35.363257399999995,149.16523615,92614.0,-94.5,10.5,1.0
13:38:37,39311.0,6.75,-4.0,-994.5,-189.5,22.25,-3.75,RTL,-0.00022733508376404643,-0.04041819088160992,-0.18450812250375748,-0.190981425344944,0.020779871847480536,-0.005701995047274977,-35.363263525,149.16523689999997,92603.0,-33.75,0.25,0.5
13:38:38,39311.0,3.0,-5.0,-1007.5,-71.5,25.0,-4.5,RTL,0.0007826032815501094,-0.019481113646179438,-0.18867050856351852,-0.07283608615398407,0.02400460559874773,-0.00566047482425347,-35.36326525,149.1652373,92604.0,-4.0,0.0,0.0
13:38:40,31434.5,1.5,-8.5,-986.5,-56.0,-16.0,6.5,RTL,-0.024294876493513584,-0.007246869965456426,-0.19832858443260193,-0.05747823417186737,-0.018230744870379567,0.005559513811022043,-35.3632652,149.16524025,92611.0,0.0,-10.5,0.0
13:38:42,23558.0,-2.0,0.5,-994.0,52.0,4.5,2.0,RTL,-0.006009359087329358,-0.009463713970035315,-0.2048601433634758,0.051239013671875,0.003903722856193781,0.0009926450438797474,-35.36326455,149.16524035,92612.0,7.5,-24.0,0.5
13:38:43,8282.0,-3.0,13.25,-999.0,122.25,2.25,3.75,RTL,-0.0034312259522266686,-0.00502753141336143,-0.20716556534171104,0.12129971128888428,0.0011384474200895056,0.0026143013674300164,-35.363263875,149.1652396,92613.0,7.75,-19.25,0.25
13:38:44,8282.0,-2.0,4.5,-972.0,-2.0,1.5,3.0,RTL,0.0006671231240034103,-0.003200782579369843,-0.20990438759326935,-0.002573554404079914,0.00046752317575737834,0.0016269449843093753,-35.3632633,149.16523895,92608.0,5.5,-14.5,3.5
13:38:46,106544.0,-2.5,69.5,-994.5,1020.0,-1.0,2.5,RTL,0.006044047535397112,-0.0047514819307252765,-0.2143605574965477,1.0181054174900055,-0.0029841078212484717,0.001104840834159404,-35.3632627,149.16523815,91679.0,1.5,-8.0,90.5
13:38:48,204806.0,-1.5,57.5,-996.5,574.5,4.0,-9.0,RTL,0.011561384424567223,-0.005353807704523206,-0.2184518799185753,0.57195745408535,0.0032142187701538205,-0.011396943125873804,-35.363262750000004,149.16523619999998,89554.0,4.0,6.5,96.0
13:38:49,144618.0,-2.25,43.25,-988.25,61.5,-1.5,2.25,RTL,0.0054327998659573495,-0.005826064618304372,-0.2212131768465042,0.05827485560439527,-0.0027471633948152885,0.00045960210263729095,-35.363262875,149.165235575,88522.0,5.75,14.25,98.75
13:38:50,144618.0,-2.0,64.5,-998.5,570.0,-1.0,7.0,RTL,0.022871481254696846,-0.008344512199983,-0.22238323092460632,0.5667898952960968,-0.0025249572354368865,0.005853698123246431,-35.363263200000006,149.1652344,87567.5,7.0,21.0,86.5
13:38:52,102346.5,-1.0,6.0,-961.5,-739.0,11.5,-1.0,RTL,0.025964485481381416,-0.005232007475569844,-0.22617147117853165,-0.7433229386806488,0.010834626853466034,-0.003256649011746049,-35.36326365,149.16523175,85625.5,13.5,42.0,97.0
13:38:54,60075.0,6.0,-52.0,-1024.0,-1501.5,-5.5,-3.5,RTL,-0.01735004223883152,0.005964542040601373,-0.2268960028886795,-1.5045737028121948,-0.006708456174237654,-0.005958313005976379,-35.36326270000001,149.1652342,83521.0,11.5,38.5,96.0
13:38:55,268977.0,6.5,-37.25,-1024.25,-988.5,-5.5,-1.5,RTL,-0.032276507932692766,0.00446013844339177,-0.2293754778802395,-0.9922839254140854,-0.006930032046511769,-0.0032866582623682916,-35.363262150000004,149.16523705,82496.0,5.0,19.75,93.75
13:38:56,268977.0,1.0,-13.5,-1044.0,-855.5,-5.0,2.0,RTL,-0.04265910014510155,0.0016948212287388742,-0.23111995309591293,-0.8595330715179443,-0.006363982800394297,0.0006049866206012666,-35.363261800000004,149.16523935,81486.0,-0.5,0.0,103.5
13:38:58,218761.5,-1.5,-24.5,-971.5,-1169.5,-3.0,0.5,RTL,-0.03128080815076828,-0.00624402635730803,-0.23272280395030975,-1.1725027561187744,-0.004726512590423226,-0.001263126265257597,-35.363261949999995,149.16524035,79460.0,-4.0,-22.0,99.0
13:39:00,168546.0,2.0,-30.5,-985.5,86.5,5.5,-7.5,RTL,-0.004894392332062125,0.0007317937561310828,-0.23403938114643097,0.08623990416526794,0.0052763186395168304,-0.009776860475540161,-35.363261949999995,149.16523990000002,77344.0,-0.5,-18.5,98.5
13:39:01,242460.0,2.25,5.0,-1005.75,865.0,2.25,2.75,RTL,-0.016709049697965384,0.003956649627070874,-0.2355254590511322,0.8656082302331924,0.0015275053156074136,0.0006915844278410077,-35.363261375,149.16524155,76333.75,-3.75,-25.5,99.25
13:39:02,242460.0,0.5,32.5,-955.5,1291.0,-2.5,3.0,RTL,-0.01564554125070572,0.00024220888735726476,-0.23648059368133545,1.2917957305908203,-0.0037743772845715284,0.0009686090052127838,-35.3632611,149.1652428,75339.0,-8.5,-36.5,103.5
13:39:04,170531.5,-3.0,67.5,-1034.0,1139.0,4.0,2.5,RTL,-0.0028085950762033463,-0.006373623618856072,-0.23826060444116592,1.1372343003749847,0.002989339758642018,0.00063360296189785,-35.363261550000004,149.16524164999998,73331.5,-9.0,-39.0,102.0
13:39:06,98603.0,-5.0,69.0,-1000.5,758.5,3.0,1.5,RTL,0.0054944499861449,-0.005177363054826856,-0.24002493917942047,0.7563934773206711,0.002661638194695115,-0.0005366615951061249,-35.36326205,149.16523865,71299.0,-3.5,-18.0,102.0
13:39:07,7806.0,-5.0,63.5,-1026.0,588.0,3.0,11.0,RTL,0.013139837188646197,-0.006400023587048054,-0.2418176829814911,0.5857191756367683,0.0017009695584420115,0.00932282384019345,-35.363262325,149.165236825,70271.25,-1.25,-4.0,99.75
13:39:08,7806.0,-5.5,78.0,-990.5,954.5,5.5,10.5,RTL,0.03904463071376085,-0.007052811328321695,-0.24072513729333878,0.9527488648891449,0.004856003448367119,0.008478135336190462,-35.3632628,149.1652345,69278.5,1.5,11.5,94.5
13:39:10,100479.5,0.0,72.0,-996.0,1385.0,4.5,9.5,RTL,0.05158892460167408,3.592961002141237e-05,-0.24036487936973572,1.3828757405281067,0.0043306765728630126,0.007669141283258796,-35.363263149999995,149.16523174999998,67262.0,10.0,41.0,98.0
13:39:12,193153.0,6.0,-9.0,-988.0,-814.5,-1.5,-4.0,RTL,-0.02923996653407812,0.009366697631776333,-0.24003342539072037,-0.8180002719163895,-0.0033522273879498243,-0.006250162376090884,-35.3632621,149.16523565,65123.5,6.5,32.5,96.5
13:39:13,60657.0,3.75,-53.25,-1014.5,-1362.0,-7.0,-8.25,RTL,-0.04785394947975874,0.0034957411844516173,-0.24179233983159065,-1.363770842552185,-0.008170788903953508,-0.010948443785309792,-35.363261574999996,149.16523890000002,64097.75,-1.25,5.75,96.5
13:39:14,60657.0,3.0,-56.5,-1000.0,-1410.5,-0.5,-2.5,RTL,-0.047989532351493835,-0.0023306930670514703,-0.24249154329299927,-1.4118347764015198,-0.0017551188357174397,-0.0048009296879172325,-35.363261550000004,149.16524065,63118.5,-4.5,-14.0,94.5
13:39:16,173624.5,3.0,-71.5,-1041.0,-1364.0,1.0,-9.0,RTL,-0.05577311851084232,0.0017955019429791719,-0.24129588156938553,-1.3638685941696167,-6.755487993359566e-05,-0.011390530969947577,-35.363261300000005,149.165243,61135.0,-6.5,-36.5,99.5
13:39:18,286592.0,-1.0,-59.5,-1047.5,-942.0,-3.5,0.0,RTL,-0.04723221994936466,-0.0031745193991810083,-0.24296971410512924,-0.9401108026504517,-0.005077287321910262,-0.00198343931697309,-35.363260749999995,149.165245,59086.0,-15.0,-61.5,101.0
13:39:19,61441.0,-3.0,-62.75,-979.25,-828.0,-2.75,0.5,RTL,-0.029256592970341444,-0.006265284842811525,-0.24357571080327034,-0.824702650308609,-0.004355956451036036,-0.0015401461860165,-35.363261025,149.16524412500002,58072.5,-15.5,-61.25,103.0
13:39:20,61441.0,-3.5,-40.0,-1010.0,-92.5,0.5,-0.5,RTL,-0.001269498374313116,-0.007101128809154034,-0.2442621886730194,-0.08902204036712646,-7.896299939602613e-05,-0.0032896290067583323,-35.363261449999996,149.16524220000002,57022.5,-12.5,-52.0,105.0
13:39:22,101979.5,-4.0,-34.0,-987.0,-206.0,-1.0,0.5,RTL,0.02374002104625106,-0.007252083858475089,-0.243892140686512,-0.2015373408794403,-0.0024130037054419518,-0.0017183884046971798,-35.3632621,149.16523815,54953.5,-5.5,-22.5,94.5
13:39:24,142518.0,-3.5,-46.5,-964.0,-391.5,-1.0,9.5,RTL,0.04587976075708866,-0.004159422242082655,-0.24465354532003403,-0.387854740023613,-0.0025555456522852182,0.00758662517182529,-35.3632629,149.16523355,52909.0,3.0,17.5,101.0
13:39:25,142520.0,-3.0,-22.5,-1015.5,154.75,1.5,-3.0,RTL,0.05751010403037071,-0.0032446663826704025,-0.24426070228219032,0.15850138384848833,0.0005335433233994991,-0.005884249898372218,-35.36326305,149.165232,51891.75,6.5,34.25,101.0
13:39:26,142520.0,-1.5,-53.5,-932.5,-431.0,0.5,-3.0,RTL,0.05286085046827793,-0.0021659337216988206,-0.24398355931043625,-0.42834140360355377,-0.0008751671994104981,-0.005981026217341423,-35.36326325,149.165231,50914.0,9.0,45.5,98.5
13:39:28,191438.0,2.5,-64.5,-1003.0,-913.0,-2.0,-3.0,RTL,0.030529639683663845,0.002315532066859305,-0.2438087835907936,-0.9120133221149445,-0.003803376399446279,-0.005515790777280927,-35.3632631,149.16523124999998,48859.0,11.0,54.0,103.0
13:39:30,240356.0,6.0,-30.0,-926.5,167.5,4.0,-6.5,RTL,0.017664853017777205,0.002234680636320263,-0.2443912923336029,0.1679849624633789,0.0029199402779340744,-0.008899876149371266,-35.363262500000005,149.16523454999998,46789.0,6.0,36.0,97.5
13:39:31,61904.0,3.0,54.75,-1029.0,1439.25,2.75,9.25,RTL,0.014781292644329369,-0.0011086494178016437,-0.24419178441166878,1.438003271818161,0.001605192053830251,0.007610454689711332,-35.3632624,149.165235925,45819.25,3.25,23.75,101.25
13:39:32,61904.0,1.5,52.5,-1013.5,1371.0,4.0,10.0,RTL,0.01479606470093131,-0.0010865581716643646,-0.24425037950277328,1.3701056838035583,0.002913965145125985,0.008377067744731903,-35.36326235,149.16523725000002,44809.0,2.5,11.5,98.5
13:39:34,61904.0,0.0,68.0,-990.0,1526.0,7.0,18.0,RTL,0.011479520704597235,-0.002599524101242423,-0.24471312016248703,1.5247538685798645,0.0060193834360688925,0.01626735646277666,-35.363262,149.1652391,42776.5,-0.5,-5.5,101.0
13:39:35,267299.0,-3.75,77.25,-1018.0,1277.5,-0.75,-0.25,RTL,0.0074654866475611925,-0.006095480406656861,-0.24572830647230148,1.275547742843628,-0.001945063704624772,-0.0025643727858550847,-35.363262150000004,149.16523875000001,41740.5,-1.5,-7.0,107.0
13:39:36,267299.0,-5.5,76.5,-975.0,1148.5,7.5,3.0,RTL,0.03851116914302111,-0.00957315368577838,-0.2466752901673317,1.146076738834381,0.006805980112403631,0.0008662710897624493,-35.36326270000001,149.1652364,40651.0,0.0,0.5,108.5
13:39:38,142820.0,-5.5,77.0,-1020.5,1235.0,8.0,6.0,RTL,0.0692053958773613,-0.006221632938832045,-0.24548612534999847,1.2315060496330261,0.007073630578815937,0.0038796792505308986,-35.36326365,149.1652308,38566.0,11.0,42.0,106.0
13:39:40,142820.0,-0.5,74.5,-1003.5,1295.5,8.0,3.0,RTL,0.06821976415812969,2.818307257257402e-05,-0.24453379958868027,1.2906473875045776,0.006854469887912273,0.00046574207954108715,-35.3632638,149.1652282,36522.0,17.5,74.5,104.5
13:39:41,36256.0,0.5,72.75,-1018.75,1139.25,2.75,-0.25,RTL,0.05494703724980354,0.00047980421550164465,-0.2445283643901348,1.133669063448906,0.001300336793065071,-0.003084341937210411,-35.3632637,149.165228725,35509.75,17.5,78.0,100.0
13:39:42,36256.0,0.0,66.5,-963.5,650.5,3.5,12.0,RTL,0.04244764521718025,-0.0025458576274104416,-0.24448086321353912,0.6437253132462502,0.0026423867093399167,0.009882739279419184,-35.36326375,149.16522905,34498.0,16.0,75.0,102.0
13:39:44,143781.0,3.5,-37.5,-966.0,-1219.0,2.0,2.5,RTL,0.019649574533104897,0.0019057626559515484,-0.24463264644145966,-1.2266198098659515,0.000578561332076788,5.441950634121895e-05,-35.363263700000005,149.16522980000002,32395.5,18.0,71.5,104.5
13:39:46,143781.0,11.0,-72.5,-1017.0,-497.0,6.0,-14.0,RTL,-0.009023191872984171,0.011514434590935707,-0.24250487238168716,-0.5014710947871208,0.004912390606477857,-0.016965866088867188,-35.363262000000006,149.16523625,30262.5,8.0,33.5,97.0
13:39:47,155837.0,12.0,-60.5,-981.0,-373.25,-3.0,-10.75,RTL,-0.05307117849588394,0.012143924366682768,-0.24306583032011986,-0.37741290032863617,-0.004762594908243045,-0.013364662416279316,-35.36326095,149.165241375,29313.5,-1.5,0.5,85.25
13:39:48,155837.0,5.5,-63.5,-1036.0,-656.0,-6.5,-13.5,RTL,-0.07616903632879257,0.003247467859182507,-0.24415218085050583,-0.6596936285495758,-0.008308004587888718,-0.016322674229741096,-35.363260350000004,149.16524579999998,28402.0,-13.0,-40.0,98.0
13:39:50,121205.0,-5.0,-53.0,-1045.0,-845.0,-4.0,9.5,RTL,-0.028535123448818922,-0.014950305689126253,-0.24317874759435654,-0.8484566956758499,-0.00565348647069186,0.007891303626820445,-35.3632614,149.1652455,26353.5,-16.0,-72.0,105.0
13:39:52,121205.0,-8.0,11.5,-989.5,669.0,10.5,16.5,RTL,0.026265691965818405,-0.006185019505210221,-0.24341145902872086,0.6658694632351398,0.009326215600594878,0.013886871747672558,-35.36326215,149.16523975,24291.0,-4.5,-38.0,102.5
13:39:53,220646.0,-1.0,52.75,-1029.5,1383.75,12.5,2.5,RTL,0.02854552585631609,0.0014179928330122493,-0.24211446195840836,1.3799960017204285,0.011708688922226429,0.0004909005365334451,-35.363262075,149.165237975,23280.5,-0.75,-16.0,98.25
13:39:54,220646.0,0.0,66.0,-1034.5,1329.5,2.0,5.5,RTL,-0.004746429156512022,0.005240879720076919,-0.24254515767097473,1.3255353569984436,0.0004851166158914566,0.003269694629125297,-35.3632615,149.16523855000003,22268.5,-2.0,-8.5,103.0
13:39:56,245970.0,0.5,53.5,-996.5,925.0,-5.0,13.5,RTL,-0.009206538437865674,-0.0011294444848317653,-0.24235060811042786,0.9205940812826157,-0.006892076693475246,0.011324888095259666,-35.3632614,149.16523940000002,20174.0,-7.5,-14.5,104.5
13:39:58,245970.0,-1.0,-3.5,-1035.5,-677.5,-0.5,4.0,RTL,-0.027240649797022343,-0.0040707915322855115,-0.24248391389846802,-0.6829562038183212,-0.0022937331232242286,0.0014977783430367708,-35.363261699999995,149.16523955,18074.5,-6.0,-17.5,104.0
13:39:59,64664.0,-1.25,-20.0,-993.0,-1040.5,2.5,5.75,RTL,-0.027768314816057682,-0.0035054482868872583,-0.24147426337003708,-1.0453089624643326,0.001597942435182631,0.0031824527541175485,-35.36326185,149.165239175,17105.0,-4.0,-15.5,91.5
13:40:00,64664.0,-1.0,-27.0,-984.5,-1092.0,2.0,-3.5,RTL,-0.02395347598940134,-0.0017880442319437861,-0.2419452965259552,-1.096432864665985,0.0008832813473418355,-0.005898643517866731,-35.3632619,149.165239,16157.5,-3.0,-14.0,95.5
13:40:02,176636.0,-0.5,-61.5,-1019.5,-744.5,1.0,-4.5,RTL,-0.005894383881241083,-0.001415662991348654,-0.24235665798187256,-0.745713084936142,-0.00017597852274775505,-0.007932090200483799,-35.3632619,149.1652388,14105.5,-4.0,-14.5,98.0
13:40:04,176636.0,0.5,-60.0,-1003.5,-755.0,-1.0,-5.0,RTL,-0.013672090601176023,0.0002887968148570508,-0.24236315488815308,-0.755547784268856,-0.002967615204397589,-0.008525861892849207,-35.3632616,149.1652393,12047.5,-5.0,-14.0,99.5
13:40:05,200378.0,-1.25,-55.75,-1042.25,-648.5,0.0,-1.5,RTL,-0.0016060436646512244,-0.0021313873294275254,-0.24268171563744545,-0.6492682136595249,-0.0017044919659383595,-0.00448599160881713,-35.363261625,149.16523897500002,11086.0,-7.0,-16.5,76.5
13:40:06,200378.0,-0.5,-9.5,-1023.5,-373.0,5.5,5.0,RTL,-0.0012615301529876888,-0.0025422031758353114,-0.24184918403625488,-0.3755052350461483,0.004432446614373475,0.0030598497251048684,-35.36326185,149.165238,10531.0,-4.5,-10.0,34.5
13:40:08,226223.0,-0.5,-46.0,-972.5,-756.5,2.5,8.0,RTL,-0.0022292782086879015,-0.001143256946306792,-0.24200702458620071,-0.7578286081552505,0.0006579025648534298,0.0054681203328073025,-35.3632619,149.1652375,9911.5,-3.0,-3.0,29.5
13:40:10,226223.0,1.0,-11.5,-1007.5,-8.0,0.0,1.0,RTL,-0.0018659159541130066,0.0010258104011882097,-0.24204587936401367,-0.009500980377197266,-0.00191332126269117,-0.0017609790666028857,-35.363261949999995,149.16523769999998,9266.5,-1.5,-1.0,31.0
13:40:11,91768.0,0.25,16.5,-1031.0,87.25,-0.5,5.75,RTL,-0.011727690929546952,0.0006580109402420931,-0.24218753725290298,0.08450962137430906,-0.0022959698690101504,0.003542482212651521,-35.363261775,149.16523835,8933.75,-3.25,-4.0,24.5
13:40:12,91768.0,0.0,2.5,-1008.0,-7.5,-2.5,4.0,RTL,-0.003542870399542153,-0.0016492635768372566,-0.2423858717083931,-0.00925726443529129,-0.004929146030917764,0.001989830518141389,-35.36326175,149.1652384,8847.0,-5.0,-7.0,-5.0
13:40:14,183774.0,0.0,-0.5,-998.5,7.0,2.0,7.0,RTL,0.0006963809464650694,-0.0008487427476211451,-0.2424524798989296,0.005102328956127167,0.0004521760856732726,0.004290151293389499,-35.363261949999995,149.1652377,8909.0,-2.0,-2.0,-1.5
13:40:16,183774.0,0.0,-1.0,-1003.0,-39.5,-3.0,3.5,RTL,-0.0012563236523419619,-0.0006790168408770114,-0.24276386201381683,-0.04099293053150177,-0.005441420711576939,0.0009703850373625755,-35.3632619,149.16523784999998,8908.0,-3.5,-2.5,-0.5
13:40:17,196175.0,-0.75,5.25,-1003.5,173.0,4.0,5.75,RTL,0.007040153432171792,-0.0008277862361865118,-0.24248403310775757,0.171608604490757,0.002452079061185941,0.003268944041337818,-35.3632619,149.16523755,8907.5,-3.25,-1.75,-0.5
13:40:18,196175.0,-1.0,1.0,-1017.0,-371.0,0.5,5.5,RTL,-0.0032550327596254647,-0.00024890744862204883,-0.2425132393836975,-0.37397684156894684,-0.0013488364056684077,0.003103980212472379,-35.3632619,149.1652373,8861.0,-2.5,1.0,7.5
13:40:20,185481.0,-1.0,1.0,-995.5,21.5,1.5,5.5,RTL,0.01600878033787012,-0.0022968685952946544,-0.24257240444421768,0.019337475299835205,-0.0005878184456378222,0.003026581951417029,-35.3632621,149.1652363,8812.5,-2.0,5.0,-0.5
13:40:22,185481.0,-1.5,4.0,-1005.0,3.5,-0.5,6.0,RTL,0.02101758774369955,-0.002188047510571778,-0.24238574504852295,0.0011999905109405518,-0.002447335748001933,0.003091439255513251,-35.36326245,149.16523495,8819.5,1.0,17.0,1.0
13:40:23,285455.0,-0.25,10.0,-1004.25,223.75,4.25,3.5,RTL,0.02641285117715597,-0.0016793137765489519,-0.2421511486172676,0.22127642296254635,0.0021826731972396374,0.00016896071610972285,-35.3632626,149.165234475,8822.0,2.5,22.0,0.25
13:40:24,285455.0,0.5,-5.0,-1000.5,33.5,5.0,2.5,RTL,0.020499094389379025,0.000630566681138589,-0.2423662170767784,0.030690103769302368,0.003010460175573826,-5.488272290676832e-05,-35.36326255,149.16523455,8826.5,3.5,24.5,1.0
13:40:26,155745.0,1.0,40.0,-962.5,482.0,-6.0,8.0,RTL,-0.001702006658888422,0.0014970146003179252,-0.2418804168701172,0.47772202640771866,-0.008453530608676374,0.005036955350078642,-35.36326215,149.165236,8570.5,1.0,19.5,36.0
13:40:28,155745.0,-1.5,-27.0,-984.5,-722.0,3.5,1.0,RTL,0.010162827093154192,-0.003110409830696881,-0.24172717332839966,-0.7262509763240814,0.0022356316912919283,-0.0015759028610773385,-35.36326235,149.16523560000002,7874.0,0.0,12.5,33.0
13:40:29,224645.0,0.0,30.75,-1003.0,581.5,4.5,6.5,RTL,0.023731071036309004,-0.0013924696104368195,-0.24170342087745667,0.5777114238590002,0.002382127189775929,0.003456189180724323,-35.3632625,149.16523512499998,7527.25,2.5,19.5,34.5
13:40:30,224645.0,1.5,-32.5,-978.0,-311.5,2.0,-1.0,RTL,0.01500419364310801,-0.0002551630277594086,-0.2417319044470787,-0.31366288661956787,0.00031751650385558605,-0.004648561705835164,-35.36326245,149.1652355,7165.5,3.0,18.5,34.5
13:40:32,294632.0,5.0,-18.0,-996.0,160.5,4.0,-1.5,RTL,-0.00693741999566555,0.004089197260327637,-0.24121974408626556,0.15795361995697021,0.0022174929035827518,-0.005309174070134759,-35.3632619,149.16523785,6495.0,0.5,5.0,32.0
13:40:34,294632.0,1.0,28.5,-1003.5,735.5,0.0,3.5,RTL,-0.03357107937335968,0.0007086257392074913,-0.24226224422454834,0.7323459088802338,-0.00233156920876354,0.000259963097050786,-35.36326115,149.1652421,5822.5,-7.5,-25.0,32.5
13:40:35,19886.0,-0.75,-36.25,-987.0,-646.75,-3.75,2.25,RTL,-0.03587770089507103,-0.004468752536922693,-0.24218692630529404,-0.649145744740963,-0.006628788192756474,-0.0007118229987099767,-35.363261175,149.165242825,5475.75,-11.25,-39.0,35.75
13:40:36,19886.0,-3.0,31.5,-991.0,137.5,-0.5,9.0,RTL,-0.01798141305334866,-0.008396063931286335,-0.2420831322669983,0.1335158497095108,-0.0024316326016560197,0.006076129153370857,-35.3632616,149.16524175,5090.5,-10.0,-38.5,36.0
13:40:38,140823.0,-6.0,-23.0,-1002.5,-558.0,8.5,4.5,RTL,0.014511167537420988,-0.007662598975002766,-0.24173002690076828,-0.5609466731548309,0.006805746699683368,0.0015467163175344467,-35.363262500000005,149.16523734999998,4394.0,-1.5,-13.0,30.5
13:40:40,140823.0,0.0,-29.0,-1008.5,-32.0,8.0,6.0,RTL,0.028250153176486492,-0.00038159770338097587,-0.24167834222316742,-0.03273943066596985,0.0059888288378715515,0.003200701787136495,-35.36326255,149.16523485,3741.5,3.0,15.0,31.5
13:40:41,104168.0,-0.75,-6.0,-998.0,-407.25,1.25,6.0,RTL,0.009090188890695572,0.0002640777711349074,-0.24161190539598465,-0.4105905368924141,-0.0011857733479700983,0.002849572862032801,-35.363262425,149.1652348,3399.75,2.75,20.25,32.0
13:40:42,104168.0,0.0,17.5,-1010.5,540.0,3.0,6.0,RTL,0.02600795216858387,-0.0005316124188539106,-0.2410322055220604,0.5376308932900429,0.0014395237667486072,0.0031508986139670014,-35.36326245,149.16523475000002,3043.0,2.0,22.0,33.5
13:40:44,275345.0,0.0,35.5,-998.5,776.5,2.0,3.5,RTL,0.02587043307721615,-0.0010339119471609592,-0.24129819869995117,0.7731142342090607,-0.00021996721625328064,0.0002577536506578326,-35.3632625,149.16523475000002,2359.0,2.5,24.0,29.5
13:40:46,275345.0,-1.5,18.0,-1004.0,28.0,5.5,5.0,RTL,0.020290064625442028,-0.0038296510465443134,-0.2416590079665184,0.022157415747642517,0.003290021442808211,0.0016326550394296646,-35.363262750000004,149.1652343,1686.5,4.0,25.5,31.5
13:40:47,229356.0,0.75,15.75,-1003.25,554.25,5.5,2.5,RTL,0.03732900694012642,-0.0028861923492513597,-0.24133118987083435,0.5505305752158165,0.0035131786426063627,-0.000646882108412683,-35.3632629,149.1652337,1354.25,6.0,30.0,28.5
13:40:48,229356.0,0.0,-37.5,-968.5,-779.5,4.0,2.5,RTL,0.016672007739543915,-0.001579996373038739,-0.24126539379358292,-0.7845195531845093,0.002020091866143048,-0.0003538733581081033,-35.3632629,149.16523365,1046.0,7.0,31.5,32.5
13:40:50,58047.0,2.5,6.0,-993.5,604.5,10.0,3.5,RTL,0.01877308078110218,0.0035544062266126275,-0.24087391048669815,0.6008982956409454,0.00786922825500369,0.0002793363528326154,-35.363262500000005,149.16523515,377.5,6.0,27.0,31.5
13:40:52,58047.0,-0.5,-0.5,-1000.0,4.0,4.0,4.0,RTL,0.01232031499966979,-0.002466298290528357,-0.23764140158891678,-0.000929664820432663,0.0016763119492679834,0.0006703016115352511,-35.363262,149.16523654999997,34.0,4.5,13.0,14.0
13:40:53,241266.0,0.0,-0.25,-999.5,4.0,4.0,3.75,RTL,0.008432088885456324,-0.0005810187067254446,-0.2377621904015541,-0.0010292164515703917,0.001732425531372428,0.00066160544520244,-35.363262,149.1652366,0.5,3.0,12.0,9.75
13:40:54,241266.0,0.0,0.0,-1000.0,4.0,4.0,4.0,RTL,0.00497858296148479,0.0010503295343369246,-0.2375185564160347,-0.0011709537357091904,0.0017693726113066077,0.0006530849495902658,-35.36326205,149.16523645,0.0,0.0,8.0,7.5
13:40:56,241266.0,0.0,-0.5,-1000.0,4.0,4.0,4.0,RTL,-6.936813588254154e-05,0.0029665520414710045,-0.23714572191238403,-0.0012610668782144785,0.0016788291977718472,0.0006347785238176584,-35.363262399999996,149.1652359,0.0,-6.5,0.0,4.5
13:40:58,241266.0,0.0,-0.5,-1000.0,4.0,3.5,4.0,RTL,-0.0019563313690014184,0.003384318435564637,-0.2375221699476242,-0.0012864693999290466,0.0015634741866961122,0.0005521177081391215,-35.363262649999996,149.16523535,0.0,-9.0,-4.5,3.0
13:41:00,241266.0,0.0,0.0,-1000.0,4.0,4.0,4.0,RTL,-0.0023847741540521383,0.0035902541130781174,-0.23802731931209564,-0.0012260721996426582,0.0014286870136857033,0.0004881485365331173,-35.3632627,149.1652353,0.0,-9.0,-4.0,0.0
