time_stamp,MODE,lat,lon,relative_alt,roll,pitch,yaw,rollspeed,pitchspeed,yawspeed,xacc,yacc,zacc,xgyro,ygyro,zgyro,vx,vy,vz,RTL_ALT
13:12:47.064,STABILIZE,-35.3632621,149.1652374,43,-0.00037158458144403994,0.0012609973782673478,0.030124690383672714,0.00030766878626309335,0.0002497761743143201,0.0026141018606722355,0,1,-1000,0,0,1,-3,2,-1,1500.0
13:12:47.266,STABILIZE,-35.3632621,149.1652374,43,-0.00037158458144403994,0.0012609973782673478,0.030124690383672714,0.00030766878626309335,0.0002497761743143201,0.0026141018606722355,0,1,-1000,0,0,1,-3,2,-1,1500.0
13:12:47.467,STABILIZE,-35.3632621,149.1652374,43,-0.00037158458144403994,0.0012609973782673478,0.030124690383672714,0.00030766878626309335,0.0002497761743143201,0.0026141018606722355,0,1,-1000,0,0,1,-3,2,-1,1500.0
13:12:47.668,STABILIZE,-35.3632621,149.1652374,43,-0.00037158458144403994,0.0012609973782673478,0.030124690383672714,0.00030766878626309335,0.0002497761743143201,0.0026141018606722355,0,1,-1000,0,0,1,-3,2,-1,1500.0
13:12:47.869,STABILIZE,-35.3632621,149.1652374,43,-0.00037158458144403994,0.0012609973782673478,0.030124690383672714,0.00030766878626309335,0.0002497761743143201,0.0026141018606722355,0,1,-1000,0,0,1,-3,2,-1,1500.0
13:12:48.071,STABILIZE,-35.3632621,149.1652374,35,-0.00037158458144403994,0.0012609973782673478,0.030124690383672714,0.00030766878626309335,0.0002497761743143201,0.0026141018606722355,0,1,-1000,0,0,1,0,0,0,1500.0
13:12:48.272,STABILIZE,-35.3632621,149.1652374,35,-0.00037158458144403994,0.0012609973782673478,0.030124690383672714,0.00030766878626309335,0.0002497761743143201,0.0026141018606722355,0,1,-1000,0,0,1,0,0,0,1500.0
13:12:48.474,STABILIZE,-35.3632621,149.1652374,35,-0.00037158458144403994,0.0012609973782673478,0.030124690383672714,0.00030766878626309335,0.0002497761743143201,0.0026141018606722355,0,1,-1000,0,0,1,0,0,0,1500.0
13:12:48.675,STABILIZE,-35.3632621,149.1652374,35,-0.00037158458144403994,0.0012609973782673478,0.030124690383672714,0.00030766878626309335,0.0002497761743143201,0.0026141018606722355,0,1,-1000,0,0,1,0,0,0,1500.0
13:12:48.876,STABILIZE,-35.3632621,149.1652374,35,-0.00037158458144403994,0.0012609973782673478,0.030124690383672714,0.00030766878626309335,0.0002497761743143201,0.0026141018606722355,0,1,-1000,0,0,1,0,0,0,1500.0
13:12:49.077,STABILIZE,-35.3632621,149.1652374,26,-0.00037158458144403994,0.0012609973782673478,0.030124690383672714,0.00030766878626309335,0.0002497761743143201,0.0026141018606722355,0,1,-1000,0,0,0,-1,1,0,1500.0
13:12:49.279,STABILIZE,-35.3632621,149.1652374,26,-0.00037158458144403994,0.0012609973782673478,0.030124690383672714,0.00030766878626309335,0.0002497761743143201,0.0026141018606722355,0,1,-1000,0,0,0,-1,1,0,1500.0
13:12:49.480,STABILIZE,-35.3632621,149.1652374,26,-0.00037158458144403994,0.0012609973782673478,0.030124690383672714,0.00030766878626309335,0.0002497761743143201,0.0026141018606722355,0,1,-1000,0,0,0,-1,1,0,1500.0
13:12:49.681,STABILIZE,-35.3632621,149.1652374,26,-0.00037158458144403994,0.0012609973782673478,0.030124690383672714,0.00030766878626309335,0.0002497761743143201,0.0026141018606722355,0,1,-1000,0,0,0,-1,1,0,1500.0
13:12:49.882,STABILIZE,-35.3632621,149.1652374,26,-0.00037158458144403994,0.0012609973782673478,0.030124690383672714,0.00030766878626309335,0.0002497761743143201,0.0026141018606722355,0,1,-1000,0,0,0,-1,1,0,1500.0
13:12:50.083,STABILIZE,-35.3632621,149.1652374,26,-0.00019924913067370653,0.0015466631157323718,0.027973691001534462,0.00037528068060055375,0.00024148888769559562,0.0022880020551383495,0,1,-1000,0,0,0,-1,1,0,1500.0
13:12:50.285,STABILIZE,-35.3632621,149.1652374,26,-0.00019924913067370653,0.0015466631157323718,0.027973691001534462,0.00037528068060055375,0.00024148888769559562,0.0022880020551383495,0,1,-1000,0,0,0,-1,1,0,1500.0
13:12:50.486,STABILIZE,-35.3632621,149.1652374,26,-0.00019924913067370653,0.0015466631157323718,0.027973691001534462,0.00037528068060055375,0.00024148888769559562,0.0022880020551383495,0,1,-1000,0,0,0,-1,1,0,1500.0
13:12:50.687,STABILIZE,-35.3632621,149.1652374,26,-0.00019924913067370653,0.0015466631157323718,0.027973691001534462,0.00037528068060055375,0.00024148888769559562,0.0022880020551383495,0,1,-1000,0,0,0,-1,1,0,1500.0
13:12:50.890,STABILIZE,-35.3632621,149.1652374,26,-0.00019924913067370653,0.0015466631157323718,0.027973691001534462,0.00037528068060055375,0.00024148888769559562,0.0022880020551383495,0,1,-1000,0,0,0,-1,1,0,1500.0
13:12:51.092,STABILIZE,-35.3632622,149.1652375,18,-0.00037033806438557804,0.0013867173111066222,0.027400508522987366,0.0002584572648629546,0.00020705771748907864,0.0022063658107072115,0,1,-1000,0,0,0,-2,1,0,1500.0
13:12:51.293,STABILIZE,-35.3632622,149.1652375,18,-0.00037033806438557804,0.0013867173111066222,0.027400508522987366,0.0002584572648629546,0.00020705771748907864,0.0022063658107072115,0,1,-1000,0,0,0,-2,1,0,1500.0
13:12:51.494,STABILIZE,-35.3632622,149.1652375,17,-0.00048705763765610754,0.001281265402212739,0.02710161916911602,0.00014107802417129278,0.00034747246536426246,0.002086368855088949,0,1,-1000,0,0,0,-1,1,0,1500.0
13:12:51.695,STABILIZE,-35.3632622,149.1652375,17,-0.00048705763765610754,0.001281265402212739,0.02710161916911602,0.00014107802417129278,0.00034747246536426246,0.002086368855088949,0,1,-1000,0,0,0,-1,1,0,1500.0
13:12:51.897,STABILIZE,-35.3632622,149.1652375,17,-0.00048705763765610754,0.001281265402212739,0.02710161916911602,0.00014107802417129278,0.00034747246536426246,0.002086368855088949,0,1,-1000,0,0,1,-1,1,0,1500.0
13:12:52.098,STABILIZE,-35.3632622,149.1652375,17,-0.00048705763765610754,0.001281265402212739,0.02710161916911602,0.00014107802417129278,0.00034747246536426246,0.002086368855088949,0,1,-1000,0,0,1,-1,1,0,1500.0
13:12:52.299,STABILIZE,-35.3632622,149.1652375,17,-0.00048705763765610754,0.001281265402212739,0.02710161916911602,0.00014107802417129278,0.00034747246536426246,0.002086368855088949,0,1,-1000,0,0,1,-1,1,0,1500.0
13:12:52.501,STABILIZE,-35.3632622,149.1652375,17,-0.00048705763765610754,0.001281265402212739,0.02710161916911602,0.00014107802417129278,0.00034747246536426246,0.002086368855088949,0,1,-1000,0,0,1,-1,1,0,1500.0
13:12:52.703,STABILIZE,-35.3632622,149.1652375,17,-0.00048705763765610754,0.001281265402212739,0.02710161916911602,0.00014107802417129278,0.00034747246536426246,0.002086368855088949,0,1,-1000,0,0,1,-1,1,0,1500.0
13:12:52.905,STABILIZE,-35.3632622,149.1652375,17,-0.00048705763765610754,0.001281265402212739,0.02710161916911602,0.00014107802417129278,0.00034747246536426246,0.002086368855088949,0,1,-1000,0,0,1,-1,1,0,1500.0
13:12:53.106,STABILIZE,-35.3632622,149.1652375,13,-0.0008242101175710559,0.0009927147766575217,0.02621028944849968,0.00024685513926669955,0.00023303867783397436,0.0020524440333247185,0,1,-1000,0,0,0,-1,1,0,1500.0
13:12:53.307,STABILIZE,-35.3632622,149.1652375,13,-0.0008242101175710559,0.0009927147766575217,0.02621028944849968,0.00024685513926669955,0.00023303867783397436,0.0020524440333247185,0,1,-1000,0,0,0,-1,1,0,1500.0
13:12:53.508,STABILIZE,-35.3632621,149.1652375,13,-0.0008582895970903337,0.0009797425009310246,0.02609860524535179,0.00014828162966296077,0.00031030800892040133,0.0019790208898484707,0,1,-1000,0,0,0,-1,1,0,1500.0
13:12:53.709,STABILIZE,-35.3632621,149.1652375,13,-0.0008864848641678691,0.0009535361896269023,0.025970617309212685,0.00023894006153568625,0.0003022297169081867,0.0019901241175830364,0,1,-1000,0,0,0,-1,1,0,1500.0
13:12:53.910,STABILIZE,-35.3632621,149.1652375,12,-0.0008864848641678691,0.0009535361896269023,0.025970617309212685,0.00023894006153568625,0.0003022297169081867,0.0019901241175830364,0,1,-1000,0,0,0,-1,1,0,1500.0
13:12:54.112,STABILIZE,-35.3632621,149.1652375,12,-0.0009257967467419803,0.0009210968855768442,0.025797151029109955,0.0002873815828934312,0.000180423550773412,0.002083865460008383,0,1,-1000,0,0,0,-1,1,0,1500.0
13:12:54.313,STABILIZE,-35.3632621,149.1652375,12,-0.0009257967467419803,0.0009210968855768442,0.025797151029109955,0.0002873815828934312,0.000180423550773412,0.002083865460008383,0,1,-1000,0,0,0,-1,1,0,1500.0
13:12:54.514,STABILIZE,-35.3632621,149.1652375,12,-0.0009257967467419803,0.0009210968855768442,0.025797151029109955,0.0002873815828934312,0.000180423550773412,0.002083865460008383,0,1,-1000,0,0,0,-1,1,0,1500.0
13:12:54.715,STABILIZE,-35.3632621,149.1652375,12,-0.0009257967467419803,0.0009210968855768442,0.025797151029109955,0.0002873815828934312,0.000180423550773412,0.002083865460008383,0,1,-1000,0,0,0,-1,1,0,1500.0
13:12:54.917,STABILIZE,-35.3632621,149.1652375,12,-0.0009624092490412295,0.0009113686392083764,0.025502577424049377,0.00032543670386075974,0.0002809797297231853,0.0019072924042120576,0,1,-1000,0,0,0,-1,1,0,1500.0
13:12:55.118,STABILIZE,-35.3632621,149.1652374,10,-0.000972207635641098,0.0008970735361799598,0.025393197312951088,0.00038505950942635536,0.0002548355842009187,0.0018925918266177177,0,1,-1000,0,0,1,-1,1,0,1500.0
13:12:55.318,STABILIZE,-35.3632621,149.1652374,10,-0.000972207635641098,0.0008970735361799598,0.025393197312951088,0.00038505950942635536,0.0002548355842009187,0.0018925918266177177,0,1,-1000,0,0,1,-1,1,0,1500.0
13:12:55.519,STABILIZE,-35.3632621,149.1652374,10,-0.000972207635641098,0.0008970735361799598,0.025393197312951088,0.00038505950942635536,0.0002548355842009187,0.0018925918266177177,0,1,-1000,0,0,0,-1,1,0,1500.0
13:12:55.720,STABILIZE,-35.3632621,149.1652374,10,-0.000972207635641098,0.0008970735361799598,0.025393197312951088,0.00038505950942635536,0.0002548355842009187,0.0018925918266177177,0,1,-1000,0,0,0,-1,1,0,1500.0
13:12:55.921,STABILIZE,-35.3632621,149.1652374,10,-0.0009967695223167539,0.0008980229613371193,0.025085827335715294,0.0003849076456390321,0.00020614801906049252,0.001840224489569664,0,2,-1000,0,0,1,-1,1,0,1500.0
13:12:56.122,STABILIZE,-35.3632621,149.1652374,9,-0.0009967695223167539,0.0008980229613371193,0.025085827335715294,0.0003849076456390321,0.00020614801906049252,0.001840224489569664,0,1,-1000,0,0,0,-1,1,0,1500.0
13:12:56.323,STABILIZE,-35.3632621,149.1652374,9,-0.0009967695223167539,0.0008980229613371193,0.025085827335715294,0.0003849076456390321,0.00020614801906049252,0.001840224489569664,0,1,-1000,0,0,0,-1,1,0,1500.0
13:12:56.525,STABILIZE,-35.3632621,149.1652374,9,-0.0009967695223167539,0.0008980229613371193,0.025085827335715294,0.0003849076456390321,0.00020614801906049252,0.001840224489569664,0,1,-1000,0,0,0,-1,1,0,1500.0
13:12:56.728,STABILIZE,-35.3632621,149.1652374,9,-0.0009967695223167539,0.0008980229613371193,0.025085827335715294,0.0003849076456390321,0.00020614801906049252,0.001840224489569664,0,1,-1000,0,0,0,-1,1,0,1500.0
13:12:56.930,STABILIZE,-35.3632621,149.1652374,9,-0.0009967695223167539,0.0008980229613371193,0.025085827335715294,0.0003849076456390321,0.00020614801906049252,0.001840224489569664,0,1,-1000,0,0,0,-1,1,0,1500.0
13:12:57.131,STABILIZE,-35.3632621,149.1652374,9,-0.0008157004485838115,0.0009516306454315782,0.024592673406004906,0.0003203208325430751,0.0003247878048568964,0.0018253140151500702,0,1,-1000,0,0,0,-1,1,0,1500.0
13:12:57.333,STABILIZE,-35.3632621,149.1652374,9,-0.0008157004485838115,0.0009516306454315782,0.024592673406004906,0.0003203208325430751,0.0003247878048568964,0.0018253140151500702,0,1,-1000,0,0,0,-1,1,0,1500.0
13:12:57.534,STABILIZE,-35.3632621,149.1652375,0,-0.0008767568506300449,0.0009545522625558078,0.02451305277645588,0.00028671318432316184,0.0002666972577571869,0.0018513576360419393,0,1,-1000,0,0,0,-1,2,2,1500.0
13:12:57.735,STABILIZE,-35.3632621,149.1652375,0,-0.0008767568506300449,0.0009545522625558078,0.02451305277645588,0.00028671318432316184,0.0002666972577571869,0.0018513576360419393,0,1,-1000,0,0,0,-1,2,2,1500.0
13:12:57.937,STABILIZE,-35.3632621,149.1652375,0,-0.0008767568506300449,0.0009545522625558078,0.02451305277645588,0.00028671318432316184,0.0002666972577571869,0.0018513576360419393,0,1,-1000,0,0,0,-1,2,2,1500.0
13:12:58.137,STABILIZE,-35.3632621,149.1652375,0,-0.0010289388010278344,0.0009570336551405489,0.024237822741270065,0.000343087303917855,0.00019084662199020386,0.0016980222426354885,0,1,-1000,0,0,0,-1,2,2,1500.0
13:12:58.338,STABILIZE,-35.3632621,149.1652375,0,-0.0010289388010278344,0.0009570336551405489,0.024237822741270065,0.000343087303917855,0.00019084662199020386,0.0016980222426354885,0,1,-1000,0,0,0,-1,2,2,1500.0
13:12:58.540,STABILIZE,-35.3632621,149.1652375,0,-0.0010289388010278344,0.0009570336551405489,0.024237822741270065,0.000343087303917855,0.00019084662199020386,0.0016980222426354885,0,1,-1000,0,0,0,-1,2,2,1500.0
13:12:58.740,STABILIZE,-35.3632621,149.1652375,0,-0.0010289388010278344,0.0009570336551405489,0.024237822741270065,0.000343087303917855,0.00019084662199020386,0.0016980222426354885,0,1,-1000,0,0,0,-1,2,2,1500.0
13:12:58.942,STABILIZE,-35.3632621,149.1652375,0,-0.0010289388010278344,0.0009570336551405489,0.024237822741270065,0.000343087303917855,0.00019084662199020386,0.0016980222426354885,0,1,-1000,0,0,0,-1,2,2,1500.0
13:12:59.143,STABILIZE,-35.3632621,149.1652375,0,-0.0011364934034645557,0.0009746613213792443,0.024006089195609093,0.00033928186167031527,0.00023089128080755472,0.0017878077924251556,0,2,-1000,0,0,1,-1,1,1,1500.0
13:12:59.344,STABILIZE,-35.3632621,149.1652375,0,-0.0011364934034645557,0.0009746613213792443,0.024006089195609093,0.00033928186167031527,0.00023089128080755472,0.0017878077924251556,0,2,-1000,0,0,1,-1,1,1,1500.0
13:12:59.545,STABILIZE,-35.3632621,149.1652375,0,-0.0011846506968140602,0.0009834554512053728,0.023833146318793297,0.0004006443778052926,0.0003084719064645469,0.0016276392852887511,0,2,-1000,0,0,1,-1,1,1,1500.0
13:12:59.746,STABILIZE,-35.3632622,149.1652375,0,-0.0011846506968140602,0.0009834554512053728,0.023833146318793297,0.0004006443778052926,0.0003084719064645469,0.0016276392852887511,0,2,-1000,0,0,0,-1,1,1,1500.0
13:12:59.947,STABILIZE,-35.3632622,149.1652375,0,-0.0011846506968140602,0.0009834554512053728,0.023833146318793297,0.0004006443778052926,0.0003084719064645469,0.0016276392852887511,0,-13,-1023,0,0,0,-1,0,0,1500.0
13:13:00.148,STABILIZE,-35.3632622,149.1652375,0,-0.0012085906928405166,0.0009861355647444725,0.023633431643247604,0.00027495541144162416,0.0003130718832835555,0.0017027221620082855,0,-13,-1023,0,0,0,-1,0,0,1500.0
13:13:00.349,STABILIZE,-35.3632622,149.1652375,0,-0.0012085906928405166,0.0009861355647444725,0.023633431643247604,0.00027495541144162416,0.0003130718832835555,0.0017027221620082855,0,-13,-1023,0,0,0,-1,0,0,1500.0
13:13:00.550,STABILIZE,-35.3632622,149.1652375,0,-0.0012085906928405166,0.0009861355647444725,0.023633431643247604,0.00027495541144162416,0.0003130718832835555,0.0017027221620082855,0,-13,-1023,0,0,0,-1,0,0,1500.0
13:13:00.751,STABILIZE,-35.3632622,149.1652375,0,-0.0012085906928405166,0.0009861355647444725,0.023633431643247604,0.00027495541144162416,0.0003130718832835555,0.0017027221620082855,0,-13,-1023,0,0,0,-1,0,0,1500.0
13:13:00.952,STABILIZE,-35.3632622,149.1652375,0,-0.0011185267940163612,0.0009887709747999907,0.023447809740900993,0.0003743619890883565,0.00022863654885441065,0.0017096179071813822,0,-13,-1023,0,0,0,-1,0,0,1500.0
13:13:01.153,STABILIZE,-35.3632622,149.1652375,0,-0.0010850428370758891,0.000986762228421867,0.023360826075077057,0.0003154264995828271,0.00033338560024276376,0.0015667245024815202,0,-13,-1023,0,0,0,-1,0,0,1500.0
13:13:01.354,STABILIZE,-35.3632622,149.1652375,0,-0.0010850428370758891,0.000986762228421867,0.023360826075077057,0.0003154264995828271,0.00033338560024276376,0.0015667245024815202,0,-13,-1023,0,0,0,-1,0,0,1500.0
13:13:01.555,STABILIZE,-35.3632622,149.1652375,0,-0.0010850428370758891,0.000986762228421867,0.023360826075077057,0.0003154264995828271,0.00033338560024276376,0.0015667245024815202,0,1,-1000,0,0,0,-1,0,0,1500.0
13:13:01.756,STABILIZE,-35.3632622,149.1652375,0,-0.0010850428370758891,0.000986762228421867,0.023360826075077057,0.0003154264995828271,0.00033338560024276376,0.0015667245024815202,0,2,-1000,1,0,1,-1,0,0,1500.0
13:13:01.957,STABILIZE,-35.3632622,149.1652375,0,-0.0009966102661564946,0.0009864686289802194,0.02317483350634575,0.0003049497026950121,0.00034677638905122876,0.001583780744113028,0,2,-1000,1,0,1,-1,0,0,1500.0
13:13:02.157,STABILIZE,-35.3632622,149.1652375,0,-0.0009966102661564946,0.0009864686289802194,0.02317483350634575,0.0003049497026950121,0.00034677638905122876,0.001583780744113028,0,2,-1000,0,0,0,-1,0,0,1500.0
13:13:02.358,STABILIZE,-35.3632622,149.1652375,0,-0.0009966102661564946,0.0009864686289802194,0.02317483350634575,0.0003049497026950121,0.00034677638905122876,0.001583780744113028,0,2,-1000,0,0,0,-1,0,0,1500.0
13:13:02.559,STABILIZE,-35.3632622,149.1652375,0,-0.0009966102661564946,0.0009864686289802194,0.02317483350634575,0.0003049497026950121,0.00034677638905122876,0.001583780744113028,0,2,-1000,0,0,0,-1,0,0,1500.0
13:13:02.761,STABILIZE,-35.3632622,149.1652375,0,-0.0009966102661564946,0.0009864686289802194,0.02317483350634575,0.0003049497026950121,0.00034677638905122876,0.001583780744113028,0,2,-1000,0,0,0,-1,0,0,1500.0
13:13:02.962,STABILIZE,-35.3632622,149.1652375,7,-0.0009966102661564946,0.0009864686289802194,0.02317483350634575,0.0003049497026950121,0.00034677638905122876,0.001583780744113028,0,2,-1000,1,1,0,-1,1,0,1500.0
13:13:03.163,STABILIZE,-35.3632622,149.1652375,7,-0.0009088104125112295,0.0009701063972897828,0.022848086431622505,0.0002487025340087712,0.00024254154413938522,0.0015945660416036844,0,2,-1000,1,1,0,-1,1,0,1500.0
13:13:03.364,STABILIZE,-35.3632622,149.1652375,8,-0.0007334013935178518,0.0009668287821114063,0.022792520001530647,4.240288399159908e-05,0.00027337513165548444,0.0017082631820812821,0,16,-978,0,0,1,-1,2,0,1500.0
13:13:03.565,STABILIZE,-35.3632622,149.1652375,8,-0.0007334013935178518,0.0009668287821114063,0.022792520001530647,4.240288399159908e-05,0.00027337513165548444,0.0017082631820812821,0,16,-978,0,0,1,-1,2,0,1500.0
13:13:03.766,STABILIZE,-35.3632622,149.1652375,8,-0.0007148439181037247,0.0009697682689875364,0.022705044597387314,0.00028837245190516114,0.0002842195681296289,0.0014811675064265728,0,16,-978,0,0,1,-1,2,0,1500.0
13:13:03.967,STABILIZE,-35.3632622,149.1652375,8,-0.0007148439181037247,0.0009697682689875364,0.022705044597387314,0.00028837245190516114,0.0002842195681296289,0.0014811675064265728,0,1,-1000,0,0,0,-1,2,0,1500.0
13:13:04.168,STABILIZE,-35.3632622,149.1652375,2,-0.0007148439181037247,0.0009697682689875364,0.022705044597387314,0.00028837245190516114,0.0002842195681296289,0.0014811675064265728,0,1,-1000,1,1,1,-1,2,0,1500.0
13:13:04.369,STABILIZE,-35.3632622,149.1652375,2,-0.0007148439181037247,0.0009697682689875364,0.022705044597387314,0.00028837245190516114,0.0002842195681296289,0.0014811675064265728,0,1,-1000,1,1,1,-1,2,0,1500.0
13:13:04.570,STABILIZE,-35.3632622,149.1652375,2,-0.0007148439181037247,0.0009697682689875364,0.022705044597387314,0.00028837245190516114,0.0002842195681296289,0.0014811675064265728,0,1,-1000,1,1,1,-1,2,0,1500.0
13:13:04.772,STABILIZE,-35.3632622,149.1652375,2,-0.0007148439181037247,0.0009697682689875364,0.022705044597387314,0.00028837245190516114,0.0002842195681296289,0.0014811675064265728,0,1,-1000,1,1,1,-1,2,0,1500.0
13:13:04.974,STABILIZE,-35.3632622,149.1652375,2,-0.0008404257823713124,0.0009523645276203752,0.022364728152751923,0.00030955381225794554,0.0002986904582940042,0.00147648761048913,0,1,-1000,0,0,0,-1,1,0,1500.0
13:13:05.175,STABILIZE,-35.3632622,149.1652375,2,-0.0008404257823713124,0.0009523645276203752,0.022364728152751923,0.00030955381225794554,0.0002986904582940042,0.00147648761048913,0,1,-1000,0,0,0,-1,1,0,1500.0
13:13:05.376,STABILIZE,-35.3632622,149.1652375,2,-0.0008806617115624249,0.0009532862459309399,0.022229578346014023,0.0003949347883462906,0.0002917140955105424,0.001385209965519607,0,1,-1000,0,0,0,-1,1,0,1500.0
13:13:05.578,STABILIZE,-35.3632622,149.1652375,2,-0.0008806617115624249,0.0009532862459309399,0.022229578346014023,0.0003949347883462906,0.0002917140955105424,0.001385209965519607,0,1,-1000,0,0,0,-1,1,0,1500.0
13:13:05.779,STABILIZE,-35.3632622,149.1652375,2,-0.0008806617115624249,0.0009532862459309399,0.022229578346014023,0.0003949347883462906,0.0002917140955105424,0.001385209965519607,0,1,-1000,0,0,0,-1,1,0,1500.0
13:13:05.980,STABILIZE,-35.3632622,149.1652375,2,-0.0008806617115624249,0.0009532862459309399,0.022229578346014023,0.0003949347883462906,0.0002917140955105424,0.001385209965519607,0,1,-1000,0,0,0,-1,1,0,1500.0
13:13:06.181,STABILIZE,-35.3632622,149.1652375,2,-0.0008806617115624249,0.0009532862459309399,0.022229578346014023,0.0003949347883462906,0.0002917140955105424,0.001385209965519607,0,1,-1000,0,0,0,-1,1,0,1500.0
13:13:06.382,STABILIZE,-35.3632622,149.1652375,2,-0.0008806617115624249,0.0009532862459309399,0.022229578346014023,0.0003949347883462906,0.0002917140955105424,0.001385209965519607,0,1,-1000,0,0,0,-1,1,0,1500.0
13:13:06.584,STABILIZE,-35.3632622,149.1652375,2,-0.0008806617115624249,0.0009532862459309399,0.022229578346014023,0.0003949347883462906,0.0002917140955105424,0.001385209965519607,0,1,-1000,0,0,0,-1,1,0,1500.0
13:13:06.785,STABILIZE,-35.3632622,149.1652375,2,-0.0008806617115624249,0.0009532862459309399,0.022229578346014023,0.0003949347883462906,0.0002917140955105424,0.001385209965519607,0,1,-1000,0,0,0,-1,1,0,1500.0
13:13:06.986,STABILIZE,-35.3632622,149.1652375,2,-0.0008806617115624249,0.0009532862459309399,0.022229578346014023,0.0003949347883462906,0.0002917140955105424,0.001385209965519607,0,1,-1000,0,0,0,-1,1,0,1500.0
13:13:07.186,STABILIZE,-35.3632622,149.1652375,2,-0.0008806617115624249,0.0009532862459309399,0.022229578346014023,0.0003949347883462906,0.0002917140955105424,0.001385209965519607,0,1,-1000,0,0,0,-1,1,0,1500.0
13:13:07.387,STABILIZE,-35.3632622,149.1652375,2,-0.0008806617115624249,0.0009532862459309399,0.022229578346014023,0.0003949347883462906,0.0002917140955105424,0.001385209965519607,0,1,-1000,0,0,0,-1,1,0,1500.0
13:13:07.588,STABILIZE,-35.3632622,149.1652375,2,-0.0008806617115624249,0.0009532862459309399,0.022229578346014023,0.0003949347883462906,0.0002917140955105424,0.001385209965519607,0,1,-1000,0,0,0,-1,1,0,1500.0
13:13:07.789,STABILIZE,-35.3632622,149.1652375,2,-0.0008806617115624249,0.0009532862459309399,0.022229578346014023,0.0003949347883462906,0.0002917140955105424,0.001385209965519607,0,1,-1000,0,0,0,-1,1,0,1500.0
13:13:07.991,STABILIZE,-35.3632622,149.1652375,2,-0.0008806617115624249,0.0009532862459309399,0.022229578346014023,0.0003949347883462906,0.0002917140955105424,0.001385209965519607,0,1,-1000,0,0,0,-1,1,0,1500.0
13:13:08.192,STABILIZE,-35.3632622,149.1652375,2,-0.0008806617115624249,0.0009532862459309399,0.022229578346014023,0.0003949347883462906,0.0002917140955105424,0.001385209965519607,0,1,-1000,0,0,0,-1,1,0,1500.0
13:13:08.393,STABILIZE,-35.3632622,149.1652375,2,-0.0008806617115624249,0.0009532862459309399,0.022229578346014023,0.0003949347883462906,0.0002917140955105424,0.001385209965519607,0,1,-1000,0,0,0,-1,1,0,1500.0
13:13:08.594,STABILIZE,-35.3632622,149.1652375,2,-0.0008806617115624249,0.0009532862459309399,0.022229578346014023,0.0003949347883462906,0.0002917140955105424,0.001385209965519607,0,1,-1000,0,0,0,-1,1,0,1500.0
13:13:08.795,STABILIZE,-35.3632622,149.1652375,2,-0.0008806617115624249,0.0009532862459309399,0.022229578346014023,0.0003949347883462906,0.0002917140955105424,0.001385209965519607,0,1,-1000,0,0,0,-1,1,0,1500.0
13:13:08.997,STABILIZE,-35.3632622,149.1652375,2,-0.0008806617115624249,0.0009532862459309399,0.022229578346014023,0.0003949347883462906,0.0002917140955105424,0.001385209965519607,0,1,-1000,0,0,0,-1,1,0,1500.0
13:13:09.198,STABILIZE,-35.3632622,149.1652375,2,-0.0008806617115624249,0.0009532862459309399,0.022229578346014023,0.0003949347883462906,0.0002917140955105424,0.001385209965519607,0,1,-1000,0,0,0,-1,1,0,1500.0
13:13:09.400,STABILIZE,-35.3632622,149.1652375,2,-0.0008806617115624249,0.0009532862459309399,0.022229578346014023,0.0003949347883462906,0.0002917140955105424,0.001385209965519607,0,1,-1000,0,0,0,-1,1,0,1500.0
13:13:09.601,STABILIZE,-35.3632622,149.1652375,2,-0.0008806617115624249,0.0009532862459309399,0.022229578346014023,0.0003949347883462906,0.0002917140955105424,0.001385209965519607,0,1,-1000,0,0,0,-1,1,0,1500.0
13:13:09.802,STABILIZE,-35.3632622,149.1652375,2,-0.0008806617115624249,0.0009532862459309399,0.022229578346014023,0.0003949347883462906,0.0002917140955105424,0.001385209965519607,0,1,-1000,0,0,0,-1,1,0,1500.0
13:13:10.003,STABILIZE,-35.3632622,149.1652375,2,-0.0008806617115624249,0.0009532862459309399,0.022229578346014023,0.0003949347883462906,0.0002917140955105424,0.001385209965519607,0,1,-1000,0,0,0,-1,1,0,1500.0
13:13:10.204,STABILIZE,-35.3632622,149.1652375,2,-0.0008806617115624249,0.0009532862459309399,0.022229578346014023,0.0003949347883462906,0.0002917140955105424,0.001385209965519607,0,1,-1000,0,0,0,-1,1,0,1500.0
13:13:10.405,AUTO,-35.3632621,149.1652375,2,-0.0009344586287625134,0.0009697203640826046,0.022064335644245148,0.00019914511358365417,0.00031154253520071507,0.001474935794249177,0,1,-1000,1,0,0,-1,1,0,1500.0
13:13:10.607,AUTO,-35.3632621,149.1652375,2,-0.0009344586287625134,0.0009697203640826046,0.022064335644245148,0.00019914511358365417,0.00031154253520071507,0.001474935794249177,0,1,-1000,1,0,0,-1,1,0,1500.0
13:13:10.808,AUTO,-35.3632621,149.1652375,2,-0.0009344586287625134,0.0009697203640826046,0.022064335644245148,0.00019914511358365417,0.00031154253520071507,0.001474935794249177,0,1,-1000,1,0,0,-1,1,0,1500.0
13:13:11.009,AUTO,-35.363262,149.1652375,1393,0.02207578904926777,-0.0008936690865084529,0.02086903341114521,0.04705511033535004,-0.0070923916064202785,0.0021064127795398235,0,0,-1018,47,-6,1,1,5,-145,1500.0
13:13:11.210,AUTO,-35.363262,149.1652377,1772,0.03349849954247475,-0.0028118097689002752,0.02098001167178154,0.04517950862646103,-0.008085316978394985,0.002766316756606102,0,-1,-1007,45,-7,2,1,11,-148,1500.0
13:13:11.411,AUTO,-35.3632619,149.1652381,2156,0.04443095624446869,-0.005015877075493336,0.021218614652752876,0.04230843484401703,-0.009349575266242027,0.0032698295544832945,0,-3,-1002,43,-8,2,3,19,-149,1500.0
13:13:11.613,AUTO,-35.3632618,149.1652388,2549,0.05481382831931114,-0.007689343765377998,0.02150799334049225,0.03957045078277588,-0.010856525041162968,0.003871273249387741,0,-3,-1002,43,-8,2,5,30,-149,1500.0
13:13:11.814,AUTO,-35.3632618,149.1652388,2549,0.05481382831931114,-0.007689343765377998,0.02150799334049225,0.03957045078277588,-0.010856525041162968,0.003871273249387741,1,-4,-1000,40,-10,3,5,30,-149,1500.0
13:13:12.015,AUTO,-35.3632616,149.1652397,2934,0.06202315166592598,-0.009176998399198055,-0.00801612064242363,-0.01160831842571497,0.019587932154536247,-0.046733614057302475,0,-8,-992,-10,20,-46,8,43,-148,1500.0
13:13:12.217,AUTO,-35.3632614,149.165241,3315,0.04167529195547104,0.012643697671592236,-0.030481234192848206,-0.1376495510339737,0.10056186467409134,-0.10465237498283386,3,-11,-991,-137,101,-104,10,53,-146,1500.0
13:13:12.418,AUTO,-35.3632614,149.165241,3315,0.04167529195547104,0.012643697671592236,-0.030481234192848206,-0.1376495510339737,0.10056186467409134,-0.10465237498283386,3,-11,-991,-137,101,-104,10,53,-146,1500.0
13:13:12.619,AUTO,-35.3632614,149.165241,3315,0.04167529195547104,0.012643697671592236,-0.030481234192848206,-0.1376495510339737,0.10056186467409134,-0.10465237498283386,3,-11,-991,-137,101,-104,10,53,-146,1500.0
13:13:12.820,AUTO,-35.3632614,149.165241,3315,0.04167529195547104,0.012643697671592236,-0.030481234192848206,-0.1376495510339737,0.10056186467409134,-0.10465237498283386,3,-11,-991,-137,101,-104,10,53,-146,1500.0
13:13:13.021,AUTO,-35.3632609,149.1652449,4443,-0.034073833376169205,0.018713070079684258,-0.07915779203176498,-0.02032552659511566,-0.012253744527697563,-0.051735103130340576,5,-8,-1006,-19,-11,-52,0,36,-149,1500.0
13:13:13.222,AUTO,-35.363261,149.1652458,4828,-0.043063580989837646,0.012730821967124939,-0.0871899202466011,-0.05110388249158859,-0.031538136303424835,-0.02447545900940895,3,-6,-1000,-50,-31,-24,-3,25,-150,1500.0
13:13:13.423,AUTO,-35.363261,149.1652463,5213,-0.05985631048679352,0.0019989623688161373,-0.08817893266677856,-0.07684598118066788,-0.04753435030579567,0.003622617805376649,3,-2,-999,-75,-46,3,-5,11,-149,1500.0
13:13:13.624,AUTO,-35.3632611,149.1652463,5598,-0.07567350566387177,-0.009139975532889366,-0.08519946783781052,-0.014655175618827343,-0.027045466005802155,-0.0009576122974976897,1,0,-1005,-13,-26,-1,-4,-6,-149,1500.0
13:13:13.825,AUTO,-35.3632611,149.1652463,5598,-0.07567350566387177,-0.009139975532889366,-0.08519946783781052,-0.014655175618827343,-0.027045466005802155,-0.0009576122974976897,1,0,-1005,-13,-26,-1,-4,-6,-149,1500.0
13:13:14.026,AUTO,-35.3632611,149.165246,5983,-0.06963029503822327,-0.011056968942284584,-0.08645837754011154,0.04502240568399429,-0.001442628214135766,-0.004207125399261713,-1,4,-1003,45,0,-4,-3,-25,-149,1500.0
13:13:14.227,AUTO,-35.3632612,149.1652451,6367,-0.05660385265946388,-0.01115994993597269,-0.08792521059513092,0.05630597844719887,0.0005605294136330485,-0.0010187146253883839,-3,4,-1001,57,1,-1,-1,-39,-149,1500.0
13:13:14.428,AUTO,-35.3632612,149.1652451,6367,-0.05660385265946388,-0.01115994993597269,-0.08792521059513092,0.05630597844719887,0.0005605294136330485,-0.0010187146253883839,-3,4,-1001,57,1,-1,-1,-39,-149,1500.0
13:13:14.629,AUTO,-35.3632612,149.1652451,6367,-0.05660385265946388,-0.01115994993597269,-0.08792521059513092,0.05630597844719887,0.0005605294136330485,-0.0010187146253883839,-3,4,-1001,57,1,-1,-1,-39,-149,1500.0
13:13:14.830,AUTO,-35.3632612,149.1652451,6367,-0.05660385265946388,-0.01115994993597269,-0.08792521059513092,0.05630597844719887,0.0005605294136330485,-0.0010187146253883839,-3,4,-1001,57,1,-1,-1,-39,-149,1500.0
13:13:15.031,AUTO,-35.3632613,149.1652407,7531,-0.009989398531615734,-0.004490301012992859,-0.08940979093313217,0.06472887098789215,0.013786276802420616,0.0030606163199990988,-7,9,-1003,65,14,2,-1,-59,-150,1500.0
13:13:15.232,AUTO,-35.3632613,149.1652391,7919,0.006465868093073368,-0.000788734876550734,-0.08881738781929016,0.06601986289024353,0.015113066881895065,0.003595365211367607,-8,15,-1004,66,15,3,-1,-57,-151,1500.0
13:13:15.434,AUTO,-35.3632614,149.1652375,8309,0.022653043270111084,0.002793877152726054,-0.0878487154841423,0.0652833953499794,0.013752100989222527,0.004311343189328909,-6,9,-1003,65,14,3,-2,-51,-152,1500.0
13:13:15.636,AUTO,-35.3632615,149.1652362,8702,0.038598477840423584,0.005898726172745228,-0.08672436326742172,0.06260181218385696,0.011024605482816696,0.0046082050539553165,-5,8,-1003,63,11,4,-4,-42,-153,1500.0
13:13:15.837,AUTO,-35.3632615,149.1652362,8702,0.038598477840423584,0.005898726172745228,-0.08672436326742172,0.06260181218385696,0.011024605482816696,0.0046082050539553165,-5,8,-1003,63,11,4,-4,-42,-153,1500.0
13:13:16.038,AUTO,-35.3632616,149.1652351,9095,0.054013222455978394,0.008054964244365692,-0.08548722416162491,0.06113694980740547,0.007077850867062807,0.004613830242305994,-4,9,-1002,61,7,4,-5,-29,-154,1500.0
13:13:16.239,AUTO,-35.3632617,149.1652344,9490,0.06724723428487778,0.009729750454425812,-0.08529876172542572,0.033723942935466766,0.013539708219468594,-0.0054454137571156025,-1,3,-998,34,14,-5,-6,-13,-153,1500.0
13:13:16.441,AUTO,-35.3632617,149.1652344,9490,0.06724723428487778,0.009729750454425812,-0.08529876172542572,0.033723942935466766,0.013539708219468594,-0.0054454137571156025,-1,3,-998,34,14,-5,-6,-13,-153,1500.0
13:13:16.642,AUTO,-35.3632617,149.1652344,9490,0.06724723428487778,0.009729750454425812,-0.08529876172542572,0.033723942935466766,0.013539708219468594,-0.0054454137571156025,-1,3,-998,34,14,-5,-6,-13,-153,1500.0
13:13:16.844,AUTO,-35.3632617,149.1652344,9490,0.06724723428487778,0.009729750454425812,-0.08529876172542572,0.033723942935466766,0.013539708219468594,-0.0054454137571156025,-1,3,-998,34,14,-5,-6,-13,-153,1500.0
13:13:17.045,AUTO,-35.3632622,149.1652347,10652,0.019471563398838043,0.0009144430514425039,-0.08356158435344696,-0.07580141723155975,-0.016526518389582634,0.0007791284006088972,3,-2,-1000,-75,-15,0,-6,19,-149,1500.0
13:13:17.246,AUTO,-35.3632623,149.1652352,11036,0.003371575614437461,-0.0023303688503801823,-0.08503161370754242,-0.050278592854738235,-0.011444207280874252,-0.006628875155001879,3,-3,-1003,-49,-10,-7,-5,20,-150,1500.0
13:13:17.447,AUTO,-35.3632624,149.1652357,11421,-0.007055371068418026,-0.004328105133026838,-0.08825081586837769,-0.03365384042263031,-0.005303107667714357,-0.014243264682590961,3,-3,-1003,-32,-4,-14,-3,18,-150,1500.0
13:13:17.648,AUTO,-35.3632625,149.1652361,11812,-0.012749669142067432,-0.005358617752790451,-0.09281184524297714,-0.016966216266155243,-0.002554710255935788,-0.01917041279375553,2,-2,-1002,-16,-1,-19,-1,14,-151,1500.0
13:13:17.849,AUTO,-35.3632625,149.1652361,11812,-0.012749669142067432,-0.005358617752790451,-0.09281184524297714,-0.016966216266155243,-0.002554710255935788,-0.01917041279375553,2,-2,-1002,-16,-1,-19,-1,14,-151,1500.0
13:13:18.050,AUTO,-35.3632625,149.1652364,12199,-0.014600377529859543,-0.005431089550256729,-0.09864483773708344,0.0008521212148480117,0.00196926505304873,-0.022741202265024185,1,-2,-1002,1,2,-22,0,9,-152,1500.0
13:13:18.251,AUTO,-35.3632625,149.1652365,12589,-0.01361173577606678,-0.004691493697464466,-0.10525569319725037,0.007506326772272587,0.0058054435066878796,-0.026706717908382416,0,-1,-1001,8,6,-26,2,4,-152,1500.0
13:13:18.452,AUTO,-35.3632625,149.1652365,12589,-0.01361173577606678,-0.004691493697464466,-0.10525569319725037,0.007506326772272587,0.0058054435066878796,-0.026706717908382416,0,-1,-1001,8,6,-26,2,4,-152,1500.0
13:13:18.654,AUTO,-35.3632625,149.1652365,12589,-0.01361173577606678,-0.004691493697464466,-0.10525569319725037,0.007506326772272587,0.0058054435066878796,-0.026706717908382416,0,-1,-1001,8,6,-26,2,4,-152,1500.0
13:13:18.856,AUTO,-35.3632625,149.1652365,12589,-0.01361173577606678,-0.004691493697464466,-0.10525569319725037,0.007506326772272587,0.0058054435066878796,-0.026706717908382416,0,-1,-1001,8,6,-26,2,4,-152,1500.0
13:13:19.057,AUTO,-35.3632623,149.1652365,13756,-0.0031107261311262846,-0.0008823636453598738,-0.12421126663684845,0.01472855731844902,0.007910879328846931,-0.022454913705587387,-1,0,-1000,15,8,-22,4,-4,-152,1500.0
13:13:19.259,AUTO,-35.3632622,149.1652363,14147,0.00053756358101964,0.0010600261157378554,-0.1301867663860321,0.014725824818015099,0.0071860370226204395,-0.021763043478131294,-1,0,-1000,15,7,-21,4,-5,-153,1500.0
13:13:19.460,AUTO,-35.363262,149.1652361,14538,0.003748296294361353,0.0027522898744791746,-0.1356668919324875,0.012983239255845547,0.005210970528423786,-0.017351850867271423,-2,0,-1000,13,5,-17,3,-5,-153,1500.0
13:13:19.661,AUTO,-35.3632619,149.1652359,14930,0.006356929428875446,0.004058348014950752,-0.1406491994857788,0.008493508212268353,0.005824132356792688,-0.017538469284772873,-2,0,-1000,9,6,-17,3,-4,-153,1500.0
13:13:19.862,AUTO,-35.3632619,149.1652359,14930,0.006356929428875446,0.004058348014950752,-0.1406491994857788,0.008493508212268353,0.005824132356792688,-0.017538469284772873,-2,0,-1000,9,6,-17,3,-4,-153,1500.0
13:13:20.063,AUTO,-35.3632619,149.1652358,15320,0.007801678963005543,0.005087132565677166,-0.14509636163711548,0.005590945482254028,0.0037796508986502886,-0.015202139504253864,-1,0,-1000,6,4,-15,2,-3,-153,1500.0
13:13:20.265,AUTO,-35.3632618,149.1652356,15710,0.00861116498708725,0.006030411925166845,-0.14941507577896118,0.0036531290970742702,0.002699483186006546,-0.016139956191182137,-1,0,-1000,4,3,-16,1,-2,-153,1500.0
13:13:20.468,AUTO,-35.3632618,149.1652356,15710,0.00861116498708725,0.006030411925166845,-0.14941507577896118,0.0036531290970742702,0.002699483186006546,-0.016139956191182137,-1,0,-1000,4,3,-16,1,-2,-153,1500.0
13:13:20.670,AUTO,-35.3632618,149.1652356,15710,0.00861116498708725,0.006030411925166845,-0.14941507577896118,0.0036531290970742702,0.002699483186006546,-0.016139956191182137,-1,0,-1000,4,3,-16,1,-2,-153,1500.0
13:13:20.871,AUTO,-35.3632618,149.1652356,15710,0.00861116498708725,0.006030411925166845,-0.14941507577896118,0.0036531290970742702,0.002699483186006546,-0.016139956191182137,-1,0,-1000,4,3,-16,1,-2,-153,1500.0
13:13:21.072,AUTO,-35.3632616,149.1652355,16882,0.008482472039759159,0.00636625848710537,-0.16026748716831207,-0.0025562148075550795,-0.0016706751193851233,-0.011129414662718773,0,0,-999,-1,0,-11,-1,2,-153,1500.0
13:13:21.273,AUTO,-35.3632616,149.1652355,17272,0.0076267230324447155,0.006260388996452093,-0.1638624221086502,-0.0032384940423071384,-0.0009448018972761929,-0.014354787766933441,0,0,-1000,-2,0,-14,-1,3,-153,1500.0
13:13:21.474,AUTO,-35.3632616,149.1652355,17662,0.006720071192830801,0.0058382609859108925,-0.16729071736335754,-0.0013230592012405396,-0.0015308014117181301,-0.013615617528557777,0,0,-1000,0,0,-13,-2,4,-153,1500.0
13:13:21.675,AUTO,-35.3632616,149.1652356,18053,0.005785637069493532,0.005255796946585178,-0.17074432969093323,-0.005186513997614384,-0.0009881985606625676,-0.014338204637169838,0,0,-999,-4,0,-14,-2,5,-153,1500.0
13:13:21.876,AUTO,-35.3632616,149.1652357,18443,0.004769814666360617,0.0047564152628183365,-0.1743486523628235,-0.003241191618144512,-0.001350044971331954,-0.015199694782495499,0,0,-1000,-2,0,-15,-2,5,-153,1500.0
13:13:22.077,AUTO,-35.3632616,149.1652357,18443,0.004769814666360617,0.0047564152628183365,-0.1743486523628235,-0.003241191618144512,-0.001350044971331954,-0.015199694782495499,0,0,-1000,-2,0,-15,-2,5,-153,1500.0
13:13:22.279,AUTO,-35.3632616,149.1652357,18833,0.004296726547181606,0.00441821850836277,-0.1782628297805786,-0.0003394640807528049,-0.002332105301320553,-0.01769484207034111,0,0,-1000,0,-1,-17,-3,6,-153,1500.0
13:13:22.480,AUTO,-35.3632616,149.1652357,18833,0.004296726547181606,0.00441821850836277,-0.1782628297805786,-0.0003394640807528049,-0.002332105301320553,-0.01769484207034111,0,0,-1000,0,-1,-17,-3,6,-153,1500.0
13:13:22.681,AUTO,-35.3632616,149.1652357,18833,0.004296726547181606,0.00441821850836277,-0.1782628297805786,-0.0003394640807528049,-0.002332105301320553,-0.01769484207034111,0,0,-1000,0,-1,-17,-3,6,-153,1500.0
13:13:22.882,AUTO,-35.3632616,149.1652357,18833,0.004296726547181606,0.00441821850836277,-0.1782628297805786,-0.0003394640807528049,-0.002332105301320553,-0.01769484207034111,0,0,-1000,0,-1,-17,-3,6,-153,1500.0
13:13:23.083,AUTO,-35.3632617,149.165236,20003,0.0026852022856473923,0.003677123924717307,-0.1912613809108734,-0.001270436798222363,-0.00031841470627114177,-0.018650222569704056,0,0,-1000,0,0,-18,-3,5,-153,1500.0
13:13:23.284,AUTO,-35.3632617,149.1652361,20393,0.0022650619503110647,0.0034904247149825096,-0.1959550380706787,-0.0005410084850154817,0.001032515661790967,-0.022511325776576996,0,0,-1000,0,1,-22,-3,5,-153,1500.0
13:13:23.485,AUTO,-35.3632617,149.1652362,20783,0.0020289274398237467,0.0034365979954600334,-0.20077954232692719,-0.0012576599838212132,0.000951257417909801,-0.020160386338829994,0,0,-1000,0,1,-20,-3,5,-153,1500.0
13:13:23.686,AUTO,-35.3632617,149.1652363,21178,0.0018872898072004318,0.003528656205162406,-0.20591668784618378,0.001042358810082078,0.001147072296589613,-0.020442113280296326,0,0,-1000,1,1,-20,-3,4,-153,1500.0
13:13:23.887,AUTO,-35.3632617,149.1652363,21568,0.0018391173798590899,0.003496956080198288,-0.21091894805431366,-0.0015499189030379057,-0.00019633537158370018,-0.02000175416469574,0,0,-999,0,0,-20,-3,4,-153,1500.0
13:13:24.088,AUTO,-35.3632617,149.1652363,21568,0.0018391173798590899,0.003496956080198288,-0.21091894805431366,-0.0015499189030379057,-0.00019633537158370018,-0.02000175416469574,0,0,-999,0,0,-20,-3,4,-153,1500.0
13:13:24.289,AUTO,-35.3632617,149.1652364,21958,0.0020804645027965307,0.003332045627757907,-0.2158273309469223,0.0023436686024069786,-6.766739534214139e-05,-0.020166894420981407,0,0,-1000,3,0,-20,-3,4,-153,1500.0
13:13:24.490,AUTO,-35.3632617,149.1652364,21958,0.0020804645027965307,0.003332045627757907,-0.2158273309469223,0.0023436686024069786,-6.766739534214139e-05,-0.020166894420981407,0,0,-1000,3,0,-20,-3,4,-153,1500.0
13:13:24.692,AUTO,-35.3632617,149.1652364,21958,0.0020804645027965307,0.003332045627757907,-0.2158273309469223,0.0023436686024069786,-6.766739534214139e-05,-0.020166894420981407,0,0,-1000,3,0,-20,-3,4,-153,1500.0
13:13:24.893,AUTO,-35.3632617,149.1652364,21958,0.0020804645027965307,0.003332045627757907,-0.2158273309469223,0.0023436686024069786,-6.766739534214139e-05,-0.020166894420981407,0,0,-1000,3,0,-20,-3,4,-153,1500.0
13:13:25.094,AUTO,-35.3632618,149.1652366,23127,0.0020986306481063366,0.0029162573628127575,-0.2304450273513794,0.0007061806973069906,0.0005421370733529329,-0.018293136730790138,0,0,-1000,1,1,-18,-2,3,-153,1500.0
13:13:25.296,AUTO,-35.3632618,149.1652366,23517,0.0018126167124137282,0.0028116549365222454,-0.23532138764858246,0.00015478424029424787,0.0002856025821529329,-0.020910926163196564,0,0,-1000,0,1,-21,-2,3,-153,1500.0
13:13:25.497,AUTO,-35.3632618,149.1652366,23906,0.0016878313617780805,0.0029777989257127047,-0.24047066271305084,-0.0015259081264957786,0.0012554987333714962,-0.021772261708974838,0,0,-1000,0,2,-21,-2,3,-153,1500.0
13:13:25.699,AUTO,-35.3632618,149.1652367,24297,0.0019225683063268661,0.002854091115295887,-0.24535301327705383,0.006000317167490721,-4.3264590203762054e-05,-0.019542090594768524,0,0,-1001,6,0,-19,-2,3,-153,1500.0
13:13:25.900,AUTO,-35.3632618,149.1652367,24687,0.0022920190822333097,0.002615434117615223,-0.2501264810562134,0.00033454003278166056,1.4083110727369785e-05,-0.018960367888212204,0,0,-1000,1,0,-18,-2,3,-153,1500.0
13:13:26.101,AUTO,-35.3632618,149.1652367,24687,0.0022920190822333097,0.002615434117615223,-0.2501264810562134,0.00033454003278166056,1.4083110727369785e-05,-0.018960367888212204,0,0,-1000,1,0,-18,-2,3,-153,1500.0
13:13:26.302,AUTO,-35.3632618,149.1652367,25078,0.0023847713600844145,0.002491188235580921,-0.25486165285110474,-0.0011227253125980496,-0.00020448339637368917,-0.0189388245344162,0,0,-1000,0,0,-19,-2,2,-153,1500.0
13:13:26.503,AUTO,-35.3632618,149.1652367,25078,0.0023847713600844145,0.002491188235580921,-0.25486165285110474,-0.0011227253125980496,-0.00020448339637368917,-0.0189388245344162,0,0,-1000,0,0,-19,-2,2,-153,1500.0
13:13:26.704,AUTO,-35.3632618,149.1652367,25078,0.0023847713600844145,0.002491188235580921,-0.25486165285110474,-0.0011227253125980496,-0.00020448339637368917,-0.0189388245344162,0,0,-1000,0,0,-19,-2,2,-153,1500.0
13:13:26.905,AUTO,-35.3632618,149.1652367,25078,0.0023847713600844145,0.002491188235580921,-0.25486165285110474,-0.0011227253125980496,-0.00020448339637368917,-0.0189388245344162,0,0,-1000,0,0,-19,-2,2,-153,1500.0
13:13:27.106,AUTO,-35.363262,149.1652366,26244,0.002145698992535472,0.004416095558553934,-0.24972334504127502,0.03408084809780121,-0.00305409193970263,0.02089519239962101,0,1,-1001,34,-2,20,-5,-2,-153,1500.0
13:13:27.307,AUTO,-35.3632621,149.1652365,26635,0.008213632740080357,0.0034819054417312145,-0.24374958872795105,0.017668461427092552,-0.0030459528788924217,0.02639089524745941,0,0,-999,18,-2,26,-5,-1,-153,1500.0
13:13:27.508,AUTO,-35.3632622,149.1652365,27025,0.011281797662377357,0.002628218149766326,-0.23689590394496918,0.007886397652328014,-0.0016780197620391846,0.028567010536789894,0,0,-999,8,0,28,-5,1,-153,1500.0
13:13:27.709,AUTO,-35.3632623,149.1652365,27414,0.012030687183141708,0.0018865662859752774,-0.23055578768253326,0.0018737951759248972,-0.0023231571540236473,0.026729051023721695,0,0,-999,2,-1,26,-4,3,-153,1500.0
13:13:27.910,AUTO,-35.3632623,149.1652365,27803,0.011004072614014149,0.0012114010751247406,-0.22444656491279602,-0.00846545398235321,-0.0023765326477587223,0.022896183654665947,0,0,-999,-7,-1,22,-3,5,-153,1500.0
13:13:28.111,AUTO,-35.3632623,149.1652365,27803,0.011004072614014149,0.0012114010751247406,-0.22444656491279602,-0.00846545398235321,-0.0023765326477587223,0.022896183654665947,0,0,-999,-7,-1,22,-3,5,-153,1500.0
13:13:28.312,AUTO,-35.3632624,149.1652366,28192,0.009298504330217838,0.0008932941709645092,-0.21856866776943207,-0.006229499354958534,-0.0007657979149371386,0.022807665169239044,0,0,-1000,-5,0,22,-2,7,-153,1500.0
13:13:28.513,AUTO,-35.3632624,149.1652366,28192,0.009298504330217838,0.0008932941709645092,-0.21856866776943207,-0.006229499354958534,-0.0007657979149371386,0.022807665169239044,0,0,-1000,-5,0,22,-2,7,-153,1500.0
13:13:28.715,AUTO,-35.3632624,149.1652366,28192,0.009298504330217838,0.0008932941709645092,-0.21856866776943207,-0.006229499354958534,-0.0007657979149371386,0.022807665169239044,0,0,-1000,-5,0,22,-2,7,-153,1500.0
13:13:28.916,AUTO,-35.3632624,149.1652372,29358,0.003291680244728923,0.0016859167953953147,-0.2026296854019165,-0.005890417844057083,0.0011885336134582758,0.019967010244727135,0,-1,-1001,-4,1,19,0,9,-153,1500.0
13:13:29.176,AUTO,-35.3632624,149.1652373,29746,0.0016542423982173204,0.0016939248889684677,-0.197592630982399,-0.008156591095030308,-0.0005330113926902413,0.02033493109047413,0,-1,-1000,-7,0,20,0,8,-153,1500.0
13:13:29.399,AUTO,-35.3632624,149.1652375,30138,0.0005396509077399969,0.001877596485428512,-0.19267085194587708,-0.001401226152665913,0.002222039271146059,0.02116641402244568,0,-1,-1000,0,3,21,0,7,-153,1500.0
13:13:29.600,AUTO,-35.3632624,149.1652375,30138,0.0005396509077399969,0.001877596485428512,-0.19267085194587708,-0.001401226152665913,0.002222039271146059,0.02116641402244568,0,-1,-1000,0,3,21,0,7,-153,1500.0
13:13:29.801,AUTO,-35.3632624,149.1652376,30527,-0.00019267949392087758,0.001986503368243575,-0.1882694810628891,-0.0010185632854700089,0.0005616230191662908,0.017423873767256737,0,-1,-1000,0,1,17,0,7,-153,1500.0
13:13:30.002,AUTO,-35.3632624,149.1652378,30917,-0.0006338629173114896,0.0017047312576323748,-0.1837710291147232,-0.0007831088732928038,-0.0022824080660939217,0.018955828621983528,0,0,-1000,0,-1,18,0,6,-153,1500.0
13:13:30.203,AUTO,-35.3632624,149.1652379,31305,-0.0007831215625628829,0.0014366257237270474,-0.17931678891181946,-0.00044926954433321953,0.0008675693534314632,0.016591385006904602,0,0,-1000,0,2,16,0,5,-153,1500.0
13:13:30.405,AUTO,-35.3632624,149.1652379,31305,-0.0007831215625628829,0.0014366257237270474,-0.17931678891181946,-0.00044926954433321953,0.0008675693534314632,0.016591385006904602,0,0,-1000,0,2,16,0,5,-153,1500.0
13:13:30.607,AUTO,-35.3632624,149.1652379,31305,-0.0007831215625628829,0.0014366257237270474,-0.17931678891181946,-0.00044926954433321953,0.0008675693534314632,0.016591385006904602,0,0,-1000,0,2,16,0,5,-153,1500.0
13:13:30.809,AUTO,-35.3632624,149.1652379,31305,-0.0007831215625628829,0.0014366257237270474,-0.17931678891181946,-0.00044926954433321953,0.0008675693534314632,0.016591385006904602,0,0,-1000,0,2,16,0,5,-153,1500.0
13:13:31.010,AUTO,-35.3632623,149.165238,32473,-0.00021660713537130505,0.0011804248206317425,-0.16737809777259827,0.0043140798807144165,-0.0008275152649730444,0.017043637111783028,0,0,-1000,5,0,16,0,2,-153,1500.0
13:13:31.211,AUTO,-35.3632623,149.165238,32862,4.373832052806392e-05,0.001038251561112702,-0.16369758546352386,0.00011790543794631958,-0.00034894380951300263,0.015059525147080421,0,0,-999,1,0,14,0,1,-153,1500.0
13:13:31.412,AUTO,-35.3632623,149.165238,33251,0.00041984219569712877,0.0010831148829311132,-0.15999050438404083,0.0010693669319152832,0.0018098545260727406,0.014850431121885777,0,0,-999,2,2,15,0,1,-153,1500.0
13:13:31.613,AUTO,-35.3632623,149.165238,33251,0.00041984219569712877,0.0010831148829311132,-0.15999050438404083,0.0010693669319152832,0.0018098545260727406,0.014850431121885777,0,0,-999,2,2,15,0,1,-153,1500.0
13:13:31.814,AUTO,-35.3632623,149.165238,33640,0.0008967723115347326,0.0010827727383002639,-0.1565205156803131,0.0042721242643892765,0.0017606139881536365,0.014371603727340698,0,0,-1000,5,2,14,0,0,-153,1500.0
13:13:32.015,AUTO,-35.3632623,149.165238,34029,0.001185943023301661,0.0010122155072167516,-0.15307466685771942,0.00035944744013249874,0.00015360815450549126,0.014907080680131912,0,0,-1000,1,1,14,0,0,-153,1500.0
13:13:32.216,AUTO,-35.3632623,149.165238,34419,0.001186781912110746,0.001054231310263276,-0.14969059824943542,-0.00034651393070816994,3.1793140806257725e-05,0.014713303185999393,0,0,-1000,0,1,14,0,0,-153,1500.0
13:13:32.419,AUTO,-35.3632623,149.165238,34419,0.001186781912110746,0.001054231310263276,-0.14969059824943542,-0.00034651393070816994,3.1793140806257725e-05,0.014713303185999393,0,0,-1000,0,1,14,0,0,-153,1500.0
13:13:32.621,AUTO,-35.3632623,149.165238,34419,0.001186781912110746,0.001054231310263276,-0.14969059824943542,-0.00034651393070816994,3.1793140806257725e-05,0.014713303185999393,0,0,-1000,0,1,14,0,0,-153,1500.0
13:13:32.822,AUTO,-35.3632623,149.165238,34419,0.001186781912110746,0.001054231310263276,-0.14969059824943542,-0.00034651393070816994,3.1793140806257725e-05,0.014713303185999393,0,0,-1000,0,1,14,0,0,-153,1500.0
13:13:33.023,AUTO,-35.3632622,149.1652379,35587,0.0015905690379440784,0.001447944319806993,-0.1407095342874527,0.0009618542389944196,0.0012855324894189835,0.01102930586785078,0,0,-1000,2,2,10,0,0,-153,1500.0
13:13:33.292,AUTO,-35.3632622,149.1652379,35975,0.0016871473053470254,0.0013724101008847356,-0.13810740411281586,0.0019843517802655697,-0.0012625287054106593,0.011264215223491192,0,0,-1000,2,0,11,0,0,-153,1500.0
13:13:33.506,AUTO,-35.3632622,149.1652378,36364,0.0018302849493920803,0.0011533916695043445,-0.1355726271867752,-0.001238672062754631,0.0007512182928621769,0.011376164853572845,0,0,-999,0,1,11,0,0,-153,1500.0
13:13:33.708,AUTO,-35.3632622,149.1652378,36754,0.0020973277278244495,0.0014022835530340672,-0.13291853666305542,0.0008297729073092341,0.0029905340634286404,0.012908171862363815,0,0,-999,1,3,13,0,0,-153,1500.0
13:13:33.909,AUTO,-35.3632622,149.1652377,37151,0.0022418012376874685,0.001582624390721321,-0.1304706186056137,-0.0026902356185019016,0.00017398747149854898,0.007840283215045929,0,0,-1000,-1,1,7,0,0,-153,1500.0
13:13:34.110,AUTO,-35.3632622,149.1652377,37151,0.0022418012376874685,0.001582624390721321,-0.1304706186056137,-0.0026902356185019016,0.00017398747149854898,0.007840283215045929,0,0,-1000,-1,1,7,0,0,-153,1500.0
13:13:34.311,AUTO,-35.3632622,149.1652377,37539,0.0025161001831293106,0.0016266352031379938,-0.12810294330120087,0.0036926495376974344,0.0021284823305904865,0.009869366884231567,0,0,-1000,4,3,10,0,0,-153,1500.0
13:13:34.512,AUTO,-35.3632622,149.1652377,37539,0.0025161001831293106,0.0016266352031379938,-0.12810294330120087,0.0036926495376974344,0.0021284823305904865,0.009869366884231567,0,0,-1000,4,3,10,0,0,-153,1500.0
13:13:34.714,AUTO,-35.3632622,149.1652377,37539,0.0025161001831293106,0.0016266352031379938,-0.12810294330120087,0.0036926495376974344,0.0021284823305904865,0.009869366884231567,0,0,-1000,4,3,10,0,0,-153,1500.0
13:13:34.915,AUTO,-35.3632622,149.1652377,37539,0.0025161001831293106,0.0016266352031379938,-0.12810294330120087,0.0036926495376974344,0.0021284823305904865,0.009869366884231567,0,0,-1000,4,3,10,0,0,-153,1500.0
13:13:35.116,AUTO,-35.3632621,149.1652376,38855,0.0022738634143024683,0.0015680755022913218,-0.1204376369714737,0.0010938161285594106,-0.0007271282374858856,0.007797355763614178,0,0,-1000,2,0,7,0,0,-153,1500.0
13:13:35.317,AUTO,-35.3632621,149.1652375,39243,0.0022016128059476614,0.0016305885510519147,-0.11835474520921707,-0.0014170665526762605,0.002864283509552479,0.009646587073802948,0,0,-999,0,4,9,0,0,-153,1500.0
13:13:35.519,AUTO,-35.3632621,149.1652375,39632,0.002257923362776637,0.0016109603457152843,-0.11638469249010086,0.0031538421753793955,-0.0003113379352726042,0.008365838788449764,0,0,-1001,4,0,8,0,0,-153,1500.0
13:13:35.720,AUTO,-35.3632621,149.1652375,40021,0.0020124376751482487,0.0014587377663701773,-0.11460172384977341,-0.002479598391801119,-0.001367153599858284,0.006485368590801954,0,0,-1001,4,0,8,0,0,-153,1500.0
13:13:35.921,AUTO,-35.3632621,149.1652375,40021,0.0020124376751482487,0.0014587377663701773,-0.11460172384977341,-0.002479598391801119,-0.001367153599858284,0.006485368590801954,0,0,-1000,-1,0,6,0,0,-153,1500.0
13:13:36.122,AUTO,-35.3632621,149.1652375,40410,0.0019966615363955498,0.001436317339539528,-0.11246094107627869,-0.0015309058362618089,0.0015052229864522815,0.008843701332807541,0,0,-999,0,2,8,0,0,-153,1500.0
13:13:36.323,AUTO,-35.3632621,149.1652375,40800,0.002200259594246745,0.0016147105488926172,-0.11080405116081238,0.0010482672369107604,0.0023682755418121815,0.009330973960459232,0,0,-1000,2,3,9,-1,0,-153,1500.0
13:13:36.524,AUTO,-35.3632621,149.1652375,40800,0.002200259594246745,0.0016147105488926172,-0.11080405116081238,0.0010482672369107604,0.0023682755418121815,0.009330973960459232,0,0,-1000,2,3,9,-1,0,-153,1500.0
13:13:36.725,AUTO,-35.3632621,149.1652375,40800,0.002200259594246745,0.0016147105488926172,-0.11080405116081238,0.0010482672369107604,0.0023682755418121815,0.009330973960459232,0,0,-1000,2,3,9,-1,0,-153,1500.0
13:13:36.927,AUTO,-35.3632621,149.1652375,40800,0.002200259594246745,0.0016147105488926172,-0.11080405116081238,0.0010482672369107604,0.0023682755418121815,0.009330973960459232,0,0,-1000,2,3,9,-1,0,-153,1500.0
13:13:37.128,AUTO,-35.363262,149.1652374,41971,0.00198864983394742,0.0016966401599347591,-0.10568707436323166,-0.003400997957214713,-0.0004912028089165688,0.006063202861696482,0,0,-999,-2,0,6,-1,1,-153,1500.0
13:13:37.371,AUTO,-35.363262,149.1652374,42360,0.0018266952829435468,0.0015773954801261425,-0.10408248007297516,0.001721594133414328,-0.0006693567847833037,0.006700582802295685,0,0,-1000,2,0,7,-1,1,-153,1500.0
13:13:37.605,AUTO,-35.363262,149.1652374,42749,0.0018143446650356054,0.001588632119819522,-0.10248392820358276,-0.001011957647278905,0.0011481900000944734,0.00833185389637947,0,0,-999,0,2,8,-1,1,-153,1500.0
13:13:37.806,AUTO,-35.363262,149.1652374,43138,0.0016798627329990268,0.0013675453374162316,-0.10072621703147888,-0.0002291792188771069,-0.0017144965240731835,0.004993745591491461,0,0,-1000,0,0,5,-1,1,-153,1500.0
13:13:38.008,AUTO,-35.363262,149.1652374,43527,0.002052472671493888,0.00131487927865237,-0.09905564785003662,0.002640234772115946,0.0005328545812517405,0.007623317651450634,0,0,-1000,3,1,7,-1,1,-153,1500.0
13:13:38.209,AUTO,-35.363262,149.1652374,43527,0.002052472671493888,0.00131487927865237,-0.09905564785003662,0.002640234772115946,0.0005328545812517405,0.007623317651450634,0,0,-1000,3,1,7,-1,1,-153,1500.0
13:13:38.410,AUTO,-35.363262,149.1652374,43915,0.0021346367429941893,0.001456821570172906,-0.09783952683210373,0.0015733848558738828,3.965746145695448e-05,0.004914902616292238,0,0,-1001,2,1,5,-1,1,-153,1500.0
13:13:38.611,AUTO,-35.363262,149.1652374,43915,0.0021346367429941893,0.001456821570172906,-0.09783952683210373,0.0015733848558738828,3.965746145695448e-05,0.004914902616292238,0,0,-1001,2,1,5,-1,1,-153,1500.0
13:13:38.812,AUTO,-35.363262,149.1652374,43915,0.0021346367429941893,0.001456821570172906,-0.09783952683210373,0.0015733848558738828,3.965746145695448e-05,0.004914902616292238,0,0,-1001,2,1,5,-1,1,-153,1500.0
13:13:39.013,AUTO,-35.363262,149.1652374,43915,0.0021346367429941893,0.001456821570172906,-0.09783952683210373,0.0015733848558738828,3.965746145695448e-05,0.004914902616292238,0,0,-1001,2,1,5,-1,1,-153,1500.0
13:13:39.214,AUTO,-35.363262,149.1652373,45083,0.0019210627069696784,0.0011396316112950444,-0.09341053664684296,-0.001978532178327441,-4.9952766858041286e-05,0.0038151186890900135,0,0,-1000,0,0,3,-1,1,-153,1500.0
13:13:39.415,AUTO,-35.363262,149.1652373,45473,0.001858474570326507,0.0010776324197649956,-0.0919080376625061,0.0017579555278643966,0.0001226953463628888,0.009873074479401112,0,0,-1000,2,0,10,-1,1,-153,1500.0
13:13:39.616,AUTO,-35.363262,149.1652373,45862,0.0019229681929573417,0.0010108930291607976,-0.09059754014015198,0.0015470420476049185,0.0005105427699163556,0.004866193979978561,0,0,-1000,2,1,5,-1,1,-153,1500.0
13:13:39.818,AUTO,-35.363262,149.1652373,46251,0.0019035760778933764,0.0010592740727588534,-0.08908583968877792,-0.0013893319992348552,0.0019898449536412954,0.006399353966116905,0,0,-999,0,3,6,-1,1,-153,1500.0
13:13:40.019,AUTO,-35.363262,149.1652373,46640,0.0017998268594965339,0.0010613987687975168,-0.08783680200576782,0.002499176189303398,0.0009091553511098027,0.006805316545069218,0,0,-1000,3,1,7,-1,1,-153,1500.0
13:13:40.220,AUTO,-35.363262,149.1652373,46640,0.0017998268594965339,0.0010613987687975168,-0.08783680200576782,0.002499176189303398,0.0009091553511098027,0.006805316545069218,0,0,-1000,3,1,7,-1,1,-153,1500.0
13:13:40.421,AUTO,-35.363262,149.1652373,47029,0.000674567767418921,0.0020990227349102497,-0.08419504761695862,-0.025075282901525497,0.02342732809484005,0.05622531846165657,0,0,-986,-23,24,56,-1,1,-152,1500.0
13:13:40.622,AUTO,-35.363262,149.1652373,47029,0.000674567767418921,0.0020990227349102497,-0.08419504761695862,-0.025075282901525497,0.02342732809484005,0.05622531846165657,0,0,-986,-23,24,56,-1,1,-152,1500.0
13:13:40.823,AUTO,-35.363262,149.1652373,47029,0.000674567767418921,0.0020990227349102497,-0.08419504761695862,-0.025075282901525497,0.02342732809484005,0.05622531846165657,0,0,-986,-23,24,56,-1,1,-152,1500.0
13:13:41.025,AUTO,-35.363262,149.1652373,47029,0.000674567767418921,0.0020990227349102497,-0.08419504761695862,-0.025075282901525497,0.02342732809484005,0.05622531846165657,0,0,-986,-23,24,56,-1,1,-152,1500.0
13:13:41.226,AUTO,-35.3632631,149.1652357,48406,-0.03466926887631416,0.017218558117747307,0.2646158039569855,0.10667344182729721,-0.21085931360721588,0.19313102960586548,3,5,-941,26,-139,370,-31,-36,-110,1500.0
13:13:41.427,AUTO,-35.3632631,149.1652357,48406,-0.03466926887631416,0.017218558117747307,0.2646158039569855,0.10667344182729721,-0.21085931360721588,0.19313102960586548,2,9,-943,107,-209,193,-31,-36,-110,1500.0
13:13:41.629,AUTO,-35.3632638,149.1652346,48676,-0.0059246039018034935,-0.026210730895400047,0.29763850569725037,0.11465390771627426,-0.13140986859798431,0.08518833667039871,4,11,-950,115,-130,85,-28,-38,-97,1500.0
13:13:41.830,AUTO,-35.3632643,149.1652337,48910,0.015906495973467827,-0.04837258160114288,0.30861803889274597,0.0636955127120018,-0.055697061121463776,0.022403867915272713,2,8,-957,64,-54,22,-19,-31,-86,1500.0
13:13:42.031,AUTO,-35.3632647,149.1652329,49116,0.03067617677152157,-0.05539058893918991,0.30837303400039673,0.05364604666829109,-0.008883794769644737,-0.009814739227294922,1,6,-963,54,-7,-9,-9,-20,-75,1500.0
13:13:42.233,AUTO,-35.3632648,149.1652324,49298,0.03893190622329712,-0.05304162576794624,0.30257195234298706,0.032873015850782394,0.020456945523619652,-0.027295203879475594,1,6,-963,54,-7,-9,0,-8,-66,1500.0
13:13:42.434,AUTO,-35.3632648,149.1652324,49298,0.03893190622329712,-0.05304162576794624,0.30257195234298706,0.032873015850782394,0.020456945523619652,-0.027295203879475594,0,3,-967,34,21,-27,0,-8,-66,1500.0
13:13:42.635,AUTO,-35.3632648,149.1652324,49298,0.03893190622329712,-0.05304162576794624,0.30257195234298706,0.032873015850782394,0.020456945523619652,-0.027295203879475594,0,3,-967,34,21,-27,0,-8,-66,1500.0
13:13:42.836,AUTO,-35.3632648,149.1652324,49298,0.03893190622329712,-0.05304162576794624,0.30257195234298706,0.032873015850782394,0.020456945523619652,-0.027295203879475594,0,3,-967,34,21,-27,0,-8,-66,1500.0
13:13:43.037,AUTO,-35.3632648,149.1652324,49298,0.03893190622329712,-0.05304162576794624,0.30257195234298706,0.032873015850782394,0.020456945523619652,-0.027295203879475594,0,3,-967,34,21,-27,0,-8,-66,1500.0
13:13:43.238,AUTO,-35.3632639,149.165233,49766,0.02678321674466133,-0.018614688888192177,0.2723471522331238,-0.33441978693008423,0.03840804100036621,-0.03376318886876106,-3,-15,-978,-333,39,-33,19,24,-44,1500.0
13:13:43.439,AUTO,-35.3632635,149.1652337,49869,0.025120249018073082,-0.009214135818183422,0.26329243183135986,0.3360953629016876,0.03184090927243233,-0.029658110812306404,-2,18,-972,339,33,-29,20,29,-38,1500.0
13:13:43.640,AUTO,-35.363263,149.1652345,49956,0.025028204545378685,2.520252382964827e-05,0.25450190901756287,0.42697906494140625,0.03205273300409317,-0.032083120197057724,-3,2,-986,427,32,-31,20,31,-32,1500.0
13:13:43.841,AUTO,-35.3632625,149.1652353,50029,0.010990683920681477,0.007207861635833979,0.2463579624891281,-0.3576267659664154,0.02822229266166687,-0.030095163732767105,-2,-33,-978,-358,29,-29,19,31,-27,1500.0
