time_stamp,RTL_ALT,roll,pitch,yaw,rollspeed,pitchspeed,yawspeed,lat,lon,relative_alt,vx,vy,vz,xacc,yacc,zacc,xgyro,ygyro,zgyro,MODE
13:36:27,1500.0,-0.0009147811506409198,0.0009897382697090507,0.022947952151298523,0.00019290990894660354,0.0002078763791359961,0.0016116871847771108,-35.3632622,149.1652375,0.0,-1.0,1.0,0.0,0.0,1.5,-1000.0,0.0,1.0,0.0,AUTO
13:36:28,279890.0,-0.0005728588148485869,0.001076825225027278,0.022753527853637934,0.0013134680484654382,0.0002695135772228241,0.0015258989005815238,-35.3632621,149.1652375,0.0,0.0,0.5,2.0,0.0,7.25,-991.0,1.25,0.5,0.25,AUTO
13:36:29,279890.0,-0.000353285126038827,0.0013958578347228467,0.022389715537428856,0.0002697407326195389,0.0003143021313007921,0.00151629006722942,-35.3632621,149.1652375,0.0,0.0,0.0,1.5,0.0,1.0,-1000.0,0.0,1.0,0.0,AUTO
13:36:31,279890.0,0.0030036185635253787,0.0006666976769338362,0.021898719482123852,-0.000904975226148963,0.004704008344560862,0.0017090474721044302,-35.3632621,149.1652375,275.0,0.0,0.0,-82.0,0.0,0.0,-1118.5,-0.5,5.0,0.5,AUTO
13:36:32,71751.0,0.015974816924426705,-0.00023840520589146763,0.021322207525372505,0.03368335240520537,-0.005013990463339724,0.0018287672573933378,-35.363262049999996,149.16523755,1180.0,0.25,3.75,-136.25,0.0,-0.25,-1040.5,34.0,-4.0,1.0,AUTO
13:36:33,71751.0,0.054292550310492516,-0.0003998442552983761,-0.0174913271330297,-0.052858765702694654,0.05531758378492668,-0.06861044093966484,-35.3632615,149.1652402,3070.0,9.0,46.0,-146.0,1.5,-9.0,-992.5,-52.0,55.5,-68.5,AUTO
13:36:35,71751.0,-0.06607828475534916,-0.010192308109253645,-0.09119299054145813,0.046032482758164406,-0.0023620354186277837,-0.003543189726769924,-35.363261050000006,149.16524575,6121.5,-2.5,-29.0,-148.0,-1.5,3.5,-1002.5,46.0,-1.5,-3.5,AUTO
13:36:36,200.0,-0.021577763371169567,-0.00584866403369233,-0.09352278895676136,0.06356939859688282,0.010990320588462055,0.0017769037367543206,-35.3632612,149.16524185,7276.25,-1.25,-55.25,-148.75,-6.5,11.25,-1002.25,63.5,11.5,1.25,AUTO
13:36:37,200.0,0.05814818665385246,0.008696339093148708,-0.08982787281274796,0.06035203859210014,0.0051269008545205,0.004670726368203759,-35.36326165,149.1652349,9223.0,-6.5,-24.5,-152.5,-3.0,7.5,-1002.0,60.5,5.5,4.0,AUTO
13:36:39,200.0,-0.014395077712833881,-0.004429662832990289,-0.10434502735733986,0.0007598510710522532,0.0030315063195303082,-0.024320000782608986,-35.3632624,149.1652364,12319.0,1.5,8.0,-151.0,0.5,-2.0,-1001.5,1.0,3.5,-24.0,AUTO
13:36:40,42705.0,-0.006000490498990985,-0.0009873095259536058,-0.12410571612417698,0.015727700432762504,0.00582350417971611,-0.022688936907798052,-35.363262250000005,149.16523652499998,13487.0,3.75,-2.5,-151.75,-1.0,-0.25,-1000.25,15.75,5.75,-22.75,AUTO
13:36:41,42705.0,0.008284831419587135,0.006203045137226582,-0.1510491445660591,0.0043274941854178905,0.003693895065225661,-0.017018062993884087,-35.36326175,149.16523575000002,15437.0,1.5,-2.5,-152.0,-1.0,0.0,-999.5,4.5,4.5,-17.0,AUTO
13:36:43,42705.0,0.004738655406981707,0.004317079437896609,-0.1788877621293068,-0.00151137012289837,-0.0006563867791555822,-0.01683682296425104,-35.3632616,149.16523575000002,18554.0,-3.0,5.0,-152.0,0.0,0.0,-1000.0,0.0,0.0,-16.5,AUTO
13:36:44,192517.0,-0.028846160566899925,0.011740429501514882,-0.17461735382676125,-0.054672879399731755,0.03778099101327825,0.09297651471570134,-35.3632617,149.16523577499999,19720.75,-5.5,-4.5,-148.25,0.0,0.0,-989.25,-53.5,38.25,92.5,AUTO
13:36:45,192517.0,0.02584530273452401,-0.022609144914895296,0.08550981059670448,0.10495692864060402,-0.10032839886844158,0.005735887214541435,-35.363263700000005,149.16523245000002,21438.5,-29.5,-29.5,-111.0,2.0,10.0,-958.0,105.0,-99.0,5.5,AUTO
13:36:47,192517.0,0.010256362147629261,0.002439898526063189,0.05378645285964012,-0.033499966375529766,0.02640719059854746,-2.656511787790805e-05,-35.36326345,149.16523495,23010.0,18.5,38.5,-49.5,0.0,-9.5,-977.0,-32.5,26.5,0.0,AUTO
13:36:48,88614.0,-0.006677292054519057,0.013269125251099467,0.05137774255126715,-0.018624541582539678,0.007437901134835556,-0.0017600481223780662,-35.363262225,149.16523765,23313.25,13.75,29.0,-32.0,0.0,-8.0,-975.75,-17.5,7.75,-1.75,AUTO
13:36:49,88614.0,-0.03348692785948515,0.02146545983850956,0.04635702259838581,0.05042961239814758,0.05909978784620762,-0.010962687898427248,-35.3632612,149.16524,23502.0,0.0,4.0,8.0,-1.5,10.0,-949.0,52.0,60.0,-11.0,AUTO
13:36:51,88614.0,-0.034370385110378265,-0.06584834307432175,0.026878115721046925,-0.46632860600948334,-0.024784286506474018,-0.06339816749095917,-35.3632592,149.16523435,23251.5,44.5,-50.0,0.5,-15.5,-18.0,-1008.0,-465.0,-23.0,-63.0,AUTO
13:36:52,83012.0,-0.038498979061841965,-0.09366700053215027,-0.06926019804086536,0.04354005865752697,-0.03172889677807689,-0.311382781714201,-35.36325467499999,149.1652294,23250.0,87.75,-75.0,-1.5,-27.0,4.25,-1002.75,44.25,-30.25,-311.25,AUTO
13:36:53,83012.0,0.02623029053211212,-0.163218192756176,-0.6930663585662842,-0.20298752840608358,-0.05659919045865536,0.010942494496703148,-35.3632406,149.16521555,23238.5,178.0,-146.0,1.0,-42.5,-36.0,-1004.0,-202.5,-55.5,11.0,AUTO
13:36:55,83012.0,0.058237435296177864,-0.1936490461230278,-0.6366470754146576,0.06548494379967451,0.014902879716828465,-0.008900952758267522,-35.36319375,149.16516904999997,23204.0,351.0,-274.5,0.5,-93.5,-52.5,-1003.0,66.0,15.5,-9.0,AUTO
13:36:56,36149.0,0.0648956187069416,-0.16896962001919746,-0.6390857249498367,-0.008811776409856975,0.02872041880618781,0.000818351429188624,-35.363168225,149.16514435,23207.75,401.0,-311.0,-3.0,-100.25,-58.75,-1000.0,-8.0,28.75,0.75,AUTO
13:36:57,36149.0,0.07273678109049797,-0.14861484616994858,-0.6400636732578278,0.015158479567617178,0.013007902773097157,0.00763554812874645,-35.3631161,149.1650944,23256.5,455.5,-350.5,-3.5,-110.5,-62.0,-988.0,15.5,14.0,7.0,AUTO
13:36:59,36149.0,0.07640234008431435,-0.11858508735895157,-0.643095999956131,-0.0033163630578201264,-0.00018024444580078125,-0.007939297007396817,-35.3630317,149.16501405,23317.5,472.5,-364.0,1.0,-116.0,-71.0,-980.5,-2.5,0.5,-7.5,AUTO
13:37:00,200.0,0.07672481425106525,-0.083596620708704,-0.6437318176031113,0.012132711708545685,0.06285836454480886,-0.003149279917124659,-35.36299995,149.164983925,23322.5,464.25,-358.25,-2.25,-117.5,-72.0,-996.25,12.75,63.25,-2.75,AUTO
13:37:01,200.0,0.07085830345749855,-0.020553000271320343,-0.6432393193244934,0.024416207801550627,0.04772043041884899,-0.007098143454641104,-35.36295005,149.1649367,23372.0,410.0,-316.0,-1.5,-104.5,-62.5,-990.0,25.5,48.0,-6.5,AUTO
13:37:03,200.0,0.05764230899512768,0.07140294834971428,-0.6437179446220398,0.6504717469215393,-0.0015319567173719406,-0.022757648956030607,-35.36288985,149.1648796,23326.0,243.5,-182.0,6.5,-55.5,-11.0,-1007.5,651.5,-0.5,-22.5,AUTO
13:37:04,292841.0,0.02988086501136422,0.07062250003218651,-0.645099088549614,-0.18217691406607628,0.012361990520730615,0.0050530201333458535,-35.36287585,149.16486715,23288.75,174.5,-128.5,3.75,-41.25,-39.0,-1010.0,-181.0,13.0,4.75,AUTO
13:37:05,292841.0,-0.005539786070585251,0.06034863367676735,-0.6480401158332825,-0.48285913467407227,-0.032510463148355484,0.008653234806843102,-35.3628614,149.1648553,23255.0,72.5,-59.0,1.0,-16.5,-29.5,-1001.0,-481.5,-31.0,8.0,AUTO
13:37:07,292841.0,-0.011053816648200154,0.015377037227153778,-0.6482823491096497,-0.4326058253645897,-0.02874834928661585,1.4946141163818538e-05,-35.36285595,149.16485085,23252.5,-6.5,-15.0,0.0,0.0,-26.0,-1000.5,-432.0,-27.5,0.0,AUTO
13:37:08,155378.0,-0.004099252575542778,-0.0059696779935620725,-0.648756816983223,0.08768033981323242,-0.022603159653954208,-0.004113106522709131,-35.362856475,149.1648506,23258.5,-9.5,-13.25,-0.5,-0.25,3.5,-998.5,88.0,-21.75,-3.5,AUTO
13:37:09,155378.0,0.006991110218223184,-0.002365231222938746,-0.6487567722797394,0.08817926049232483,0.005984125658869743,-0.006987812230363488,-35.3628571,149.16484995000002,23277.5,-0.5,-13.5,-3.0,-0.5,-9.0,-1013.5,87.5,6.5,-6.5,RTL
13:37:11,155378.0,-0.012154887430369854,0.002709772903472185,-0.6509571969509125,-0.07424042667844333,-0.003678535344079137,-0.007386425975710154,-35.3628567,149.1648501,24019.0,-4.5,-11.0,-77.5,0.0,-2.0,-1044.0,-73.5,-2.5,-7.0,RTL
13:37:12,218200.0,-0.006733906571753323,0.001345256547210738,-0.6521510183811188,0.01681459235260263,-0.0022218803060241044,-0.004343888082075864,-35.36285665,149.16485015,24759.5,-6.0,-12.0,-111.0,0.0,0.25,-1051.0,16.5,-1.5,-3.75,RTL
13:37:13,218200.0,0.03967086225748062,-0.00320585782174021,-0.6517043709754944,0.04653286747634411,-0.005446092691272497,0.0018884659511968493,-35.3628565,149.16485015,26486.0,6.0,1.0,-148.5,0.0,-1.0,-1004.0,46.0,-4.5,1.5,RTL
13:37:15,218200.0,-0.07202775776386261,0.007191747659817338,-0.7187370359897614,0.02985579427331686,-0.005949326558038592,-0.018756588455289602,-35.3628527,149.16485395,29527.0,-11.5,-9.5,-149.0,-0.5,1.0,-1003.5,29.5,-4.5,-18.0,RTL
13:37:16,300000.0,-0.03019399382174015,0.0084209437482059,-0.7261626571416855,0.0639689601957798,0.007774351397529244,-0.004274662012903718,-35.362854425,149.16485175000003,30684.5,-38.0,-32.5,-149.25,-5.25,9.5,-1001.75,63.25,8.0,-3.75,RTL
13:37:17,300000.0,0.039904285222291946,0.005297247436828911,-0.7134146988391876,0.009686311590485275,-0.05303383432328701,0.06282174400985241,-35.362859549999996,149.16484739999999,32631.0,-38.0,-8.0,-151.5,-2.5,12.0,-999.5,9.0,-52.0,62.5,RTL
13:37:19,300000.0,0.00040661601815372705,0.011904652463272214,-0.6923167407512665,-0.02214833814650774,0.03913884237408638,-0.06643268465995789,-35.362859,149.16484555,35732.0,31.5,1.0,-150.0,-4.0,-6.5,-1004.0,-22.0,39.5,-66.0,RTL
13:37:20,200.0,-5.512655479833484e-05,0.026169925928115845,-0.7314767241477966,0.014584076008759439,0.010565468764980324,-0.03624749230220914,-35.362857625,149.16484445,36899.5,13.25,0.75,-151.75,-3.5,-2.5,-1001.5,14.25,10.75,-35.5,RTL
13:37:21,200.0,0.01584674045443535,0.019737928174436092,-0.750346302986145,0.002622966538183391,-0.011167014949023724,-0.0017527193995192647,-35.36285735,149.16484375,38854.5,-4.0,15.5,-152.0,0.5,0.0,-999.0,3.0,-10.0,-1.0,RTL
13:37:23,200.0,0.005172432633116841,0.0009505696361884475,-0.7718062698841095,0.0002621118037495762,-0.0018567685910966247,-0.02045456599444151,-35.362858149999994,149.16484615000002,41970.0,0.0,17.0,-152.0,2.0,0.0,-1000.0,0.5,-1.0,-19.5,RTL
13:37:24,67485.0,0.005576511728577316,0.0008620228472864255,-0.7909928262233734,0.003971252590417862,0.0030611806287197396,-0.02671200828626752,-35.362858275,149.16484665,43139.75,1.0,11.25,-152.0,0.5,0.0,-1000.0,4.5,3.75,-25.75,RTL
13:37:25,67485.0,0.00930076977238059,0.005290915025398135,-0.8267161250114441,0.004025680245831609,0.004525590222328901,-0.026477987878024578,-35.3628583,149.1648468,45090.0,3.0,7.0,-153.0,0.0,0.0,-1000.0,4.0,5.0,-25.5,RTL
13:37:27,67485.0,0.009078234434127808,0.0069419038482010365,-0.8743501603603363,0.002183589560445398,0.0015440105344168842,-0.020673205144703388,-35.3628582,149.16484705,48208.0,4.0,9.5,-153.0,0.0,0.0,-1000.5,3.0,2.5,-19.5,RTL
13:37:28,123255.0,0.007260564132593572,0.006345419911667705,-0.8906799107789993,-0.0014979193219915032,1.6942649381235242e-05,-0.020504269748926163,-35.362858075,149.16484735,49378.0,3.25,9.5,-153.0,0.0,0.0,-999.75,-0.5,1.25,-19.5,RTL
13:37:29,123255.0,0.005474988371133804,0.0056568942964077,-0.9180655181407928,0.0009965526987798512,0.0028368294588290155,-0.02242786344140768,-35.3628579,149.1648477,51323.0,2.0,7.5,-153.0,0.0,0.0,-1000.0,1.5,3.5,-21.5,RTL
13:37:31,123255.0,0.009463736787438393,0.00811875332146883,-0.9320251941680908,-0.0013462824281305075,-0.00024481385480612516,0.024092596024274826,-35.3628578,149.16484805,54439.0,2.0,8.5,-152.0,0.0,0.0,-999.5,-0.5,1.0,24.5,RTL
13:37:32,184025.0,0.006954359821975231,0.0054391983430832624,-0.9124587625265121,-0.002651775284903124,-0.0026425084797665477,0.02834481978788972,-35.362857775,149.164848425,55601.0,2.75,9.5,-152.0,0.5,0.0,-1000.25,-1.75,-1.25,28.5,RTL
13:37:33,184025.0,0.004718753043562174,0.0029505783459171653,-0.8799828588962555,0.0016706648748368025,0.0004912231815978885,0.025529113598167896,-35.3628577,149.16484895000002,57539.0,2.5,6.5,-152.0,0.0,0.0,-1000.0,2.5,1.5,25.5,RTL
13:37:35,184025.0,0.0061444363091140985,0.0031369264470413327,-0.8402513265609741,0.00038783677155151963,0.0015288071590475738,0.017812211997807026,-35.3628577,149.164849,60645.0,2.0,2.5,-152.0,0.0,0.0,-999.5,1.0,2.5,18.0,RTL
13:37:36,218086.0,0.006535444175824523,0.003529038978740573,-0.8285052478313446,0.0011181969020981342,0.0005033047345932573,0.016630442580208182,-35.3628577,149.1648489,61813.0,2.0,2.0,-152.0,0.0,0.0,-1000.0,2.0,1.5,17.0,RTL
13:37:37,218086.0,0.007056695641949773,0.003893810440786183,-0.8111391365528107,0.0021294900216162205,0.0004090845468454063,0.013896004296839237,-35.3628577,149.16484865,63745.0,2.0,2.0,-152.0,0.0,0.0,-1000.0,2.5,1.5,14.0,RTL
13:37:39,218086.0,0.006348579190671444,0.003927653538994491,-0.7889277637004852,0.00035187043249607086,-0.00011297332821413875,0.011718166060745716,-35.3628577,149.1648484,66857.0,2.0,3.0,-152.0,0.0,0.0,-1000.0,1.5,1.0,12.0,RTL
13:37:40,297388.0,0.0059984567342326045,0.0037980741471983492,-0.7821273952722549,0.00020052411127835512,0.0006363247230183333,0.009450642392039299,-35.3628577,149.1648484,68020.25,2.0,3.0,-152.0,0.0,0.0,-999.75,1.5,1.75,10.0,RTL
13:37:41,297388.0,0.006352733122184873,0.003660066402517259,-0.7724204361438751,0.00034094718284904957,0.0009532424155622721,0.009220310486853123,-35.3628577,149.1648483,69960.5,1.0,3.0,-152.0,0.0,0.0,-1000.0,1.5,2.0,9.5,RTL
13:37:43,297388.0,0.0058879011776298285,0.0036251459969207644,-0.7590983211994171,0.0036072476068511605,0.0012110408279113472,0.007502202643081546,-35.3628576,149.1648483,73067.5,1.0,3.0,-152.0,0.0,0.0,-1000.5,4.5,2.5,8.5,RTL
13:37:44,200.0,0.005774044431746006,0.003579345822799951,-0.7545849829912186,0.00026022212114185095,5.5348980822600424e-05,0.00786138151306659,-35.3628576,149.1648483,74234.0,1.0,3.0,-152.0,0.0,0.0,-1000.0,1.5,1.25,8.5,RTL
13:37:45,200.0,0.00531945563852787,0.004111933289095759,-0.7469970285892487,0.001441988570149988,0.0002515261876396835,0.009433630388230085,-35.3628576,149.1648483,76169.0,0.5,3.0,-152.0,0.0,0.0,-1000.0,3.0,1.5,10.0,RTL
13:37:47,200.0,0.005389052676036954,0.0033969744108617306,-0.7369095981121063,0.0010805823258124292,0.00024934427347034216,0.006174678448587656,-35.3628576,149.1648483,79274.0,0.0,3.0,-152.0,0.0,0.0,-1000.0,2.0,1.5,7.0,RTL
13:37:48,201426.0,0.005191326607018709,0.003387723001651466,-0.7336482405662537,-0.0006655904580838978,0.00021297141211107373,0.005146571958903223,-35.3628576,149.1648483,80439.75,0.0,2.5,-152.0,0.0,0.0,-999.75,1.0,1.25,6.0,RTL
13:37:49,201426.0,0.005238291108980775,0.0032629071502014995,-0.7282702326774597,0.0022721152054145932,0.0010544999968260527,0.007222248241305351,-35.3628576,149.1648483,82381.5,0.0,2.0,-152.0,0.0,0.0,-1000.0,3.5,2.0,8.0,RTL
13:37:51,201426.0,0.005073997424915433,0.0036312855081632733,-0.720858246088028,-0.0002597067505121231,0.002305638510733843,0.0036173862172290683,-35.3628576,149.1648483,85485.5,0.0,2.0,-152.0,0.0,0.0,-999.5,1.0,3.5,4.5,RTL
13:37:52,98422.0,0.004596970393322408,0.004170113825239241,-0.7180751115083694,-0.000992588946246542,0.0008462876139674336,0.003837680327706039,-35.3628575,149.1648483,86653.75,0.0,2.0,-152.0,0.0,0.0,-1000.0,0.5,2.25,4.75,RTL
13:37:53,98422.0,0.004769799066707492,0.0037344718584790826,-0.7142244577407837,0.001083768205717206,9.596202289685607e-05,0.004209133796393871,-35.3628575,149.1648483,88594.5,0.0,2.0,-152.0,0.0,0.0,-999.5,2.0,1.5,5.0,RTL
13:37:55,98422.0,0.0054899295791983604,0.0029821725329384208,-0.708702802658081,0.0003664062824100256,0.0008277547894977033,0.004084193962626159,-35.3628575,149.1648483,91700.0,0.0,2.0,-152.0,0.0,0.0,-999.5,1.5,2.5,5.0,RTL
13:37:56,201482.0,0.005369126913137734,0.003106595599092543,-0.7063241899013519,0.00016210833564400673,0.0008907216106308624,0.004706157953478396,-35.3628575,149.1648483,92873.0,0.0,2.0,-152.0,0.0,0.0,-1000.0,1.75,2.25,5.75,RTL
13:37:57,201482.0,0.005026321159675717,0.003620816278271377,-0.7034786343574524,0.002442643977701664,0.0009444366442039609,0.004301165696233511,-35.3628575,149.1648483,94805.0,0.0,2.0,-152.0,0.0,0.0,-999.5,3.5,2.0,5.5,RTL
13:37:59,201482.0,0.004054142627865076,0.00403220672160387,-0.6992486715316772,-0.0001880547497421503,0.0002001055981963873,0.0010507157421670854,-35.3628575,149.1648483,97919.0,0.0,2.0,-152.0,0.0,0.0,-1000.5,1.5,1.5,2.5,RTL
13:38:00,82663.0,0.004244884476065636,0.003757564933039248,-0.6977831721305847,0.0010501864016987383,0.00010146203567273915,0.0031415716221090406,-35.3628575,149.1648483,99083.0,0.0,2.0,-152.0,0.0,0.0,-999.75,2.5,1.25,4.25,RTL
13:38:01,82663.0,0.004418962402269244,0.003501449362374842,-0.6945154368877411,0.001024973695166409,0.00044236506801098585,0.005506839137524366,-35.3628575,149.1648483,101025.0,0.0,2.0,-152.0,0.0,0.0,-1000.0,2.5,2.0,7.0,RTL
13:38:03,82663.0,0.004791265353560448,0.003138784901238978,-0.6914428472518921,0.0031178438803181052,0.0008203460020013154,0.0006000083521939814,-35.3628575,149.1648483,104132.0,0.0,2.0,-152.0,0.0,0.0,-1000.5,4.5,2.5,2.0,RTL
13:38:04,125279.0,0.005284459097310901,0.0029185289167799056,-0.6903232783079147,-0.0006201672076713294,0.0006967107183299959,0.0027516979025676847,-35.3628575,149.1648483,105299.0,0.0,2.0,-152.0,0.0,0.0,-999.5,1.25,2.25,3.75,RTL
13:38:05,125279.0,0.0047834517899900675,0.003360911156050861,-0.6882033944129944,0.0008390715811401606,0.0002944138250313699,0.0024713868042454123,-35.3628575,149.1648483,107236.0,0.0,2.0,-152.0,0.0,0.0,-1000.0,2.0,2.0,4.0,RTL
13:38:07,125279.0,0.0040292697958648205,0.004237964050844312,-0.6861366033554077,-0.00047699781134724617,0.0007581413956359029,0.0029171742498874664,-35.3628575,149.1648483,110343.0,0.0,2.0,-152.0,0.0,0.0,-999.5,1.0,2.5,4.5,RTL
13:38:08,95118.0,0.004369551897980273,0.0038184731383807957,-0.6852348446846008,0.0014894127089064568,-0.0009489649964962155,0.002201599912950769,-35.3628575,149.1648483,111508.5,0.0,2.0,-152.0,0.0,0.0,-1000.25,3.0,1.0,3.5,RTL
13:38:09,95118.0,0.004579174565151334,0.0034818098647519946,-0.6836754381656647,9.071530075743794e-05,-0.0005419505177997053,0.0020686433417722583,-35.3628575,149.1648483,113450.5,0.0,2.0,-152.0,0.0,0.0,-1000.0,1.5,1.0,3.5,RTL
13:38:11,95118.0,0.004353421973064542,0.00349189096596092,-0.681890994310379,-0.0004823607159778476,-0.000831627519801259,0.0007202163687907159,-35.3628575,149.1648483,116556.0,0.0,2.0,-152.0,0.0,0.0,-1000.0,1.0,0.5,2.0,RTL
13:38:12,267842.0,0.004492397885769606,0.003598849754780531,-0.6813993453979492,0.00011498600360937417,0.0010152417235076427,0.0010314418759662658,-35.3628575,149.1648483,117723.0,0.0,2.0,-152.0,0.0,0.0,-1000.0,1.5,2.75,2.5,RTL
13:38:13,267842.0,0.0044416943565011024,0.0035107551375404,-0.6803555488586426,-0.0008623406756669283,0.0005879792734049261,0.0017650109948590398,-35.3628575,149.1648483,119669.0,0.0,2.0,-152.0,0.0,0.0,-999.5,0.5,2.5,3.0,RTL
13:38:15,267842.0,0.004813991487026215,0.0028681254480034113,-0.6787567138671875,6.673741154372692e-05,0.0010838001035153866,0.002255996107123792,-35.3628575,149.1648484,122772.0,0.0,1.0,-152.0,0.0,0.0,-999.5,2.0,2.5,4.0,RTL
13:38:16,200.0,0.0046157772885635495,0.0032372637069784105,-0.6784601211547852,-0.0007759120780974627,0.0004928348062094301,0.0012384609726723284,-35.3628575,149.1648484,123941.75,0.0,1.0,-152.0,0.0,0.0,-1000.0,1.0,2.25,2.75,RTL
13:38:17,200.0,0.004177783848717809,0.004163857200182974,-0.6770402193069458,-0.0008546407334506512,0.0022563174134120345,0.0037973460275679827,-35.3628575,149.1648484,125879.0,0.0,1.0,-152.0,0.0,0.0,-1000.0,1.0,4.0,5.5,RTL
13:38:19,200.0,0.0046535523142665625,0.0037294081412255764,-0.6759122014045715,0.0006757658557035029,0.0019548973068594933,0.0012215257156640291,-35.3628575,149.1648484,128994.5,0.0,1.0,-152.0,0.0,0.0,-999.5,2.5,4.0,2.5,RTL
13:38:20,229233.0,0.0046783138532191515,0.0037119011976756155,-0.6755784004926682,-1.3020355254411697e-05,0.0002067595487460494,0.0011784563830588013,-35.3628575,149.1648484,130159.0,0.0,2.0,-152.0,0.0,0.0,-999.75,2.25,2.0,2.5,RTL
13:38:21,229233.0,0.004256358603015542,0.0036183515330776572,-0.6752204596996307,0.000251466641202569,0.001031349238473922,0.0014726824592798948,-35.3628575,149.1648484,132103.5,0.0,2.0,-152.0,0.0,0.0,-999.5,2.5,3.0,3.0,RTL
13:38:23,229233.0,0.0043060630559921265,0.003535990137606859,-0.6744224727153778,-0.0014255470596253872,0.0007919514318928123,0.0002898849779739976,-35.3628575,149.1648484,135208.0,0.0,2.0,-152.0,0.0,0.0,-999.5,0.0,2.5,1.5,RTL
13:38:24,101773.0,0.004457094240933657,0.00364530278602615,-0.6740686446428299,-0.0004274911480024457,0.00022839481243863702,0.0006852398510091007,-35.3628575,149.1648484,136374.5,0.0,2.0,-152.0,0.0,0.0,-999.75,1.5,2.0,2.0,RTL
13:38:25,101773.0,0.0045789305586367846,0.0033573294058442116,-0.6736896336078644,0.0010419166646897793,-0.0013808977091684937,0.0001089639263227582,-35.3628575,149.1648484,138313.0,0.0,2.0,-152.0,0.0,0.0,-1000.0,2.5,0.5,1.5,RTL
13:38:27,101773.0,0.004398461198434234,0.003181957872584462,-0.6731627583503723,-0.0001579594099894166,0.0004781325114890933,0.0005919783725403249,-35.3628575,149.1648484,141420.0,0.0,1.0,-152.0,0.0,0.0,-999.5,1.5,2.0,2.0,RTL
13:38:28,272075.0,0.004204275261145085,0.003835813549812883,-0.6730250716209412,-0.000619693542830646,0.0010483647929504514,0.0009498286235611886,-35.3628575,149.1648484,142585.25,0.0,1.0,-152.0,0.0,0.0,-1000.0,1.75,3.0,2.75,RTL
13:38:29,272075.0,0.004069560440257192,0.0038457231130450964,-0.672611653804779,-0.0011564092710614204,-0.0006196909816935658,0.00100186828058213,-35.3628575,149.1648484,144527.0,0.0,1.0,-152.0,0.0,0.0,-999.5,1.0,1.0,2.5,RTL
13:38:31,272075.0,0.004297814564779401,0.0036524957977235317,-0.6721649169921875,-0.00045825610868632793,0.00040096009615808725,0.001683174865320325,-35.3628575,149.1648484,147633.0,0.0,1.0,-152.0,0.0,0.0,-1000.0,1.5,2.0,3.0,RTL
13:38:32,22796.0,0.004246422089636326,0.0035711030359379947,-0.6720075309276581,0.0008309724507853389,-0.00012423039879649878,0.00045858166413381696,-35.3628575,149.1648484,148798.75,0.0,1.0,-152.0,0.0,0.0,-1000.0,2.25,1.75,2.0,RTL
13:38:33,22796.0,0.004399794619530439,0.003790146787650883,-0.671653151512146,0.0003971256082877517,0.0006445887265726924,0.0014895042404532433,-35.3628575,149.1648484,150744.0,0.0,1.0,-152.0,0.0,0.0,-1000.0,2.5,2.5,3.5,RTL
13:38:35,22796.0,0.004431606270372868,0.00361423019785434,-0.6706260144710541,0.00022885086946189404,0.0012882821029052138,0.0016356958076357841,-35.3628575,149.1648484,153850.5,0.0,2.0,-152.0,0.0,0.0,-999.5,2.0,3.5,3.0,RTL
13:38:36,192885.0,0.004269245313480496,0.0036819790839217603,-0.6707391291856766,-0.0002896884980145842,0.0004866021918132901,0.00014301552437245846,-35.3628575,149.1648484,155016.25,0.0,2.0,-152.0,0.0,0.0,-1000.0,1.75,2.5,2.0,RTL
13:38:37,192885.0,0.00489278114400804,0.0026826391695067286,-0.6706026196479797,-0.0023078282829374075,-0.0010448542307130992,0.0009292569011449814,-35.3628575,149.1648484,156956.5,0.0,2.0,-152.0,0.0,0.0,-999.5,0.5,1.0,2.5,RTL
13:38:39,192885.0,0.004198142327368259,0.003492350224405527,-0.6703040301799774,-0.0005614175461232662,0.0011902666301466525,0.0014503347920253873,-35.3628575,149.1648484,160067.0,0.0,1.0,-152.0,0.0,0.0,-999.5,1.5,3.0,3.0,RTL
13:38:40,281258.0,0.0038367017405107617,0.004200132563710213,-0.6703404486179352,0.00031128263799473643,0.0007013100548647344,0.0006090739043429494,-35.3628575,149.1648484,161232.75,0.0,1.0,-152.0,0.0,0.0,-1000.25,2.5,2.75,2.25,RTL
13:38:41,281258.0,0.004181670257821679,0.0036295584868639708,-0.6700138449668884,0.0009560841135680676,0.000653312134090811,0.0010539690265432,-35.3628575,149.1648484,163173.0,0.0,1.0,-152.0,0.0,0.0,-1000.0,3.0,2.5,3.0,RTL
13:38:43,281258.0,0.004230548860505223,0.003455115482211113,-0.6699492931365967,0.0008981856517493725,-0.00031187658896669745,3.763753920793533e-05,-35.3628575,149.1648484,166280.0,0.0,1.0,-152.0,0.0,0.0,-1000.5,3.0,2.0,2.0,RTL
13:38:44,200.0,0.0041123435366898775,0.0035429319250397384,-0.670064851641655,-0.0007314852555282414,-0.0004821933398488909,0.001687373558524996,-35.3628575,149.1648484,167445.0,0.0,1.0,-152.0,0.0,0.0,-999.75,1.25,1.75,3.25,RTL
13:38:45,200.0,0.004236785229295492,0.0034942791098728776,-0.6699030995368958,-0.00042747409315779805,0.0002936504315584898,-0.001173664175439626,-35.3628575,149.1648484,169385.0,0.0,1.0,-152.0,0.0,0.0,-1000.0,1.5,2.5,0.5,RTL
13:38:47,200.0,0.00439712917432189,0.0036462617572396994,-0.6696672141551971,-0.0009498726576566696,0.00029029068537056446,-0.0014446488348767161,-35.3628575,149.1648484,172499.0,0.0,1.0,-152.0,0.0,0.0,-1000.0,1.0,2.5,0.5,RTL
13:38:48,87840.0,0.0041682836599648,0.003547165251802653,-0.6698252856731415,0.0005011149332858622,-8.966898894868791e-05,0.001297557377256453,-35.3628575,149.1648484,173664.0,0.0,1.0,-152.0,0.0,0.0,-1000.0,2.5,2.25,3.0,RTL
13:38:49,87840.0,0.004888951778411865,0.002875565434806049,-0.6698512732982635,0.0007219832041300833,0.0009387356694787741,0.001660840818658471,-35.3628575,149.1648484,175607.0,0.0,1.0,-152.0,0.0,0.0,-1000.0,3.0,3.0,3.5,RTL
13:38:51,87840.0,0.004820260684937239,0.003616499132476747,-0.6689692735671997,-9.660620708018541e-05,3.3177202567458153e-06,0.0018224148079752922,-35.3628575,149.1648484,178714.5,0.0,2.0,-152.0,0.0,0.0,-1000.0,2.0,2.0,3.5,RTL
13:38:52,200.0,0.00430976168718189,0.004135392082389444,-0.6689780205488205,-0.0005291169509291649,0.0011321224737912416,0.0004134882183279842,-35.3628575,149.1648484,179881.25,0.0,2.0,-152.0,0.0,0.0,-1000.0,1.75,3.5,2.25,RTL
13:38:53,200.0,0.003951265010982752,0.003915388020686805,-0.6691984236240387,-0.001067646313458681,-0.0016522853402420878,0.0003195519093424082,-35.3628575,149.1648484,181819.5,0.0,2.0,-152.0,0.0,0.0,-999.5,1.5,1.0,2.0,RTL
13:38:55,200.0,0.003977335058152676,0.003280578297562897,-0.6690420508384705,-0.0008054726058617234,-0.0006105672800913453,-0.0008166907355189323,-35.3628575,149.1648484,184926.0,0.0,1.5,-152.0,0.0,0.0,-1000.0,1.5,1.5,1.0,RTL
13:38:56,181465.0,0.0041756791761145,0.0034907503868453205,-0.6689224243164062,0.0008167094783857465,0.0008246266515925527,0.00021456030663102865,-35.3628575,149.1648484,186091.5,0.0,1.0,-152.0,0.0,0.0,-1000.25,3.25,3.0,2.25,RTL
13:38:57,181465.0,0.004189562750980258,0.003554448951035738,-0.6692042350769043,-0.002156555070541799,-0.0008185498882085085,0.0006997777381911874,-35.3628575,149.1648484,188032.5,0.0,1.0,-152.0,0.0,0.0,-999.5,0.5,1.5,3.0,RTL
13:38:59,181465.0,0.0043104521464556456,0.003512147697620094,-0.669078528881073,-0.0007909131236374378,0.0006615354213863611,-0.0009916626149788499,-35.3628575,149.1648484,191142.0,0.0,1.0,-152.0,0.0,0.0,-1000.5,1.5,3.0,1.0,RTL
13:39:00,200.0,0.004581992514431477,0.0031276672962121665,-0.6692322343587875,0.0015023986925370991,-0.0005622516328003258,0.0001885228557512164,-35.3628575,149.1648484,192307.5,0.0,1.0,-152.0,0.0,0.0,-1000.0,3.75,1.75,2.25,RTL
13:39:01,200.0,0.0048145269975066185,0.003137805964797735,-0.6689690351486206,0.00014405674301087856,6.659328937530518e-05,0.00026094308122992516,-35.3628575,149.1648484,194250.0,0.0,1.0,-152.0,0.0,0.0,-1000.5,2.5,2.5,2.5,RTL
13:39:03,200.0,0.0039321096846833825,0.00432035094127059,-0.6691731810569763,-0.0009574634023010731,-0.0003293264890089631,-0.00012744974810630083,-35.3628575,149.1648484,197357.0,0.0,1.0,-152.0,0.0,0.0,-1000.0,1.0,2.0,2.0,RTL
13:39:04,188667.0,0.003977920452598482,0.0039625620120204985,-0.669098287820816,0.0016457716701552272,-0.00017059684614650905,0.0013658084790222347,-35.3628575,149.1648484,198530.0,0.0,1.0,-152.0,0.0,0.0,-999.75,3.75,2.25,3.0,RTL
13:39:05,188667.0,0.004588529467582703,0.003719631815329194,-0.6689440011978149,-7.789582014083862e-05,0.000966130755841732,0.0008613597601652145,-35.3628575,149.1648484,200463.0,0.0,1.5,-152.0,0.0,0.0,-1000.0,2.5,3.5,3.0,RTL
13:39:07,188667.0,0.004248520825058222,0.003355603781528771,-0.6683087348937988,0.0004875939339399338,-0.0006714445189572871,0.001497006742283702,-35.3628575,149.1648484,203577.0,0.0,2.0,-152.0,0.0,0.0,-1000.0,3.0,2.0,3.5,RTL
13:39:08,247699.0,0.004177964525297284,0.003462592954747379,-0.6686080694198608,0.0006038945866748691,8.693605195730925e-06,0.0003828286426141858,-35.3628575,149.1648484,204742.0,0.0,2.0,-152.0,0.0,0.0,-999.5,2.75,2.5,2.5,RTL
13:39:09,247699.0,0.004000980174168944,0.0033767549321055412,-0.6685324907302856,-0.00035236915573477745,0.0008261777693405747,0.000319500919431448,-35.3628575,149.1648484,206684.5,0.0,1.0,-152.0,0.0,0.0,-999.5,2.5,3.5,2.0,RTL
13:39:11,247699.0,0.005005733575671911,0.0027211193228140473,-0.6684801876544952,-0.000613111536949873,0.0009083269396796823,0.0010500411735847592,-35.3628575,149.1648484,209791.0,0.0,1.0,-152.0,0.0,0.0,-1000.0,2.0,3.0,3.0,RTL
13:39:12,105647.0,0.004685710300691426,0.003127040632534772,-0.6684913635253906,0.0002654165728017688,0.0003509090165607631,-0.00021247667609713972,-35.3628575,149.1648484,210959.25,0.0,1.0,-152.0,0.0,0.0,-1000.0,3.0,3.0,2.0,RTL
13:39:13,105647.0,0.004270382924005389,0.0038772413972765207,-0.6685373187065125,-0.0015168839017860591,0.0012876196997240186,-0.0005520922713913023,-35.3628575,149.1648484,212896.5,0.0,1.0,-152.0,0.0,0.0,-1000.0,1.0,4.0,1.5,RTL
13:39:15,105647.0,0.004151108441874385,0.0036076591350138187,-0.6688801348209381,-0.0012614059960469604,-0.00027180067263543606,-0.0009515818092040718,-35.3628575,149.1648484,216003.0,0.0,1.0,-152.0,0.0,0.0,-999.5,1.0,2.5,1.0,RTL
13:39:16,292982.0,0.004321949672885239,0.0034086029627360404,-0.6689120084047318,0.00043454719707369804,0.00039462046697735786,0.0006003502639941871,-35.3628575,149.1648484,217168.5,0.0,1.0,-152.0,0.0,0.0,-999.75,3.25,3.0,2.75,RTL
13:39:17,292982.0,0.004254663363099098,0.0036834697239100933,-0.6687383949756622,-0.0004295278340578079,4.738487768918276e-05,-0.0011142452131025493,-35.3628575,149.1648484,219110.0,0.0,1.0,-152.0,0.0,0.0,-1000.0,2.0,3.0,1.0,RTL
13:39:19,292982.0,0.004249171353876591,0.0036363687831908464,-0.66883984208107,0.0011290687834843993,0.001374657149426639,0.0008123228326439857,-35.3628575,149.1648484,222217.5,0.0,1.0,-152.0,0.0,0.0,-1000.0,4.0,4.0,3.5,RTL
13:39:20,46542.0,0.004249562625773251,0.0034578305785544217,-0.6687217950820923,-0.0002200919552706182,-0.0003949920064769685,0.00039391330210492015,-35.3628575,149.1648484,223384.25,0.0,1.0,-152.0,0.0,0.0,-999.75,2.5,2.25,2.5,RTL
13:39:21,46542.0,0.00478951190598309,0.0029946413123980165,-0.669081062078476,0.0017959530232474208,0.00026431167498230934,0.0010861977934837341,-35.3628575,149.1648484,225328.0,0.0,1.0,-152.0,0.0,0.0,-999.5,4.0,3.0,3.5,RTL
13:39:23,46542.0,0.004502436378970742,0.003283933736383915,-0.6683044731616974,-0.0010924136731773615,0.0003315536305308342,0.0001648872857913375,-35.3628575,149.1648484,228434.0,0.0,1.0,-152.0,0.0,0.0,-1000.0,1.5,3.0,2.5,RTL
13:39:24,71736.0,0.004257800290361047,0.003764916385989636,-0.6683290004730225,0.0003038912545889616,0.001253922877367586,0.0006134983850643039,-35.3628575,149.1648484,229604.5,0.0,1.0,-152.0,0.0,0.0,-1000.0,3.25,4.0,3.0,RTL
13:39:25,71736.0,0.003937543136999011,0.004030849086120725,-0.6684817373752594,0.0025870249373838305,-0.0005379109643399715,0.0006648892303928733,-35.3628575,149.1648484,231539.5,0.0,1.0,-152.0,0.0,0.0,-1000.5,5.0,2.5,3.0,RTL
13:39:27,71736.0,0.0043074567802250385,0.0034916779259219766,-0.6684807538986206,0.00034235534258186817,0.0004687058972194791,-0.0007896603783592582,-35.3628575,149.1648484,234653.0,0.0,1.0,-152.0,0.0,0.0,-1000.5,3.5,3.0,1.5,RTL
13:39:28,264227.0,0.004243150702677667,0.003515395801514387,-0.6684250235557556,3.310194006189704e-05,9.470159420743585e-05,0.0009555307915434241,-35.3628575,149.1648484,235817.5,0.0,1.0,-152.0,0.0,0.0,-999.75,2.75,2.75,3.25,RTL
13:39:29,264227.0,0.004193389322608709,0.0036277174949645996,-0.6686791479587555,0.0008410871960222721,-4.896242171525955e-05,0.0002472418127581477,-35.3628575,149.1648484,237761.0,0.0,1.0,-152.0,0.0,0.0,-1000.0,3.5,2.5,3.0,RTL
13:39:31,264227.0,0.004315679194405675,0.0033848544117063284,-0.6686983406543732,-0.0006585039664059877,-0.0002253010170534253,-0.00048147025518119335,-35.3628575,149.1648484,240866.0,0.0,1.0,-152.0,0.0,0.0,-1000.0,2.0,3.0,2.0,RTL
13:39:32,11744.0,0.0045172920217737556,0.0031128700356930494,-0.6687399446964264,0.0015741231036372483,-0.0007849288231227547,0.000909836555365473,-35.3628575,149.1648484,242032.25,0.0,1.0,-152.0,0.0,0.0,-1000.25,4.25,2.0,3.25,RTL
13:39:33,11744.0,0.004777778871357441,0.0030783734982833266,-0.6686300933361053,8.677050936967134e-05,0.0013364601181820035,-0.0006674170726910233,-35.3628575,149.1648484,243972.5,0.0,1.0,-152.0,0.0,0.0,-1000.0,2.5,4.0,1.5,RTL
13:39:35,11744.0,0.004012406338006258,0.004205144941806793,-0.6687013208866119,-0.0009031593799591064,0.0013412960106506944,-0.001156015321612358,-35.3628575,149.1648484,247079.0,0.0,1.0,-152.0,0.0,0.0,-1000.0,2.0,4.0,1.5,RTL
13:39:36,114970.0,0.003983653150498867,0.004013600875623524,-0.6688108742237091,-0.00055643857922405,-0.00038842804497107863,0.00033906678436324,-35.3628575,149.1648484,248243.75,0.0,1.0,-152.0,0.0,0.0,-1000.0,2.0,2.5,2.75,RTL
13:39:37,114970.0,0.00434878864325583,0.0035230652429163456,-0.6687646806240082,0.0010142389219254255,0.0007282729493454099,-0.0006200439529493451,-35.3628575,149.1648484,250185.0,0.0,1.0,-152.0,0.0,0.0,-1000.0,4.0,4.0,2.0,RTL
13:39:39,114970.0,0.004295425722375512,0.0034396203700453043,-0.6680606603622437,-0.00010526948608458042,0.00019149086438119411,0.000356273609213531,-35.3628575,149.1648484,253292.5,0.0,1.0,-152.0,0.0,0.0,-1000.0,3.0,3.0,3.0,RTL
13:39:40,84074.0,0.0043292585760355,0.0033944121678359807,-0.6680780947208405,0.0004158958909101784,0.0011926156003028154,0.0005045323050580919,-35.3628575,149.1648484,254459.0,0.0,1.0,-152.0,0.0,0.0,-1000.0,3.25,4.0,3.25,RTL
13:39:41,84074.0,0.004273471888154745,0.0035557299852371216,-0.6683847308158875,-0.0010198475793004036,0.0002539056586101651,-0.00048525910824537277,-35.3628575,149.1648484,256401.5,0.0,1.0,-152.0,0.0,0.0,-1000.0,2.0,3.5,2.0,RTL
13:39:43,84074.0,0.004822731716558337,0.003139531472697854,-0.6682539284229279,-0.0003545826766639948,5.1301089115440845e-05,0.00049680529627949,-35.3628575,149.1648484,259509.0,0.0,1.0,-152.0,0.0,0.0,-1000.0,3.0,3.0,3.0,RTL
13:39:44,200.0,0.004475144785828888,0.0034072697162628174,-0.6682710498571396,0.00012206262908875942,0.0001079037319868803,0.0005708177923224866,-35.3628575,149.1648484,260677.75,0.0,1.0,-152.0,0.0,0.0,-1000.0,2.75,3.0,3.25,RTL
13:39:45,200.0,0.003956134896725416,0.004303452558815479,-0.668533056974411,-0.0007746968185529113,-0.0004662475548684597,0.0012828218750655651,-35.3628575,149.1648484,262616.0,0.0,1.0,-152.0,0.0,0.0,-1000.0,2.0,2.5,4.0,RTL
13:39:47,200.0,0.004396009026095271,0.0035322114126756787,-0.6684366166591644,0.0015659159980714321,0.0005749979754909873,0.0020501428516581655,-35.3628575,149.1648484,265730.0,0.0,1.0,-152.0,0.0,0.0,-1000.0,4.5,3.5,5.0,RTL
13:39:48,227095.0,0.004237404908053577,0.0035570551408454776,-0.6685899049043655,0.0005199139122851193,0.0009169938275590539,0.0013581159291788936,-35.3628575,149.1648484,266895.25,0.0,1.0,-152.0,0.0,0.0,-999.5,3.5,4.0,4.0,RTL
13:39:49,227095.0,0.004148328909650445,0.0035724802874028683,-0.6686848998069763,-0.0015668796841055155,9.550212416797876e-05,-0.001077640277799219,-35.3628575,149.1648484,268838.0,0.0,1.0,-152.0,0.0,0.0,-999.5,1.5,3.5,1.5,RTL
13:39:51,227095.0,0.0042397764045745134,0.0035565108992159367,-0.6688028573989868,0.0003683904651552439,0.001432709745131433,-0.00045113934902474284,-35.3628575,149.1648484,271943.0,0.0,1.0,-152.0,0.0,0.0,-1000.0,3.5,5.0,2.5,RTL
13:39:52,105595.0,0.004434811999090016,0.003282690711785108,-0.6689548790454865,0.0012681781081482768,-0.000704038655385375,0.0005831668386235833,-35.3628575,149.1648484,273110.5,0.0,1.0,-152.0,0.0,0.0,-1000.25,4.0,2.25,3.25,RTL
13:39:53,105595.0,0.004888849565759301,0.002853802521713078,-0.6683696210384369,0.0011034517083317041,0.0027801565593108535,0.0005471003241837025,-35.3628575,149.1648484,275049.5,0.0,1.0,-152.0,0.0,0.0,-999.5,4.0,6.0,3.5,RTL
13:39:55,105595.0,0.004581919172778726,0.0033558805007487535,-0.6679155230522156,0.0007809732342138886,0.001317928428761661,-0.0006188210682012141,-35.3628575,149.1648484,278156.5,0.0,1.0,-152.0,0.0,0.0,-999.5,4.0,4.5,2.0,RTL
13:39:56,85202.0,0.004054171848110855,0.00397326797246933,-0.6681843847036362,-0.0005792801384814084,0.00011469837045297027,-0.0006722065736539662,-35.3628575,149.1648484,279320.75,0.0,1.0,-152.0,0.0,0.0,-1000.25,3.0,3.0,2.0,RTL
13:39:57,85202.0,0.00422652019187808,0.0037930342368781567,-0.6682628989219666,0.001381426933221519,0.0008398074423894286,0.0003235313342884183,-35.3628575,149.1648484,281262.0,0.0,1.5,-152.0,0.0,0.0,-1000.0,4.5,4.0,3.0,RTL
13:39:59,85202.0,0.00436788541264832,0.003449927899055183,-0.6684365570545197,0.000582770211622119,0.0006130991969257593,0.0012437208788469434,-35.3628575,149.1648484,284368.0,0.0,1.0,-152.0,0.0,0.0,-999.5,4.0,4.0,4.0,RTL
13:40:00,75708.0,0.004176524584181607,0.0035881222574971616,-0.6683945208787918,0.0001264610909856856,-0.00014402769738808274,0.0005947047029621899,-35.3628575,149.1648484,285536.0,0.0,1.0,-152.0,0.0,0.0,-1000.0,3.25,3.25,3.5,RTL
13:40:01,75708.0,0.004234336549416184,0.0034713149070739746,-0.6685817241668701,0.0013943696394562721,-0.0005353449378162622,0.00032282411120831966,-35.3628575,149.1648484,287478.0,0.0,1.0,-152.0,0.0,0.0,-1000.5,4.5,3.0,3.0,RTL
13:40:03,75708.0,0.004941515391692519,0.0028068136889487505,-0.668477863073349,0.000559856416657567,0.0006086648209020495,0.0013634765055030584,-35.3628575,149.1648484,290585.5,0.0,1.0,-152.0,0.0,0.0,-1000.0,4.0,3.5,4.0,RTL
13:40:04,101138.0,0.004657254088670015,0.003198913880623877,-0.6686080992221832,-2.0630366634577513e-05,0.0010882052592933178,0.00023143127327784896,-35.3628575,149.1648484,291758.5,0.0,1.0,-152.0,0.0,0.0,-999.75,3.25,4.75,3.25,RTL
13:40:05,101138.0,0.004573973827064037,0.0035279353614896536,-0.6686004102230072,0.001196688157506287,0.002250276622362435,0.0027903688605874777,-35.3628575,149.1648484,293693.5,0.0,1.0,-152.0,0.0,0.0,-999.5,4.5,5.5,6.0,RTL
13:40:07,101138.0,0.004099211888387799,0.0037207669811323285,-0.6687144637107849,6.7302025854587555e-06,0.000570013071410358,0.0010773902758955956,-35.3628575,149.1648484,296806.0,0.0,1.5,-152.0,0.0,0.0,-999.5,3.0,3.5,4.0,RTL
13:40:08,200.0,0.004302446148358285,0.0034596743062138557,-0.668797567486763,-0.0003623287775553763,0.00014905253192409873,0.0003409810015000403,-35.3628575,149.1648484,297971.25,0.0,1.0,-152.0,0.0,0.0,-999.75,3.0,3.5,3.25,RTL
13:40:09,200.0,0.004167256876826286,0.0034312239149585366,-0.6686183214187622,0.0016041066264733672,0.000988862826488912,0.001041089417412877,-35.3628575,149.1648484,299912.5,0.0,1.0,-152.0,0.0,0.0,-999.5,5.0,4.5,4.0,RTL
13:40:11,200.0,0.004201930016279221,0.0032625977182760835,-0.6680981814861298,0.0008973553776741028,0.0005981724243611097,-0.0004146535648033023,-35.3628575,149.1648484,303020.0,0.0,1.0,-152.0,0.0,0.0,-1000.0,4.5,4.0,2.5,RTL
13:40:12,54910.0,0.004741269280202687,0.002799269394017756,-0.6682652533054352,0.0012439604033716023,-0.0007394786807708442,-4.546425770968199e-06,-35.3628575,149.1648484,304186.75,0.0,1.0,-152.0,0.0,0.0,-1000.25,4.5,3.0,3.0,RTL
13:40:13,54910.0,0.004711895249783993,0.0031162028899416327,-0.6680659353733063,0.0007618430536240339,0.00022309180349111557,0.0003480977611616254,-35.3628575,149.1648484,306125.5,0.0,1.0,-152.0,0.0,0.0,-1000.5,4.5,3.5,3.5,RTL
13:40:15,54910.0,0.00446984707377851,0.00370510620996356,-0.6682185232639313,0.00027092359960079193,0.002284879796206951,0.0004956845659762621,-35.3628575,149.1648484,309231.5,0.0,1.0,-152.0,0.0,0.0,-999.5,3.5,5.5,3.5,RTL
13:40:16,300000.0,0.0038690799847245216,0.004191685933619738,-0.6682818681001663,0.0002619443694129586,0.0013426729710772634,0.0004703886224888265,-35.3628575,149.1648484,310396.25,0.0,1.0,-152.0,0.0,0.0,-1000.0,3.25,5.0,3.5,RTL
13:40:17,300000.0,0.004135933006182313,0.0034236088395118713,-0.6683837473392487,0.0011199999134987593,-0.0003740900428965688,-0.0006188785191625357,-35.3628575,149.1648484,312337.0,0.0,1.0,-152.0,0.0,0.0,-1000.5,4.5,3.0,3.0,RTL
13:40:19,300000.0,0.004163055447861552,0.003592108841985464,-0.6685131788253784,0.0010481963399797678,0.0014921010006219149,0.00024458265397697687,-35.3628575,149.1648484,315445.0,0.0,1.0,-152.0,0.0,0.0,-999.5,4.5,4.5,3.5,RTL
13:40:20,300000.0,0.004259331268258393,0.0036030335468240082,-0.6685111224651337,0.0009613840375095606,0.0004985056584700942,0.0006858239066787064,-35.3628575,149.1648484,316612.5,0.0,1.0,-152.0,0.0,0.0,-999.75,4.25,4.0,4.0,RTL
13:40:21,300000.0,0.004276093095541,0.0035079745575785637,-0.6685443818569183,0.0013141133822500706,0.0018845729064196348,0.0007247099420055747,-35.3628575,149.1648484,318554.5,0.0,1.0,-152.0,0.0,0.0,-999.5,5.0,5.0,4.0,RTL
13:40:23,300000.0,0.004787944722920656,0.0028153073508292437,-0.6687289178371429,-0.0004972097231075168,0.0011806096881628036,0.0012773736380040646,-35.3628575,149.1648484,321662.0,0.0,1.0,-152.0,0.0,0.0,-999.5,3.5,4.5,4.5,RTL
13:40:24,63875.0,0.004661597195081413,0.0033422823762521148,-0.6686035841703415,-0.0006895400583744049,0.0006545871146954596,-0.0003096931613981724,-35.3628575,149.1648484,322826.25,0.0,1.0,-152.0,0.0,0.0,-1000.0,3.0,4.5,3.0,RTL
13:40:25,63875.0,0.004293173784390092,0.0035169997718185186,-0.668624997138977,-0.0009924222249537706,0.0014022040413692594,0.0018642052309587598,-35.3628575,149.1648484,324767.5,0.0,1.0,-152.0,0.0,0.0,-999.5,2.5,5.0,5.0,RTL
13:40:27,63875.0,0.004036064725369215,0.0035703189205378294,-0.668048232793808,0.0012720586964860559,-0.000485279131680727,0.0010773011017590761,-35.3628575,149.1648484,327881.5,0.0,1.0,-152.0,0.0,0.0,-1000.0,5.0,3.5,4.5,RTL
13:40:28,200.0,0.0036784246331080794,0.0028979312046431005,-0.668145015835762,0.000170139130204916,-0.0007543331594206393,0.00027829373721033335,-35.3628575,149.164848475,329048.5,0.0,1.0,-152.0,0.0,0.0,-1000.0,3.75,2.75,3.5,RTL
13:40:29,200.0,0.003789986716583371,0.0031318831024691463,-0.6682607233524323,0.0005842964164912701,0.0005328608676791191,0.0007618274539709091,-35.3628575,149.1648485,330987.5,0.0,1.0,-152.0,0.0,0.0,-999.5,4.0,4.0,4.5,RTL
13:40:31,200.0,0.0040928274393081665,0.0034180786460638046,-0.668334424495697,0.0016807019710540771,0.001164998859167099,0.0006369124166667461,-35.3628575,149.1648485,334094.5,0.0,1.0,-152.0,0.0,0.0,-999.5,5.0,4.5,4.0,RTL
13:40:32,46451.0,0.004908189526759088,0.0030207372619770467,-0.6685546338558197,0.0007844415958970785,-0.0007443116628564894,0.0008298168540932238,-35.3628575,149.1648485,335258.75,0.0,1.0,-152.0,0.0,0.0,-999.75,4.0,2.5,4.0,RTL
13:40:33,46451.0,0.004229809390380979,0.0029860339127480984,-0.6682185530662537,0.001257175812497735,3.5506091080605984e-05,0.0020658083958551288,-35.3628575,149.1648485,337201.0,0.0,1.0,-152.0,0.0,0.0,-1000.0,5.0,3.5,5.5,RTL
13:40:35,46451.0,0.0026854388415813446,0.0033284449018538,-0.6687505841255188,-0.0023888065479695797,-0.0003417779225856066,-0.0024103811010718346,-35.3628575,149.1648486,340271.0,0.0,0.0,-152.0,0.0,0.0,-1000.0,1.0,3.0,1.0,RTL
13:40:36,134889.0,0.0028214026824571192,0.0030939022544771433,-0.6685384809970856,-9.01739695109427e-05,-0.00023653265088796616,0.00025327131152153015,-35.3628575,149.1648486,341241.75,0.0,0.0,-152.0,0.0,0.0,-1000.25,3.5,3.5,3.5,RTL
13:40:37,134889.0,0.002999525982886553,0.0025056377053260803,-0.6685499846935272,0.0027606873773038387,-0.00019795354455709457,0.0012144832871854305,-35.3628575,149.16484865,342794.5,0.0,0.0,-152.0,0.0,0.0,-1000.0,6.5,3.5,5.0,RTL
13:40:39,134889.0,0.0032272328389808536,0.0025696775410324335,-0.6686525046825409,0.0005419139051809907,-0.0009588915854692459,0.00042945053428411484,-35.3628575,149.1648487,345904.0,0.0,0.0,-152.0,0.0,0.0,-1000.5,4.0,2.5,3.5,RTL
13:40:40,115170.0,0.0035102361580356956,0.0018216395692434162,-0.6686725169420242,0.0012665418907999992,-3.0265189707279205e-05,0.0010586995631456375,-35.3628575,149.1648487,347455.75,0.0,0.0,-152.0,0.0,0.0,-999.5,4.75,3.75,4.5,RTL
13:40:41,115170.0,0.0034578421618789434,0.0020773274009115994,-0.6686927378177643,-0.0018961174646392465,0.00039803306572139263,0.0009498945437371731,-35.3628575,149.1648487,349009.5,0.0,0.0,-152.0,0.0,0.0,-999.5,1.5,4.0,4.0,RTL
13:40:43,115170.0,0.002952145878225565,0.002217381144873798,-0.6683407425880432,0.0005799359641969204,-0.00046808517072349787,0.0009594103321433067,-35.3628575,149.1648487,352113.5,0.0,0.0,-152.0,0.0,0.0,-1000.0,4.0,3.5,4.5,RTL
13:40:44,180112.0,0.002514254505513236,0.0021463544690050185,-0.6680765599012375,-0.001299541792832315,0.00030767632415518165,-0.00015482393791899085,-35.3628575,149.16484872499998,353666.5,0.0,0.0,-152.0,0.0,0.0,-999.75,2.5,3.75,3.5,RTL
13:40:45,180112.0,0.00204879860393703,0.0022274418734014034,-0.6682583093643188,0.00012171710841357708,-0.0008382671512663364,0.0006847971817478538,-35.3628575,149.1648488,355221.5,0.0,-0.5,-152.0,0.0,0.0,-1000.0,4.0,2.5,4.0,RTL
13:40:47,180112.0,0.0028091761050745845,0.0016673902864567935,-0.6682847440242767,-0.00013258541002869606,-0.000913035124540329,-0.001178919686935842,-35.3628575,149.1648488,358330.5,0.0,-1.0,-152.0,0.0,0.0,-1000.0,3.5,3.0,2.5,RTL
13:40:48,200.0,0.003702792397234589,0.0015096786664798856,-0.6682222783565521,0.0003566370578482747,0.000868274481035769,0.00036604306660592556,-35.3628575,149.1648488,359885.0,0.0,-1.0,-152.0,0.0,0.0,-999.75,4.0,4.5,4.0,RTL
13:40:49,200.0,0.003461580607108772,0.002030793228186667,-0.6684103906154633,0.0017192610539495945,-0.00016832910478115082,0.0014577730325981975,-35.3628575,149.1648488,361438.5,0.0,0.0,-152.0,0.0,0.0,-1000.5,5.0,3.5,5.0,RTL
13:40:51,200.0,0.0027309725992381573,0.0019646789296530187,-0.6684094965457916,-0.002029513707384467,-0.00026138732209801674,0.0007436326704919338,-35.3628575,149.1648488,364544.0,0.0,0.0,-152.0,0.0,0.0,-999.5,2.5,3.5,4.5,RTL
13:40:52,147739.0,0.002208505291491747,0.0013307167391758412,-0.6684938073158264,-0.00011012336472049356,0.0003285877755843103,0.0004207404563203454,-35.3628575,149.1648488,366103.0,0.0,-0.75,-152.0,0.0,0.0,-1000.0,3.5,4.0,4.0,RTL
13:40:53,147739.0,0.002325992798432708,0.0022434102138504386,-0.668427973985672,-0.0003233804600313306,0.0010795940179377794,-0.00015730084851384163,-35.3628575,149.1648488,367658.5,0.0,-1.0,-152.0,0.0,0.0,-999.5,3.5,4.5,3.5,RTL
13:40:55,147739.0,0.00213961664121598,0.001501230988651514,-0.6686409115791321,0.00083335698582232,0.00013215700164437294,-0.0005318089388310909,-35.3628575,149.16484885,370766.0,0.0,-1.0,-152.0,0.0,0.0,-999.5,4.5,4.0,3.0,RTL
13:40:56,167013.0,0.0023445863043889403,0.0013828679511789232,-0.668621838092804,0.0004996743518859148,-7.498840568587184e-05,-0.0002585102920420468,-35.3628575,149.1648489,372317.0,0.0,-1.0,-152.0,0.0,0.0,-1000.0,4.25,3.5,3.25,RTL
13:40:57,167013.0,0.0028834613040089607,0.0010388315131422132,-0.6686481237411499,-0.0012966743670403957,0.001202981686219573,-3.1153205782175064e-05,-35.3628575,149.1648489,373870.5,0.0,-1.0,-152.0,0.0,0.0,-999.5,2.5,5.0,3.5,RTL
13:40:59,167013.0,0.0026347002713009715,0.0017724612262099981,-0.6682320535182953,0.002571618650108576,-0.0014160274295136333,0.0006444413447752595,-35.3628575,149.1648489,376977.5,0.0,-1.0,-152.0,0.0,0.0,-1001.0,6.0,2.0,4.0,RTL
13:41:00,300000.0,0.0026481274981051683,0.0015622805512975901,-0.6679766625165939,-0.00040346296736970544,-0.0003173753502778709,-0.000733549299184233,-35.3628575,149.1648489,378532.75,0.0,-1.0,-152.0,0.0,0.0,-999.75,3.0,3.25,2.5,RTL
13:41:01,300000.0,0.002643282525241375,0.0015694540343247354,-0.6680802702903748,-0.0025174865731969476,-0.0015398010145872831,-4.177470691502094e-05,-35.3628575,149.1648489,380084.5,0.0,-1.0,-152.0,0.0,0.0,-1000.0,1.0,2.0,3.5,RTL
13:41:03,300000.0,0.001959144021384418,0.002321769017726183,-0.6680710911750793,0.0015304506523534656,-0.0006998967146500945,-0.0011858877260237932,-35.3628575,149.1648489,383191.5,0.0,-1.0,-152.0,0.0,0.0,-1000.5,5.0,3.0,2.5,RTL
13:41:04,280375.0,0.0022051079431548715,0.0019409128581173718,-0.6681409180164337,-0.00093361537437886,-0.0009291215683333576,-0.000801563321147114,-35.3628575,149.1648489,384743.0,0.0,-1.0,-152.0,0.0,0.0,-1000.0,2.75,2.5,2.75,RTL
13:41:05,280375.0,0.002148356637917459,0.0015828083269298077,-0.668335497379303,-0.00027738430071622133,-0.0007299414137378335,0.00022917566820979118,-35.3628575,149.1648489,386298.5,0.0,-1.0,-152.0,0.0,0.0,-1000.0,3.5,3.0,4.0,RTL
13:41:07,280375.0,0.00254786666482687,0.000929746893234551,-0.6680621206760406,-0.00038089544977992773,-0.0010320462752133608,-0.0001976450439542532,-35.3628575,149.1648489,389410.0,0.0,-1.0,-152.0,0.0,0.0,-1000.0,3.0,2.5,3.5,RTL
13:41:08,263579.0,0.002294242149218917,0.0014356967876665294,-0.66850745677948,0.0006107669323682785,0.0006497183348983526,0.00019939534831792116,-35.3628575,149.1648489,390960.0,0.0,-2.0,-152.0,0.0,0.0,-1000.0,4.0,4.0,3.75,RTL
13:41:09,263579.0,0.002356521785259247,0.0014683240442536771,-0.6685910522937775,9.173539001494646e-05,-0.0014344814699143171,-0.00013569428119808435,-35.3628575,149.1648489,392513.5,0.0,-2.0,-152.0,0.0,0.0,-1000.0,3.5,2.0,3.5,RTL
13:41:11,263579.0,0.0023383068619295955,0.0016841993783600628,-0.6683982610702515,-0.002049048198387027,0.00046688748989254236,-0.0014080906985327601,-35.3628575,149.1648489,395620.5,0.0,-1.0,-152.0,0.0,0.0,-999.5,1.0,3.5,2.5,RTL
13:41:12,113464.0,0.0018667782132979482,0.002344655280467123,-0.6685474961996078,-0.00037408864591270685,-0.00016206101281568408,-0.0006500761373899877,-35.3628575,149.1648489,397180.75,0.0,-1.25,-152.0,0.0,0.0,-1000.25,3.0,3.25,2.75,RTL
13:41:13,113464.0,0.002337489975616336,0.001983300724532455,-0.6685102581977844,0.00039375037886202335,-0.0006328450981527567,-0.0003722835099324584,-35.3628575,149.1648489,398733.5,0.0,-1.0,-152.0,0.0,0.0,-1000.0,4.0,3.0,3.0,RTL
13:41:15,113464.0,0.0024798389058560133,0.0013867479865439236,-0.6682999432086945,-0.0006012606900185347,-0.0008640701416879892,-5.734304431825876e-05,-35.3628575,149.1648489,401841.5,0.0,-1.0,-152.0,0.0,0.0,-1000.0,3.0,2.0,3.5,RTL
13:41:16,242204.0,0.002750797080807388,0.0010029015684267506,-0.6678920090198517,0.00017854012548923492,-0.0002561517176218331,-0.0006585057126358151,-35.3628575,149.1648489,403393.0,0.0,-1.0,-152.0,0.0,0.0,-999.75,3.5,3.0,3.0,RTL
13:41:17,242204.0,0.0025234275963157415,0.0013034536386840045,-0.6678866147994995,-0.0024728861171752214,-0.0007188785821199417,-0.0012578143505379558,-35.3628575,149.1648489,404947.0,0.0,-1.0,-152.0,0.0,0.0,-1000.0,1.0,3.0,2.0,RTL
13:41:19,242204.0,0.0021323499968275428,0.0012778335367329419,-0.6681867241859436,-0.0004739370197057724,-3.727944567799568e-05,-0.0014833168825134635,-35.3628575,149.1648489,408051.0,0.0,-1.5,-152.0,0.0,0.0,-1000.0,2.5,3.5,2.0,RTL
13:41:20,196065.0,0.002462452743202448,0.0015203676011878997,-0.6681496351957321,-0.0008242148323915899,-0.00024474202655255795,0.00016801554011180997,-35.3628575,149.1648489,409604.75,0.0,-2.0,-152.0,0.0,0.0,-999.75,2.5,3.25,3.75,RTL
13:41:21,196065.0,0.0020462824613787234,0.0017652329406701028,-0.6682116389274597,0.0011379806092008948,-0.0007208702154457569,-0.0009859969140961766,-35.3628575,149.1648489,411158.5,0.0,-2.0,-152.0,0.0,0.0,-1000.5,4.5,2.5,2.5,RTL
13:41:23,196065.0,0.0021362105617299676,0.0015984282363206148,-0.66817307472229,-0.00021526147611439228,-0.001190725713968277,0.0004906356334686279,-35.3628575,149.1648489,414266.5,0.0,-1.5,-152.0,0.0,0.0,-1000.0,3.0,2.0,4.0,RTL
13:41:24,88026.0,0.002223618677817285,0.001449810020858422,-0.6683966815471649,-8.766911923885345e-05,-7.33190099708736e-05,-0.00034197926288470626,-35.3628575,149.1648489,415817.75,0.0,-2.0,-152.0,0.0,0.0,-1000.0,3.25,3.25,3.5,RTL
13:41:25,88026.0,0.0026677370769903064,0.0010462950158398598,-0.6682407855987549,0.0002863681875169277,-0.0015038610436022282,-3.125285729765892e-06,-35.3628575,149.1648489,417375.0,0.0,-2.0,-152.0,0.0,0.0,-1000.0,3.5,2.0,3.5,RTL
13:41:27,88026.0,0.0024266161490231752,0.0015212907455861568,-0.6685671508312225,0.00018653844017535448,1.1005904525518417e-05,0.0005643891636282206,-35.3628575,149.1648489,420485.0,0.0,-1.5,-152.0,0.0,0.0,-1000.0,3.5,3.0,4.0,RTL
13:41:28,46004.0,0.002600327890831977,0.0015414410445373505,-0.6684545576572418,0.0009359278483316302,-0.00020917790243402123,0.0001067254925146699,-35.3628575,149.1648489,422036.75,0.0,-1.75,-152.0,0.0,0.0,-1000.0,4.0,3.0,3.5,RTL
13:41:29,46004.0,0.0026875301264226437,0.0016376451239921153,-0.6684255003929138,0.0004770164377987385,0.0005724771181121469,0.0007793956901878119,-35.3628575,149.1648489,423591.5,0.0,-1.0,-152.0,0.0,0.0,-1000.0,3.5,4.0,4.5,RTL
13:41:31,46004.0,0.0017509760218672454,0.002329534152522683,-0.6684516966342926,-0.002719506388530135,-0.00019636884098872542,0.00033795926719903946,-35.3628575,149.1648489,426697.0,0.0,-1.0,-152.0,0.0,0.0,-1000.0,1.0,3.0,3.5,RTL
13:41:32,300000.0,0.0020366240350995213,0.0019169003062415868,-0.6678671389818192,0.0005825298139825463,-0.001179558108560741,-4.629191244021058e-05,-35.3628575,149.1648489,428253.75,0.0,-1.0,-152.0,0.0,0.0,-1000.0,4.0,2.0,3.0,RTL
13:41:33,300000.0,0.0019461826304905117,0.0011876896023750305,-0.6678323149681091,0.0008227173238992691,-0.0020937809604220092,-0.0007109302096068859,-35.3628575,149.1648489,429807.5,0.0,-1.0,-152.0,0.0,0.0,-1000.5,4.0,1.0,2.5,RTL
13:41:35,300000.0,0.002479680464603007,0.0010868059762287885,-0.6679919362068176,-0.0015185045776888728,-0.000254062470048666,-0.0010301492875441909,-35.3628575,149.1648489,432916.5,0.0,-2.0,-152.0,0.0,0.0,-1000.0,1.5,3.0,2.0,RTL
13:41:36,300000.0,0.0024266890832223,0.0014654596452601254,-0.6680880188941956,0.0001807900844141841,-0.0003618961200118065,0.0001241540303453803,-35.3628575,149.1648489,434469.25,0.0,-1.75,-152.0,0.0,0.0,-1000.25,3.25,2.75,3.25,RTL
13:41:37,300000.0,0.0022674244828522205,0.0014595073880627751,-0.6682209074497223,-0.00018449791241437197,-0.00034868239890784025,-0.00017947540618479252,-35.3628575,149.1648489,436021.5,0.0,-2.0,-152.0,0.0,0.0,-1000.0,3.0,2.5,3.5,RTL
13:41:39,300000.0,0.002455477835610509,0.001544527243822813,-0.6682654321193695,0.0015935625415295362,0.00043196091428399086,5.771161522716284e-05,-35.3628575,149.1648489,439127.5,0.0,-1.0,-152.0,0.0,0.0,-1000.5,4.5,3.5,3.5,RTL
13:41:40,30786.0,0.0018804292485583574,0.0022558290511369705,-0.6682264059782028,-0.00046791473869234324,0.0006755161448381841,2.7578789740800858e-06,-35.3628575,149.1648489,440680.5,0.0,-1.25,-152.0,0.0,0.0,-999.75,2.75,4.0,3.25,RTL
13:41:41,30786.0,0.00230088725220412,0.0021160190808586776,-0.6681839823722839,0.0007751024095341563,-0.0007866416126489639,0.0013620512327179313,-35.3628575,149.1648489,442234.0,0.0,-1.0,-152.0,0.0,0.0,-1000.0,4.0,2.5,5.0,RTL
13:41:43,30786.0,0.0026010574074462056,0.001247052219696343,-0.6684679687023163,0.0001650964841246605,-0.000463442993350327,-0.0009564462816342711,-35.3628575,149.1648489,445340.0,0.0,-1.0,-152.0,0.0,0.0,-1000.0,3.0,2.5,2.5,RTL
13:41:44,75951.0,0.0027779118390753865,0.008505870122462511,-0.6682248413562775,-0.00046810461208224297,0.028117260604631156,0.00038975966162979603,-35.362857524999995,149.1648489,446893.75,-0.5,-0.5,-151.5,0.0,0.0,-998.25,2.75,31.25,3.75,RTL
13:41:45,75951.0,0.000620807142695412,0.04987781681120396,-0.6683956384658813,-0.0037365753669291735,0.03880172036588192,-0.0006805344019085169,-35.362858349999996,149.1648497,448435.5,-20.5,15.5,-150.0,4.0,1.5,-998.5,0.0,42.0,2.5,RTL
13:41:47,75951.0,-0.028378467075526714,0.16264783218502998,-0.5454689711332321,-0.044609601609408855,0.05321290343999863,0.26020228827837855,-35.3628705,149.16486170000002,451322.5,-137.5,95.0,-118.5,34.5,12.5,-959.0,-41.0,56.0,263.5,RTL
13:41:48,37726.0,0.03305692854337394,0.15635078586637974,-0.2283131405711174,0.07154260110110044,-0.09721292834728956,0.20552288182079792,-35.3628873,149.16487502500001,452245.75,-242.25,144.75,-53.5,61.5,14.25,-938.0,74.25,-93.25,208.75,RTL
13:41:49,37726.0,0.07970066368579865,0.1442073956131935,-0.1473819985985756,-0.005752831697463989,0.036739750765264034,0.02799655171111226,-35.3629112,149.16489589999998,452477.5,-283.0,225.0,2.0,79.0,10.0,-952.5,-2.0,39.5,31.5,RTL
13:41:51,37726.0,0.009030741639435291,0.19172146916389465,-0.20579924434423447,0.05441316403448582,-0.007656567730009556,-0.06586947105824947,-35.362972799999994,149.16496239999998,452106.5,-404.0,345.5,7.5,137.5,7.0,-1017.0,57.0,-4.5,-62.0,RTL
13:41:52,234455.0,-0.022208847105503082,0.1743822880089283,-0.25062208250164986,-0.06606059148907661,-0.03332094615325332,-0.04367298120632768,-35.36301184999999,149.16500245,452059.0,-456.0,361.25,-3.0,131.0,16.5,-995.75,-62.75,-29.75,-39.25,RTL
13:41:53,234455.0,-0.03491065837442875,0.14010519534349442,-0.2886486351490021,-0.12298940867185593,-0.026130949147045612,-0.013670996529981494,-35.363054500000004,149.16504335000002,452083.0,-477.0,362.0,-7.0,140.5,24.0,-994.0,-119.0,-22.5,-10.0,RTL
13:41:55,234455.0,-0.045374512672424316,0.07944280654191971,-0.3508831262588501,0.4154082387685776,-0.05142392963171005,-0.031039756955578923,-35.363140099999995,149.16512345,452134.0,-451.0,339.0,-5.0,129.0,54.0,-995.0,418.0,-48.0,-27.5,RTL
13:41:56,200.0,-0.06117136403918266,0.032076650531962514,-0.37714290618896484,-0.06730329617857933,-0.04724947549402714,-0.037793845403939486,-35.363179075,149.165159625,452154.25,-397.75,298.5,-2.5,116.0,34.75,-993.75,-64.5,-43.75,-34.25,RTL
13:41:57,200.0,-0.06288478150963783,-0.0197529899305664,-0.3986178934574127,-0.049722105264663696,-0.04985087364912033,-0.04586445540189743,-35.3632116,149.16518985,452148.0,-319.0,237.5,-0.5,102.5,20.5,-1012.5,-47.0,-46.5,-42.0,RTL
13:41:59,200.0,-0.04065757431089878,-0.06833786144852638,-0.4323215186595917,-0.2204328328371048,0.005724279209971428,-0.01232153782621026,-35.3632532,149.16522780000003,452105.0,-135.5,95.0,0.5,37.0,7.0,-997.5,-217.0,8.0,-9.0,RTL
13:42:00,248891.0,-0.018746069632470608,-0.05371436849236488,-0.44782619178295135,-0.04617157578468323,0.02206709748134017,-0.018889714730903506,-35.36326244999999,149.16523595,452091.0,-61.75,41.5,-0.5,18.75,-1.25,-1006.0,-43.25,24.5,-15.5,RTL
13:42:01,248891.0,-0.009098977461690083,-0.03545668628066778,-0.46096275746822357,0.12107029557228088,0.023784571327269077,-0.009038924239575863,-35.36326595,149.1652393,452088.0,-17.5,12.0,-1.0,5.0,18.0,-1007.0,124.5,26.0,-5.0,RTL
13:42:03,248891.0,0.010567689721938223,-0.0020142184221185744,-0.47998251020908356,0.012777268886566162,0.007504134438931942,-0.012856432236731052,-35.36326665,149.1652398,452106.0,7.5,-2.0,-1.0,-1.0,-0.5,-1010.0,15.5,10.0,-9.0,RTL
13:42:04,289707.0,0.008733008013223298,-0.009561107028275728,-0.48793813586235046,0.25110223330557346,-0.000610127579420805,-0.011434557847678661,-35.363266325,149.165239625,452109.25,11.5,-0.5,-0.25,-1.25,13.5,-997.5,253.75,1.75,-7.5,RTL
13:42:05,289707.0,0.009621459757909179,-0.005647131707519293,-0.4949580132961273,-0.008836239576339722,0.0015324975829571486,-0.014021485112607479,-35.363265600000005,149.16523915,452111.5,15.0,-3.0,-1.0,-2.0,-4.0,-1004.0,-6.5,3.5,-10.5,RTL
13:42:07,289707.0,0.01481312420219183,0.0005957007670076564,-0.5075796842575073,0.15571480989456177,0.0013036790769547224,-0.00815868261270225,-35.3632643,149.1652376,452115.0,14.0,1.0,0.0,-1.5,3.5,-993.0,159.0,3.5,-4.0,RTL
13:42:08,150584.0,0.010344673763029277,0.0008529354890924878,-0.5131644457578659,0.11188295483589172,-0.00022356267436407506,-0.005008348845876753,-35.3632639,149.165237225,452098.25,13.0,5.0,9.75,-0.5,18.0,-966.0,115.75,2.0,-1.5,RTL
13:42:09,150584.0,0.028568074107170105,0.001365030708257109,-0.518743634223938,0.6152662485837936,-0.0019307779148221016,-0.014291707135271281,-35.363263599999996,149.16523705,451702.5,11.0,4.5,68.5,0.0,-8.5,-929.5,616.5,0.5,-11.0,RTL
13:42:11,150584.0,0.020260915625840425,0.0021481727017089725,-0.5289284586906433,1.4111399054527283,0.000944596016779542,-0.002773949527181685,-35.363262750000004,149.16523795,449629.0,8.0,2.0,106.5,3.0,34.5,-941.5,1413.5,3.0,0.5,RTL
13:42:12,300000.0,0.00463244999627932,0.001257864831131883,-0.5332446992397308,1.3297469019889832,-0.0021363964187912643,-0.0009702570969238877,-35.363262175,149.16523907500002,448582.5,3.5,-4.5,99.5,1.75,44.75,-1049.75,1332.75,0.0,1.75,RTL
