time_stamp,MODE,lat,lon,relative_alt,roll,pitch,yaw,rollspeed,pitchspeed,yawspeed,xacc,yacc,zacc,xgyro,ygyro,zgyro,vx,vy,vz,RTL_ALT
13:36:12.423,STABILIZE,-35.3632621,149.1652374,0,-0.0002299637853866443,0.0015298505313694477,0.030455734580755234,0.00023308731033466756,0.0001504363608546555,0.0025205938145518303,0,1,-1000,0,0,0,-1,0,-1,1500.0
13:36:12.624,STABILIZE,-35.3632621,149.1652374,0,-0.0002299637853866443,0.0015298505313694477,0.030455734580755234,0.00023308731033466756,0.0001504363608546555,0.0025205938145518303,0,1,-1000,0,0,0,-1,0,-1,1500.0
13:36:12.825,STABILIZE,-35.3632621,149.1652374,0,-0.0002299637853866443,0.0015298505313694477,0.030455734580755234,0.00023308731033466756,0.0001504363608546555,0.0025205938145518303,0,1,-1000,0,0,0,-1,0,-1,1500.0
13:36:13.026,STABILIZE,-35.3632621,149.1652374,0,-0.00019809928198810667,0.001615065266378224,0.02991933934390545,0.00022140447981655598,0.0003146799572277814,0.002402917016297579,0,1,-1000,0,0,0,-1,1,-1,1500.0
13:36:13.234,STABILIZE,-35.3632621,149.1652374,0,-0.00019809928198810667,0.001615065266378224,0.02991933934390545,0.00022140447981655598,0.0003146799572277814,0.002402917016297579,0,1,-1000,0,0,0,-1,1,-1,1500.0
13:36:13.441,STABILIZE,-35.3632621,149.1652374,0,-0.00019809928198810667,0.001615065266378224,0.02991933934390545,0.00022140447981655598,0.0003146799572277814,0.002402917016297579,0,1,-1000,0,0,0,-1,1,-1,1500.0
13:36:13.642,STABILIZE,-35.3632621,149.1652374,0,-0.00019809928198810667,0.001615065266378224,0.02991933934390545,0.00022140447981655598,0.0003146799572277814,0.002402917016297579,0,1,-1000,0,0,0,-1,1,-1,1500.0
13:36:13.844,STABILIZE,-35.3632621,149.1652374,0,-0.00028662619297392666,0.0015723236138001084,0.029335632920265198,0.00020831672009080648,0.0001773099647834897,0.002330898540094495,0,1,-1000,0,0,0,-2,1,-1,1500.0
13:36:14.045,STABILIZE,-35.3632621,149.1652374,0,-0.00031866878271102905,0.0015344800194725394,0.029196107760071754,0.00021813635248690844,0.00023004712420515716,0.0022194914054125547,0,1,-1000,0,0,0,-2,1,-1,1500.0
13:36:14.246,STABILIZE,-35.3632621,149.1652374,0,-0.00031866878271102905,0.0015344800194725394,0.029196107760071754,0.00021813635248690844,0.00023004712420515716,0.0022194914054125547,0,1,-1000,0,0,0,-2,1,-1,1500.0
13:36:14.448,STABILIZE,-35.3632621,149.1652374,0,-0.00031866878271102905,0.0015344800194725394,0.029196107760071754,0.00021813635248690844,0.00023004712420515716,0.0022194914054125547,0,1,-1000,0,0,0,-2,1,-1,1500.0
13:36:14.649,STABILIZE,-35.3632622,149.1652374,0,-0.00031866878271102905,0.0015344800194725394,0.029196107760071754,0.00021813635248690844,0.00023004712420515716,0.0022194914054125547,0,1,-1000,0,1,1,-2,0,-3,1500.0
13:36:14.850,STABILIZE,-35.3632622,149.1652374,0,-0.0003589154512155801,0.0013892038259655237,0.02874763309955597,0.00016147733549587429,0.0002882220142055303,0.0022162587847560644,0,1,-1000,0,1,1,-2,0,-3,1500.0
13:36:15.052,STABILIZE,-35.3632622,149.1652374,0,-0.0003589154512155801,0.0013892038259655237,0.02874763309955597,0.00016147733549587429,0.0002882220142055303,0.0022162587847560644,0,1,-1000,0,1,1,-2,0,-3,1500.0
13:36:15.253,STABILIZE,-35.3632622,149.1652374,0,-0.0003589154512155801,0.0013892038259655237,0.02874763309955597,0.00016147733549587429,0.0002882220142055303,0.0022162587847560644,0,1,-1000,0,1,1,-2,0,-3,1500.0
13:36:15.454,STABILIZE,-35.3632622,149.1652374,0,-0.0003589154512155801,0.0013892038259655237,0.02874763309955597,0.00016147733549587429,0.0002882220142055303,0.0022162587847560644,0,1,-1000,0,1,1,-2,0,-3,1500.0
13:36:15.656,STABILIZE,-35.3632622,149.1652374,0,-0.0002699416072573513,0.0012153016868978739,0.028307246044278145,0.0003064908960368484,0.0001704708847682923,0.0022641937248408794,0,1,-1000,0,1,1,-2,0,-3,1500.0
13:36:15.857,STABILIZE,-35.3632622,149.1652374,6,-0.00026149555924348533,0.0011691119289025664,0.028169123455882072,0.00031786473118700087,0.00028981853392906487,0.0021670167334377766,0,1,-1000,0,0,0,-1,0,-2,1500.0
13:36:16.058,STABILIZE,-35.3632622,149.1652374,7,-0.00027135148411616683,0.001128370757214725,0.02800559252500534,0.00025076227029785514,0.00025614406331442297,0.0021856704261153936,0,1,-1000,0,0,0,-1,1,-2,1500.0
13:36:16.260,STABILIZE,-35.3632622,149.1652374,7,-0.00027135148411616683,0.001128370757214725,0.02800559252500534,0.00025076227029785514,0.00025614406331442297,0.0021856704261153936,0,1,-1000,0,0,0,-1,1,-2,1500.0
13:36:16.463,STABILIZE,-35.3632622,149.1652374,7,-0.00027135148411616683,0.001128370757214725,0.02800559252500534,0.00025076227029785514,0.00025614406331442297,0.0021856704261153936,0,1,-1000,0,0,0,-1,1,-2,1500.0
13:36:16.664,STABILIZE,-35.3632622,149.1652374,7,-0.00027135148411616683,0.001128370757214725,0.02800559252500534,0.00025076227029785514,0.00025614406331442297,0.0021856704261153936,0,1,-1000,0,0,0,-1,1,-2,1500.0
13:36:16.866,STABILIZE,-35.3632622,149.1652374,7,-0.00027135148411616683,0.001128370757214725,0.02800559252500534,0.00025076227029785514,0.00025614406331442297,0.0021856704261153936,0,1,-1000,0,0,1,-1,1,-2,1500.0
13:36:17.067,STABILIZE,-35.3632622,149.1652374,7,-0.00027135148411616683,0.001128370757214725,0.02800559252500534,0.00025076227029785514,0.00025614406331442297,0.0021856704261153936,0,1,-1000,0,0,1,-1,1,-2,1500.0
13:36:17.269,STABILIZE,-35.3632622,149.1652374,7,-0.00027135148411616683,0.001128370757214725,0.02800559252500534,0.00025076227029785514,0.00025614406331442297,0.0021856704261153936,0,1,-1000,0,0,1,-1,1,-2,1500.0
13:36:17.470,STABILIZE,-35.3632622,149.1652374,7,-0.00027135148411616683,0.001128370757214725,0.02800559252500534,0.00025076227029785514,0.00025614406331442297,0.0021856704261153936,0,1,-1000,0,0,1,-1,1,-2,1500.0
13:36:17.672,STABILIZE,-35.3632621,149.1652374,8,-0.00040959977195598185,0.0009862066945061088,0.027145713567733765,0.0002657589502632618,0.0002807833079714328,0.0019953346345573664,0,1,-1000,0,0,0,-1,1,-1,1500.0
13:36:17.873,STABILIZE,-35.3632621,149.1652374,8,-0.00040959977195598185,0.0009862066945061088,0.027145713567733765,0.0002657589502632618,0.0002807833079714328,0.0019953346345573664,0,1,-1000,0,0,0,-1,1,-1,1500.0
13:36:18.075,STABILIZE,-35.3632621,149.1652374,8,-0.00040959977195598185,0.0009862066945061088,0.027145713567733765,0.0002657589502632618,0.0002807833079714328,0.0019953346345573664,0,1,-1000,0,0,0,-1,1,-1,1500.0
13:36:18.276,STABILIZE,-35.3632621,149.1652374,8,-0.00040959977195598185,0.0009862066945061088,0.027145713567733765,0.0002657589502632618,0.0002807833079714328,0.0019953346345573664,0,1,-1000,0,0,0,-1,1,-1,1500.0
13:36:18.478,STABILIZE,-35.3632621,149.1652374,13,-0.0002961383434012532,0.0009522303589619696,0.026754645630717278,0.00027456134557724,0.00023252438404597342,0.0019911853596568108,0,1,-1000,0,1,0,-1,0,-2,1500.0
13:36:18.679,STABILIZE,-35.3632621,149.1652374,13,-0.0002961383434012532,0.0009522303589619696,0.026754645630717278,0.00027456134557724,0.00023252438404597342,0.0019911853596568108,0,1,-1000,0,0,0,-1,0,-2,1500.0
13:36:18.881,STABILIZE,-35.3632621,149.1652374,14,-0.0002961383434012532,0.0009522303589619696,0.026754645630717278,0.00027456134557724,0.00023252438404597342,0.0019911853596568108,0,1,-1000,0,0,0,-1,1,-2,1500.0
13:36:19.083,STABILIZE,-35.3632621,149.1652374,14,-0.0002961383434012532,0.0009522303589619696,0.026754645630717278,0.00027456134557724,0.00023252438404597342,0.0019911853596568108,0,1,-1000,0,0,0,-1,1,-2,1500.0
13:36:19.284,STABILIZE,-35.3632621,149.1652374,14,-0.0002961383434012532,0.0009522303589619696,0.026754645630717278,0.00027456134557724,0.00023252438404597342,0.0019911853596568108,0,1,-1000,0,0,0,-1,1,-2,1500.0
13:36:19.486,STABILIZE,-35.3632621,149.1652374,14,-0.0002961383434012532,0.0009522303589619696,0.026754645630717278,0.00027456134557724,0.00023252438404597342,0.0019911853596568108,0,1,-1000,0,0,0,-1,1,-2,1500.0
13:36:19.687,STABILIZE,-35.3632621,149.1652374,14,-0.0002961383434012532,0.0009522303589619696,0.026754645630717278,0.00027456134557724,0.00023252438404597342,0.0019911853596568108,0,1,-1000,0,0,0,-1,1,-2,1500.0
13:36:19.889,STABILIZE,-35.3632621,149.1652374,14,-0.00035671491059474647,0.0009463589522056282,0.025976432487368584,0.00017902610125020146,0.00021550178644247353,0.0019781929440796375,0,1,-1000,0,0,0,-1,1,-2,1500.0
13:36:20.091,STABILIZE,-35.3632621,149.1652375,10,-0.00038068369030952454,0.0009319890523329377,0.025849785655736923,0.00020401272922754288,0.00018970004748553038,0.0018371485639363527,0,1,-1000,0,0,0,-1,1,-1,1500.0
13:36:20.293,STABILIZE,-35.3632621,149.1652375,9,-0.00041679831338115036,0.0009306021383963525,0.02571716532111168,0.00022821611491963267,0.00021394510986283422,0.0018881236901506782,0,1,-1000,0,1,0,-1,1,-1,1500.0
13:36:20.495,STABILIZE,-35.3632621,149.1652375,9,-0.00041679831338115036,0.0009306021383963525,0.02571716532111168,0.00022821611491963267,0.00021394510986283422,0.0018881236901506782,0,1,-1000,0,1,0,-1,1,-1,1500.0
13:36:20.697,STABILIZE,-35.3632621,149.1652375,8,-0.00043562089558690786,0.0009311021422035992,0.025609215721488,0.00037370319478213787,0.00022533920127898455,0.001959355780854821,0,1,-1000,0,1,0,-1,1,0,1500.0
13:36:20.899,STABILIZE,-35.3632621,149.1652375,8,-0.00043562089558690786,0.0009311021422035992,0.025609215721488,0.00037370319478213787,0.00022533920127898455,0.001959355780854821,0,1,-1000,0,1,0,-1,1,0,1500.0
13:36:21.100,STABILIZE,-35.3632621,149.1652375,8,-0.00043562089558690786,0.0009311021422035992,0.025609215721488,0.00037370319478213787,0.00022533920127898455,0.001959355780854821,0,1,-1000,0,1,0,-1,1,0,1500.0
13:36:21.302,STABILIZE,-35.3632621,149.1652375,8,-0.00043562089558690786,0.0009311021422035992,0.025609215721488,0.00037370319478213787,0.00022533920127898455,0.001959355780854821,0,1,-1000,0,1,0,-1,1,0,1500.0
13:36:21.503,STABILIZE,-35.3632621,149.1652375,8,-0.00043562089558690786,0.0009311021422035992,0.025609215721488,0.00037370319478213787,0.00022533920127898455,0.001959355780854821,0,1,-1000,0,1,0,-1,1,0,1500.0
13:36:21.705,STABILIZE,-35.3632621,149.1652375,8,-0.00043562089558690786,0.0009311021422035992,0.025609215721488,0.00037370319478213787,0.00022533920127898455,0.001959355780854821,0,1,-1000,0,1,0,-1,1,0,1500.0
13:36:21.906,STABILIZE,-35.3632621,149.1652375,8,-0.00043562089558690786,0.0009311021422035992,0.025609215721488,0.00037370319478213787,0.00022533920127898455,0.001959355780854821,0,1,-1000,0,1,0,-1,1,0,1500.0
13:36:22.108,STABILIZE,-35.3632621,149.1652375,8,-0.00043562089558690786,0.0009311021422035992,0.025609215721488,0.00037370319478213787,0.00022533920127898455,0.001959355780854821,0,1,-1000,0,1,0,-1,1,0,1500.0
13:36:22.309,STABILIZE,-35.3632621,149.1652375,8,-0.00043562089558690786,0.0009311021422035992,0.025609215721488,0.00037370319478213787,0.00022533920127898455,0.001959355780854821,0,1,-1000,0,1,0,-1,1,0,1500.0
13:36:22.511,STABILIZE,-35.3632621,149.1652375,8,-0.00043562089558690786,0.0009311021422035992,0.025609215721488,0.00037370319478213787,0.00022533920127898455,0.001959355780854821,0,1,-1000,0,1,0,-1,1,0,1500.0
13:36:22.712,STABILIZE,-35.3632621,149.1652375,8,-0.00043562089558690786,0.0009311021422035992,0.025609215721488,0.00037370319478213787,0.00022533920127898455,0.001959355780854821,0,1,-1000,0,1,0,-1,1,0,1500.0
13:36:22.914,STABILIZE,-35.3632622,149.1652375,5,-0.00043562089558690786,0.0009311021422035992,0.025609215721488,0.00037370319478213787,0.00022533920127898455,0.001959355780854821,0,1,-1000,0,0,0,-1,1,0,1500.0
13:36:23.115,STABILIZE,-35.3632622,149.1652375,5,-0.00043562089558690786,0.0009311021422035992,0.025609215721488,0.00037370319478213787,0.00022533920127898455,0.001959355780854821,0,1,-1000,0,0,0,-1,1,0,1500.0
13:36:23.317,STABILIZE,-35.3632622,149.1652375,5,-0.00043562089558690786,0.0009311021422035992,0.025609215721488,0.00037370319478213787,0.00022533920127898455,0.001959355780854821,0,1,-1000,0,0,0,-1,1,0,1500.0
13:36:23.518,STABILIZE,-35.3632622,149.1652375,5,-0.00043562089558690786,0.0009311021422035992,0.025609215721488,0.00037370319478213787,0.00022533920127898455,0.001959355780854821,0,1,-1000,0,0,0,-1,1,0,1500.0
13:36:23.719,STABILIZE,-35.3632622,149.1652375,5,-0.00043562089558690786,0.0009311021422035992,0.025609215721488,0.00037370319478213787,0.00022533920127898455,0.001959355780854821,0,1,-1000,0,0,0,-1,1,0,1500.0
13:36:23.921,STABILIZE,-35.3632622,149.1652375,0,-0.00043562089558690786,0.0009311021422035992,0.025609215721488,0.00037370319478213787,0.00022533920127898455,0.001959355780854821,0,1,-1000,0,0,0,-1,1,0,1500.0
13:36:24.122,STABILIZE,-35.3632622,149.1652375,0,-0.00043562089558690786,0.0009311021422035992,0.025609215721488,0.00037370319478213787,0.00022533920127898455,0.001959355780854821,0,1,-1000,0,1,0,-1,1,0,1500.0
13:36:24.323,STABILIZE,-35.3632622,149.1652375,0,-0.00043562089558690786,0.0009311021422035992,0.025609215721488,0.00037370319478213787,0.00022533920127898455,0.001959355780854821,0,2,-1000,0,0,1,-1,1,0,1500.0
13:36:24.524,STABILIZE,-35.3632622,149.1652375,0,-0.00043562089558690786,0.0009311021422035992,0.025609215721488,0.00037370319478213787,0.00022533920127898455,0.001959355780854821,0,2,-1000,0,0,1,-1,1,0,1500.0
13:36:24.725,STABILIZE,-35.3632622,149.1652375,0,-0.00043562089558690786,0.0009311021422035992,0.025609215721488,0.00037370319478213787,0.00022533920127898455,0.001959355780854821,0,2,-1000,0,0,1,-1,1,0,1500.0
13:36:24.926,STABILIZE,-35.3632622,149.1652375,0,-0.00043562089558690786,0.0009311021422035992,0.025609215721488,0.00037370319478213787,0.00022533920127898455,0.001959355780854821,0,2,-1000,0,0,1,-1,1,0,1500.0
13:36:25.128,STABILIZE,-35.3632622,149.1652375,0,-0.00043562089558690786,0.0009311021422035992,0.025609215721488,0.00037370319478213787,0.00022533920127898455,0.001959355780854821,0,2,-1000,0,0,1,-1,1,0,1500.0
13:36:25.329,STABILIZE,-35.3632622,149.1652375,0,-0.00043562089558690786,0.0009311021422035992,0.025609215721488,0.00037370319478213787,0.00022533920127898455,0.001959355780854821,0,2,-1000,0,0,1,-1,1,0,1500.0
13:36:25.530,STABILIZE,-35.3632622,149.1652375,0,-0.00043562089558690786,0.0009311021422035992,0.025609215721488,0.00037370319478213787,0.00022533920127898455,0.001959355780854821,0,2,-1000,0,0,1,-1,1,0,1500.0
13:36:25.731,STABILIZE,-35.3632622,149.1652375,0,-0.00043562089558690786,0.0009311021422035992,0.025609215721488,0.00037370319478213787,0.00022533920127898455,0.001959355780854821,0,2,-1000,0,0,1,-1,1,0,1500.0
13:36:25.933,STABILIZE,-35.3632622,149.1652375,0,-0.00043562089558690786,0.0009311021422035992,0.025609215721488,0.00037370319478213787,0.00022533920127898455,0.001959355780854821,0,2,-1000,0,0,1,-1,1,0,1500.0
13:36:26.134,STABILIZE,-35.3632622,149.1652375,0,-0.00043562089558690786,0.0009311021422035992,0.025609215721488,0.00037370319478213787,0.00022533920127898455,0.001959355780854821,0,2,-1000,0,0,1,-1,1,0,1500.0
13:36:26.335,STABILIZE,-35.3632622,149.1652375,0,-0.0008001114474609494,0.0009666609694249928,0.02332417294383049,0.00029820873169228435,0.0003059030859731138,0.00167824886739254,0,1,-1000,0,0,0,-1,1,0,1500.0
13:36:26.536,STABILIZE,-35.3632622,149.1652375,0,-0.0008198914001695812,0.0009685549302957952,0.023261986672878265,0.0003330123145133257,0.00022224010899662971,0.0016777787823230028,0,1,-1000,0,0,1,-1,1,0,1500.0
13:36:26.737,STABILIZE,-35.3632622,149.1652375,0,-0.0008198914001695812,0.0009685549302957952,0.023261986672878265,0.0003330123145133257,0.00022224010899662971,0.0016777787823230028,0,1,-1000,0,0,1,-1,1,0,1500.0
13:36:26.938,STABILIZE,-35.3632622,149.1652375,0,-0.0008198914001695812,0.0009685549302957952,0.023261986672878265,0.0003330123145133257,0.00022224010899662971,0.0016777787823230028,0,2,-1000,1,1,0,-1,1,0,1500.0
13:36:27.149,AUTO,-35.3632622,149.1652375,0,-0.0008198914001695812,0.0009685549302957952,0.023261986672878265,0.0003330123145133257,0.00022224010899662971,0.0016777787823230028,0,2,-1000,1,1,0,-1,1,0,1500.0
13:36:27.350,AUTO,-35.3632622,149.1652375,0,-0.0008198914001695812,0.0009685549302957952,0.023261986672878265,0.0003330123145133257,0.00022224010899662971,0.0016777787823230028,0,2,-1000,1,1,0,-1,1,0,1500.0
13:36:27.552,AUTO,-35.3632622,149.1652375,0,-0.0009097994188778102,0.0009864515159279108,0.022982608526945114,0.00015061162412166595,0.00026403472293168306,0.001526742009446025,0,1,-1000,0,1,0,-1,1,0,1500.0
13:36:27.754,AUTO,-35.3632622,149.1652375,0,-0.0009097994188778102,0.0009864515159279108,0.022982608526945114,0.00015061162412166595,0.00026403472293168306,0.001526742009446025,0,1,-1000,0,1,0,-1,1,0,1500.0
13:36:27.955,AUTO,-35.3632622,149.1652375,0,-0.0009197628824040294,0.0009930250234901905,0.022913295775651932,0.00023520819377154112,0.00015171803534030914,0.0016966323601081967,0,2,-1000,0,1,0,-1,1,0,1500.0
13:36:28.170,AUTO,-35.3632621,149.1652375,0,-0.00059922767104581,0.0010095495963469148,0.022862505167722702,0.004390266723930836,0.00028562103398144245,0.0016031842678785324,0,25,-964,4,0,0,0,1,2,1500.0
13:36:28.371,AUTO,-35.3632621,149.1652375,0,-0.0005919891991652548,0.001049232087098062,0.022801775485277176,0.0003381798160262406,0.0002145471516996622,0.00156976783182472,0,2,-1000,0,1,0,0,1,2,279890.0
13:36:28.573,AUTO,-35.3632621,149.1652375,0,-0.0005691538681276143,0.0010964929824694991,0.022711552679538727,0.00027310638688504696,0.0002578638377599418,0.0015093362890183926,0,1,-1000,0,0,0,0,0,2,279890.0
13:36:28.774,AUTO,-35.3632621,149.1652375,0,-0.0005691538681276143,0.0010964929824694991,0.022711552679538727,0.00027310638688504696,0.0002578638377599418,0.0015093362890183926,0,1,-1000,0,0,0,0,0,2,279890.0
13:36:28.976,AUTO,-35.3632621,149.1652375,0,-0.0005310645210556686,0.0011520262341946363,0.02263827808201313,0.0002523192670196295,0.0003200222854502499,0.0014213072136044502,0,1,-1000,1,1,1,0,0,2,279890.0
13:36:29.178,AUTO,-35.3632621,149.1652375,0,-0.0005310645210556686,0.0011520262341946363,0.02263827808201313,0.0002523192670196295,0.0003200222854502499,0.0014213072136044502,0,1,-1000,1,1,1,0,0,2,279890.0
13:36:29.380,AUTO,-35.3632621,149.1652375,0,-0.0005310645210556686,0.0011520262341946363,0.02263827808201313,0.0002523192670196295,0.0003200222854502499,0.0014213072136044502,0,1,-1000,1,1,1,0,0,2,279890.0
13:36:29.581,AUTO,-35.3632621,149.1652375,0,-0.000383869803044945,0.001361129921860993,0.022430311888456345,0.00024251133436337113,0.00031579018104821444,0.0015493598766624928,0,1,-1000,0,1,0,0,0,2,279890.0
13:36:29.784,AUTO,-35.3632621,149.1652375,0,-0.000322700449032709,0.0014305857475847006,0.022349119186401367,0.00029697013087570667,0.00031281408155336976,0.0014832202577963471,0,1,-1000,0,1,0,0,0,1,279890.0
13:36:29.985,AUTO,-35.3632621,149.1652375,0,-0.000322700449032709,0.0014305857475847006,0.022349119186401367,0.00029697013087570667,0.00031281408155336976,0.0014832202577963471,0,1,-1000,0,1,0,0,0,1,279890.0
13:36:30.187,AUTO,-35.3632621,149.1652374,0,-0.0002673931303434074,0.0015031943330541253,0.022268857806921005,0.0003113655839115381,0.0003712301258929074,0.0015517831780016422,0,1,-1000,0,0,0,0,0,1,279890.0
13:36:30.388,AUTO,-35.3632621,149.1652374,0,-0.00020045189012307674,0.0015761441318318248,0.022179175168275833,0.00037464970955625176,0.0002401535166427493,0.001407918520271778,0,1,-1000,0,1,1,0,0,1,279890.0
13:36:30.589,AUTO,-35.3632621,149.1652374,0,-0.00013828021474182606,0.001654313993640244,0.022092001512646675,0.00024818151723593473,0.00036961317528039217,0.0015397720271721482,0,1,-1000,0,1,0,0,0,1,279890.0
13:36:30.791,AUTO,-35.3632621,149.1652374,0,-6.73567337798886e-05,0.0017337178578600287,0.0220075361430645,0.0003254693001508713,0.00026802031788975,0.0015031592920422554,0,2,-1000,0,0,0,0,0,1,279890.0
13:36:30.992,AUTO,-35.3632621,149.1652374,0,-6.73567337798886e-05,0.0017337178578600287,0.0220075361430645,0.0003254693001508713,0.00026802031788975,0.0015031592920422554,0,2,-1000,0,0,0,0,0,1,279890.0
13:36:31.194,AUTO,-35.3632621,149.1652374,0,-6.73567337798886e-05,0.0017337178578600287,0.0220075361430645,0.0003254693001508713,0.00026802031788975,0.0015031592920422554,0,2,-1000,0,0,0,0,0,1,279890.0
13:36:31.396,AUTO,-35.3632621,149.1652374,0,-6.73567337798886e-05,0.0017337178578600287,0.0220075361430645,0.0003254693001508713,0.00026802031788975,0.0015031592920422554,0,2,-1000,0,0,0,0,0,1,279890.0
13:36:31.597,AUTO,-35.3632621,149.1652375,170,0.0036306818947196007,0.00015412944776471704,0.021984945982694626,0.004982322454452515,0.00580188725143671,0.00199478049762547,0,0,-1129,5,6,1,0,0,-68,279890.0
13:36:31.798,AUTO,-35.3632621,149.1652375,380,0.0023765552323311567,0.0011792659061029553,0.021812492981553078,-0.006792272906750441,0.003606129437685013,0.0014233144465833902,0,0,-1108,-6,4,0,0,0,-96,279890.0
13:36:32.000,AUTO,-35.3632621,149.1652375,380,0.0023765552323311567,0.0011792659061029553,0.021812492981553078,-0.006792272906750441,0.003606129437685013,0.0014233144465833902,0,0,-1108,-6,4,0,0,0,-96,279890.0
13:36:32.201,AUTO,-35.3632621,149.1652375,656,0.00155096803791821,0.0015670891152694821,0.021693117916584015,-0.0044314442202448845,0.0005072075291536748,0.001866344129666686,0,0,-1090,-3,1,1,0,0,-120,279890.0
13:36:32.403,AUTO,-35.3632621,149.1652375,987,0.009070510976016521,0.0009295663330703974,0.021271059289574623,0.04694920778274536,-0.005440727341920137,0.0009024891187436879,0,0,-1045,47,-4,0,0,1,-136,71751.0
13:36:32.604,AUTO,-35.363262,149.1652375,1350,0.020888788625597954,-0.0007719843997620046,0.02113768644630909,0.04713831841945648,-0.00729220500215888,0.0019130627624690533,0,0,-1019,47,-6,1,0,4,-143,71751.0
13:36:32.806,AUTO,-35.363262,149.1652377,1727,0.03238900005817413,-0.0026782918721437454,0.021186966449022293,0.04507732763886452,-0.007830237038433552,0.002633173018693924,0,-1,-1008,45,-7,2,1,10,-146,71751.0
13:36:33.007,AUTO,-35.363262,149.1652377,1727,0.03238900005817413,-0.0026782918721437454,0.021186966449022293,0.04507732763886452,-0.007830237038433552,0.002633173018693924,0,-1,-1008,45,-7,2,1,10,-146,71751.0
13:36:33.209,AUTO,-35.363262,149.1652377,1727,0.03238900005817413,-0.0026782918721437454,0.021186966449022293,0.04507732763886452,-0.007830237038433552,0.002633173018693924,0,-1,-1008,45,-7,2,1,10,-146,71751.0
13:36:33.411,AUTO,-35.363262,149.1652377,1727,0.03238900005817413,-0.0026782918721437454,0.021186966449022293,0.04507732763886452,-0.007830237038433552,0.002633173018693924,0,-1,-1008,45,-7,2,1,10,-146,71751.0
13:36:33.613,AUTO,-35.3632616,149.1652396,2880,0.062275052070617676,-0.009972344152629375,-0.007212664000689983,0.014623084105551243,0.00011051318142563105,-0.028643667697906494,1,-8,-995,15,0,-29,8,41,-147,71751.0
13:36:33.814,AUTO,-35.3632614,149.1652408,3260,0.046310048550367355,0.009172655642032623,-0.027769990265369415,-0.12034061551094055,0.11052465438842773,-0.10857721418142319,2,-10,-990,-119,111,-108,10,51,-145,71751.0
13:36:34.016,AUTO,-35.3632614,149.1652408,3260,0.046310048550367355,0.009172655642032623,-0.027769990265369415,-0.12034061551094055,0.11052465438842773,-0.10857721418142319,2,-10,-990,-119,111,-108,10,51,-145,71751.0
13:36:34.218,AUTO,-35.3632612,149.1652423,3635,0.00379993231035769,0.024288950487971306,-0.04929320514202118,-0.18400098383426666,0.009242513217031956,-0.07531522959470749,5,-16,-997,-183,9,-75,7,54,-143,71751.0
13:36:34.420,AUTO,-35.363261,149.1652437,4012,-0.024452587589621544,0.022035174071788788,-0.06504844129085541,-0.06346065551042557,-0.0143078388646245,-0.06133503466844559,4,-9,-1011,-63,-13,-61,3,47,-146,71751.0
13:36:34.621,AUTO,-35.3632609,149.1652448,4394,-0.03415852040052414,0.01755828969180584,-0.07725576311349869,-0.021786412224173546,-0.012626207433640957,-0.04893649369478226,4,-10,-1007,-21,-11,-49,0,37,-148,71751.0
13:36:34.823,AUTO,-35.3632609,149.1652457,4779,-0.03950337693095207,0.012611962854862213,-0.08672304451465607,-0.031772930175065994,-0.022340090945363045,-0.030810941010713577,4,-6,-1001,-31,-22,-31,-2,26,-149,71751.0
13:36:35.025,AUTO,-35.3632609,149.1652457,4779,-0.03950337693095207,0.012611962854862213,-0.08672304451465607,-0.031772930175065994,-0.022340090945363045,-0.030810941010713577,4,-6,-1001,-31,-22,-31,-2,26,-149,71751.0
13:36:35.227,AUTO,-35.3632609,149.1652457,4779,-0.03950337693095207,0.012611962854862213,-0.08672304451465607,-0.031772930175065994,-0.022340090945363045,-0.030810941010713577,4,-6,-1001,-31,-22,-31,-2,26,-149,71751.0
13:36:35.429,AUTO,-35.3632609,149.1652457,4779,-0.03950337693095207,0.012611962854862213,-0.08672304451465607,-0.031772930175065994,-0.022340090945363045,-0.030810941010713577,4,-6,-1001,-31,-22,-31,-2,26,-149,71751.0
13:36:35.631,AUTO,-35.363261,149.1652461,5930,-0.07232674211263657,-0.009863818995654583,-0.09061019122600555,0.03672197088599205,-0.003969660960137844,-0.005306112580001354,0,2,-1004,37,-3,-5,-3,-21,-148,71751.0
13:36:35.833,AUTO,-35.3632611,149.1652454,6313,-0.05982982739806175,-0.010520797222852707,-0.0917757898569107,0.05534299463033676,-0.0007544098771177232,-0.0017802668735384941,-3,5,-1001,55,0,-2,-2,-37,-148,71751.0
13:36:36.035,AUTO,-35.3632611,149.1652454,6313,-0.05982982739806175,-0.010520797222852707,-0.0917757898569107,0.05534299463033676,-0.0007544098771177232,-0.0017802668735384941,-3,5,-1001,55,0,-2,-2,-37,-148,71751.0
13:36:36.237,AUTO,-35.3632611,149.1652442,6697,-0.04532680660486221,-0.00984541792422533,-0.09290601313114166,0.05936858803033829,0.005411116871982813,-2.448796294629574e-07,-5,11,-1001,59,6,0,-1,-48,-148,200.0
13:36:36.439,AUTO,-35.3632612,149.1652427,7081,-0.0298949982970953,-0.007797230966389179,-0.09372744709253311,0.06425714492797852,0.010321521200239658,0.0013699521077796817,-6,9,-1002,64,11,0,-1,-56,-148,200.0
13:36:36.641,AUTO,-35.3632612,149.1652411,7470,-0.013679740019142628,-0.004669264890253544,-0.0939333587884903,0.06433703750371933,0.013554924167692661,0.0024866098538041115,-8,14,-1003,65,14,2,-1,-59,-149,200.0
13:36:36.843,AUTO,-35.3632613,149.1652394,7857,0.002590491436421871,-0.001082742353901267,-0.09352433681488037,0.06631482392549515,0.014673720113933086,0.003251297865062952,-7,11,-1003,66,15,3,-2,-58,-150,200.0
13:36:37.050,AUTO,-35.3632613,149.1652394,7857,0.002590491436421871,-0.001082742353901267,-0.09352433681488037,0.06631482392549515,0.014673720113933086,0.003251297865062952,-7,11,-1003,66,15,3,-2,-58,-150,200.0
13:36:37.253,AUTO,-35.3632613,149.1652394,7857,0.002590491436421871,-0.001082742353901267,-0.09352433681488037,0.06631482392549515,0.014673720113933086,0.003251297865062952,-7,11,-1003,66,15,3,-2,-58,-150,200.0
13:36:37.454,AUTO,-35.3632613,149.1652394,7857,0.002590491436421871,-0.001082742353901267,-0.09352433681488037,0.06631482392549515,0.014673720113933086,0.003251297865062952,-7,11,-1003,66,15,3,-2,-58,-150,200.0
13:36:37.657,AUTO,-35.3632616,149.1652353,9026,0.05070195347070694,0.008134900592267513,-0.09044171869754791,0.062211133539676666,0.007764204405248165,0.004608477000147104,-4,8,-1003,62,8,4,-6,-32,-152,200.0
13:36:37.859,AUTO,-35.3632617,149.1652345,9420,0.06559441983699799,0.009257777594029903,-0.089214026927948,0.05849294364452362,0.0024895973037928343,0.004732975736260414,-2,7,-1001,59,3,4,-7,-17,-153,200.0
13:36:38.061,AUTO,-35.3632619,149.1652342,9813,0.06691795587539673,0.007945113815367222,-0.08728574961423874,-0.04627472907304764,-0.012225940823554993,0.0115503566339612,0,3,-992,-45,-11,11,-8,0,-151,200.0
13:36:38.263,AUTO,-35.3632619,149.1652342,9813,0.06691795587539673,0.007945113815367222,-0.08728574961423874,-0.04627472907304764,-0.012225940823554993,0.0115503566339612,0,3,-992,-45,-11,11,-8,0,-151,200.0
13:36:38.465,AUTO,-35.3632621,149.1652343,10199,0.04778660461306572,0.00394310662522912,-0.08516300469636917,-0.0922340601682663,-0.01843344233930111,0.009205774404108524,1,0,-994,-91,-17,8,-7,12,-149,200.0
13:36:38.672,AUTO,-35.3632622,149.1652345,10583,0.025617163628339767,-8.069735486060381e-05,-0.08453594893217087,-0.08384416252374649,-0.01305338367819786,-0.0006154979928396642,2,-2,-999,-83,-12,0,-6,20,-148,200.0
13:36:38.874,AUTO,-35.3632624,149.165235,10966,0.007657642476260662,-0.0025343240704387426,-0.08622054010629654,-0.06125153228640556,-0.008037804625928402,-0.010483191348612309,3,-4,-1002,-60,-7,-11,-4,22,-148,200.0
13:36:39.076,AUTO,-35.3632624,149.165235,10966,0.007657642476260662,-0.0025343240704387426,-0.08622054010629654,-0.06125153228640556,-0.008037804625928402,-0.010483191348612309,3,-4,-1002,-60,-7,-11,-4,22,-148,200.0
13:36:39.278,AUTO,-35.3632624,149.165235,10966,0.007657642476260662,-0.0025343240704387426,-0.08622054010629654,-0.06125153228640556,-0.008037804625928402,-0.010483191348612309,3,-4,-1002,-60,-7,-11,-4,22,-148,200.0
13:36:39.480,AUTO,-35.3632624,149.165235,10966,0.007657642476260662,-0.0025343240704387426,-0.08622054010629654,-0.06125153228640556,-0.008037804625928402,-0.010483191348612309,3,-4,-1002,-60,-7,-11,-4,22,-148,200.0
13:36:39.682,AUTO,-35.3632624,149.1652363,12125,-0.014447983354330063,-0.0047601573169231415,-0.10097010433673859,-0.0038335833232849836,0.0016690145712345839,-0.023452945053577423,1,-2,-1002,-3,2,-23,1,11,-151,200.0
13:36:39.883,AUTO,-35.3632624,149.1652365,12513,-0.0143421720713377,-0.004099168349057436,-0.10771995037794113,0.00535328546538949,0.004393998067826033,-0.02518705651164055,0,-2,-1001,5,5,-25,2,5,-151,200.0
13:36:40.085,AUTO,-35.3632624,149.1652366,12902,-0.011885001324117184,-0.0028318047989159822,-0.11476106196641922,0.012935754843056202,0.005348486360162497,-0.024399565532803535,0,-1,-1001,13,5,-24,3,1,-151,200.0
13:36:40.286,AUTO,-35.3632624,149.1652366,12902,-0.011885001324117184,-0.0028318047989159822,-0.11476106196641922,0.012935754843056202,0.005348486360162497,-0.024399565532803535,0,-1,-1001,13,5,-24,3,1,-151,42705.0
13:36:40.488,AUTO,-35.3632623,149.1652366,13292,-0.008275351487100124,-0.0018390333279967308,-0.12115795910358429,0.016458701342344284,0.004245482850819826,-0.02282245084643364,0,0,-1000,16,4,-23,4,-2,-152,42705.0
13:36:40.690,AUTO,-35.3632622,149.1652365,13682,-0.0039408402517437935,-0.00046939379535615444,-0.1273116171360016,0.01703454926609993,0.005867813713848591,-0.022079166024923325,-2,0,-1000,17,6,-22,4,-4,-152,42705.0
13:36:40.891,AUTO,-35.3632621,149.1652364,14072,9.9231066997163e-05,0.0011909938184544444,-0.13319222629070282,0.0164817962795496,0.007832233794033527,-0.021454565227031708,-2,0,-1000,17,8,-22,4,-5,-152,42705.0
13:36:41.093,AUTO,-35.3632621,149.1652364,14072,9.9231066997163e-05,0.0011909938184544444,-0.13319222629070282,0.0164817962795496,0.007832233794033527,-0.021454565227031708,-2,0,-1000,17,8,-22,4,-5,-152,42705.0
13:36:41.295,AUTO,-35.3632621,149.1652364,14072,9.9231066997163e-05,0.0011909938184544444,-0.13319222629070282,0.0164817962795496,0.007832233794033527,-0.021454565227031708,-2,0,-1000,17,8,-22,4,-5,-152,42705.0
13:36:41.497,AUTO,-35.3632621,149.1652364,14072,9.9231066997163e-05,0.0011909938184544444,-0.13319222629070282,0.0164817962795496,0.007832233794033527,-0.021454565227031708,-2,0,-1000,17,8,-22,4,-5,-152,42705.0
13:36:41.698,AUTO,-35.3632618,149.1652358,15242,0.007805297151207924,0.005851298570632935,-0.1489448845386505,0.004753664135932922,0.004305341746658087,-0.018249673768877983,-1,0,-999,5,5,-18,2,-3,-152,42705.0
13:36:41.900,AUTO,-35.3632617,149.1652357,15632,0.008764365687966347,0.006554791703820229,-0.1531534045934677,0.0039013242349028587,0.003082448383793235,-0.01578645221889019,-1,0,-1000,4,4,-16,1,-2,-152,42705.0
13:36:42.101,AUTO,-35.3632617,149.1652356,16022,0.00946103222668171,0.006932151038199663,-0.1569783240556717,0.0019372844835743308,0.00287042954005301,-0.013459502719342709,-1,0,-1000,2,3,-13,0,0,-152,42705.0
13:36:42.303,AUTO,-35.3632616,149.1652355,16412,0.00940090510994196,0.006816267501562834,-0.16029363870620728,-0.0017158372793346643,-0.0009132354753091931,-0.012380966916680336,0,0,-999,-1,0,-12,0,1,-152,42705.0
13:36:42.504,AUTO,-35.3632616,149.1652355,16412,0.00940090510994196,0.006816267501562834,-0.16029363870620728,-0.0017158372793346643,-0.0009132354753091931,-0.012380966916680336,0,0,-999,-1,0,-12,0,1,-152,42705.0
13:36:42.706,AUTO,-35.3632616,149.1652355,16801,0.00874399859458208,0.006322747096419334,-0.1633829027414322,-0.004141486715525389,-0.001553812762722373,-0.013180762529373169,0,0,-1000,-3,0,-13,-1,2,-152,42705.0
13:36:42.908,AUTO,-35.3632616,149.1652356,17190,0.0076913125813007355,0.006041808985173702,-0.1666804999113083,-0.001978387124836445,-0.00017969048349186778,-0.013017572462558746,0,0,-1000,-1,0,-13,-2,3,-152,42705.0
13:36:43.109,AUTO,-35.3632616,149.1652356,17190,0.0076913125813007355,0.006041808985173702,-0.1666804999113083,-0.001978387124836445,-0.00017969048349186778,-0.013017572462558746,0,0,-1000,-1,0,-13,-2,3,-152,42705.0
13:36:43.311,AUTO,-35.3632616,149.1652356,17190,0.0076913125813007355,0.006041808985173702,-0.1666804999113083,-0.001978387124836445,-0.00017969048349186778,-0.013017572462558746,0,0,-1000,-1,0,-13,-2,3,-152,42705.0
13:36:43.513,AUTO,-35.3632616,149.1652356,17190,0.0076913125813007355,0.006041808985173702,-0.1666804999113083,-0.001978387124836445,-0.00017969048349186778,-0.013017572462558746,0,0,-1000,-1,0,-13,-2,3,-152,42705.0
13:36:43.714,AUTO,-35.3632616,149.1652357,18359,0.005105511751025915,0.004492089152336121,-0.17692342400550842,-0.0016135337064042687,-0.001833275775425136,-0.016386371105909348,0,0,-1000,0,-1,-16,-3,5,-152,42705.0
13:36:43.916,AUTO,-35.3632616,149.1652358,18749,0.004371799062937498,0.004142069723457098,-0.18085210025310516,-0.0014092065393924713,0.0005205022171139717,-0.017287274822592735,0,0,-1000,0,1,-17,-3,5,-152,42705.0
13:36:44.117,AUTO,-35.3632616,149.1652359,19146,-0.001476943725720048,0.00409939419478178,-0.1852470487356186,-0.055788177996873856,-0.0003331312327645719,-0.017099130898714066,0,-1,-995,-55,0,-17,-3,5,-151,42705.0
13:36:44.319,AUTO,-35.3632617,149.1652359,19532,-0.02176918461918831,0.00376518745906651,-0.18993723392486572,-0.09651178121566772,-0.0019710457418113947,-0.019970940425992012,0,-1,-996,-95,-1,-20,-3,1,-150,192517.0
13:36:44.520,AUTO,-35.3632617,149.1652359,19532,-0.02176918461918831,0.00376518745906651,-0.18993723392486572,-0.09651178121566772,-0.0019710457418113947,-0.019970940425992012,0,-1,-996,-95,-1,-20,-3,1,-150,192517.0
13:36:44.722,AUTO,-35.3632617,149.1652358,19915,-0.043417658656835556,0.007369427476078272,-0.18775923550128937,-0.05517616495490074,0.05135976895689964,0.08053313940763474,0,0,-985,-54,52,80,-5,-7,-148,192517.0
13:36:44.924,AUTO,-35.3632618,149.1652355,20290,-0.04872085526585579,0.031727708876132965,-0.1355258971452713,-0.0112153934314847,0.10206837207078934,0.3284429907798767,0,2,-981,-10,102,327,-11,-17,-144,192517.0
13:36:45.125,AUTO,-35.3632618,149.1652355,20290,-0.04872085526585579,0.031727708876132965,-0.1355258971452713,-0.0112153934314847,0.10206837207078934,0.3284429907798767,0,2,-981,-10,102,327,-11,-17,-144,192517.0
13:36:45.327,AUTO,-35.3632618,149.1652355,20290,-0.04872085526585579,0.031727708876132965,-0.1355258971452713,-0.0112153934314847,0.10206837207078934,0.3284429907798767,0,2,-981,-10,102,327,-11,-17,-144,192517.0
13:36:45.529,AUTO,-35.3632618,149.1652355,20290,-0.04872085526585579,0.031727708876132965,-0.1355258971452713,-0.0112153934314847,0.10206837207078934,0.3284429907798767,0,2,-981,-10,102,327,-11,-17,-144,192517.0
13:36:45.730,AUTO,-35.3632634,149.1652329,21296,0.012682993896305561,-0.010532227344810963,0.08606228977441788,0.1272580325603485,-0.13975904881954193,0.04484507068991661,2,11,-957,127,-138,44,-33,-34,-116,192517.0
13:36:45.932,AUTO,-35.363264,149.165232,21581,0.03900761157274246,-0.03468606248497963,0.08495733141899109,0.08265582472085953,-0.06089774891734123,-0.03337329626083374,2,9,-959,83,-60,-33,-26,-25,-106,192517.0
13:36:46.134,AUTO,-35.3632645,149.1652315,21841,0.05443798750638962,-0.04219890013337135,0.0738569125533104,0.03999650105834007,-0.012258823029696941,-0.04710831120610237,1,6,-962,40,-11,-47,-17,-12,-96,192517.0
13:36:46.336,AUTO,-35.3632647,149.1652312,22074,0.05911501497030258,-0.04084913805127144,0.06406756490468979,-0.001132457866333425,0.013596444390714169,-0.033078715205192566,1,2,-966,0,14,-33,-7,1,-86,192517.0
13:36:46.538,AUTO,-35.3632647,149.1652312,22074,0.05911501497030258,-0.04084913805127144,0.06406756490468979,-0.001132457866333425,0.013596444390714169,-0.033078715205192566,1,2,-966,0,14,-33,-7,1,-86,192517.0
13:36:46.742,AUTO,-35.3632648,149.1652314,22285,0.05532596632838249,-0.03503880277276039,0.058324508368968964,-0.02580922842025757,0.02832389995455742,-0.01667867787182331,0,-1,-969,-25,29,-16,1,15,-78,192517.0
13:36:46.944,AUTO,-35.3632647,149.1652318,22475,0.046811383217573166,-0.026810966432094574,0.05586150661110878,-0.03576390817761421,0.03451790660619736,-0.005751599092036486,1,-5,-973,-35,35,-5,8,26,-71,192517.0
13:36:47.154,AUTO,-35.3632647,149.1652318,22475,0.046811383217573166,-0.026810966432094574,0.05586150661110878,-0.03576390817761421,0.03451790660619736,-0.005751599092036486,1,-5,-973,-35,35,-5,8,26,-71,192517.0
13:36:47.356,AUTO,-35.3632647,149.1652318,22475,0.046811383217573166,-0.026810966432094574,0.05586150661110878,-0.03576390817761421,0.03451790660619736,-0.005751599092036486,1,-5,-973,-35,35,-5,8,26,-71,192517.0
13:36:47.558,AUTO,-35.3632637,149.1652344,22947,0.014662697911262512,-0.0006770354812033474,0.05414856970310211,-0.027886895462870598,0.030850380659103394,-0.00043194566387683153,0,-10,-977,-27,31,0,19,39,-52,192517.0
13:36:47.760,AUTO,-35.3632637,149.1652344,22947,0.014662697911262512,-0.0006770354812033474,0.05414856970310211,-0.027886895462870598,0.030850380659103394,-0.00043194566387683153,0,-10,-977,-27,31,0,19,39,-52,192517.0
13:36:47.963,AUTO,-35.3632632,149.1652355,23073,0.00585002638399601,0.005556832533329725,0.05342433601617813,-0.039113037288188934,0.021964000537991524,0.00037881542812101543,0,-9,-977,-38,22,0,18,38,-47,192517.0
13:36:48.164,AUTO,-35.3632628,149.1652364,23184,-0.0009313621558248997,0.010144916363060474,0.05268247798085213,-0.025672389194369316,0.016140416264533997,0.00022618623916059732,0,-9,-977,-24,17,0,17,35,-41,192517.0
13:36:48.366,AUTO,-35.3632624,149.1652373,23280,-0.0055526248179376125,0.013104806654155254,0.0518394410610199,-0.003706325776875019,0.008971448987722397,-0.0011284018401056528,0,-9,-976,-3,9,-1,15,32,-35,88614.0
13:36:48.567,AUTO,-35.363262,149.1652381,23362,-0.008927715942263603,0.014708767645061016,0.05092499777674675,-0.022113369777798653,0.004626828711479902,-0.003206762718036771,0,-8,-976,-21,5,-3,13,27,-29,88614.0
13:36:48.769,AUTO,-35.363262,149.1652381,23362,-0.008927715942263603,0.014708767645061016,0.05092499777674675,-0.022113369777798653,0.004626828711479902,-0.003206762718036771,0,-8,-976,-21,5,-3,13,27,-29,88614.0
13:36:48.972,AUTO,-35.3632617,149.1652388,23427,-0.011297465302050114,0.015118010342121124,0.050064053386449814,-0.023006081581115723,1.2910575605928898e-05,-0.0029312141705304384,0,-6,-974,-22,0,-3,10,22,-23,88614.0
13:36:49.174,AUTO,-35.3632617,149.1652388,23427,-0.011297465302050114,0.015118010342121124,0.050064053386449814,-0.023006081581115723,1.2910575605928898e-05,-0.0029312141705304384,0,-6,-974,-22,0,-3,10,22,-23,88614.0
13:36:49.376,AUTO,-35.3632617,149.1652388,23427,-0.011297465302050114,0.015118010342121124,0.050064053386449814,-0.023006081581115723,1.2910575605928898e-05,-0.0029312141705304384,0,-6,-974,-22,0,-3,10,22,-23,88614.0
13:36:49.579,AUTO,-35.3632612,149.16524,23516,-0.026795262470841408,0.017312340438365936,0.04698822647333145,-0.560446560382843,0.15690204501152039,-0.01088801957666874,-3,-16,-940,-559,157,-11,2,8,0,88614.0
13:36:49.781,AUTO,-35.3632612,149.16524,23516,-0.026795262470841408,0.017312340438365936,0.04698822647333145,-0.560446560382843,0.15690204501152039,-0.01088801957666874,-3,-16,-940,-559,157,-11,2,8,0,88614.0
13:36:49.982,AUTO,-35.3632612,149.16524,23488,-0.04017859324812889,0.025618579238653183,0.04572581872344017,0.6613057851791382,-0.03870246931910515,-0.011037356220185757,0,36,-958,663,-37,-11,-2,0,16,88614.0
13:36:50.184,AUTO,-35.3632612,149.1652398,23432,-0.028463823720812798,0.006601216271519661,0.045103032141923904,0.7272710800170898,-0.08891534060239792,0.0008231765823438764,0,24,-1005,727,-87,0,-5,-11,23,88614.0
13:36:50.386,AUTO,-35.3632612,149.1652395,23375,-0.025355037301778793,-0.012818199582397938,0.044625330716371536,-0.07264456897974014,-0.06555144488811493,-0.0011185770854353905,-3,-18,-1021,-73,-64,-1,-3,-20,19,88614.0
13:36:50.588,AUTO,-35.3632612,149.1652389,23331,-0.03212161362171173,-0.025564633309841156,0.04396585375070572,-0.7140061855316162,-0.04230580851435661,-0.006399183068424463,-3,-28,-1014,-713,-41,-6,1,-26,13,88614.0
13:36:50.789,AUTO,-35.3632612,149.1652389,23331,-0.03212161362171173,-0.025564633309841156,0.04396585375070572,-0.7140061855316162,-0.04230580851435661,-0.006399183068424463,-3,-28,-1014,-713,-41,-6,1,-26,13,88614.0
13:36:50.991,AUTO,-35.3632612,149.1652381,23299,-0.027849392965435982,-0.03595291078090668,0.04274800419807434,-0.08701439946889877,-0.038731444627046585,-0.008747706189751625,-4,14,-1024,-85,-37,-8,8,-30,7,88614.0
13:36:51.193,AUTO,-35.3632612,149.1652381,23299,-0.027849392965435982,-0.03595291078090668,0.04274800419807434,-0.08701439946889877,-0.038731444627046585,-0.008747706189751625,-4,14,-1024,-85,-37,-8,8,-30,7,88614.0
13:36:51.394,AUTO,-35.3632612,149.1652381,23299,-0.027849392965435982,-0.03595291078090668,0.04274800419807434,-0.08701439946889877,-0.038731444627046585,-0.008747706189751625,-4,14,-1024,-85,-37,-8,8,-30,7,88614.0
13:36:51.596,AUTO,-35.3632597,149.165235,23254,-0.030720144510269165,-0.06225520372390747,0.03601734712719917,-0.4399336576461792,-0.023976460099220276,-0.038618944585323334,-13,-27,-1004,-439,-22,-38,38,-47,1,88614.0
13:36:51.798,AUTO,-35.3632587,149.1652337,23249,-0.038020625710487366,-0.06944148242473602,0.017738884314894676,-0.4927235543727875,-0.02559211291372776,-0.088177390396595,-18,-9,-1012,-491,-24,-88,51,-53,0,88614.0
13:36:51.999,AUTO,-35.3632587,149.1652337,23249,-0.038020625710487366,-0.06944148242473602,0.017738884314894676,-0.4927235543727875,-0.02559211291372776,-0.088177390396595,-18,-9,-1012,-491,-24,-88,51,-53,0,88614.0
13:36:52.201,AUTO,-35.3632574,149.1652322,23248,-0.03419199958443642,-0.07744987308979034,-0.004261303227394819,0.38909831643104553,-0.03351028636097908,-0.10052543133497238,-21,32,-1011,390,-32,-100,65,-60,-2,88614.0
13:36:52.403,AUTO,-35.3632558,149.1652305,23249,-0.03477712348103523,-0.08758537471294403,-0.025486791506409645,0.3584924340248108,-0.038950007408857346,-0.08083116263151169,-23,8,-1001,358,-37,-81,79,-69,-1,83012.0
13:36:52.605,AUTO,-35.3632539,149.1652286,23251,-0.04819707199931145,-0.0977448895573616,-0.05584903061389923,-0.48039108514785767,-0.021540923044085503,-0.2311534285545349,-29,-27,-995,-480,-20,-231,95,-80,-2,83012.0
13:36:52.807,AUTO,-35.3632516,149.1652263,23252,-0.03682972118258476,-0.1118878647685051,-0.19144366681575775,-0.09303943067789078,-0.03291437029838562,-0.8330211043357849,-35,4,-1004,-91,-32,-833,112,-91,-1,83012.0
13:36:53.009,AUTO,-35.3632516,149.1652263,23252,-0.03682972118258476,-0.1118878647685051,-0.19144366681575775,-0.09303943067789078,-0.03291437029838562,-0.8330211043357849,-35,4,-1004,-91,-32,-833,112,-91,-1,83012.0
13:36:53.210,AUTO,-35.3632516,149.1652263,23252,-0.03682972118258476,-0.1118878647685051,-0.19144366681575775,-0.09303943067789078,-0.03291437029838562,-0.8330211043357849,-35,4,-1004,-91,-32,-833,112,-91,-1,83012.0
13:36:53.412,AUTO,-35.3632516,149.1652263,23252,-0.03682972118258476,-0.1118878647685051,-0.19144366681575775,-0.09303943067789078,-0.03291437029838562,-0.8330211043357849,-35,4,-1004,-91,-32,-833,112,-91,-1,83012.0
13:36:53.614,AUTO,-35.3632426,149.1652175,23242,0.023425383493304253,-0.1571761965751648,-0.6969771981239319,-0.4337126612663269,-0.06801322102546692,-0.060459647327661514,-40,-51,-1001,-433,-67,-60,167,-137,1,83012.0
13:36:53.816,AUTO,-35.3632386,149.1652136,23235,0.02903519757091999,-0.1692601889371872,-0.6891555190086365,0.027737604454159737,-0.045185159891843796,0.08234463632106781,-45,-21,-1007,28,-44,82,189,-155,1,83012.0
13:36:54.017,AUTO,-35.3632386,149.1652136,23235,0.02903519757091999,-0.1692601889371872,-0.6891555190086365,0.027737604454159737,-0.045185159891843796,0.08234463632106781,-45,-21,-1007,28,-44,82,189,-155,1,83012.0
13:36:54.219,AUTO,-35.3632342,149.1652092,23229,0.040436629205942154,-0.17531652748584747,-0.6619927287101746,0.3631453812122345,-0.00498393876478076,0.10443181544542313,-56,-23,-1010,363,-4,104,212,-174,0,83012.0
13:36:54.421,AUTO,-35.3632293,149.1652042,23224,0.03889325261116028,-0.17532767355442047,-0.6407803297042847,-0.1454664170742035,0.002251007594168186,0.0768505111336708,-62,-47,-1005,-145,2,77,234,-191,0,83012.0
13:36:54.623,AUTO,-35.363224,149.1651988,23221,0.039154574275016785,-0.17755261063575745,-0.6312496662139893,-0.14650413393974304,-0.013823453336954117,0.017658686265349388,-74,-37,-1006,-145,-12,17,255,-207,0,83012.0
13:36:54.825,AUTO,-35.3632182,149.165193,23219,0.051628004759550095,-0.18413883447647095,-0.6303577423095703,0.2664073407649994,-0.018334466964006424,-0.010789626277983189,-72,-31,-999,267,-17,-10,276,-222,0,83012.0
13:36:55.027,AUTO,-35.3632182,149.165193,23219,0.051628004759550095,-0.18413883447647095,-0.6303577423095703,0.2664073407649994,-0.018334466964006424,-0.010789626277983189,-72,-31,-999,267,-17,-10,276,-222,0,83012.0
13:36:55.229,AUTO,-35.3632182,149.165193,23219,0.051628004759550095,-0.18413883447647095,-0.6303577423095703,0.2664073407649994,-0.018334466964006424,-0.010789626277983189,-72,-31,-999,267,-17,-10,276,-222,0,83012.0
13:36:55.432,AUTO,-35.3632182,149.165193,23219,0.051628004759550095,-0.18413883447647095,-0.6303577423095703,0.2664073407649994,-0.018334466964006424,-0.010789626277983189,-72,-31,-999,267,-17,-10,276,-222,0,83012.0
13:36:55.634,AUTO,-35.3631977,149.1651729,23207,0.05686755105853081,-0.19563473761081696,-0.6358897089958191,0.15069878101348877,-0.004911047872155905,-0.010912654921412468,-88,-44,-1000,151,-4,-11,341,-267,1,83012.0
13:36:55.835,AUTO,-35.3631898,149.1651652,23201,0.05960731953382492,-0.19166335463523865,-0.6374044418334961,-0.019728893414139748,0.034716807305812836,-0.006889250595122576,-99,-61,-1006,-19,35,-7,361,-282,0,83012.0
13:36:56.037,AUTO,-35.3631898,149.1651652,23201,0.05960731953382492,-0.19166335463523865,-0.6374044418334961,-0.019728893414139748,0.034716807305812836,-0.006889250595122576,-99,-61,-1006,-19,35,-7,361,-282,0,83012.0
13:36:56.239,AUTO,-35.3631815,149.1651572,23198,0.06311795860528946,-0.17777995765209198,-0.638534665107727,-0.0348377525806427,0.05829364433884621,-0.003919678740203381,-93,-61,-1012,-34,58,-4,380,-297,-1,83012.0
13:36:56.440,AUTO,-35.3631729,149.1651488,23203,0.06557944416999817,-0.1678733378648758,-0.6390058994293213,0.02845289744436741,0.022740136831998825,0.0018448844784870744,-97,-58,-1002,29,23,2,395,-307,-3,36149.0
13:36:56.642,AUTO,-35.3631639,149.1651402,23211,0.06484637409448624,-0.16685959696769714,-0.6392583847045898,-0.0057307700626552105,0.0012784707359969616,0.006826332304626703,-104,-63,-993,-5,1,6,408,-316,-4,36149.0
13:36:56.844,AUTO,-35.3631546,149.1651312,23219,0.06603869795799255,-0.16336558759212494,-0.6395439505577087,-0.0231314804404974,0.03256942331790924,-0.001478132326155901,-107,-53,-993,-22,33,-1,421,-324,-4,36149.0
13:36:57.050,AUTO,-35.3631546,149.1651312,23219,0.06603869795799255,-0.16336558759212494,-0.6395439505577087,-0.0231314804404974,0.03256942331790924,-0.001478132326155901,-107,-53,-993,-22,33,-1,421,-324,-4,36149.0
13:36:57.252,AUTO,-35.3631546,149.1651312,23219,0.06603869795799255,-0.16336558759212494,-0.6395439505577087,-0.0231314804404974,0.03256942331790924,-0.001478132326155901,-107,-53,-993,-22,33,-1,421,-324,-4,36149.0
13:36:57.456,AUTO,-35.3631546,149.1651312,23219,0.06603869795799255,-0.16336558759212494,-0.6395439505577087,-0.0231314804404974,0.03256942331790924,-0.001478132326155901,-107,-53,-993,-22,33,-1,421,-324,-4,36149.0
13:36:57.658,AUTO,-35.3631212,149.1650993,23252,0.07196342945098877,-0.15083171427249908,-0.6400346755981445,0.008590933866798878,-0.006360327359288931,0.003887593513354659,-111,-57,-985,9,-5,3,452,-348,-4,36149.0
13:36:57.860,AUTO,-35.3631212,149.1650993,23252,0.07196342945098877,-0.15083171427249908,-0.6400346755981445,0.008590933866798878,-0.006360327359288931,0.003887593513354659,-111,-57,-985,9,-5,3,452,-348,-4,36149.0
13:36:58.061,AUTO,-35.363111,149.1650895,23261,0.07351013273000717,-0.14639797806739807,-0.640092670917511,0.021726025268435478,0.032376132905483246,0.01138350274413824,-110,-67,-991,22,33,11,459,-353,-3,36149.0
13:36:58.263,AUTO,-35.3631006,149.1650796,23269,0.07497596740722656,-0.14061783254146576,-0.6406135559082031,-0.018199600279331207,0.020187858492136,-0.005061114206910133,-105,-93,-992,-17,20,-5,465,-359,-3,36149.0
13:36:58.465,AUTO,-35.3630902,149.1650696,23279,0.07952872663736343,-0.13448260724544525,-0.6414401531219482,-0.005246177781373262,0.014914808794856071,-0.007103232201188803,-116,-74,-993,-4,15,-7,469,-362,-4,36149.0
13:36:58.667,AUTO,-35.3630796,149.1650595,23288,0.07805006206035614,-0.12946587800979614,-0.641972541809082,0.012696863152086735,0.015966931357979774,-0.0068046110682189465,-114,-63,-990,13,16,-6,474,-364,-3,36149.0
13:36:58.868,AUTO,-35.3630796,149.1650595,23288,0.07805006206035614,-0.12946587800979614,-0.641972541809082,0.012696863152086735,0.015966931357979774,-0.0068046110682189465,-114,-63,-990,13,16,-6,474,-364,-3,36149.0
13:36:59.070,AUTO,-35.363069,149.1650494,23297,0.07691442221403122,-0.12401074916124344,-0.6416336894035339,-0.0012258923379704356,0.031901996582746506,-0.002107350854203105,-105,-65,-979,0,32,-2,475,-365,-3,36149.0
13:36:59.272,AUTO,-35.363069,149.1650494,23297,0.07691442221403122,-0.12401074916124344,-0.6416336894035339,-0.0012258923379704356,0.031901996582746506,-0.002107350854203105,-105,-65,-979,0,32,-2,475,-365,-3,36149.0
13:36:59.474,AUTO,-35.363069,149.1650494,23297,0.07691442221403122,-0.12401074916124344,-0.6416336894035339,-0.0012258923379704356,0.031901996582746506,-0.002107350854203105,-105,-65,-979,0,32,-2,475,-365,-3,36149.0
13:36:59.676,AUTO,-35.363037,149.1650191,23319,0.07600965350866318,-0.11790872365236282,-0.6425570845603943,0.0006710324087180197,-0.03517106547951698,-0.0022523184306919575,-114,-84,-977,1,-34,-2,472,-364,0,36149.0
13:36:59.878,AUTO,-35.363037,149.1650191,23319,0.07600965350866318,-0.11790872365236282,-0.6425570845603943,0.0006710324087180197,-0.03517106547951698,-0.0022523184306919575,-114,-84,-977,1,-34,-2,472,-364,0,36149.0
13:37:00.079,AUTO,-35.3630264,149.165009,23316,0.07679502665996552,-0.11926145106554031,-0.6436349153518677,-0.0073037585243582726,0.03481057658791542,-0.013626275584101677,-118,-58,-984,-6,35,-13,473,-364,2,36149.0
13:37:00.281,AUTO,-35.3630158,149.1649989,23313,0.07747367024421692,-0.10500842332839966,-0.6436814665794373,0.07007628679275513,0.07852473855018616,-0.008833324536681175,-117,-74,-999,70,79,-8,472,-364,0,36149.0
13:37:00.483,AUTO,-35.3630051,149.1649888,23316,0.07732560485601425,-0.0909806489944458,-0.6438304781913757,-0.012493172660470009,0.07963841408491135,-0.0038320133462548256,-124,-74,-1001,-11,80,-3,469,-361,-1,200.0
13:37:00.685,AUTO,-35.3629946,149.1649789,23325,0.07542885839939117,-0.0748511254787445,-0.6436776518821716,-0.03100842796266079,0.05302799120545387,0.002575427759438753,-117,-74,-996,-30,53,2,462,-357,-4,200.0
13:37:00.887,AUTO,-35.3629946,149.1649789,23325,0.07542885839939117,-0.0748511254787445,-0.6436776518821716,-0.03100842796266079,0.05302799120545387,0.002575427759438753,-117,-74,-996,-30,53,2,462,-357,-4,200.0
13:37:01.089,AUTO,-35.3629843,149.1649691,23336,0.07667112350463867,-0.06354628503322601,-0.6437376737594604,0.02195616066455841,0.04024231433868408,-0.0025072095450013876,-112,-66,-989,22,41,-2,454,-351,-4,200.0
13:37:01.291,AUTO,-35.3629843,149.1649691,23336,0.07667112350463867,-0.06354628503322601,-0.6437376737594604,0.02195616066455841,0.04024231433868408,-0.0025072095450013876,-112,-66,-989,22,41,-2,454,-351,-4,200.0
13:37:01.493,AUTO,-35.3629843,149.1649691,23336,0.07667112350463867,-0.06354628503322601,-0.6437376737594604,0.02195616066455841,0.04024231433868408,-0.0025072095450013876,-112,-66,-989,22,41,-2,454,-351,-4,200.0
13:37:01.695,AUTO,-35.3629547,149.1649411,23369,0.0695984810590744,-0.026036487892270088,-0.6431828141212463,-0.009701096452772617,0.05980406329035759,-0.006404073443263769,-97,-66,-988,-8,60,-6,418,-322,-2,200.0
13:37:01.897,AUTO,-35.3629547,149.1649411,23369,0.0695984810590744,-0.026036487892270088,-0.6431828141212463,-0.009701096452772617,0.05980406329035759,-0.006404073443263769,-97,-66,-988,-8,60,-6,418,-322,-2,200.0
13:37:02.099,AUTO,-35.3629454,149.1649323,23375,0.0721181258559227,-0.015069512650370598,-0.6432958245277405,0.05853351205587387,0.03563679754734039,-0.007792213466018438,-112,-59,-992,59,36,-7,402,-310,-1,200.0
13:37:02.301,AUTO,-35.3629366,149.1649239,23378,0.07024763524532318,-0.008075778372585773,-0.6435226798057556,-0.053807176649570465,0.021952278912067413,-0.002162021351978183,-101,-67,-990,-53,23,-2,385,-297,0,200.0
13:37:02.502,AUTO,-35.3629281,149.1649158,23378,0.06704016029834747,0.006948498077690601,-0.6429340243339539,-0.08588773757219315,0.07089576870203018,-0.00294990255497396,-83,-64,-994,-84,71,-2,367,-283,0,200.0
13:37:02.704,AUTO,-35.3629201,149.1649081,23376,0.0738983154296875,0.021575061604380608,-0.6431437134742737,0.3515159785747528,0.04596710205078125,-0.013420243747532368,-89,-43,-996,352,46,-13,348,-267,1,200.0
13:37:02.907,AUTO,-35.3629124,149.1649008,23372,0.06154906749725342,0.03551223874092102,-0.6425197124481201,-0.502713143825531,0.05736226961016655,0.022272517904639244,-80,-91,-982,-503,58,22,326,-251,3,200.0
13:37:03.109,AUTO,-35.3629124,149.1649008,23372,0.06154906749725342,0.03551223874092102,-0.6425197124481201,-0.502713143825531,0.05736226961016655,0.022272517904639244,-80,-91,-982,-503,58,22,326,-251,3,200.0
13:37:03.311,AUTO,-35.3629124,149.1649008,23372,0.06154906749725342,0.03551223874092102,-0.6425197124481201,-0.502713143825531,0.05736226961016655,0.022272517904639244,-80,-91,-982,-503,58,22,326,-251,3,200.0
13:37:03.512,AUTO,-35.3629124,149.1649008,23372,0.06154906749725342,0.03551223874092102,-0.6425197124481201,-0.502713143825531,0.05736226961016655,0.022272517904639244,-80,-91,-982,-503,58,22,326,-251,3,200.0
13:37:03.714,AUTO,-35.3628926,149.1648821,23334,0.057239145040512085,0.0725020170211792,-0.6427895426750183,0.6099770665168762,0.02548977918922901,-0.03487468138337135,-57,0,-997,612,26,-35,256,-192,8,200.0
13:37:03.916,AUTO,-35.3628871,149.1648771,23318,0.05804547294974327,0.07030387967824936,-0.6446463465690613,0.6909664273262024,-0.028553692623972893,-0.010640616528689861,-54,-22,-1018,691,-27,-10,231,-172,5,200.0
13:37:04.118,AUTO,-35.3628871,149.1648771,23318,0.05804547294974327,0.07030387967824936,-0.6446463465690613,0.6909664273262024,-0.028553692623972893,-0.010640616528689861,-54,-22,-1018,691,-27,-10,231,-172,5,200.0
13:37:04.320,AUTO,-35.3628821,149.1648726,23305,0.04890074580907822,0.06648167222738266,-0.6446202993392944,-0.07709018886089325,-0.006844351999461651,0.018898438662290573,-45,-71,-995,-77,-5,18,207,-154,5,200.0
13:37:04.521,AUTO,-35.3628776,149.1648686,23293,0.026644758880138397,0.06830743700265884,-0.6440419554710388,-0.7429365515708923,0.012761658057570457,0.011207197792828083,-46,-70,-1015,-742,13,11,185,-136,4,292841.0
13:37:04.723,AUTO,-35.3628736,149.1648652,23282,0.019345534965395927,0.07065676152706146,-0.6454060673713684,-0.3784852921962738,0.016833456233143806,0.00026073979097418487,-37,-26,-1020,-376,17,0,164,-120,4,292841.0
13:37:04.925,AUTO,-35.3628701,149.1648622,23275,0.024632420390844345,0.07704412937164307,-0.6463280320167542,0.4698043763637543,0.026697199791669846,-0.010154295712709427,-37,11,-1010,471,27,-10,142,-104,2,292841.0
13:37:05.127,AUTO,-35.3628701,149.1648622,23275,0.024632420390844345,0.07704412937164307,-0.6463280320167542,0.4698043763637543,0.026697199791669846,-0.010154295712709427,-37,11,-1010,471,27,-10,142,-104,2,292841.0
13:37:05.329,AUTO,-35.3628701,149.1648622,23275,0.024632420390844345,0.07704412937164307,-0.6463280320167542,0.4698043763637543,0.026697199791669846,-0.010154295712709427,-37,11,-1010,471,27,-10,142,-104,2,292841.0
13:37:05.531,AUTO,-35.3628701,149.1648622,23275,0.024632420390844345,0.07704412937164307,-0.6463280320167542,0.4698043763637543,0.026697199791669846,-0.010154295712709427,-37,11,-1010,471,27,-10,142,-104,2,292841.0
13:37:05.733,AUTO,-35.3628623,149.164856,23257,-0.002399294637143612,0.06394881755113602,-0.6478931903839111,-0.6945940256118774,-0.040057260543107986,0.01372602116316557,-18,-48,-996,-694,-39,13,80,-64,1,292841.0
13:37:05.935,AUTO,-35.3628605,149.1648546,23253,-0.00868027750402689,0.05674844980239868,-0.6481870412826538,-0.2711242437362671,-0.02496366575360298,0.0035804484505206347,-15,-11,-1006,-269,-23,3,65,-54,1,292841.0
13:37:06.136,AUTO,-35.3628605,149.1648546,23253,-0.00868027750402689,0.05674844980239868,-0.6481870412826538,-0.2711242437362671,-0.02496366575360298,0.0035804484505206347,-15,-11,-1006,-269,-23,3,65,-54,1,292841.0
13:37:06.338,AUTO,-35.3628591,149.1648535,23250,0.0006269338773563504,0.0515424944460392,-0.6478062868118286,0.4794934093952179,-0.013743669725954533,-0.00024821050465106964,-12,22,-1007,480,-12,0,50,-45,0,292841.0
13:37:06.540,AUTO,-35.3628579,149.1648527,23248,0.0035103217232972383,0.04635573551058769,-0.6479236483573914,0.44503673911094666,-0.021062102168798447,0.002658253535628319,-8,0,-1001,445,-20,2,37,-38,0,292841.0
13:37:06.742,AUTO,-35.3628571,149.164852,23247,-0.009023580700159073,0.0414922870695591,-0.6481248736381531,-0.4057399034500122,-0.023903822526335716,0.003994959406554699,-6,-32,-1010,-405,-23,4,26,-32,0,292841.0
13:37:06.944,AUTO,-35.3628565,149.1648516,23248,-0.0183323472738266,0.037063539028167725,-0.6480274200439453,-0.4848790168762207,-0.020320111885666847,0.0002668058732524514,-5,-17,-1003,-484,-19,0,16,-27,0,292841.0
13:37:07.145,AUTO,-35.3628565,149.1648516,23248,-0.0183323472738266,0.037063539028167725,-0.6480274200439453,-0.4848790168762207,-0.020320111885666847,0.0002668058732524514,-5,-17,-1003,-484,-19,0,16,-27,0,292841.0
13:37:07.356,AUTO,-35.3628565,149.1648516,23248,-0.0183323472738266,0.037063539028167725,-0.6480274200439453,-0.4848790168762207,-0.020320111885666847,0.0002668058732524514,-5,-17,-1003,-484,-19,0,16,-27,0,292841.0
13:37:07.559,AUTO,-35.3628565,149.1648516,23248,-0.0183323472738266,0.037063539028167725,-0.6480274200439453,-0.4848790168762207,-0.020320111885666847,0.0002668058732524514,-5,-17,-1003,-484,-19,0,16,-27,0,292841.0
13:37:07.761,AUTO,-35.3628559,149.1648509,23253,-0.007747511845082045,0.018741510808467865,-0.648235023021698,-0.2412320226430893,-0.028156626969575882,-1.9546074327081442e-05,0,-27,-995,-241,-27,0,-5,-16,0,292841.0
13:37:07.962,AUTO,-35.362856,149.1648508,23252,-0.014360121451318264,0.012012563645839691,-0.6483296751976013,-0.6239796280860901,-0.029340071603655815,4.943835665471852e-05,0,-25,-1006,-623,-28,0,-8,-14,0,292841.0
13:37:08.164,AUTO,-35.3628562,149.1648507,23254,-0.014471007511019707,0.004524589981883764,-0.6483009457588196,-0.0992041826248169,-0.028185758739709854,-0.0034995190799236298,0,13,-1003,-97,-27,-3,-10,-12,-1,292841.0
13:37:08.366,AUTO,-35.3628562,149.1648507,23254,-0.014471007511019707,0.004524589981883764,-0.6483009457588196,-0.0992041826248169,-0.028185758739709854,-0.0034995190799236298,0,13,-1003,-97,-27,-3,-10,-12,-1,292841.0
13:37:08.567,AUTO,-35.3628563,149.1648507,23257,-0.0015777440275996923,-0.003277397947385907,-0.6484509110450745,0.5626013875007629,-0.037609364837408066,-0.0041908505372703075,0,36,-1001,563,-36,-4,-10,-12,-1,155378.0
13:37:08.769,AUTO,-35.3628566,149.1648506,23261,0.00370651762932539,-0.011581119149923325,-0.6490252614021301,0.3523566424846649,-0.031709279865026474,-0.005015525035560131,0,-5,-993,351,-31,-4,-10,-14,0,155378.0
13:37:08.971,AUTO,-35.3628568,149.1648504,23262,-0.004054776392877102,-0.013544784858822823,-0.6492501497268677,-0.4650324881076813,0.007091764826327562,-0.0037465314380824566,-1,-30,-997,-465,7,-3,-8,-15,0,155378.0
