time_stamp,MODE,lat,lon,relative_alt,roll,pitch,yaw,rollspeed,pitchspeed,yawspeed,xacc,yacc,zacc,xgyro,ygyro,zgyro,vx,vy,vz,RTL_ALT
05:23:57.268,STABILIZE,-35.3632622,149.1652375,0,-0.000388531741918996,0.0012151553528383374,0.026516089215874672,0.00018292362801730633,0.00018870836356654763,0.002167769707739353,0,1,-1000,0,0,0,-1,1,0,1500.0
05:23:57.469,STABILIZE,-35.3632622,149.1652375,0,-0.000388531741918996,0.0012151553528383374,0.026516089215874672,0.00018292362801730633,0.00018870836356654763,0.002167769707739353,0,1,-1000,0,0,0,-1,1,0,1500.0
05:23:57.669,STABILIZE,-35.3632622,149.1652375,0,-0.000388531741918996,0.0012151553528383374,0.026516089215874672,0.00018292362801730633,0.00018870836356654763,0.002167769707739353,0,1,-1000,0,0,0,-1,1,0,1500.0
05:23:57.870,STABILIZE,-35.3632622,149.1652375,0,-0.000388531741918996,0.0012151553528383374,0.026516089215874672,0.00018292362801730633,0.00018870836356654763,0.002167769707739353,0,1,-1000,0,0,0,-1,1,0,1500.0
05:23:58.071,STABILIZE,-35.3632622,149.1652375,0,-0.000388531741918996,0.0012151553528383374,0.026516089215874672,0.00018292362801730633,0.00018870836356654763,0.002167769707739353,0,1,-1000,0,0,0,-1,1,0,1500.0
05:23:58.272,STABILIZE,-35.3632622,149.1652375,0,-0.000388531741918996,0.0012151553528383374,0.026516089215874672,0.00018292362801730633,0.00018870836356654763,0.002167769707739353,0,1,-1000,0,0,0,-1,1,0,1500.0
05:23:58.472,STABILIZE,-35.3632622,149.1652375,0,-0.000388531741918996,0.0012151553528383374,0.026516089215874672,0.00018292362801730633,0.00018870836356654763,0.002167769707739353,0,1,-1000,0,0,0,-1,1,0,1500.0
05:23:58.673,STABILIZE,-35.3632622,149.1652375,0,-0.000388531741918996,0.0012151553528383374,0.026516089215874672,0.00018292362801730633,0.00018870836356654763,0.002167769707739353,0,1,-1000,0,0,0,-1,1,0,1500.0
05:23:58.874,STABILIZE,-35.3632622,149.1652375,0,-0.000388531741918996,0.0012151553528383374,0.026516089215874672,0.00018292362801730633,0.00018870836356654763,0.002167769707739353,0,1,-1000,0,0,0,-1,1,0,1500.0
05:23:59.074,STABILIZE,-35.3632622,149.1652375,0,-0.000388531741918996,0.0012151553528383374,0.026516089215874672,0.00018292362801730633,0.00018870836356654763,0.002167769707739353,0,1,-1000,0,0,0,-1,1,0,1500.0
05:23:59.275,STABILIZE,-35.3632622,149.1652375,0,-0.000388531741918996,0.0012151553528383374,0.026516089215874672,0.00018292362801730633,0.00018870836356654763,0.002167769707739353,0,1,-1000,0,0,0,-1,1,0,1500.0
05:23:59.476,STABILIZE,-35.3632621,149.1652375,0,-0.0006615812890231609,0.0009864576859399676,0.02551788091659546,9.000214049592614e-05,0.00019001687178388238,0.0019404363119974732,0,1,-1000,0,0,0,-1,1,1,1500.0
05:23:59.677,STABILIZE,-35.3632621,149.1652375,0,-0.0006615812890231609,0.0009864576859399676,0.02551788091659546,9.000214049592614e-05,0.00019001687178388238,0.0019404363119974732,0,1,-1000,0,0,0,-1,1,1,1500.0
05:23:59.878,STABILIZE,-35.3632621,149.1652375,0,-0.0006615812890231609,0.0009864576859399676,0.02551788091659546,9.000214049592614e-05,0.00019001687178388238,0.0019404363119974732,0,1,-1000,0,0,0,-1,1,1,1500.0
05:24:00.080,STABILIZE,-35.3632621,149.1652375,0,-0.0007622316479682922,0.0009815881494432688,0.025292381644248962,0.0001473823213018477,0.00036447992897592485,0.0019394182600080967,0,1,-1000,0,0,0,-1,1,1,1500.0
05:24:00.281,STABILIZE,-35.3632621,149.1652375,0,-0.0007986410637386143,0.0009717696812003851,0.02521560899913311,0.0001743596512824297,0.00018371970509178936,0.001795934047549963,0,1,-1000,0,0,0,-1,1,1,1500.0
05:24:00.482,STABILIZE,-35.3632621,149.1652375,0,-0.0008253499981947243,0.0009721711976453662,0.02512521855533123,0.00021145178470760584,0.00013900973135605454,0.00197976129129529,0,1,-1000,0,0,0,-1,1,1,1500.0
05:24:00.685,STABILIZE,-35.3632621,149.1652375,0,-0.0008253499981947243,0.0009721711976453662,0.02512521855533123,0.00021145178470760584,0.00013900973135605454,0.00197976129129529,0,1,-1000,0,0,0,-1,1,1,1500.0
05:24:00.886,STABILIZE,-35.3632621,149.1652375,0,-0.0008253499981947243,0.0009721711976453662,0.02512521855533123,0.00021145178470760584,0.00013900973135605454,0.00197976129129529,0,1,-1000,0,0,0,-1,1,1,1500.0
05:24:01.087,STABILIZE,-35.3632621,149.1652375,0,-0.0008253499981947243,0.0009721711976453662,0.02512521855533123,0.00021145178470760584,0.00013900973135605454,0.00197976129129529,0,1,-1000,0,0,0,-1,1,1,1500.0
05:24:01.289,STABILIZE,-35.3632621,149.1652375,0,-0.0008253499981947243,0.0009721711976453662,0.02512521855533123,0.00021145178470760584,0.00013900973135605454,0.00197976129129529,0,1,-1000,0,0,0,-1,1,1,1500.0
05:24:01.490,STABILIZE,-35.3632621,149.1652375,0,-0.0008253499981947243,0.0009721711976453662,0.02512521855533123,0.00021145178470760584,0.00013900973135605454,0.00197976129129529,0,1,-1000,0,1,0,-1,1,1,1500.0
05:24:01.692,STABILIZE,-35.3632621,149.1652375,0,-0.0008253499981947243,0.0009721711976453662,0.02512521855533123,0.00021145178470760584,0.00013900973135605454,0.00197976129129529,0,1,-1000,0,1,0,-1,1,1,1500.0
05:24:01.893,STABILIZE,-35.3632621,149.1652375,0,-0.0009611339191906154,0.0009459831635467708,0.024703528732061386,0.00024238013429567218,0.00023240706650540233,0.0018363911658525467,0,1,-1000,0,0,0,-1,1,1,1500.0
05:24:02.095,STABILIZE,-35.3632621,149.1652375,0,-0.0009725994314067066,0.0009436064283363521,0.024631520733237267,0.0001748510403558612,0.00032200751593336463,0.0017963219434022903,0,1,-1000,0,0,0,-1,1,1,1500.0
05:24:02.297,STABILIZE,-35.3632621,149.1652375,0,-0.0009789258474484086,0.000938050274271518,0.024538997560739517,0.0004111674497835338,0.0003273003385402262,0.0018494830001145601,0,1,-1000,0,0,0,-1,1,1,1500.0
05:24:02.499,STABILIZE,-35.3632621,149.1652375,0,-0.0009789258474484086,0.000938050274271518,0.024538997560739517,0.0004111674497835338,0.0003273003385402262,0.0018494830001145601,0,0,-1001,4,0,0,-1,1,1,1500.0
05:24:02.700,STABILIZE,-35.3632621,149.1652375,0,-0.0009789258474484086,0.000938050274271518,0.024538997560739517,0.0004111674497835338,0.0003273003385402262,0.0018494830001145601,0,0,-1001,4,0,0,-1,1,1,1500.0
05:24:02.901,STABILIZE,-35.3632621,149.1652375,0,-0.0009789258474484086,0.000938050274271518,0.024538997560739517,0.0004111674497835338,0.0003273003385402262,0.0018494830001145601,0,0,-1001,4,0,0,-1,1,1,1500.0
05:24:03.103,STABILIZE,-35.3632621,149.1652375,0,-0.0009789258474484086,0.000938050274271518,0.024538997560739517,0.0004111674497835338,0.0003273003385402262,0.0018494830001145601,0,0,-1001,4,0,0,-1,1,1,1500.0
05:24:03.304,STABILIZE,-35.3632621,149.1652375,0,-0.0009789258474484086,0.000938050274271518,0.024538997560739517,0.0004111674497835338,0.0003273003385402262,0.0018494830001145601,0,0,-1001,4,0,0,-1,1,1,1500.0
05:24:03.506,STABILIZE,-35.3632622,149.1652375,0,-0.0008574859821237624,0.000944123137742281,0.024133512750267982,0.0002114278613589704,0.00012152775889262557,0.0016528909327462316,0,0,-1001,4,0,0,-1,1,1,1500.0
05:24:03.708,STABILIZE,-35.3632622,149.1652375,0,-0.0008574859821237624,0.000944123137742281,0.024133512750267982,0.0002114278613589704,0.00012152775889262557,0.0016528909327462316,0,0,-1001,4,0,0,-1,1,1,1500.0
05:24:03.909,STABILIZE,-35.3632622,149.1652375,0,-0.0008574859821237624,0.000944123137742281,0.024133512750267982,0.0002114278613589704,0.00012152775889262557,0.0016528909327462316,0,0,-1001,4,0,0,-1,1,1,1500.0
05:24:04.110,STABILIZE,-35.3632622,149.1652375,0,-0.0008574859821237624,0.000944123137742281,0.024133512750267982,0.0002114278613589704,0.00012152775889262557,0.0016528909327462316,0,0,-1001,4,0,0,-1,1,1,1500.0
05:24:04.312,STABILIZE,-35.3632622,149.1652375,0,-0.0008574859821237624,0.000944123137742281,0.024133512750267982,0.0002114278613589704,0.00012152775889262557,0.0016528909327462316,0,0,-1001,4,0,0,-1,1,1,1500.0
05:24:04.513,STABILIZE,-35.3632622,149.1652375,0,-0.0008997907862067223,0.0009600149933248758,0.023840438574552536,0.00030259578488767147,0.000347707187756896,0.0016913330182433128,0,1,-1000,0,0,0,-1,1,1,1500.0
05:24:04.714,STABILIZE,-35.3632622,149.1652375,0,-0.0008997907862067223,0.0009600149933248758,0.023840438574552536,0.00030259578488767147,0.000347707187756896,0.0016913330182433128,0,1,-1000,0,0,0,-1,1,1,1500.0
05:24:04.915,STABILIZE,-35.3632622,149.1652375,0,-0.0008997907862067223,0.0009600149933248758,0.023840438574552536,0.00030259578488767147,0.000347707187756896,0.0016913330182433128,0,1,-1000,0,0,0,-1,1,1,1500.0
05:24:05.116,STABILIZE,-35.3632622,149.1652375,0,-0.0008997907862067223,0.0009600149933248758,0.023840438574552536,0.00030259578488767147,0.000347707187756896,0.0016913330182433128,0,1,-1000,0,0,0,-1,1,1,1500.0
05:24:05.317,STABILIZE,-35.3632622,149.1652375,0,-0.0008997907862067223,0.0009600149933248758,0.023840438574552536,0.00030259578488767147,0.000347707187756896,0.0016913330182433128,0,1,-1000,0,0,0,-1,1,1,1500.0
05:24:05.519,STABILIZE,-35.3632622,149.1652375,0,-0.000954683986492455,0.0009647364495322108,0.023540794849395752,9.542849147692323e-05,0.00028267933521419764,0.0016938400221988559,0,2,-1000,0,0,0,-1,1,0,1500.0
05:24:05.720,STABILIZE,-35.3632622,149.1652375,0,-0.000954683986492455,0.0009647364495322108,0.023540794849395752,9.542849147692323e-05,0.00028267933521419764,0.0016938400221988559,0,2,-1000,0,0,0,-1,1,0,1500.0
05:24:05.921,STABILIZE,-35.3632622,149.1652375,0,-0.0009672660380601883,0.0009661606163717806,0.02346119098365307,0.00033499242272228,0.0003522729384712875,0.001631438615731895,0,2,-1000,0,1,0,-1,1,0,1500.0
05:24:06.122,STABILIZE,-35.3632622,149.1652375,0,-0.0009672660380601883,0.0009661606163717806,0.02346119098365307,0.00033499242272228,0.0003522729384712875,0.001631438615731895,0,2,-1000,0,1,0,-1,1,0,1500.0
05:24:06.323,STABILIZE,-35.3632622,149.1652374,0,-0.0008171366644091904,0.0009686995181255043,0.02332271635532379,0.00025373254902660847,0.00031645107083022594,0.0017089643515646458,0,1,-1000,0,1,0,-1,0,0,1500.0
05:24:06.525,STABILIZE,-35.3632622,149.1652374,0,-0.00078717025462538,0.0009672921732999384,0.023240478709340096,0.0003481707535684109,0.00012718950165435672,0.001658787950873375,0,2,-1000,0,0,1,-1,0,0,1500.0
05:24:06.732,STABILIZE,-35.3632622,149.1652374,0,-0.00078717025462538,0.0009672921732999384,0.023240478709340096,0.0003481707535684109,0.00012718950165435672,0.001658787950873375,0,2,-1000,0,0,1,-1,0,0,1500.0
05:24:06.939,STABILIZE,-35.3632622,149.1652374,0,-0.00078717025462538,0.0009672921732999384,0.023240478709340096,0.0003481707535684109,0.00012718950165435672,0.001658787950873375,0,2,-1000,0,0,1,-1,0,0,1500.0
05:24:07.140,STABILIZE,-35.3632622,149.1652374,0,-0.00078717025462538,0.0009672921732999384,0.023240478709340096,0.0003481707535684109,0.00012718950165435672,0.001658787950873375,0,2,-1000,0,0,1,-1,0,0,1500.0
05:24:07.342,STABILIZE,-35.3632622,149.1652374,0,-0.0007208050228655338,0.0009687116253189743,0.023034093901515007,0.0002794315805658698,0.00034098682226613164,0.0017009286675602198,0,1,-1000,1,0,0,-1,0,0,1500.0
05:24:07.543,STABILIZE,-35.3632622,149.1652374,0,-0.0007208050228655338,0.0009687116253189743,0.023034093901515007,0.0002794315805658698,0.00034098682226613164,0.0017009286675602198,0,1,-1000,1,0,0,-1,0,0,1500.0
05:24:07.744,STABILIZE,-35.3632622,149.1652374,0,-0.0007208050228655338,0.0009687116253189743,0.023034093901515007,0.0002794315805658698,0.00034098682226613164,0.0017009286675602198,0,1,-1000,1,0,0,-1,0,0,1500.0
05:24:07.945,STABILIZE,-35.3632622,149.1652374,0,-0.0007208050228655338,0.0009687116253189743,0.023034093901515007,0.0002794315805658698,0.00034098682226613164,0.0017009286675602198,0,1,-1000,1,0,0,-1,0,0,1500.0
05:24:08.146,STABILIZE,-35.3632622,149.1652374,0,-0.0007208050228655338,0.0009687116253189743,0.023034093901515007,0.0002794315805658698,0.00034098682226613164,0.0017009286675602198,0,1,-1000,1,0,0,-1,0,0,1500.0
05:24:08.347,STABILIZE,-35.3632622,149.1652375,0,-0.0007015218725427985,0.0009684828110039234,0.02275305800139904,0.00019245903240516782,0.00017868843860924244,0.0016329691279679537,0,1,-1000,0,0,0,-1,1,0,1500.0
05:24:08.549,STABILIZE,-35.3632622,149.1652375,0,-0.0007015218725427985,0.0009684828110039234,0.02275305800139904,0.00019245903240516782,0.00017868843860924244,0.0016329691279679537,0,2,-1000,0,0,0,-1,1,0,1500.0
05:24:08.750,STABILIZE,-35.3632622,149.1652375,0,-0.0007015218725427985,0.0009684828110039234,0.02275305800139904,0.00019245903240516782,0.00017868843860924244,0.0016329691279679537,0,2,-1000,0,0,0,-1,1,0,1500.0
05:24:08.951,STABILIZE,-35.3632622,149.1652375,0,-0.0007015218725427985,0.0009684828110039234,0.02275305800139904,0.00019245903240516782,0.00017868843860924244,0.0016329691279679537,0,2,-1000,0,0,0,-1,1,0,1500.0
05:24:09.152,STABILIZE,-35.3632622,149.1652375,0,-0.0007015218725427985,0.0009684828110039234,0.02275305800139904,0.00019245903240516782,0.00017868843860924244,0.0016329691279679537,0,2,-1000,0,0,0,-1,1,0,1500.0
05:24:09.353,STABILIZE,-35.3632622,149.1652375,0,-0.0007229463080875576,0.0009823492728173733,0.022465132176876068,0.0004523152019828558,0.00033814989728853106,0.001559272757731378,0,2,-1000,0,1,0,-1,1,0,1500.0
05:24:09.555,STABILIZE,-35.3632622,149.1652375,0,-0.0007229463080875576,0.0009823492728173733,0.022465132176876068,0.0004523152019828558,0.00033814989728853106,0.001559272757731378,0,2,-1000,0,1,0,-1,1,0,1500.0
05:24:09.756,STABILIZE,-35.3632622,149.1652375,0,-0.0006016607512719929,0.0009841700084507465,0.02233663760125637,0.00013284559827297926,0.0002567957853898406,0.0015053506940603256,0,2,-1000,0,1,0,-1,1,0,1500.0
05:24:09.957,STABILIZE,-35.3632622,149.1652375,0,-0.0006016607512719929,0.0009841700084507465,0.02233663760125637,0.00013284559827297926,0.0002567957853898406,0.0015053506940603256,0,2,-1000,0,1,0,-1,1,0,1500.0
05:24:10.158,STABILIZE,-35.3632622,149.1652375,0,-0.0006016607512719929,0.0009841700084507465,0.02233663760125637,0.00013284559827297926,0.0002567957853898406,0.0015053506940603256,0,2,-1000,0,1,0,-1,1,0,1500.0
05:24:10.360,STABILIZE,-35.3632622,149.1652375,0,-0.0005666908691637218,0.0009809789480641484,0.022208863869309425,0.00030485278693959117,0.00020756752928718925,0.0015827136812731624,0,2,-1000,0,1,0,-1,1,0,1500.0
05:24:10.561,STABILIZE,-35.3632622,149.1652374,0,-0.0005666908691637218,0.0009809789480641484,0.022208863869309425,0.00030485278693959117,0.00020756752928718925,0.0015827136812731624,0,2,-1000,0,1,0,-1,1,-1,1500.0
05:24:10.762,STABILIZE,-35.3632622,149.1652374,0,-0.0005666908691637218,0.0009809789480641484,0.022208863869309425,0.00030485278693959117,0.00020756752928718925,0.0015827136812731624,0,2,-1000,0,1,0,-1,1,-1,1500.0
05:24:10.963,STABILIZE,-35.3632622,149.1652374,0,-0.0005666908691637218,0.0009809789480641484,0.022208863869309425,0.00030485278693959117,0.00020756752928718925,0.0015827136812731624,0,2,-1000,0,1,0,-1,1,-1,1500.0
05:24:11.164,STABILIZE,-35.3632622,149.1652374,0,-0.0005666908691637218,0.0009809789480641484,0.022208863869309425,0.00030485278693959117,0.00020756752928718925,0.0015827136812731624,0,2,-1000,0,1,0,-1,1,-1,1500.0
05:24:11.365,STABILIZE,-35.3632622,149.1652374,0,-0.0005666908691637218,0.0009809789480641484,0.022208863869309425,0.00030485278693959117,0.00020756752928718925,0.0015827136812731624,0,2,-1000,0,1,0,-1,1,-1,1500.0
05:24:11.566,STABILIZE,-35.3632622,149.1652374,0,-0.0005666908691637218,0.0009809789480641484,0.022208863869309425,0.00030485278693959117,0.00020756752928718925,0.0015827136812731624,0,2,-1000,0,1,0,-1,1,-1,1500.0
05:24:11.769,AUTO,-35.3632622,149.1652375,0,-0.0005512143252417445,0.0009842755971476436,0.021811529994010925,0.0001820772886276245,0.00026434147730469704,0.0014217556454241276,0,1,-1000,0,1,0,-1,1,0,1500.0
05:24:11.970,AUTO,-35.3632622,149.1652375,0,-0.0005512143252417445,0.0009842755971476436,0.021811529994010925,0.0001820772886276245,0.00026434147730469704,0.0014217556454241276,0,1,-1000,0,1,0,-1,1,0,1500.0
05:24:12.171,AUTO,-35.3632622,149.1652375,6,-0.0005561960861086845,0.0009881090372800827,0.021767888218164444,0.00011060392716899514,0.00035805406514555216,0.0013802729081362486,0,1,-1000,1,0,0,-1,1,0,1500.0
05:24:12.373,AUTO,-35.3632622,149.1652375,6,-0.0005648421938531101,0.0009927855571731925,0.021680859848856926,0.00022531341528519988,0.0003269701264798641,0.0013318764977157116,0,1,-1000,0,1,0,-1,1,0,1500.0
05:24:12.574,AUTO,-35.3632622,149.1652375,6,-0.0005805746768601239,0.0009985081851482391,0.02161436341702938,0.0001872758730314672,0.0002392579917795956,0.0014744959771633148,0,1,-1000,0,0,0,-1,1,0,1500.0
05:24:12.776,AUTO,-35.3632622,149.1652375,6,-0.0005805746768601239,0.0009985081851482391,0.02161436341702938,0.0001872758730314672,0.0002392579917795956,0.0014744959771633148,0,1,-1000,0,0,0,-1,1,0,1500.0
05:24:12.978,AUTO,-35.3632622,149.1652375,6,-0.0005805746768601239,0.0009985081851482391,0.02161436341702938,0.0001872758730314672,0.0002392579917795956,0.0014744959771633148,0,1,-1000,0,0,0,-1,1,0,1500.0
05:24:13.180,AUTO,-35.3632622,149.1652375,6,-0.0005805746768601239,0.0009985081851482391,0.02161436341702938,0.0001872758730314672,0.0002392579917795956,0.0014744959771633148,0,1,-1000,0,0,0,-1,1,0,1500.0
05:24:13.383,AUTO,-35.3632621,149.1652374,8,-0.00035814018337987363,0.0010928838746622205,0.021420802921056747,0.00031064311042428017,0.00022358453134074807,0.0013847770169377327,0,1,-1000,0,0,0,0,0,-1,1500.0
05:24:13.658,AUTO,-35.3632621,149.1652374,9,-0.0003046562196686864,0.0011522293789312243,0.021361274644732475,0.00027418206445872784,0.00026065914425998926,0.0014984521549195051,0,1,-1000,1,1,1,0,0,0,1500.0
05:24:13.884,AUTO,-35.3632621,149.1652374,9,-0.0002525215386413038,0.0012123484630137682,0.021290862932801247,0.0003186438116244972,0.0002520523266866803,0.001475222292356193,0,2,-1000,1,1,1,0,0,0,1500.0
05:24:14.096,AUTO,-35.3632621,149.1652374,9,-0.00020048159058205783,0.0012795906513929367,0.021225517615675926,0.0002637348952703178,0.00025382015155628324,0.001370136858895421,0,1,-1000,0,1,1,0,0,0,1500.0
05:24:14.308,AUTO,-35.3632621,149.1652374,9,-0.00014322358765639365,0.0013471307465806603,0.021160930395126343,0.0003191387513652444,0.000362981460057199,0.0014868766302242875,0,2,-1000,1,0,0,0,0,0,1500.0
05:24:14.519,AUTO,-35.3632621,149.1652374,9,-7.544950494775549e-05,0.0014209250221028924,0.021091992035508156,0.00037093402352184057,0.0004050888237543404,0.0013916038442403078,0,1,-1000,0,0,1,0,0,0,1500.0
05:24:14.721,AUTO,-35.3632621,149.1652374,9,-7.544950494775549e-05,0.0014209250221028924,0.021091992035508156,0.00037093402352184057,0.0004050888237543404,0.0013916038442403078,0,1,-1000,0,0,1,0,0,0,1500.0
05:24:14.923,AUTO,-35.3632621,149.1652374,9,-7.544950494775549e-05,0.0014209250221028924,0.021091992035508156,0.00037093402352184057,0.0004050888237543404,0.0013916038442403078,0,1,-1000,0,0,1,0,0,0,1500.0
05:24:15.125,AUTO,-35.3632621,149.1652374,9,-7.544950494775549e-05,0.0014209250221028924,0.021091992035508156,0.00037093402352184057,0.0004050888237543404,0.0013916038442403078,0,1,-1000,0,0,1,0,0,0,180628.0
05:24:15.326,AUTO,-35.3632621,149.1652374,8,0.00014140462735667825,0.001641368493437767,0.020877406001091003,0.0004093092866241932,0.0003255580086261034,0.0014340500347316265,0,1,-1000,0,0,1,0,0,0,180628.0
05:24:15.528,AUTO,-35.3632621,149.1652374,8,0.00022128959244582802,0.0017184542957693338,0.02078275941312313,0.0004293479141779244,0.00023534259526059031,0.001330037135630846,0,2,-1000,1,0,0,0,0,0,180628.0
05:24:15.729,AUTO,-35.3632621,149.1652374,8,0.00022128959244582802,0.0017184542957693338,0.02078275941312313,0.0004293479141779244,0.00023534259526059031,0.001330037135630846,0,2,-1000,1,0,0,0,0,0,180628.0
05:24:15.931,AUTO,-35.3632621,149.1652374,9,0.0010148955043405294,0.0009855496464297175,0.02060338482260704,0.00658908998593688,-0.008638622239232063,0.0005689131794497371,0,0,-1095,7,-7,0,0,0,-6,180628.0
05:24:16.132,AUTO,-35.3632621,149.1652374,66,0.002983394544571638,-0.0005264935898594558,0.020476119592785835,0.009318239986896515,-0.0007210714393295348,0.0021232289727777243,0,0,-1141,10,0,1,0,0,-39,180628.0
05:24:16.334,AUTO,-35.3632621,149.1652374,206,0.002611279021948576,0.00024199875770136714,0.020488210022449493,-0.005645322147756815,0.003985533956438303,0.00139124714769423,0,0,-1130,-4,4,0,0,0,-73,180628.0
05:24:16.535,AUTO,-35.3632621,149.1652374,425,0.0018923893803730607,0.0011723769130185246,0.020503371953964233,-0.0038847699761390686,0.003140882356092334,0.002713407389819622,0,0,-1108,-3,3,2,0,0,-101,180628.0
05:24:16.753,AUTO,-35.3632621,149.1652374,425,0.0018923893803730607,0.0011723769130185246,0.020503371953964233,-0.0038847699761390686,0.003140882356092334,0.002713407389819622,0,0,-1108,-3,3,2,0,0,-101,180628.0
05:24:16.954,AUTO,-35.3632621,149.1652374,425,0.0018923893803730607,0.0011723769130185246,0.020503371953964233,-0.0038847699761390686,0.003140882356092334,0.002713407389819622,0,0,-1108,-3,3,2,0,0,-101,180628.0
05:24:17.156,AUTO,-35.3632621,149.1652374,425,0.0018923893803730607,0.0011723769130185246,0.020503371953964233,-0.0038847699761390686,0.003140882356092334,0.002713407389819622,0,0,-1108,-3,3,2,0,0,-101,180628.0
05:24:17.357,AUTO,-35.3632621,149.1652375,1413,0.023998450487852097,-0.001069825841113925,0.020550498738884926,0.046998701989650726,-0.007174062542617321,0.002476590219885111,0,0,-1016,47,-6,2,0,5,-144,180628.0
05:24:17.559,AUTO,-35.363262,149.1652377,1790,0.03542745113372803,-0.0029265815392136574,0.020755408331751823,0.04506465047597885,-0.007890390232205391,0.0030451766215264797,0,-1,-1007,45,-7,2,1,12,-147,180628.0
05:24:17.760,AUTO,-35.3632619,149.1652381,2173,0.046307701617479324,-0.005183181259781122,0.02101590484380722,0.042524997144937515,-0.00950749684125185,0.003459278726950288,0,-2,-1002,42,-8,3,3,21,-148,180628.0
05:24:17.962,AUTO,-35.3632619,149.1652381,2173,0.046307701617479324,-0.005183181259781122,0.02101590484380722,0.042524997144937515,-0.00950749684125185,0.003459278726950288,0,-2,-1002,42,-8,3,3,21,-148,180628.0
05:24:18.197,AUTO,-35.3632618,149.1652388,2557,0.056435052305459976,-0.007854746654629707,0.021256767213344574,0.039016321301460266,-0.01210528053343296,0.0038577094674110413,0,-4,-1000,39,-11,3,5,32,-148,180628.0
05:24:18.480,AUTO,-35.3632616,149.1652398,2941,0.06272558122873306,-0.008493307046592236,-0.009220520965754986,-0.010627154260873795,0.024071821942925453,-0.04643116146326065,1,-8,-994,-9,25,-46,8,44,-147,180628.0
05:24:18.688,AUTO,-35.3632614,149.1652411,3320,0.04044229909777641,0.013884269632399082,-0.03198569267988205,-0.1452885866165161,0.09381372481584549,-0.09849506616592407,2,-10,-991,-144,94,-98,9,54,-144,180628.0
05:24:18.938,AUTO,-35.3632614,149.1652411,3320,0.04044229909777641,0.013884269632399082,-0.03198569267988205,-0.1452885866165161,0.09381372481584549,-0.09849506616592407,2,-10,-991,-144,94,-98,9,54,-144,180628.0
05:24:19.179,AUTO,-35.3632614,149.1652411,3320,0.04044229909777641,0.013884269632399082,-0.03198569267988205,-0.1452885866165161,0.09381372481584549,-0.09849506616592407,2,-10,-991,-144,94,-98,9,54,-144,180628.0
05:24:19.391,AUTO,-35.3632608,149.165245,4454,-0.020423779264092445,-0.01858658716082573,-0.034805793315172195,-0.004353687632828951,-0.05941503122448921,0.03682789206504822,4,-9,-1004,-3,-58,36,10,39,-148,180628.0
05:24:19.593,AUTO,-35.3632604,149.165246,4843,-0.023846587166190147,-0.0344928540289402,-0.020790837705135345,-0.02371327392756939,-0.0703672394156456,0.06683990359306335,1,-10,-999,-22,-69,66,18,30,-149,180628.0
05:24:19.795,AUTO,-35.3632599,149.1652467,5224,-0.06112052872776985,-0.019721252843737602,-0.04010538011789322,-0.14771750569343567,0.15914051234722137,-0.1295987069606781,0,-8,-998,-146,160,-129,26,17,-146,40812.0
05:24:19.997,AUTO,-35.3632593,149.1652468,5603,-0.09265720844268799,0.019383113831281662,-0.08627461642026901,-0.10397759824991226,0.16523300111293793,-0.18910819292068481,-3,-6,-1004,-103,165,-189,24,-4,-146,40812.0
05:24:20.199,AUTO,-35.3632593,149.1652468,5603,-0.09265720844268799,0.019383113831281662,-0.08627461642026901,-0.10397759824991226,0.16523300111293793,-0.18910819292068481,-3,-6,-1004,-103,165,-189,24,-4,-146,40812.0
05:24:20.401,AUTO,-35.3632589,149.1652464,5983,-0.09781502932310104,0.03992432728409767,-0.12452219426631927,0.03862893581390381,0.03494307026267052,-0.11060604453086853,-4,0,-1008,39,35,-110,12,-28,-147,40812.0
05:24:20.605,AUTO,-35.3632588,149.1652454,6363,-0.08665276318788528,0.04243629425764084,-0.14918242394924164,0.054007388651371,0.01285336259752512,-0.08081524819135666,-7,5,-1001,54,13,-81,-1,-49,-146,40812.0
05:24:20.807,AUTO,-35.3632588,149.1652454,6363,-0.08665276318788528,0.04243629425764084,-0.14918242394924164,0.054007388651371,0.01285336259752512,-0.08081524819135666,-7,5,-1001,54,13,-81,-1,-49,-146,40812.0
05:24:21.009,AUTO,-35.3632588,149.1652454,6363,-0.08665276318788528,0.04243629425764084,-0.14918242394924164,0.054007388651371,0.01285336259752512,-0.08081524819135666,-7,5,-1001,54,13,-81,-1,-49,-146,40812.0
05:24:21.210,AUTO,-35.3632588,149.1652454,6363,-0.08665276318788528,0.04243629425764084,-0.14918242394924164,0.054007388651371,0.01285336259752512,-0.08081524819135666,-7,5,-1001,54,13,-81,-1,-49,-146,40812.0
05:24:21.412,AUTO,-35.3632602,149.1652398,7490,-0.03853766620159149,0.048371825367212296,-0.1865391880273819,0.07830167561769485,0.00969157088547945,-0.028301330283284187,-4,14,-1002,78,10,-28,-44,-81,-145,40812.0
05:24:21.614,AUTO,-35.3632613,149.1652376,7867,-0.019046209752559662,0.05001060664653778,-0.1915561407804489,0.08098863065242767,0.005123127717524767,-0.01777702197432518,-4,23,-1004,81,5,-18,-57,-81,-146,40812.0
05:24:21.815,AUTO,-35.3632627,149.1652354,8246,0.0015501831658184528,0.05047563090920448,-0.19412826001644135,0.08571616560220718,-0.0003948725643567741,-0.009734068997204304,0,22,-1005,86,0,-10,-68,-76,-147,40812.0
05:24:22.017,AUTO,-35.3632644,149.1652333,8627,0.022870652377605438,0.049271829426288605,-0.19460126757621765,0.08708459138870239,-0.007999131456017494,-0.0034293397329747677,0,25,-1006,87,-7,-3,-78,-66,-148,40812.0
05:24:22.219,AUTO,-35.3632644,149.1652333,8627,0.022870652377605438,0.049271829426288605,-0.19460126757621765,0.08708459138870239,-0.007999131456017494,-0.0034293397329747677,0,25,-1006,87,-7,-3,-78,-66,-148,40812.0
05:24:22.420,AUTO,-35.3632662,149.1652317,9011,0.04415460303425789,0.04584899917244911,-0.1939765065908432,0.08322791755199432,-0.019592512398958206,0.0016198990633711219,2,26,-1006,84,-18,1,-86,-50,-149,40812.0
05:24:22.622,AUTO,-35.3632682,149.1652305,9400,0.05289445444941521,0.02942536026239395,-0.18174411356449127,-0.027780110016465187,-0.12245989590883255,0.09745796024799347,9,20,-998,-27,-121,97,-90,-32,-149,40812.0
05:24:22.824,AUTO,-35.3632682,149.1652305,9400,0.05289445444941521,0.02942536026239395,-0.18174411356449127,-0.027780110016465187,-0.12245989590883255,0.09745796024799347,9,20,-998,-27,-121,97,-90,-32,-149,40812.0
05:24:23.026,AUTO,-35.3632682,149.1652305,9400,0.05289445444941521,0.02942536026239395,-0.18174411356449127,-0.027780110016465187,-0.12245989590883255,0.09745796024799347,9,20,-998,-27,-121,97,-90,-32,-149,40812.0
05:24:23.233,AUTO,-35.3632682,149.1652305,9400,0.05289445444941521,0.02942536026239395,-0.18174411356449127,-0.027780110016465187,-0.12245989590883255,0.09745796024799347,9,20,-998,-27,-121,97,-90,-32,-149,40812.0
05:24:23.442,AUTO,-35.3632735,149.1652292,10560,0.036194682121276855,-0.0810069665312767,-0.08206718415021896,0.02559114620089531,-0.09464046359062195,0.12564347684383392,11,10,-1010,26,-93,125,-52,1,-153,40812.0
05:24:23.710,AUTO,-35.3632744,149.1652292,10955,0.042220134288072586,-0.10062380135059357,-0.054561547935009,0.04121192917227745,-0.058070842176675797,0.10398080199956894,9,6,-1005,41,-57,103,-26,10,-153,40812.0
05:24:23.983,AUTO,-35.3632744,149.1652301,11738,0.05995413661003113,-0.11782599985599518,-0.019235936924815178,0.03943104296922684,-0.012878122739493847,0.0567069835960865,0,-5,-994,40,-12,56,31,30,-149,40812.0
05:24:24.191,AUTO,-35.3632744,149.1652301,11738,0.05995413661003113,-0.11782599985599518,-0.019235936924815178,0.03943104296922684,-0.012878122739493847,0.0567069835960865,0,-5,-994,40,-12,56,31,30,-149,40812.0
05:24:24.394,AUTO,-35.3632735,149.165231,12118,0.06701827794313431,-0.11972659081220627,-0.008975840173661709,0.03096560202538967,0.001278772484511137,0.042399462312459946,-4,-10,-992,31,1,42,60,42,-145,40812.0
05:24:24.598,AUTO,-35.3632718,149.1652322,12488,0.07203539460897446,-0.11806878447532654,-0.0022312034852802753,0.022008825093507767,0.014377693645656109,0.0304361954331398,-10,-17,-991,22,14,30,87,54,-141,40812.0
05:24:24.803,AUTO,-35.3632718,149.1652322,12488,0.07203539460897446,-0.11806878447532654,-0.0022312034852802753,0.022008825093507767,0.014377693645656109,0.0304361954331398,-10,-17,-991,22,14,30,87,54,-141,70351.0
05:24:25.007,AUTO,-35.3632718,149.1652322,12488,0.07203539460897446,-0.11806878447532654,-0.0022312034852802753,0.022008825093507767,0.014377693645656109,0.0304361954331398,-10,-17,-991,22,14,30,87,54,-141,70351.0
05:24:25.209,AUTO,-35.3632718,149.1652322,12488,0.07203539460897446,-0.11806878447532654,-0.0022312034852802753,0.022008825093507767,0.014377693645656109,0.0304361954331398,-10,-17,-991,22,14,30,87,54,-141,70351.0
05:24:25.411,AUTO,-35.3632641,149.1652371,13564,0.011488934978842735,-0.017414163798093796,-0.08711810410022736,-0.10042805224657059,0.10046668350696564,-0.11853104084730148,-18,-32,-1012,-99,101,-118,128,61,-142,70351.0
05:24:25.612,AUTO,-35.3632612,149.1652386,13937,-0.007479293737560511,0.005214537028223276,-0.11774864792823792,-0.07367075979709625,0.08133997023105621,-0.10582452267408371,-18,-30,-1017,-73,82,-106,125,53,-147,70351.0
05:24:25.814,AUTO,-35.3632584,149.1652399,14320,-0.025482285767793655,0.021900758147239685,-0.14306172728538513,-0.06590329110622406,0.0602421835064888,-0.08720961213111877,-21,-25,-1015,-65,61,-87,117,43,-150,70351.0
05:24:26.016,AUTO,-35.3632558,149.1652409,14711,-0.04110453277826309,0.03478819504380226,-0.16360580921173096,-0.05022239685058594,0.05432532727718353,-0.06957703828811646,-10,-26,-1012,-49,54,-69,105,29,-153,70351.0
05:24:26.217,AUTO,-35.3632558,149.1652409,14711,-0.04110453277826309,0.03478819504380226,-0.16360580921173096,-0.05022239685058594,0.05432532727718353,-0.06957703828811646,-10,-26,-1012,-49,54,-69,105,29,-153,70351.0
05:24:26.419,AUTO,-35.3632536,149.1652415,15106,-0.05131613090634346,0.04703596234321594,-0.18158021569252014,-0.024988582357764244,0.05475350841879845,-0.06311050057411194,-15,-19,-1009,-24,55,-63,89,14,-155,70351.0
05:24:26.621,AUTO,-35.3632517,149.1652417,15506,-0.05630682036280632,0.0591571219265461,-0.19771906733512878,-0.00651829969137907,0.04862670227885246,-0.05803307890892029,-18,-14,-1006,-5,49,-58,71,0,-155,70351.0
05:24:26.823,AUTO,-35.3632517,149.1652417,15506,-0.05630682036280632,0.0591571219265461,-0.19771906733512878,-0.00651829969137907,0.04862670227885246,-0.05803307890892029,-18,-14,-1006,-5,49,-58,71,0,-155,70351.0
05:24:27.025,AUTO,-35.3632517,149.1652417,15506,-0.05630682036280632,0.0591571219265461,-0.19771906733512878,-0.00651829969137907,0.04862670227885246,-0.05803307890892029,-18,-14,-1006,-5,49,-58,71,0,-155,70351.0
05:24:27.227,AUTO,-35.3632517,149.1652417,15506,-0.05630682036280632,0.0591571219265461,-0.19771906733512878,-0.00651829969137907,0.04862670227885246,-0.05803307890892029,-18,-14,-1006,-5,49,-58,71,0,-155,70351.0
05:24:27.431,AUTO,-35.3632489,149.1652402,16698,-0.044350095093250275,0.0884576067328453,-0.2354205697774887,0.043931495398283005,0.026493988931179047,-0.038009028881788254,-8,1,-999,44,27,-38,2,-31,-153,70351.0
05:24:27.632,AUTO,-35.3632489,149.1652392,17090,-0.03256821632385254,0.0925365686416626,-0.2423890382051468,0.055410340428352356,0.011913531459867954,-0.02585436776280403,-4,5,-998,56,12,-26,-22,-35,-151,70351.0
05:24:27.858,AUTO,-35.3632496,149.1652382,17478,-0.018294988200068474,0.09362485259771347,-0.2467014640569687,0.06273503601551056,0.00022088392870500684,-0.017336571589112282,-2,11,-998,63,0,-17,-45,-34,-150,70351.0
05:24:28.070,AUTO,-35.3632507,149.1652373,17861,-0.0023112897761166096,0.09184865653514862,-0.24853940308094025,0.06836426258087158,-0.01025346014648676,-0.011218549683690071,4,11,-999,68,-9,-11,-65,-29,-149,70351.0
05:24:28.341,AUTO,-35.3632524,149.1652365,18246,0.015125187113881111,0.08712662756443024,-0.24890153110027313,0.07198171317577362,-0.02379097044467926,-0.004507292993366718,7,16,-1000,72,-23,-4,-83,-20,-148,70351.0
05:24:28.544,AUTO,-35.3632543,149.165236,18625,0.03318394720554352,0.07932679355144501,-0.24839673936367035,0.07374683022499084,-0.03643692284822464,0.0007034743903204799,10,16,-1001,74,-35,0,-97,-7,-147,70351.0
05:24:28.761,AUTO,-35.3632566,149.165236,19002,0.04019956663250923,0.05875382944941521,-0.23647375404834747,-0.04857135936617851,-0.15023668110370636,0.10700374096632004,12,15,-994,-47,-149,106,-108,8,-146,70351.0
05:24:28.964,AUTO,-35.3632566,149.165236,19002,0.04019956663250923,0.05875382944941521,-0.23647375404834747,-0.04857135936617851,-0.15023668110370636,0.10700374096632004,12,15,-994,-47,-149,106,-108,8,-146,70351.0
05:24:29.166,AUTO,-35.3632566,149.165236,19002,0.04019956663250923,0.05875382944941521,-0.23647375404834747,-0.04857135936617851,-0.15023668110370636,0.10700374096632004,12,15,-994,-47,-149,106,-108,8,-146,70351.0
05:24:29.369,AUTO,-35.363262,149.1652367,19906,-0.04073581099510193,-0.07897772639989853,-0.09667500853538513,-0.15347938239574432,-0.2607622444629669,0.3294222056865692,20,9,-1018,-152,-260,328,-87,13,-149,70351.0
05:24:29.571,AUTO,-35.363262,149.1652367,19906,-0.04073581099510193,-0.07897772639989853,-0.09667500853538513,-0.15347938239574432,-0.2607622444629669,0.3294222056865692,20,9,-1018,-152,-260,328,-87,13,-149,225990.0
05:24:29.773,AUTO,-35.3632636,149.1652368,20291,-0.09493576735258102,-0.11710396409034729,-0.023914145305752754,-0.16053977608680725,-0.03451501578092575,0.25253623723983765,15,8,-973,-159,-33,252,-57,-3,-148,225990.0
05:24:29.974,AUTO,-35.3632646,149.1652365,20651,-0.09350022673606873,-0.10334476083517075,0.020016076043248177,0.1544426530599594,0.06518710404634476,0.11959321796894073,6,9,-922,155,66,119,-29,-25,-128,225990.0
05:24:30.176,AUTO,-35.363265,149.1652356,20955,-0.04526520147919655,-0.08336573094129562,0.035264886915683746,0.20652048289775848,0.0798601284623146,0.02834406867623329,-1,9,-920,207,80,28,-7,-38,-107,225990.0
05:24:30.379,AUTO,-35.363265,149.1652345,21208,0.0047853547148406506,-0.061572082340717316,0.035660453140735626,0.18615439534187317,0.09026078134775162,-0.009795035235583782,-5,7,-931,186,91,-10,8,-40,-88,225990.0
05:24:30.581,AUTO,-35.363265,149.1652345,21208,0.0047853547148406506,-0.061572082340717316,0.035660453140735626,0.18615439534187317,0.09026078134775162,-0.009795035235583782,-5,7,-931,186,91,-10,8,-40,-88,225990.0
05:24:30.783,AUTO,-35.3632648,149.1652334,21418,0.042092952877283096,-0.03918684646487236,0.031816884875297546,0.11341172456741333,0.08416414260864258,-0.01833537593483925,-7,5,-941,114,85,-18,18,-33,-73,225990.0
05:24:30.985,AUTO,-35.3632648,149.1652334,21418,0.042092952877283096,-0.03918684646487236,0.031816884875297546,0.11341172456741333,0.08416414260864258,-0.01833537593483925,-7,5,-941,114,85,-18,18,-33,-73,225990.0
05:24:31.187,AUTO,-35.3632648,149.1652334,21418,0.042092952877283096,-0.03918684646487236,0.031816884875297546,0.11341172456741333,0.08416414260864258,-0.01833537593483925,-7,5,-941,114,85,-18,18,-33,-73,225990.0
05:24:31.389,AUTO,-35.3632632,149.1652321,21844,0.06323818117380142,0.0025893941055983305,0.026261886581778526,-0.023305026814341545,0.03336978331208229,-0.0036925561726093292,-4,-4,-966,-22,34,-3,23,7,-39,225990.0
05:24:31.591,AUTO,-35.3632626,149.1652322,21936,0.054243385791778564,0.009759274311363697,0.025810500606894493,-0.04257576912641525,0.025514988228678703,-0.002113098744302988,-2,-5,-972,-41,26,-2,21,18,-31,225990.0
05:24:31.793,AUTO,-35.3632626,149.1652322,21936,0.054243385791778564,0.009759274311363697,0.025810500606894493,-0.04257576912641525,0.025514988228678703,-0.002113098744302988,-2,-5,-972,-41,26,-2,21,18,-31,225990.0
05:24:31.995,AUTO,-35.3632621,149.1652328,22008,0.041315604001283646,0.015441822819411755,0.025528987869620323,-0.05949372425675392,0.02096668817102909,-0.0008619639556854963,0,-7,-976,-58,21,-1,18,27,-25,225990.0
05:24:32.197,AUTO,-35.3632617,149.1652336,22065,0.028399433940649033,0.01871170476078987,0.024838948622345924,-0.03524772450327873,0.009242354892194271,-0.0028880212921649218,0,-7,-978,-34,9,-3,14,32,-19,225990.0
05:24:32.399,AUTO,-35.3632614,149.1652345,22108,0.017091628164052963,0.02002367004752159,0.024132827296853065,-0.03897638991475105,0.0036622569896280766,-0.002747545950114727,1,-9,-978,-38,4,-2,10,35,-14,225990.0
05:24:32.601,AUTO,-35.3632612,149.1652354,22136,0.00666027283295989,0.020061343908309937,0.02323935553431511,-0.08813977241516113,-0.000623747706413269,-0.0021782536059617996,3,-9,-976,-87,0,-2,7,35,-8,225990.0
05:24:32.804,AUTO,-35.3632612,149.1652354,22136,0.00666027283295989,0.020061343908309937,0.02323935553431511,-0.08813977241516113,-0.000623747706413269,-0.0021782536059617996,3,-9,-976,-87,0,-2,7,35,-8,225990.0
05:24:33.007,AUTO,-35.3632612,149.1652354,22136,0.00666027283295989,0.020061343908309937,0.02323935553431511,-0.08813977241516113,-0.000623747706413269,-0.0021782536059617996,3,-9,-976,-87,0,-2,7,35,-8,225990.0
05:24:33.209,AUTO,-35.3632612,149.1652354,22136,0.00666027283295989,0.020061343908309937,0.02323935553431511,-0.08813977241516113,-0.000623747706413269,-0.0021782536059617996,3,-9,-976,-87,0,-2,7,35,-8,225990.0
05:24:33.410,AUTO,-35.363261,149.1652379,22093,-0.04185234382748604,0.034284476190805435,0.020043544471263885,-0.25611424446105957,-0.022814355790615082,-0.004953197669237852,4,-32,-950,-256,-22,-5,-5,17,24,225990.0
05:24:33.617,AUTO,-35.363261,149.1652383,22027,-0.05189438536763191,0.026777438819408417,0.019739223644137383,-0.7217048406600952,-0.026071444153785706,-0.008327570743858814,2,-46,-1007,-721,-25,-8,-11,5,25,225990.0
05:24:33.889,AUTO,-35.3632613,149.1652383,21966,-0.04816961660981178,0.02395705319941044,0.01899070106446743,-0.7608094215393066,-0.002925809705629945,-0.007338100578635931,4,-38,-1014,-760,-2,-7,-16,-6,20,225990.0
05:24:34.128,AUTO,-35.3632617,149.1652381,21921,-0.050066202878952026,0.021733244881033897,0.017229873687028885,-0.8029983043670654,-0.008385851979255676,-0.006627129856497049,2,-15,-1027,-802,-7,-6,-20,-14,12,225990.0
05:24:34.338,AUTO,-35.3632622,149.1652378,21888,-0.06030244007706642,0.01981729455292225,0.01582026295363903,-0.4674395024776459,-0.0028518701437860727,-0.006445370614528656,2,1,-1024,-465,-1,-6,-24,-23,9,225990.0
05:24:34.636,AUTO,-35.3632628,149.1652372,21868,-0.06435426324605942,0.019025688990950584,0.014254727400839329,-0.6294297575950623,0.000952765578404069,-0.0022605943959206343,2,-4,-997,-628,1,-2,-28,-33,4,225990.0
05:24:34.838,AUTO,-35.3632628,149.1652372,21868,-0.06435426324605942,0.019025688990950584,0.014254727400839329,-0.6294297575950623,0.000952765578404069,-0.0022605943959206343,2,-4,-997,-628,1,-2,-28,-33,4,225990.0
05:24:35.059,AUTO,-35.3632628,149.1652372,21868,-0.06435426324605942,0.019025688990950584,0.014254727400839329,-0.6294297575950623,0.000952765578404069,-0.0022605943959206343,2,-4,-997,-628,1,-2,-28,-33,4,64864.0
05:24:35.261,AUTO,-35.3632628,149.1652372,21868,-0.06435426324605942,0.019025688990950584,0.014254727400839329,-0.6294297575950623,0.000952765578404069,-0.0022605943959206343,2,-4,-997,-628,1,-2,-28,-33,4,64864.0
05:24:35.463,AUTO,-35.3632652,149.1652336,21858,-0.062034402042627335,0.014679408632218838,-0.08625292778015137,0.5055372714996338,-0.022531138733029366,-0.6442494988441467,0,34,-1010,506,-21,-644,-41,-67,-3,64864.0
05:24:35.664,AUTO,-35.3632662,149.1652317,21865,-0.07420311123132706,-0.0021935226395726204,-0.3343736231327057,-0.2755418121814728,0.021563509479165077,-1.28732430934906,-9,-3,-1001,-275,22,-1287,-47,-80,-4,64864.0
05:24:35.866,AUTO,-35.3632674,149.1652294,21876,-0.08530731499195099,-0.033795032650232315,-0.71517014503479,-0.5745812058448792,0.024566954001784325,-1.6098048686981201,-19,0,-1002,-573,25,-1609,-53,-92,-5,64864.0
05:24:36.068,AUTO,-35.3632674,149.1652294,21876,-0.08530731499195099,-0.033795032650232315,-0.71517014503479,-0.5745812058448792,0.024566954001784325,-1.6098048686981201,-19,0,-1002,-573,25,-1609,-53,-92,-5,64864.0
05:24:36.270,AUTO,-35.3632687,149.1652267,21886,-0.06707920134067535,-0.06639187037944794,-1.1218472719192505,0.04865526035428047,-0.018215972930192947,-1.6220306158065796,-28,33,-1009,50,-17,-1622,-60,-106,-5,64864.0
05:24:36.471,AUTO,-35.3632703,149.1652236,21899,-0.03105458989739418,-0.0943751409649849,-1.5115796327590942,0.5731667876243591,-0.06232553720474243,-1.516342282295227,-33,24,-1008,574,-61,-1516,-69,-121,-6,64864.0
05:24:36.673,AUTO,-35.363272,149.16522,21912,0.0015987015794962645,-0.1130935475230217,-1.8650926351547241,0.0027675526216626167,-0.06205802783370018,-1.2428858280181885,-37,-21,-1006,2,-61,-1242,-79,-137,-6,64864.0
05:24:36.875,AUTO,-35.363272,149.16522,21912,0.0015987015794962645,-0.1130935475230217,-1.8650926351547241,0.0027675526216626167,-0.06205802783370018,-1.2428858280181885,-37,-21,-1006,2,-61,-1242,-79,-137,-6,64864.0
05:24:37.077,AUTO,-35.363272,149.16522,21912,0.0015987015794962645,-0.1130935475230217,-1.8650926351547241,0.0027675526216626167,-0.06205802783370018,-1.2428858280181885,-37,-21,-1006,2,-61,-1242,-79,-137,-6,64864.0
05:24:37.279,AUTO,-35.363272,149.16522,21912,0.0015987015794962645,-0.1130935475230217,-1.8650926351547241,0.0027675526216626167,-0.06205802783370018,-1.2428858280181885,-37,-21,-1006,2,-61,-1242,-79,-137,-6,64864.0
05:24:37.481,AUTO,-35.3632785,149.1652063,21959,0.04263494163751602,-0.15039826929569244,-2.1547181606292725,0.4562928378582001,-0.046967003494501114,0.16000968217849731,-44,-15,-1000,457,-46,159,-114,-198,-6,64864.0
05:24:37.682,AUTO,-35.3632812,149.1652005,21973,0.040675003081560135,-0.16410087049007416,-2.1102192401885986,-0.0632070004940033,-0.030292145907878876,0.17730386555194855,-50,-48,-1006,-62,-29,176,-129,-221,-6,64864.0
05:24:37.884,AUTO,-35.3632842,149.165194,21990,0.03412759304046631,-0.16832059621810913,-2.0779945850372314,-0.27002474665641785,0.0012833173386752605,0.10469219833612442,-56,-42,-1008,-269,2,104,-142,-246,-7,64864.0
05:24:38.086,AUTO,-35.3632842,149.165194,21990,0.03412759304046631,-0.16832059621810913,-2.0779945850372314,-0.27002474665641785,0.0012833173386752605,0.10469219833612442,-56,-42,-1008,-269,2,104,-142,-246,-7,64864.0
05:24:38.288,AUTO,-35.3632875,149.1651868,22010,0.037272173911333084,-0.16576756536960602,-2.0626184940338135,0.2032177597284317,0.02279898338019848,0.026462355628609657,-61,-27,-1013,204,23,26,-154,-271,-9,64864.0
05:24:38.490,AUTO,-35.3632911,149.1651789,22035,0.03905325010418892,-0.16649563610553741,-2.0593936443328857,0.11498598009347916,-0.012841486372053623,0.001456166384741664,-64,-45,-1006,115,-11,1,-167,-293,-11,64864.0
05:24:38.692,AUTO,-35.3632949,149.1651705,22063,0.03858657553792,-0.17292089760303497,-2.0623817443847656,-0.1685057133436203,-0.029922010377049446,-0.009012286551296711,-70,-54,-1003,-167,-28,-9,-180,-314,-12,64864.0
05:24:38.894,AUTO,-35.3632949,149.1651705,22063,0.03858657553792,-0.17292089760303497,-2.0623817443847656,-0.1685057133436203,-0.029922010377049446,-0.009012286551296711,-70,-54,-1003,-167,-28,-9,-180,-314,-12,64864.0
05:24:39.111,AUTO,-35.3632949,149.1651705,22063,0.03858657553792,-0.17292089760303497,-2.0623817443847656,-0.1685057133436203,-0.029922010377049446,-0.009012286551296711,-70,-54,-1003,-167,-28,-9,-180,-314,-12,64864.0
05:24:39.343,AUTO,-35.3632949,149.1651705,22063,0.03858657553792,-0.17292089760303497,-2.0623817443847656,-0.1685057133436203,-0.029922010377049446,-0.009012286551296711,-70,-54,-1003,-167,-28,-9,-180,-314,-12,64864.0
05:24:39.604,AUTO,-35.3633131,149.1651307,22190,0.043622128665447235,-0.19921629130840302,-2.0702173709869385,-0.014430568553507328,-0.008184830658137798,-0.002223925432190299,-95,-57,-1007,17,-21,7,-232,-405,-14,64864.0
05:24:39.844,AUTO,-35.3633184,149.1651191,22226,0.04584294185042381,-0.2031017243862152,-2.071136713027954,-0.011050151661038399,-0.0045653958804905415,-0.002327332505956292,-87,-53,-1004,-13,-7,-2,-247,-429,-14,64864.0
05:24:40.098,AUTO,-35.3633184,149.1651191,22226,0.04584294185042381,-0.2031017243862152,-2.071136713027954,-0.011050151661038399,-0.0045653958804905415,-0.002327332505956292,-87,-56,-1000,-10,-3,-2,-247,-429,-14,64864.0
05:24:40.312,AUTO,-35.3633241,149.165107,22266,0.05193379521369934,-0.20397092401981354,-2.071789026260376,-0.003833397291600704,0.016057385131716728,-0.004727366846054792,-106,-59,-1008,-2,16,-5,-261,-450,-16,64864.0
05:24:40.515,AUTO,-35.3633302,149.165094,22315,0.05764595419168472,-0.19777455925941467,-2.07265043258667,0.0572754330933094,0.012542269192636013,-0.0066863433457911015,-106,-58,-1002,58,13,-6,-274,-469,-20,64864.0
05:24:40.717,AUTO,-35.3633364,149.1650807,22369,0.06275194883346558,-0.1911303550004959,-2.0737521648406982,0.02774183079600334,0.03708501532673836,-0.0057159243151545525,-105,-71,-1003,28,38,-5,-285,-488,-22,64864.0
05:24:40.922,AUTO,-35.3633364,149.1650807,22369,0.06275194883346558,-0.1911303550004959,-2.0737521648406982,0.02774183079600334,0.03708501532673836,-0.0057159243151545525,-105,-71,-1003,28,38,-5,-285,-488,-22,192929.0
05:24:41.124,AUTO,-35.3633364,149.1650807,22369,0.06275194883346558,-0.1911303550004959,-2.0737521648406982,0.02774183079600334,0.03708501532673836,-0.0057159243151545525,-105,-71,-1003,28,38,-5,-285,-488,-22,192929.0
05:24:41.326,AUTO,-35.3633364,149.1650807,22369,0.06275194883346558,-0.1911303550004959,-2.0737521648406982,0.02774183079600334,0.03708501532673836,-0.0057159243151545525,-105,-71,-1003,28,38,-5,-285,-488,-22,192929.0
05:24:41.528,AUTO,-35.3633561,149.1650383,22558,0.06116972491145134,-0.17341439425945282,-2.072779417037964,0.046601567417383194,0.04242660105228424,-0.013393557630479336,-116,-60,-996,47,43,-13,-308,-531,-28,192929.0
05:24:41.730,AUTO,-35.363363,149.1650234,22629,0.06549258530139923,-0.168406143784523,-2.0745766162872314,0.02161598950624466,0.027394404634833336,-0.005742363631725311,-115,-67,-988,22,28,-5,-315,-543,-28,192929.0
05:24:41.931,AUTO,-35.3633701,149.1650083,22701,0.06757791340351105,-0.16482268273830414,-2.0750601291656494,-0.0011887841392308474,0.007695344276726246,0.0005037218215875328,-124,-68,-990,0,8,0,-320,-552,-29,192929.0
05:24:42.133,AUTO,-35.3633773,149.1649929,22774,0.0687473937869072,-0.1646139919757843,-2.0748202800750732,-0.009178360924124718,0.004140659235417843,0.003260571975260973,-122,-68,-982,-8,4,3,-324,-561,-28,192929.0
05:24:42.335,AUTO,-35.3633773,149.1649929,22774,0.0687473937869072,-0.1646139919757843,-2.0748202800750732,-0.009178360924124718,0.004140659235417843,0.003260571975260973,-122,-68,-982,-8,4,3,-324,-561,-28,192929.0
05:24:42.536,AUTO,-35.3633846,149.1649774,22846,0.07167647778987885,-0.16112694144248962,-2.0750951766967773,0.0398041196167469,0.011646529659628868,-0.01982291229069233,-143,-73,-994,40,12,-20,-329,-568,-28,192929.0
05:24:42.738,AUTO,-35.3633919,149.1649616,22920,0.07107017189264297,-0.15773048996925354,-2.0754125118255615,-0.023815222084522247,0.019002385437488556,0.00039669181569479406,-135,-53,-986,-23,20,0,-330,-576,-28,192929.0
05:24:42.952,AUTO,-35.3633919,149.1649616,22920,0.07107017189264297,-0.15773048996925354,-2.0754125118255615,-0.023815222084522247,0.019002385437488556,0.00039669181569479406,-135,-53,-986,-23,20,0,-330,-576,-28,192929.0
05:24:43.154,AUTO,-35.3633919,149.1649616,22920,0.07107017189264297,-0.15773048996925354,-2.0754125118255615,-0.023815222084522247,0.019002385437488556,0.00039669181569479406,-135,-53,-986,-23,20,0,-330,-576,-28,192929.0
05:24:43.356,AUTO,-35.3634146,149.1649131,23150,0.07769801467657089,-0.13688167929649353,-2.0769946575164795,-0.009042304940521717,0.031858477741479874,-0.0027178782038390636,-130,-73,-987,-8,32,-2,-336,-584,-29,192929.0
05:24:43.557,AUTO,-35.3634146,149.1649131,23150,0.07769801467657089,-0.13688167929649353,-2.0769946575164795,-0.009042304940521717,0.031858477741479874,-0.0027178782038390636,-130,-73,-987,-8,32,-2,-336,-584,-29,192929.0
05:24:43.759,AUTO,-35.3634221,149.1648969,23226,0.07674015313386917,-0.12680955231189728,-2.0764451026916504,0.008291388861835003,0.020883530378341675,0.0010211756452918053,-127,-70,-984,8,21,1,-336,-585,-29,192929.0
05:24:44.005,AUTO,-35.3634296,149.1648807,23303,0.07498816400766373,-0.12561258673667908,-2.0765573978424072,-0.005553006194531918,-0.03746425360441208,-0.002567036310210824,-144,-77,-980,-4,-36,-2,-334,-582,-29,192929.0
05:24:44.233,AUTO,-35.3634371,149.1648646,23370,0.07349555939435959,-0.13868796825408936,-2.075777053833008,0.029848895967006683,-0.029224976897239685,0.00804928969591856,-128,-80,-969,30,-28,8,-333,-582,-23,192929.0
05:24:44.444,AUTO,-35.3634446,149.1648485,23427,0.07641755789518356,-0.13803236186504364,-2.0771257877349854,0.02147958241403103,0.032425470650196075,-0.017004381865262985,-117,-84,-976,21,33,-16,-336,-584,-20,192929.0
05:24:44.693,AUTO,-35.3634521,149.1648322,23484,0.07792289555072784,-0.12581297755241394,-2.0776119232177734,0.01984374038875103,0.04606964439153671,-0.004287735093384981,-133,-87,-997,20,47,-4,-336,-584,-23,192929.0
05:24:44.960,AUTO,-35.3634521,149.1648322,23484,0.07792289555072784,-0.12581297755241394,-2.0776119232177734,0.01984374038875103,0.04606964439153671,-0.004287735093384981,-133,-87,-997,20,47,-4,-336,-584,-23,192929.0
05:24:45.165,AUTO,-35.3634521,149.1648322,23484,0.07792289555072784,-0.12581297755241394,-2.0776119232177734,0.01984374038875103,0.04606964439153671,-0.004287735093384981,-133,-87,-997,20,47,-4,-336,-584,-23,192929.0
05:24:45.370,AUTO,-35.3634743,149.1647842,23688,0.07393762469291687,-0.08603521436452866,-2.077371835708618,-0.045307427644729614,0.012765979394316673,0.007789877709001303,-121,-62,-975,-44,13,7,-324,-567,-28,192929.0
05:24:45.582,AUTO,-35.3634743,149.1647842,23688,0.07393762469291687,-0.08603521436452866,-2.077371835708618,-0.045307427644729614,0.012765979394316673,0.007789877709001303,-121,-62,-975,-44,13,7,-324,-567,-28,51059.0
05:24:45.784,AUTO,-35.3634815,149.1647686,23758,0.06760144978761673,-0.07434596866369247,-2.0760152339935303,-0.00380149157717824,0.06436499953269958,-0.0031487366650253534,-128,-76,-992,-2,65,-2,-318,-558,-27,51059.0
05:24:45.986,AUTO,-35.3634886,149.1647534,23827,0.07528060674667358,-0.05896900221705437,-2.07621431350708,0.07759861648082733,0.057765062898397446,-0.008050133474171162,-122,-54,-984,78,58,-8,-312,-545,-26,51059.0
05:24:46.188,AUTO,-35.3634956,149.1647384,23896,0.0736224427819252,-0.047175996005535126,-2.0762932300567627,-0.06448207050561905,0.0029457942582666874,0.0033426498994231224,-120,-72,-979,-63,4,3,-303,-529,-25,51059.0
05:24:46.391,AUTO,-35.3635023,149.1647241,23959,0.07454381138086319,-0.040449220687150955,-2.076847791671753,-0.0028560461942106485,0.03933363035321236,-0.0027805152349174023,-113,-71,-983,-1,40,-2,-293,-513,-23,51059.0
05:24:46.594,AUTO,-35.3635088,149.1647102,24016,0.07579967379570007,-0.03243926912546158,-2.0769779682159424,0.10059786587953568,0.056264325976371765,-0.010453497990965843,-113,-71,-983,-1,40,-2,-283,-495,-20,51059.0
05:24:46.796,AUTO,-35.3635088,149.1647102,24016,0.07579967379570007,-0.03243926912546158,-2.0769779682159424,0.10059786587953568,0.056264325976371765,-0.010453497990965843,-118,-72,-987,101,57,-10,-283,-495,-20,51059.0
05:24:46.998,AUTO,-35.3635088,149.1647102,24016,0.07579967379570007,-0.03243926912546158,-2.0769779682159424,0.10059786587953568,0.056264325976371765,-0.010453497990965843,-118,-72,-987,101,57,-10,-283,-495,-20,51059.0
05:24:47.200,AUTO,-35.3635088,149.1647102,24016,0.07579967379570007,-0.03243926912546158,-2.0769779682159424,0.10059786587953568,0.056264325976371765,-0.010453497990965843,-118,-72,-987,101,57,-10,-283,-495,-20,51059.0
05:24:47.403,AUTO,-35.3635267,149.1646718,24162,0.07198192924261093,0.008533175103366375,-2.0761170387268066,0.19466061890125275,0.05647650361061096,-0.01632971502840519,-97,-46,-990,195,57,-16,-245,-434,-16,51059.0
05:24:47.607,AUTO,-35.3635321,149.1646601,24199,0.07474058866500854,0.024970756843686104,-2.0761260986328125,0.2618488669395447,0.0724790021777153,0.00021784241835121065,-99,-53,-991,261,73,0,-231,-411,-13,51059.0
05:24:47.809,AUTO,-35.3635321,149.1646601,24199,0.07474058866500854,0.024970756843686104,-2.0761260986328125,0.2618488669395447,0.0724790021777153,0.00021784241835121065,-99,-53,-991,261,73,0,-231,-411,-13,51059.0
05:24:48.011,AUTO,-35.3635371,149.164649,24227,0.061213795095682144,0.04123090207576752,-2.0756640434265137,-0.3902835249900818,0.07341316342353821,0.0338747501373291,-96,-90,-997,-390,74,34,-216,-385,-10,51059.0
05:24:48.214,AUTO,-35.3635418,149.1646388,24251,0.0506887249648571,0.05140357092022896,-2.0755505561828613,-0.7531614899635315,0.023010702803730965,0.016431119292974472,-85,-94,-1007,-753,23,16,-199,-358,-9,51059.0
05:24:48.416,AUTO,-35.363546,149.1646293,24270,0.045105405151844025,0.05053470656275749,-2.07619309425354,-0.3212188184261322,-0.005884331651031971,-0.012211153283715248,-77,-44,-990,-319,-4,-11,-183,-331,-5,51059.0
05:24:48.618,AUTO,-35.36355,149.1646206,24283,0.053206298500299454,0.04857245832681656,-2.0760574340820312,0.5540875196456909,-0.013077079318463802,-0.023262949660420418,-72,-14,-1000,555,-12,-23,-168,-305,-5,51059.0
05:24:48.820,AUTO,-35.36355,149.1646206,24283,0.053206298500299454,0.04857245832681656,-2.0760574340820312,0.5540875196456909,-0.013077079318463802,-0.023262949660420418,-72,-14,-1000,555,-12,-23,-168,-305,-5,51059.0
05:24:49.022,AUTO,-35.36355,149.1646206,24283,0.053206298500299454,0.04857245832681656,-2.0760574340820312,0.5540875196456909,-0.013077079318463802,-0.023262949660420418,-72,-14,-1000,555,-12,-23,-168,-305,-5,51059.0
05:24:49.224,AUTO,-35.36355,149.1646206,24283,0.053206298500299454,0.04857245832681656,-2.0760574340820312,0.5540875196456909,-0.013077079318463802,-0.023262949660420418,-72,-14,-1000,555,-12,-23,-168,-305,-5,51059.0
05:24:49.426,AUTO,-35.3635599,149.1645986,24309,0.03407755866646767,0.05605275183916092,-2.0755226612091064,-0.5298777222633362,0.015492653474211693,0.019726812839508057,-49,-70,-998,-530,16,20,-128,-234,-4,51059.0
05:24:49.719,AUTO,-35.3635626,149.1645926,24318,0.023675469681620598,0.05991765111684799,-2.075528860092163,-0.6603020429611206,0.014816327020525932,0.008873071521520615,-47,-54,-1012,-659,15,8,-115,-210,-5,51059.0
05:24:49.936,AUTO,-35.363565,149.1645873,24331,0.020909354090690613,0.06527429074048996,-2.075364351272583,-0.380329966545105,0.019152764230966568,-0.0032025882974267006,-39,-29,-998,-378,19,-3,-101,-186,-6,51059.0
05:24:50.160,AUTO,-35.3635671,149.1645827,24341,0.02189113385975361,0.07375909388065338,-2.0766103267669678,0.2223241776227951,0.03053855150938034,-0.020581938326358795,-42,4,-1017,224,31,-20,-87,-163,-4,51059.0
05:24:50.373,AUTO,-35.363569,149.1645787,24347,0.0300962682813406,0.07620080560445786,-2.076564311981201,0.5918282866477966,-0.0019580719526857138,-0.012976660393178463,-42,4,-1017,224,31,-20,-73,-139,-4,51059.0
05:24:50.581,AUTO,-35.363569,149.1645787,24347,0.0300962682813406,0.07620080560445786,-2.076564311981201,0.5918282866477966,-0.0019580719526857138,-0.012976660393178463,-30,15,-1032,592,0,-12,-73,-139,-4,51059.0
05:24:50.786,AUTO,-35.3635706,149.1645755,24357,0.03372121974825859,0.06777134537696838,-2.076523780822754,0.24663569033145905,-0.04222097247838974,0.011286146007478237,-25,-30,-994,246,-41,11,-62,-116,-4,51059.0
05:24:50.989,AUTO,-35.3635706,149.1645755,24357,0.03372121974825859,0.06777134537696838,-2.076523780822754,0.24663569033145905,-0.04222097247838974,0.011286146007478237,-25,-30,-994,246,-41,11,-62,-116,-4,51059.0
05:24:51.192,AUTO,-35.3635706,149.1645755,24357,0.03372121974825859,0.06777134537696838,-2.076523780822754,0.24663569033145905,-0.04222097247838974,0.011286146007478237,-25,-30,-994,246,-41,11,-62,-116,-4,51059.0
05:24:51.394,AUTO,-35.363574,149.1645689,24372,0.02066813036799431,0.04566056653857231,-2.0777390003204346,0.32992708683013916,-0.017294161021709442,-0.010015944950282574,-12,18,-1001,331,-16,-10,-30,-67,-4,53311.0
05:24:51.595,AUTO,-35.3635748,149.1645676,24374,0.023302949965000153,0.041728269308805466,-2.0777602195739746,0.6127506494522095,-0.016902530565857887,-0.004486206918954849,-11,20,-1010,613,-16,-4,-22,-54,-2,53311.0
05:24:51.797,AUTO,-35.3635748,149.1645676,24374,0.023302949965000153,0.041728269308805466,-2.0777602195739746,0.6127506494522095,-0.016902530565857887,-0.004486206918954849,-11,20,-1010,613,-16,-4,-22,-54,-2,53311.0
05:24:51.999,AUTO,-35.3635754,149.1645666,24376,0.02582094818353653,0.03732825070619583,-2.0780282020568848,0.26841890811920166,-0.016082998365163803,0.006413630209863186,-10,-8,-997,268,-15,6,-16,-43,-1,53311.0
05:24:52.201,AUTO,-35.3635759,149.1645659,24378,0.012269283644855022,0.03303414583206177,-2.077948808670044,-0.6147931814193726,-0.01904636062681675,0.0021015736274421215,-5,-32,-996,-614,-18,1,-9,-33,-2,53311.0
05:24:52.403,AUTO,-35.3635763,149.1645654,24378,0.00844248104840517,0.02988366037607193,-2.078591823577881,-0.5643406510353088,-0.02127680741250515,-0.0017163881566375494,-5,-16,-1010,-563,-20,-1,-2,-26,0,53311.0
05:24:52.604,AUTO,-35.3635765,149.1645651,24380,0.006649886257946491,0.024743270128965378,-2.0793673992156982,0.07114087790250778,-0.019955815747380257,0.0023234167601913214,-2,17,-1001,73,-19,2,2,-19,-1,53311.0
05:24:52.806,AUTO,-35.3635765,149.1645651,24380,0.006649886257946491,0.024743270128965378,-2.0793673992156982,0.07114087790250778,-0.019955815747380257,0.0023234167601913214,-2,17,-1001,73,-19,2,2,-19,-1,53311.0
05:24:53.008,AUTO,-35.3635765,149.1645651,24380,0.006649886257946491,0.024743270128965378,-2.0793673992156982,0.07114087790250778,-0.019955815747380257,0.0023234167601913214,-2,17,-1001,73,-19,2,2,-19,-1,53311.0
05:24:53.211,AUTO,-35.3635765,149.1645651,24380,0.006649886257946491,0.024743270128965378,-2.0793673992156982,0.07114087790250778,-0.019955815747380257,0.0023234167601913214,-2,17,-1001,73,-19,2,2,-19,-1,53311.0
05:24:53.413,AUTO,-35.3635767,149.1645651,24381,0.018899155780673027,0.008249456994235516,-2.0804355144500732,0.2969067394733429,-0.02534596435725689,0.006432315334677696,0,0,-999,297,-24,6,10,-6,0,53311.0
05:24:53.615,AUTO,-35.3635767,149.1645652,24384,0.007581216748803854,0.0013848432572558522,-2.0809438228607178,-0.3473021388053894,-0.029508506879210472,0.006984740495681763,0,-32,-999,-346,-29,7,10,-5,-1,53311.0
05:24:53.816,AUTO,-35.3635767,149.1645652,24384,0.007581216748803854,0.0013848432572558522,-2.0809438228607178,-0.3473021388053894,-0.029508506879210472,0.006984740495681763,0,-32,-999,-346,-29,7,10,-5,-1,53311.0
05:24:54.018,AUTO,-35.3635768,149.1645653,24387,-0.002962916623800993,-0.006047549657523632,-2.0816071033477783,-0.5408344864845276,-0.02955617941915989,0.0023273518308997154,0,-12,-1001,-539,-28,2,10,-5,-1,53311.0
05:24:54.220,AUTO,-35.3635769,149.1645653,24392,0.00338544393889606,-0.008581324480473995,-2.0821738243103027,0.07426152378320694,0.007816766388714314,0.008404702879488468,0,16,-998,76,8,9,9,-6,-1,53311.0
05:24:54.422,AUTO,-35.3635769,149.1645654,24393,0.013824190944433212,-0.00752215925604105,-2.082613468170166,0.6028993129730225,-0.009709680452942848,0.0068770344369113445,-1,33,-996,604,-8,7,9,-8,0,53311.0
05:24:54.623,AUTO,-35.363577,149.1645654,24395,0.023552868515253067,-0.01656242087483406,-2.083193302154541,0.30179518461227417,-0.048929356038570404,0.01028130017220974,-1,5,-1008,302,-48,10,7,-9,-1,53311.0
05:24:54.826,AUTO,-35.363577,149.1645654,24395,0.023552868515253067,-0.01656242087483406,-2.083193302154541,0.30179518461227417,-0.048929356038570404,0.01028130017220974,-1,5,-1008,302,-48,10,7,-9,-1,53311.0
05:24:55.028,RTL,-35.363577,149.1645654,24395,0.023552868515253067,-0.01656242087483406,-2.083193302154541,0.30179518461227417,-0.048929356038570404,0.01028130017220974,-1,5,-1008,302,-48,10,7,-9,-1,53311.0
