time_stamp,RTL_ALT,MODE,roll,pitch,yaw,rollspeed,pitchspeed,yawspeed,lat,lon,relative_alt,vx,vy,vz,xacc,yacc,zacc,xgyro,ygyro,zgyro
04:42:37,38228.0,STABILIZE,-0.0008378049824386835,0.0009566866792738438,0.0239744670689106,0.0001853291760198772,0.00022214761702343822,0.0017796503379940987,-35.3632621,149.1652375,0.0,-1.0,2.0,1.0,0.0,1.0,-1000.0,0.0,0.0,0.5
04:42:47,38228.0,AUTO,-0.000501766859088093,0.0011055494542233646,0.021541442722082138,0.0003588629188016057,0.0002803149400278926,0.0014667262439616024,-35.3632621,149.1652375,0.0,0.0,0.5,1.0,0.0,1.0,-1000.0,1.0,0.0,1.0
04:42:49,38228.0,AUTO,-2.5467397790635005e-05,0.0016669891774654388,0.020983817987143993,0.0003542398626450449,0.0002726660459302366,0.001333222957327962,-35.3632621,149.16523745,0.0,0.0,0.0,0.0,0.0,1.0,-1000.0,0.5,1.0,0.5
04:42:50,120423.0,AUTO,0.0027804899436887354,0.00043754455691669136,0.020853517577052116,0.0014606174663640559,-0.00092201484949328,0.001380521287501324,-35.3632621,149.165237475,164.0,0.0,0.25,-53.25,0.0,0.0,-1115.5,1.75,-0.5,0.75
04:42:51,120423.0,AUTO,0.02824617549777031,-0.0018156119040213525,0.020348881371319294,0.04583887755870819,-0.007590225664898753,0.0025141964433714747,-35.363262,149.1652376,1584.0,0.5,8.0,-146.0,0.0,-0.5,-1012.0,46.0,-6.5,1.5
04:42:53,120423.0,AUTO,-0.040104275569319725,0.02722480148077011,-0.09990702196955681,-0.03103705123066902,-0.02662365324795246,-0.046658152248710394,-35.363261,149.1652454,4632.0,-7.0,30.5,-149.5,4.0,-7.5,-1004.0,-29.5,-25.5,-46.5
04:42:55,78503.5,AUTO,-0.003869713982567191,-0.01119420537725091,-0.07601536065340042,0.06339675188064575,0.01809702254831791,0.0052985986694693565,-35.363261449999996,149.16524015,7715.5,7.5,-58.5,-150.5,-8.5,11.5,-1003.0,63.5,18.5,5.0
04:42:57,36584.0,AUTO,0.031752475537359715,0.01918600406497717,-0.10411803424358368,-0.07789337262511253,-0.058195168152451515,0.02399922627955675,-35.3632615,149.16523425,10832.0,-18.0,21.5,-149.0,4.5,-0.5,-997.5,-76.5,-56.5,23.0
04:42:59,36584.0,AUTO,-0.010041481349617243,-0.009649903513491154,-0.1185777522623539,0.016573353670537472,0.01127670519053936,-0.028662970289587975,-35.363263,149.1652372,13927.0,4.0,-3.0,-152.0,-0.5,0.0,-1000.0,16.5,11.5,-28.0
04:43:00,92292.0,AUTO,-0.00013798761938232929,-0.0010836829751497135,-0.139968603849411,-0.001504208194091916,0.01109087560325861,-0.025623048190027475,-35.363262575,149.1652366,15096.25,6.75,-7.75,-152.75,-2.5,0.0,-999.0,-1.25,11.25,-25.25
04:43:01,92292.0,AUTO,-0.04173618368804455,0.031626894138753414,-0.10724131762981415,0.0019164306577295065,0.09021113440394402,0.2937399595975876,-35.3632619,149.1652343,17019.0,-5.5,-31.5,-145.0,-3.5,4.0,-981.5,2.5,90.5,293.0
04:43:03,92292.0,AUTO,0.04747338965535164,-0.01769400853663683,0.03320148400962353,-0.050707368180155754,0.03024002816528082,-0.003967942844610661,-35.363263849999996,149.16523085,19206.0,6.5,35.0,-70.5,1.5,-7.0,-973.0,-49.5,30.5,-3.5
04:43:05,113150.5,AUTO,-0.014478272758424282,0.013086552266031504,0.029859310947358608,-0.023330776020884514,-0.0028242795960977674,-0.002356135635636747,-35.3632616,149.16523890000002,20154.5,6.0,23.0,-23.0,1.0,-7.666666666666667,-975.0,-27.666666666666668,3.0,-1.3333333333333333
04:43:07,134009.0,AUTO,-0.03104429505765438,0.010509185027331114,0.0247495137155056,0.21947021782398224,-0.004515849985182285,-0.006698258686810732,-35.363261949999995,149.16523775000002,20028.0,-16.0,-37.5,8.5,-1.5,5.0,-1004.0,219.5,-3.0,-6.5
04:43:09,134009.0,AUTO,-0.02124334778636694,-0.09286166727542877,-1.6220301389694214,-0.35966145247220993,-0.031467546708881855,-1.46815687417984,-35.36326725,149.16521945,20002.5,-47.5,-123.5,-5.0,-35.0,-11.5,-1006.5,-357.5,-30.0,-1467.5
04:43:10,77699.0,AUTO,0.03161836415529251,-0.1341001596301794,-1.9695177376270294,0.08448508754372597,-0.04003233090043068,0.030395491048693657,-35.363271325,149.16520547500002,20031.0,-72.0,-187.25,-5.75,-37.75,-23.5,-1004.0,85.75,-38.75,30.0
04:43:11,77699.0,AUTO,0.028616257943212986,-0.15478567779064178,-1.8738012313842773,-0.07510540075600147,0.0345570920035243,-0.018977877218276262,-35.363281,149.16517015,20104.5,-112.5,-313.0,-9.0,-65.5,-43.0,-1007.5,-74.0,35.0,-18.5
04:43:13,77699.0,AUTO,0.06270904466509819,-0.12576644867658615,-1.8859308362007141,0.04653018340468407,0.02304079127497971,-0.0034302646527066827,-35.36330485,149.16508765,20346.5,-143.5,-424.5,-13.0,-89.0,-46.5,-998.5,47.5,23.5,-3.0
04:43:15,77699.0,AUTO,0.06244382634758949,-0.0875876396894455,-1.8860492706298828,0.045485383830964565,0.02862502122297883,-0.00388989329803735,-35.36333165,149.16499055,20624.5,-142.0,-445.5,-12.0,-95.0,-55.5,-993.5,46.0,29.0,-3.5
04:43:16,40099.0,AUTO,0.06010362319648266,-0.051960138604044914,-1.8856355547904968,-0.0026208829949609935,0.05234019411727786,-0.002778586815111339,-35.3633414,149.16495437499998,20719.0,-136.75,-431.0,-13.75,-92.75,-59.5,-1000.5,-1.25,52.75,-2.75
04:43:17,40099.0,AUTO,0.05626664496958256,0.007501763408072293,-1.8844572305679321,-0.1722535751760006,0.04339440166950226,0.0006887561175972223,-35.36335645,149.16489890000003,20880.5,-113.5,-362.5,-10.0,-75.0,-59.5,-993.0,-171.0,44.0,0.5
04:43:19,40099.0,AUTO,0.03300324082374573,0.08939085155725479,-1.8843541741371155,0.5038993060588837,-0.014687341172248125,-0.006278401240706444,-35.3633717,149.16484,20971.5,-42.5,-158.5,-0.5,-31.5,6.5,-1000.5,505.0,-13.0,-6.5
04:43:21,40099.0,AUTO,0.004031317541375756,0.029848267324268818,-1.8860026001930237,0.27327635139226913,-0.019613499753177166,0.0011055998038500547,-35.36337535,149.1648225,20958.5,-9.5,-26.0,0.5,-5.5,-6.5,-1010.0,274.0,-18.5,1.0
04:43:22,65112.0,AUTO,0.005216591060161591,0.01391690713353455,-1.887154996395111,-0.11126331612467766,-0.023494473192840815,-0.00160836341092363,-35.363376175,149.16482175,20964.0,-2.75,-7.25,0.0,-1.5,2.5,-997.5,-109.25,-21.75,-1.5
04:43:23,65112.0,AUTO,-0.003670621197670698,-0.009683377109467983,-1.8886155486106873,-0.26919445930980146,0.005550395057071,0.005089861340820789,-35.363376849999995,149.1648219,20970.5,2.5,-6.0,0.0,-1.0,8.0,-991.5,-266.0,6.5,4.5
04:43:25,65112.0,RTL,0.015178739093244076,0.0015293911565095186,-1.8909388780593872,0.3716137856245041,9.439268615096807e-05,0.005426060874015093,-35.363377850000006,149.1648213,21114.5,8.0,-8.0,-30.0,-0.5,17.5,-1041.5,373.0,1.0,5.0
04:43:26,108144.0,RTL,0.009592790971510112,0.0003870558996368345,-1.8918054103851318,-0.0233110710978508,-0.0012455328251235187,0.005592890665866435,-35.3633781,149.1648213,21504.75,11.0,-6.75,-67.0,0.0,0.5,-1048.75,-21.0,0.0,5.25
04:43:27,108144.0,RTL,0.005744213238358498,-0.0002170182706322521,-1.8919850587844849,-0.0107106389477849,0.0010259945411235094,0.0029461386147886515,-35.363378,149.1648213,22685.0,12.0,-5.0,-124.0,0.0,-1.0,-1045.0,-8.0,1.0,3.0
04:43:29,108144.0,RTL,0.03940584883093834,0.0010273889638483524,-1.905595064163208,-0.037019846960902214,0.05585392750799656,-0.06099025788716972,-35.363376,149.16481994999998,25081.0,37.5,-21.5,-147.5,2.0,-7.5,-997.0,-35.0,56.5,-60.5
04:43:31,70295.5,RTL,-0.05196930654346943,-0.004316833685152233,-1.9842467308044434,0.03611921798437834,-0.023719339806120843,0.0062911182176321745,-35.36337185,149.16481770000001,28138.5,-17.0,14.5,-150.0,0.0,2.5,-1001.0,38.0,-22.5,6.0
04:43:33,32447.0,RTL,0.010447840206325054,0.00126296651433222,-1.9802611470222473,0.003771327785216272,0.007205676054582,-0.003619801253080368,-35.3633772,149.1648204,31248.0,-24.5,10.5,-151.0,-3.5,4.0,-999.5,5.5,7.5,-2.5
04:43:35,32447.0,RTL,-0.0002098593977279961,0.0034939019242301583,-1.9963135123252869,-0.005252962117083371,-0.00045224479981698096,-0.012626869138330221,-35.3633787,149.16482085,34363.0,-1.0,4.5,-151.5,0.0,0.0,-1000.0,-3.0,0.5,-11.0
04:43:36,63557.0,RTL,-0.003133128979243338,0.0029155409429222345,-2.0131693482398987,-0.001961738715181127,0.0005590459331870079,-0.018407979980111122,-35.363378600000004,149.1648208,35920.5,0.0,3.75,-152.0,0.0,0.0,-1000.0,0.25,1.0,-17.25
04:43:37,63557.0,RTL,-0.003914344939403236,0.003208631882444024,-2.0335408449172974,0.0005934596993029118,0.00045298057375475764,-0.01992592215538025,-35.363378350000005,149.16482065000002,37481.0,0.0,3.0,-152.0,0.0,0.0,-1000.0,2.0,1.0,-18.5
04:43:39,63557.0,RTL,-0.004043414257466793,0.0032446609111502767,-2.076729893684387,-0.0013154292246326804,0.00025484777870588005,-0.02048360276967287,-35.3633778,149.1648205,40601.0,0.0,4.0,-152.5,0.0,0.0,-999.5,0.5,1.0,-19.0
04:43:41,48016.0,RTL,-0.003213378367945552,0.0017211411613970995,-2.1183043718338013,-0.0025054446887224913,-0.0010963795357383788,-0.019967947155237198,-35.36337745,149.16482055,43720.5,1.0,4.0,-153.0,0.0,0.0,-999.5,0.0,0.0,-19.0
04:43:43,32475.0,RTL,-0.0017076966469176114,0.0025850028032436967,-2.1555346250534058,0.0017300043255090714,0.004450065898708999,-0.008495198795571923,-35.3633772,149.1648206,46836.5,0.0,3.0,-152.5,0.0,0.0,-999.0,3.0,5.5,-7.5
04:43:45,32475.0,RTL,-0.0025363453896716237,0.0022280606208369136,-2.1232311725616455,-0.005068306112661958,-0.0018401731213089079,0.028255805373191833,-35.3633767,149.1648207,49945.5,4.0,3.0,-152.0,0.0,0.0,-1000.0,-2.5,-0.5,28.5
04:43:46,49944.0,RTL,-0.00453533697873354,0.0009101451287278906,-2.098020911216736,0.0008803275704849511,0.00017899111844599247,0.02403312362730503,-35.3633764,149.1648207,51492.75,1.75,3.0,-152.0,0.0,0.0,-1000.25,2.25,1.25,24.5
04:43:47,49944.0,RTL,-0.0034155468456447124,0.0008103274449240416,-2.077661395072937,0.0027331188321113586,-0.0002834740444086492,0.020965486764907837,-35.3633763,149.1648207,53050.0,0.0,2.0,-152.0,0.0,0.0,-1000.5,4.0,1.0,21.5
04:43:49,49944.0,RTL,-0.0014608457568101585,0.0008720690966583788,-2.0452258586883545,0.002553147729486227,1.0870629921555519e-05,0.015277328435331583,-35.363376450000004,149.1648208,56159.0,-1.0,1.0,-152.5,0.0,0.0,-1000.0,4.0,1.0,16.0
04:43:51,49944.0,RTL,-0.0010743488965090364,0.0022699477849528193,-2.021055817604065,0.0021183117059990764,0.0004631783231161535,0.012214872520416975,-35.36337675,149.16482075,59267.5,0.0,1.5,-152.5,0.0,0.0,-1000.5,4.0,1.5,12.5
04:43:52,36279.0,RTL,-0.0007552672905148938,0.0018604177748784423,-2.0110931992530823,0.00034088606480509043,0.00022437446750700474,0.009855142328888178,-35.363376824999996,149.1648207,60819.25,0.0,2.0,-152.25,0.0,0.0,-1000.0,1.75,1.25,10.5
04:43:53,36279.0,RTL,-0.0010930577700491995,0.0017470959573984146,-2.00273460149765,-0.0012556668370962143,-0.00037321040872484446,0.00808853399939835,-35.3633769,149.1648207,62373.5,0.0,2.0,-152.0,0.0,0.0,-1000.0,0.5,0.5,9.0
04:43:55,36279.0,RTL,-0.0013429943355731666,0.0014107389142736793,-1.9887672066688538,0.0007419186877086759,-0.00036006950540468097,0.008382032392546535,-35.3633769,149.1648207,65476.5,0.0,1.0,-152.0,0.0,0.0,-1000.0,2.5,1.0,9.5
04:43:57,43760.5,RTL,-0.0008108779729809612,0.0014916727086529136,-1.976948320865631,-0.00024704623501747847,0.002106604748405516,0.00583446747623384,-35.363377,149.1648207,68582.0,0.5,1.0,-152.0,0.0,0.0,-999.5,1.0,3.5,6.5
04:43:59,51242.0,RTL,-0.0010293966333847493,0.0013586197164840996,-1.9665952920913696,-0.001412862678989768,-0.0006839066627435386,0.005536362761631608,-35.363377,149.1648207,71689.0,1.0,1.0,-152.0,0.0,0.0,-1000.0,0.0,0.0,6.5
04:44:01,51242.0,RTL,-0.0006476150883827358,0.0008814094762783498,-1.957590639591217,-0.0015021191211417317,0.0010588731965981424,0.0058599167969077826,-35.363377,149.1648207,74796.0,0.5,1.0,-152.0,0.0,0.0,-999.5,0.0,2.0,6.5
04:44:02,143792.0,RTL,-0.000794723178842105,0.0012358868843875825,-1.952746033668518,0.0013435113360174,0.0001530594890937209,0.005347339843865484,-35.363377,149.1648207,76352.25,1.0,1.0,-152.0,0.0,0.0,-1000.25,2.75,1.25,6.25
04:44:03,143792.0,RTL,-0.00045345820641765994,0.000977623606255899,-1.9489020506540935,-0.0002998859078312914,8.789164712652564e-05,0.005478590416411559,-35.363377,149.1648207,77894.0,1.0,1.0,-152.0,0.0,0.0,-999.6666666666666,1.6666666666666667,1.3333333333333333,6.666666666666667
04:44:05,143792.0,RTL,-0.00046891128295101225,0.0011249880190007389,-1.941568911075592,0.000763388117775321,0.0002665567444637418,0.003829370718449354,-35.363377,149.1648207,81165.5,1.0,0.5,-152.0,0.0,0.0,-1000.0,2.0,1.5,5.0
04:44:07,95617.0,RTL,-0.00043433016253402457,0.001876643393188715,-1.9358875751495361,0.0011386483674868941,0.0003004621248692274,0.002660696394741535,-35.363377,149.1648207,84272.5,1.0,1.0,-152.0,0.0,0.0,-1000.0,2.5,2.0,4.0
04:44:09,47442.0,RTL,-0.0002522109280107543,0.0008403656829614192,-1.9308027625083923,0.00030714168678969145,-0.0007166718714870512,0.002062293526250869,-35.3633771,149.1648207,87381.0,1.0,1.0,-152.0,0.0,0.0,-1000.0,2.0,0.5,3.0
04:44:11,47442.0,RTL,-9.808816957956878e-05,0.0007686325116083026,-1.9261224865913391,0.00292113795876503,0.0009389863698743284,0.003973462735302746,-35.3633771,149.1648208,90489.5,1.0,0.0,-152.0,0.0,0.0,-999.5,4.5,2.0,5.5
04:44:12,130593.0,RTL,-4.650725747978868e-05,0.0010673535580281168,-1.9241519272327423,0.0003184460219927132,0.0016347932978533208,0.0024873269721865654,-35.3633771,149.1648208,92040.0,1.0,0.0,-152.0,0.0,0.0,-999.75,2.5,3.0,4.0
04:44:13,130593.0,RTL,-0.00031640259476262145,0.001315807516220957,-1.9223104119300842,0.0027658636681735516,0.0018957420834340155,0.0030934157548472285,-35.3633771,149.1648208,93592.5,1.0,0.0,-152.0,0.0,0.0,-1000.0,4.5,3.0,4.0
04:44:15,130593.0,RTL,-0.00018127105067833327,0.001059274043655023,-1.9185853004455566,0.0006893037352710962,0.0015234373859129846,0.0026707820361480117,-35.3633771,149.1648208,96698.5,1.0,0.5,-152.0,0.0,0.0,-1000.0,2.0,3.0,4.0
04:44:17,130593.0,RTL,-0.0005288885731715709,0.00168845389271155,-1.9155574440956116,0.0002878850791603327,-0.0015244875103235245,0.004523809184320271,-35.3633771,149.1648207,99804.5,1.0,1.0,-152.0,0.0,0.0,-1000.0,1.5,0.5,5.5
04:44:18,13769.0,RTL,-0.00043193914825678803,0.0012676198966801167,-1.913646638393402,0.0005655187414959073,-0.0009037292329594493,0.0014245010679587722,-35.3633771,149.1648207,101360.25,1.0,1.0,-152.0,0.0,0.0,-999.75,2.25,0.75,2.75
04:44:19,13769.0,RTL,7.509912575187627e-05,0.0003888543797074817,-1.9124805927276611,0.0018370267935097218,0.0002475110231898725,0.0019221995025873184,-35.3633771,149.16482075,102913.5,1.0,0.5,-152.0,0.0,0.0,-1000.0,3.5,1.5,3.0
04:44:21,13769.0,RTL,-8.290767982543912e-05,0.0009734784543979913,-1.9104825258255005,0.0003069669473916292,3.0045746825635433e-05,0.0020854573231190443,-35.3633771,149.1648208,106020.5,1.0,0.0,-152.0,0.0,0.0,-1000.0,2.0,1.5,3.5
04:44:23,59331.5,RTL,1.246420833922457e-05,0.0010026548407040536,-1.908345103263855,-0.0010230272309854627,0.0012680977815762162,9.32089751586318e-05,-35.3633771,149.1648208,109131.5,1.0,0.0,-152.0,0.0,0.0,-999.0,1.0,3.0,1.5
04:44:25,104894.0,RTL,-0.0001451609678042587,0.00128629693062976,-1.9067643284797668,0.00310303526930511,0.00020947674056515098,0.0022273925715126097,-35.3633771,149.1648208,112236.5,1.0,0.0,-152.0,0.0,0.0,-1000.5,5.0,1.5,3.5
04:44:27,104894.0,RTL,-0.00014249619948714098,0.0010706482571549714,-1.904994249343872,-0.0019702744320966303,-0.00027731963200494647,-0.000389985681977123,-35.3633771,149.1648208,115343.0,1.0,0.0,-152.0,0.0,0.0,-1000.0,0.0,1.0,1.0
04:44:28,21915.0,RTL,-0.00016761931510700379,0.0012127535592298955,-1.9045951068401337,-0.0012264929246157408,-1.096783671528101e-05,0.001072202401701361,-35.3633771,149.1648208,116900.5,1.0,0.0,-152.0,0.0,0.0,-999.5,0.5,1.75,2.25
04:44:29,21915.0,RTL,-5.684938150807284e-05,0.0009598145261406898,-1.9037464261054993,-0.0008961409330368042,-0.0016870869440026581,0.0014098560204729438,-35.3633771,149.1648208,118454.0,1.0,0.0,-152.0,0.0,0.0,-1000.0,1.0,0.5,2.5
04:44:31,21915.0,RTL,-0.000219509398448281,0.0010437819873914123,-1.9027708172798157,0.0012338048545643687,-0.00014493026537820697,-9.92140849120915e-05,-35.3633771,149.1648208,121561.5,1.0,0.0,-152.0,0.0,0.0,-1000.5,3.0,1.5,1.5
04:44:33,123315.5,RTL,-0.00014042255679669324,0.0010987932328134775,-1.901760220527649,0.002786719473078847,9.757699444890022e-06,0.0013561630621552467,-35.3633771,149.1648208,124672.0,1.0,0.0,-152.0,0.0,0.0,-1000.5,4.5,2.0,2.5
04:44:35,224716.0,RTL,0.00040388948400504887,0.0010345444025006145,-1.9000582695007324,0.0014696388971060514,-0.001705586793832481,0.001770077447872609,-35.3633771,149.1648208,127781.5,2.0,0.0,-152.0,0.0,0.0,-1000.0,3.5,0.0,3.5
04:44:37,224716.0,RTL,-0.0004437025199877098,0.0009106799552682787,-1.8997328877449036,-0.0007266137399710715,-0.0010738901910372078,0.0007498126360587776,-35.3633771,149.1648208,130888.5,1.0,0.0,-152.0,0.0,0.0,-1000.5,1.0,0.5,2.0
04:44:38,98155.0,RTL,-5.406281343312003e-05,0.0009800143743632361,-1.899384766817093,0.0007417230517603457,1.6731617506593466e-05,0.0007993469480425119,-35.3633771,149.1648208,132441.75,1.0,0.0,-152.0,0.0,0.0,-1000.25,2.5,1.75,2.5
04:44:39,98155.0,RTL,-2.967299587908201e-05,0.0009450459037907422,-1.8991467952728271,-0.0024405105505138636,-0.00042458553798496723,0.0020649951766245067,-35.3633771,149.1648208,133995.5,1.0,0.0,-152.0,0.0,0.0,-999.5,0.0,1.5,3.5
04:44:41,98155.0,RTL,-0.00015005157001724,0.0011728040408343077,-1.8986148238182068,0.0005253476556390524,-0.001088833436369896,0.0007464397931471467,-35.3633771,149.1648208,137104.0,1.0,0.0,-152.0,0.0,0.0,-1000.0,2.5,1.0,2.5
04:44:43,82161.0,RTL,-4.903719309368171e-05,0.0011491544428281486,-1.8982482552528381,0.0001878736075013876,0.0004962276434525847,-0.00025866529904305935,-35.3633771,149.1648208,140211.0,1.0,0.0,-152.0,0.0,0.0,-1000.0,2.0,2.5,1.5
04:44:45,66167.0,RTL,-6.993427814450115e-05,0.0010100923827849329,-1.8978328704833984,-0.0005377820925787091,0.0005001632962375879,0.0015654809540137649,-35.3633771,149.1648208,143315.0,1.0,0.0,-152.0,0.0,0.0,-999.5,1.5,2.5,3.0
04:44:47,66167.0,RTL,0.0006475709087681025,0.0012539379531517625,-1.8973873853683472,0.0018558073788881302,0.00020737427985295653,0.0003911991370841861,-35.3633771,149.1648208,146422.5,1.5,0.0,-152.0,0.0,0.0,-1000.5,4.0,2.0,2.0
04:44:48,7464.0,RTL,0.0005721252236980945,0.0009602223144611344,-1.8973160684108734,-0.0006418158882297575,0.00020453007891774178,0.0009979000315070152,-35.3633771,149.1648208,147977.5,2.0,0.0,-152.0,0.0,0.0,-999.75,1.75,2.0,3.0
04:44:49,7464.0,RTL,-0.0002635621131048538,0.0009997005108743906,-1.8969470858573914,-0.0025105252861976624,-0.0006823411677032709,0.0007115512853488326,-35.3633771,149.1648208,149532.0,2.0,0.0,-152.0,0.0,0.0,-1000.0,0.0,1.0,2.0
04:44:51,7464.0,RTL,-0.0005371787410695106,0.0008918707608245313,-1.896262764930725,0.0008188162464648485,0.000494714651722461,0.0006368160247802734,-35.3633771,149.1648208,152638.5,1.0,0.0,-152.0,0.0,0.0,-1000.0,3.0,2.5,2.5
04:44:53,5636.5,RTL,-0.00027248094556853175,0.0012166142696514726,-1.8963396549224854,0.001432790420949459,-0.0013327599735930562,0.00121794524602592,-35.3633771,149.1648208,155171.0,1.0,0.0,-152.0,0.0,0.0,-1001.0,4.0,1.0,3.0
04:44:55,3809.0,RTL,0.00021117040159879252,0.0012089424999430776,-1.8959662318229675,0.0016659883549436927,0.0007279448909685016,0.0011447785655036569,-35.3633771,149.1648208,158230.5,1.0,0.0,-152.0,0.0,0.0,-1000.0,4.0,2.5,3.0
04:44:57,3809.0,RTL,0.0008988661284092814,0.0013854915741831064,-1.8958417177200317,0.002237583859823644,0.0017001460073515773,0.0009063610341399908,-35.3633771,149.1648208,161346.5,2.0,0.0,-152.0,0.0,0.0,-999.5,4.5,3.5,2.5
04:44:58,106507.0,RTL,0.00010635709622874856,0.0012990268296562135,-1.8958514034748077,-0.0006057627033442259,-0.00015370838809758425,0.00038139609387144446,-35.3633771,149.1648208,163287.5,2.0,0.0,-152.0,0.0,0.0,-1000.25,2.0,2.0,2.25
04:44:59,106507.0,RTL,-0.0007819021702744067,0.0011163583840243518,-1.8955137133598328,-2.462649717926979e-06,-1.3201148249208927e-05,-0.00031502475030720234,-35.3633771,149.1648208,164452.0,2.0,0.0,-152.0,0.0,0.0,-1000.0,2.0,2.0,1.5
04:45:01,106507.0,RTL,-0.0003160590131301433,0.00039379623194690794,-1.8957485556602478,0.003547468804754317,0.0007575894705951214,0.0011658211005851626,-35.3633771,149.1648208,167563.5,1.0,0.0,-152.0,0.0,0.0,-1000.0,5.5,2.5,3.0
04:45:03,106507.0,RTL,0.00023568714095745236,0.0011358464835211635,-1.8958557844161987,-0.00029350921977311373,0.0010087533155456185,0.00044299126602709293,-35.3633771,149.1648208,170667.0,1.0,0.0,-152.0,0.0,0.0,-1000.0,2.0,3.0,2.5
04:45:04,45573.0,RTL,0.00022506470122607425,0.0010006599477492273,-1.8956902027130127,-8.04686569608748e-05,0.00018091883976012468,0.0004906830145046115,-35.3633771,149.1648208,172608.5,1.0,0.0,-152.0,0.0,0.0,-1000.0,2.0,2.25,2.25
04:45:05,45573.0,RTL,0.0006760441174264997,0.0013081291690468788,-1.8956848978996277,0.0001958997454494238,9.491178207099438e-05,0.0010513567831367254,-35.3633771,149.1648208,173773.5,1.5,0.0,-152.0,0.0,0.0,-1000.0,2.5,2.5,3.0
04:45:07,45573.0,RTL,3.2710592677176464e-05,0.0017727671656757593,-1.8945669531822205,0.0010671616764739156,0.0005512962816283107,0.0012777249794453382,-35.3633771,149.1648208,176885.0,2.0,0.0,-152.0,0.0,0.0,-999.5,3.5,3.0,3.0
04:45:09,163404.5,RTL,-0.00019784519827226177,0.0011642323806881905,-1.8947014212608337,0.0015568553935736418,0.0009775446960702538,0.002421808079816401,-35.3633771,149.1648208,179992.0,1.0,0.0,-152.0,0.0,0.0,-1000.0,3.5,3.0,4.5
04:45:11,281236.0,RTL,4.31523712904891e-05,0.0011936175869777799,-1.894885241985321,-4.3273670598864555e-05,0.0008867250289767981,-4.389073001220822e-05,-35.3633771,149.1648208,183107.5,1.0,0.0,-152.0,0.0,0.0,-1000.0,2.5,3.5,2.0
04:45:13,281236.0,RTL,8.916607475839555e-05,0.0006007304764352739,-1.8951188325881958,0.0017504283459857106,0.0006610065465793014,0.001028368656989187,-35.3633771,149.1648208,186213.5,1.0,0.0,-152.0,0.0,0.0,-999.5,4.0,3.0,3.0
04:45:14,82304.0,RTL,0.0001156880971393548,0.0008992823859443888,-1.8951328098773956,-0.0005887153092771769,0.0007581144454889,0.00010873231803998351,-35.3633771,149.1648208,188148.0,1.0,0.0,-152.0,0.0,0.0,-999.75,2.0,3.0,2.25
04:45:15,82304.0,RTL,0.00014273188207880594,0.0010911354911513627,-1.8950689435005188,6.140104960650206e-05,0.0007868491811677814,0.00043927307706326246,-35.3633771,149.1648208,189312.5,1.0,0.0,-152.0,0.0,0.0,-1000.0,2.0,3.0,2.5
04:45:17,82304.0,RTL,0.0006549269310198724,0.0013657063245773315,-1.8952305316925049,0.0005225836066529155,0.00013285758905112743,-0.000343254127074033,-35.3633771,149.1648208,192428.0,2.0,0.0,-152.0,0.0,0.0,-1000.0,3.0,2.0,2.0
04:45:19,50315.0,RTL,-0.0006981141632422805,0.0013473135768435895,-1.8948977589607239,-0.00019616202916949987,0.0005715800216421485,-0.001251446781679988,-35.3633771,149.1648208,195537.0,2.0,0.0,-152.0,0.0,0.0,-1000.5,2.0,3.0,0.5
04:45:21,18326.0,RTL,9.111901636060793e-05,0.0009524784109089524,-1.8950729370117188,-0.0012206394458189607,-1.6808975487947464e-05,-0.0004084570682607591,-35.3633771,149.1648208,198641.5,1.0,0.0,-152.0,0.0,0.0,-1000.0,1.5,2.5,1.5
04:45:23,18326.0,RTL,-0.0001274438836844638,0.0012207452091388404,-1.8941500782966614,0.0012424614978954196,-0.0008346241666004062,0.0011519056279212236,-35.3633771,149.1648208,201746.0,1.0,0.0,-152.0,0.0,0.0,-1000.0,3.5,1.5,3.0
04:45:24,139107.0,RTL,0.0002886552283598576,0.0005763840817962773,-1.8944324851036072,0.0011732428101822734,0.0006500265444628894,0.0010673149954527617,-35.3633771,149.1648208,203688.0,1.0,0.0,-152.0,0.0,0.0,-999.75,3.75,3.0,3.25
04:45:25,139107.0,RTL,0.0001132894103648141,0.0008361407381016761,-1.8946018815040588,-0.002503933385014534,-4.836462903767824e-05,0.0005303832003846765,-35.3633771,149.1648208,204852.5,1.0,0.0,-152.0,0.0,0.0,-999.5,0.5,2.5,2.5
04:45:27,139107.0,RTL,0.0008932146592997015,0.0013529425486922264,-1.8945007920265198,0.0036647262750193477,0.0003964855568483472,0.0009119336027652025,-35.3633771,149.1648208,207963.0,1.5,0.0,-152.0,0.0,0.0,-1000.5,6.5,2.5,3.0
04:45:29,139107.0,RTL,0.0003063419499085285,0.0012411148636601865,-1.8947412371635437,0.000651434063911438,0.0010599271627143025,0.001310463179834187,-35.3633772,149.1648208,211068.5,2.0,0.0,-152.0,0.0,0.0,-1000.0,3.0,3.5,3.5
04:45:30,131755.0,RTL,-0.0007236713136080652,0.0010778710711747408,-1.8945524096488953,-0.00018716370686888695,0.00036928715417161584,0.0007465905509889126,-35.3633771,149.1648208,213013.5,1.75,0.0,-152.0,0.0,0.0,-1000.25,2.5,2.75,3.0
04:45:31,131755.0,RTL,-0.0007504472159780562,0.001270433363970369,-1.8946537971496582,-0.0015906954067759216,-0.0003495980054140091,-0.00011292798444628716,-35.3633771,149.1648208,214181.5,1.0,0.0,-152.0,0.0,0.0,-1000.0,1.0,2.0,2.0
04:45:33,131755.0,RTL,-1.9734747183974832e-05,0.0010277973487973213,-1.8948522806167603,-0.001210725517012179,-0.00015460018767043948,0.00244222825858742,-35.3633771,149.1648208,217284.0,1.0,0.0,-152.0,0.0,0.0,-999.5,1.5,2.5,4.5
04:45:35,105491.5,RTL,0.00024250942806247622,0.0011284970096312463,-1.894749641418457,0.0008674695855006576,-7.6985452324152e-06,0.0003613763255998492,-35.3633771,149.1648208,220391.0,1.0,0.0,-152.0,0.0,0.0,-1000.5,3.5,2.5,3.0
04:45:37,79228.0,RTL,0.0008506633748766035,0.0009791608608793467,-1.8948866724967957,-0.0022289626067504287,0.0001976294443011284,-0.0006064425688236952,-35.3633771,149.1648208,223502.0,2.0,0.0,-152.0,0.0,0.0,-1000.5,1.0,3.0,1.5
04:45:39,79228.0,RTL,-0.0010938226478174329,0.0011431283201090991,-1.8942140936851501,-0.0015074239345267415,-0.000402448873501271,0.0005448000156320632,-35.3633771,149.1648208,226608.0,2.0,0.0,-152.0,0.0,0.0,-1000.0,1.5,2.5,3.0
04:45:40,11175.0,RTL,-4.132241610932397e-05,0.0007884673541411757,-1.8942930698394775,0.0007181799155659974,0.00010617880616337061,0.0014612645609304309,-35.3633771,149.1648208,228555.5,1.0,0.0,-152.0,0.0,0.0,-1000.0,3.5,2.75,4.0
04:45:41,11175.0,RTL,1.8963564798468724e-05,0.0009795838268473744,-1.894531011581421,0.0009062110912054777,-0.00031713140197098255,0.0003406823379918933,-35.3633771,149.1648208,229722.5,1.0,0.0,-152.0,0.0,0.0,-1000.5,4.0,2.5,3.0
04:45:43,11175.0,RTL,7.715592619206291e-05,0.0010683700093068182,-1.8944552540779114,-0.002408991800621152,0.0004899962805211544,0.0013924498343840241,-35.3633771,149.1648208,232829.0,1.0,0.0,-152.0,0.0,0.0,-999.5,1.0,3.5,4.0
04:45:45,11871.0,RTL,-5.786462497781031e-05,0.0013399918680079281,-1.8944652080535889,0.0002249798271805048,-0.0013049491681158543,0.0010906505631282926,-35.3633771,149.1648208,235935.0,1.0,0.0,-152.0,0.0,0.0,-1000.0,3.0,1.5,3.5
04:45:47,12567.0,RTL,-0.00012131356197642162,0.0012462975573725998,-1.894572377204895,0.0001232096692547202,0.0007932215230539441,-8.464889833703637e-05,-35.3633771,149.1648208,239043.0,1.0,0.0,-152.0,0.0,0.0,-999.5,3.0,4.0,2.5
04:45:49,12567.0,RTL,-0.00018152834309148602,0.0010647365706972778,-1.894870936870575,0.001675962470471859,0.000707826460711658,0.001052476349286735,-35.3633771,149.1648208,242154.0,1.0,0.0,-152.0,0.0,0.0,-1000.0,4.5,3.5,3.5
04:45:50,103635.0,RTL,3.264320116613817e-05,0.0006800060509704053,-1.89462810754776,0.0007178504602052271,0.0013863131753169,0.0010738905402831733,-35.3633771,149.1648208,244091.5,1.0,0.0,-152.0,0.0,0.0,-999.5,3.75,4.25,3.75
04:45:51,103635.0,RTL,0.0004468312981771305,0.001093699858756736,-1.8946770429611206,0.0007132787723094225,0.0012414678931236267,0.000330583774484694,-35.3633771,149.1648208,245260.0,1.0,0.0,-152.0,0.0,0.0,-1000.0,3.5,4.0,3.0
04:45:53,103635.0,RTL,-4.515721775533166e-05,0.0012629568227566779,-1.8949919939041138,-0.0021816554944962263,-0.0004854488652199507,-0.00032394123263657093,-35.3633771,149.1648208,248362.5,2.0,0.0,-152.0,0.0,0.0,-1000.5,1.0,2.5,2.0
04:45:55,103635.0,RTL,-0.0007615607755724341,0.001017781818518415,-1.8947811126708984,-0.0004966577980667353,0.0005600950680673122,0.0020945395808666945,-35.3633771,149.1648208,251468.0,1.0,0.0,-152.0,0.0,0.0,-999.5,2.5,3.0,5.0
04:45:56,17226.0,RTL,-0.00019772486223246233,0.0011971354542765766,-1.8942791819572449,0.001300307281780988,7.068272680044174e-05,-6.435561226680875e-05,-35.3633771,149.1648208,253412.75,1.0,0.0,-152.0,0.0,0.0,-1000.25,4.5,3.0,2.5
04:45:57,17226.0,RTL,0.00022849872038932517,0.0011433426407165825,-1.8943789601325989,0.0019310624338686466,0.0003121554618701339,0.002579481457360089,-35.3633771,149.1648208,254583.0,1.0,0.0,-152.0,0.0,0.0,-999.5,4.5,3.5,5.5
04:45:59,17226.0,RTL,0.0006120882171671838,0.0014110259944573045,-1.8944424986839294,-0.0019009497482329607,-0.00014889531303197145,0.0001666368916630745,-35.3633771,149.1648208,257692.0,2.0,0.0,-152.0,0.0,0.0,-999.5,1.5,3.0,3.0
04:46:01,57526.5,RTL,0.0002977650777514403,0.0009636971711491545,-1.8943434953689575,-0.001075300465648373,0.0004154342459514737,0.0009078152167300383,-35.3633772,149.1648208,260990.66666666666,2.0,0.0,-152.0,0.0,0.0,-1000.0,2.3333333333333335,3.3333333333333335,3.6666666666666665
04:46:03,97827.0,RTL,-0.00041785209032241255,0.000956242234678939,-1.8944923877716064,-0.000256552011705935,-0.0003696185303851962,0.00010072905570268631,-35.3633771,149.1648208,264062.5,1.0,0.0,-152.0,0.0,0.0,-1000.0,2.5,3.0,2.5
04:46:05,97827.0,RTL,0.00028442705661291257,0.0009344879363197833,-1.8946203589439392,0.0018251084256917238,0.0006641469663009048,0.00223299628123641,-35.3633771,149.1648208,267171.0,1.0,0.0,-152.0,0.0,0.0,-1000.0,5.0,3.5,4.5
04:46:06,40631.0,RTL,5.388050885812845e-05,0.0010544328833930194,-1.8946672976016998,9.556213626638055e-05,-0.00042178062722086906,0.00145172601332888,-35.3633771,149.1648208,269111.25,1.0,0.0,-152.0,0.0,0.0,-1000.0,3.25,2.5,4.25
04:46:07,40631.0,RTL,-1.1285776054137386e-05,0.001503063307609409,-1.8945468068122864,-0.00025790848303586245,0.0016268143663182855,0.0008626846829429269,-35.3633771,149.1648208,270276.0,1.0,0.0,-152.0,0.0,0.0,-1000.0,2.5,4.5,4.0
04:46:09,40631.0,RTL,-1.826892730605323e-05,0.0010801677126437426,-1.8947851061820984,-0.00046616524923592806,0.0009075304260477424,-0.0007395228603854775,-35.3633771,149.1648208,273387.0,1.0,0.0,-152.0,0.0,0.0,-999.5,2.5,4.0,2.0
04:46:11,40631.0,RTL,0.0006590740522369742,0.001436870254110545,-1.8945444226264954,0.0008211778476834297,0.0010059387423098087,0.0012630483834072948,-35.3633771,149.1648208,276494.5,1.5,0.0,-152.0,0.0,0.0,-999.5,4.0,4.0,4.0
04:46:12,47309.0,RTL,0.0005827599452459253,0.0008374308526981622,-1.8941722214221954,-0.0002537659602239728,0.00015876797260716558,0.001265833096113056,-35.3633771,149.1648208,278432.5,2.0,0.0,-152.0,0.0,0.0,-1000.0,3.0,3.25,4.0
04:46:13,47309.0,RTL,0.00026308071392122656,0.0010282048606313765,-1.894360601902008,-0.0006157208699733019,0.0007079446222633123,-2.6714871637523174e-05,-35.3633771,149.1648208,279599.0,2.0,0.0,-152.0,0.0,0.0,-999.5,2.5,4.0,2.5
04:46:15,47309.0,RTL,-6.394908814399969e-05,0.0009791666525416076,-1.8943949937820435,0.001387660508044064,0.00021371990442276,0.0018402995774522424,-35.3633771,149.1648208,282703.5,1.0,0.0,-152.0,0.0,0.0,-999.5,4.5,3.5,4.5
04:46:17,66743.0,RTL,-9.99941948975902e-05,0.0011203796602785587,-1.8945767283439636,0.0010663749417290092,0.0013043995713815093,0.0018403074936941266,-35.3633771,149.1648208,285818.0,1.0,0.0,-152.0,0.0,0.0,-999.0,4.5,4.5,5.0
04:46:19,66743.0,RTL,3.726990962604759e-05,0.0012034898973070085,-1.8946785926818848,0.0009021949954330921,0.0017253686673939228,-0.00023099430836737156,-35.3633771,149.1648208,288920.5,1.0,0.0,-152.0,0.0,0.0,-999.5,4.0,5.0,3.0
04:46:21,66743.0,RTL,-9.291854530601995e-05,0.0011799398926086724,-1.8947604298591614,0.001276219729334116,0.00017143716104328632,0.0009768037125468254,-35.3633771,149.1648208,292028.0,1.0,0.0,-152.0,0.0,0.0,-1000.0,5.0,3.5,4.0
04:46:22,69875.0,RTL,-1.706093416942167e-05,0.001048098667524755,-1.8946717977523804,0.0003398680128157139,0.00019221252296119928,0.00034981081262230873,-35.3633771,149.1648208,293974.25,1.0,0.0,-152.0,0.0,0.0,-1000.25,3.5,3.5,3.5
04:46:23,69875.0,RTL,-6.0321353885228746e-05,0.000936666940106079,-1.8947904706001282,0.0001611893530935049,0.0014900765381753445,0.0009112419793382287,-35.3633771,149.1648208,295143.0,1.0,0.0,-152.0,0.0,0.0,-999.5,3.5,5.0,4.5
04:46:25,69875.0,RTL,0.0009384901204612106,0.0010187878215219826,-1.8947769403457642,-0.0003354871878400445,0.00042187736835330725,-0.0002095464151352644,-35.3633771,149.1648208,298252.5,2.0,0.0,-152.0,0.0,0.0,-1000.0,3.0,3.5,3.0
04:46:27,69875.0,RTL,-0.0008459220116492361,0.0009162881469819695,-1.894756257534027,-0.0016728655900806189,0.0003549907123669982,0.0018906595651060343,-35.3633771,149.1648208,301355.0,2.0,0.0,-152.0,0.0,0.0,-999.5,1.5,3.5,5.0
04:46:28,181040.0,RTL,-8.442793341600918e-05,0.0008777167677180842,-1.8942546248435974,0.0017435841728001833,9.513908298686147e-05,0.00045216281432658434,-35.3633771,149.1648208,303296.0,1.0,0.0,-152.0,0.0,0.0,-1000.25,5.25,3.5,3.75
04:46:29,181040.0,RTL,0.00015952718968037516,0.0009550536633469164,-1.8943426012992859,-0.0008608108619228005,0.0017153082881122828,0.0009557920275256038,-35.3633771,149.1648208,304460.5,1.0,0.0,-152.0,0.0,0.0,-999.5,2.5,5.0,3.5
04:46:31,181040.0,RTL,5.764539309893735e-05,0.0010951239964924753,-1.8944249153137207,-0.0007941079093143344,0.000732462271116674,-0.0001587641891092062,-35.3633771,149.1648208,307573.0,1.0,0.0,-152.0,0.0,0.0,-1000.0,2.5,4.0,3.0
04:46:32,14675.0,RTL,6.955876415304374e-05,0.0009956100257113576,-1.894434005022049,-0.0005625912453979254,-0.00018018321134150028,-0.00040248915320262313,-35.3633771,149.1648208,309511.75,1.0,0.0,-152.0,0.0,0.0,-1000.25,2.75,3.5,2.75
04:46:33,14675.0,RTL,0.00014151045797916595,0.001036039728205651,-1.8945487141609192,0.0016767377965152264,0.0003121178597211838,0.0013255904195830226,-35.3633771,149.1648208,310680.0,1.0,0.0,-152.0,0.0,0.0,-1000.5,5.5,4.0,4.5
04:46:35,14675.0,RTL,-0.00018169035683968104,0.00139475183095783,-1.8945747017860413,-6.089091766625643e-05,-0.0002055747900158167,-0.0003546561347320676,-35.3633771,149.1648208,313782.5,1.0,0.0,-152.0,0.0,0.0,-1000.0,3.5,3.5,3.0
04:46:37,21077.5,RTL,0.0001904053679027129,0.0011218282161280513,-1.894493818283081,0.0024625833611935377,0.0014942502602934837,0.0020092135528102517,-35.3633771,149.1648208,316902.0,1.0,0.0,-152.0,0.0,0.0,-1000.0,6.0,5.0,5.0
04:46:39,27480.0,RTL,0.00013137356654624455,0.001245578983798623,-1.894631266593933,-0.00027647172100842,-0.0008343919180333614,0.001635401975363493,-35.3633771,149.1648208,320000.5,2.0,0.0,-152.0,0.0,0.0,-999.5,4.0,2.5,4.5
04:46:41,27480.0,RTL,-0.00044108726433478296,0.0009117930894717574,-1.89486426115036,0.0024199315812438726,-0.0003823863808065653,0.0007118828361853957,-35.3633771,149.1648208,323108.0,1.0,0.0,-152.0,0.0,0.0,-1000.5,6.0,3.5,4.0
04:46:42,62757.0,RTL,-0.00035533418122213334,0.0007814748823875561,-1.894768089056015,0.00023952662013471127,0.00020239443983882666,0.0010634261998347938,-35.3633771,149.1648208,325057.25,1.0,0.0,-152.0,0.0,0.0,-999.75,4.25,3.75,4.5
04:46:43,62757.0,RTL,-0.00010726184336817823,0.0007845537329558283,-1.8948498368263245,0.0006482657045125961,-0.00019857031293213367,0.00040747434832155704,-35.3633771,149.1648208,326221.5,1.0,0.0,-152.0,0.0,0.0,-1000.5,4.5,3.0,4.0
04:46:45,62757.0,RTL,0.0003152879362460226,0.0009057011047843844,-1.8943471908569336,-0.001710281241685152,0.00015366484876722097,0.0012361503904685378,-35.3633771,149.1648208,329332.5,1.0,0.0,-152.0,0.0,0.0,-999.5,2.0,4.0,4.5
04:46:47,25954.0,RTL,-0.00015308253932744265,0.0009988707606680691,-1.8943737149238586,0.0018142401240766048,0.0014251566026359797,0.0011227199574932456,-35.3633771,149.1648208,332437.0,1.0,0.0,-152.0,0.0,0.0,-1000.0,6.0,5.0,4.5
04:46:49,25954.0,RTL,-0.0003357686218805611,0.0006696605705656111,-1.8945096135139465,0.0006220526993274689,0.0011401488445699215,0.0006992978742346168,-35.3633771,149.1648208,335541.0,1.0,0.0,-152.0,0.0,0.0,-999.5,4.5,5.0,4.0
04:46:51,25954.0,RTL,-0.0006871518271509558,0.0005565730098169297,-1.894553780555725,0.0008493370842188597,0.000210578553378582,-0.0006642749067395926,-35.363377,149.1648208,338647.0,0.0,0.0,-152.0,0.0,0.0,-1000.5,4.5,4.0,3.0
04:46:52,124095.0,RTL,-0.0009085145138669759,8.914294994610827e-06,-1.8945680558681488,-0.00017960980767384171,1.0133953765034676e-05,0.0008799509960226715,-35.363377,149.164820875,340591.25,0.0,0.0,-152.0,0.0,0.0,-999.75,3.75,3.75,4.0
04:46:53,124095.0,RTL,-0.0012345041031949222,5.803261274195393e-06,-1.8947570323944092,0.0009167499374598265,-0.0004704572493210435,0.0019305346067994833,-35.363377,149.1648209,341758.0,0.0,0.0,-152.0,0.0,0.0,-1000.5,5.0,3.0,5.0
04:46:55,124095.0,RTL,-0.001063590869307518,-0.00023924092723367116,-1.8946677843729656,0.0005693263374269009,0.00020000198855996132,0.0011984063312411308,-35.3633769,149.1648209,344825.0,0.0,0.0,-152.0,0.0,0.0,-999.6666666666666,4.0,4.0,5.0
04:46:57,124095.0,RTL,-0.0010884199291467667,-0.00016045016491261777,-1.8947033882141113,-0.0004442613571882248,-0.0004946439294144511,-0.0005114828236401081,-35.3633769,149.1648209,347979.0,0.0,0.0,-152.0,0.0,0.0,-1000.5,3.5,3.0,2.5
04:46:58,63723.0,RTL,-0.0011370181067225833,-0.00010290914724464528,-1.8947965701421101,5.6856932739416756e-05,0.0002799360081553459,-0.0007013613358139992,-35.3633769,149.1648209,349874.6666666667,0.0,0.0,-152.0,0.0,0.0,-1000.0,3.6666666666666665,4.0,3.0
04:46:59,63723.0,RTL,-0.0015916406409814954,-0.000299895783731093,-1.8948808113733928,-0.0014464509828637044,-0.0010097466098765533,-3.001272367934386e-05,-35.3633769,149.1648209,351043.3333333333,0.0,0.0,-152.0,0.0,0.0,-1000.0,2.3333333333333335,2.6666666666666665,3.3333333333333335
04:47:01,63723.0,RTL,-0.0013325955951586366,-0.0003375448965622733,-1.8942149480183919,-0.0004834517215689023,0.00031840560647348565,-0.0011044684797525406,-35.3633769,149.1648209,354146.0,0.0,0.0,-152.0,0.0,0.0,-999.6666666666666,3.0,4.0,2.6666666666666665
04:47:03,12184.0,RTL,-0.0014821890508756042,-0.0004204147747562577,-1.8942776123682659,0.00019199137265483537,-0.0009762136420855919,0.0008270340040326118,-35.3633769,149.1648209,357265.0,0.0,0.0,-152.0,0.0,0.0,-1000.3333333333334,4.0,3.0,4.666666666666667
04:47:05,12184.0,RTL,-0.0015047150664031506,-0.00040983799650954705,-1.8942686716715496,0.00015369212875763574,-0.0007865034664670626,0.001616800669580698,-35.3633769,149.1648209,360366.6666666667,0.0,0.0,-152.0,0.0,0.0,-1000.0,4.0,3.0,5.333333333333333
04:47:07,12184.0,RTL,-0.0030735634888211885,0.04669524977604548,-1.894876480102539,-0.002131100899229447,0.038891936341921486,0.0007641613483428955,-35.363376566666666,149.16482183333335,363457.3333333333,6.333333333333333,21.333333333333332,-150.0,3.0,1.0,-998.3333333333334,2.3333333333333335,42.333333333333336,4.333333333333333
04:47:08,110506.0,RTL,-0.009540524954597155,0.08882824083169301,-1.8944896459579468,-0.009761262685060501,0.03583284467458725,0.0007916808438797792,-35.363374433333334,149.16482916666666,365347.0,31.0,88.33333333333333,-143.0,16.0,8.333333333333334,-993.3333333333334,-5.0,39.666666666666664,4.666666666666667
04:47:09,110506.0,RTL,-0.02315514317403237,0.13053224235773087,-1.8720295826594036,-0.07292567348728578,0.1107901359597842,0.1522651561535895,-35.36337163333334,149.1648388,366408.0,49.333333333333336,145.0,-129.33333333333334,27.333333333333332,14.0,-963.3333333333334,-68.33333333333333,114.33333333333333,155.66666666666666
04:47:11,110506.0,RTL,0.06885576248168945,0.10243802766005199,-1.376360257466634,0.008676009873549143,0.003874116732428471,0.02957804035395384,-35.36335973333333,149.16489623333334,367676.0,107.33333333333333,335.0,0.6666666666666666,78.0,1.3333333333333333,-949.0,13.0,7.666666666666667,33.0
04:47:13,75136.0,RTL,-0.005447903958459695,0.14416436851024628,-1.4286457300186157,-0.1526290327310562,-0.008545865925649801,-0.05004223001499971,-35.36333266666667,149.16497786666665,367262.0,167.33333333333334,411.3333333333333,10.0,108.33333333333333,-1.0,-1012.6666666666666,-148.33333333333334,-4.666666666666667,-45.666666666666664
04:47:15,75136.0,RTL,-0.03655091424783071,0.10669447481632233,-1.5131335258483887,-0.06711762150128682,-0.04273816974212726,-0.054232669373353325,-35.36330383333333,149.1650741,367221.0,142.0,442.0,-1.0,108.0,11.333333333333334,-997.6666666666666,-63.333333333333336,-38.666666666666664,-49.666666666666664
04:47:17,75136.0,RTL,-0.06418045610189438,0.0009484955420096716,-1.5796926816304524,-0.7788005272547404,-0.059363887955745064,-0.05710845688978831,-35.363280233333334,149.1651661,367270.6666666667,106.0,352.3333333333333,0.6666666666666666,92.33333333333333,-25.333333333333332,-991.3333333333334,-774.6666666666666,-55.0,-52.333333333333336
04:47:18,156890.0,RTL,-0.05739016830921173,-0.06834499662121137,-1.6084110339482625,0.2796968271334966,-0.060815609991550446,-0.008427001846333345,-35.36327,149.16520839999998,367260.0,71.0,231.33333333333334,1.0,56.666666666666664,55.666666666666664,-1009.6666666666666,284.6666666666667,-56.333333333333336,-4.333333333333333
04:47:19,156890.0,RTL,-0.022943233450253803,-0.08709432929754257,-1.6264528433481853,0.5232932716608047,0.012771652390559515,-0.02253567473962903,-35.36326676666666,149.16522483333333,367247.3333333333,42.333333333333336,144.66666666666666,3.0,32.333333333333336,21.0,-999.6666666666666,526.0,16.333333333333332,-18.666666666666668
04:47:21,156890.0,RTL,0.030319765210151672,-0.03575934221347173,-1.663569688796997,-0.2749261260032654,0.015678817716737587,-0.01279157679527998,-35.36326623333333,149.16524193333333,367210.0,35.333333333333336,13.666666666666666,-0.3333333333333333,3.6666666666666665,-19.333333333333332,-1010.6666666666666,-271.0,18.666666666666668,-8.0
04:47:23,156890.0,RTL,0.022418355258802574,0.003990106207008163,-1.6850289106369019,-0.4406558970610301,-0.011164940272768339,-0.017205627945562203,-35.3632652,149.16524283333334,367212.6666666667,41.0,-10.666666666666666,-0.6666666666666666,2.6666666666666665,-38.333333333333336,-980.0,-436.0,-7.333333333333333,-12.333333333333334
04:47:24,82827.0,RTL,-0.001182528833548228,-0.008495809510350227,-1.6984736522038777,-0.11984163522720337,-0.0051304421698053675,-0.014069975664218267,-35.3632636,149.1652424,367216.0,29.0,-14.666666666666666,-1.3333333333333333,0.3333333333333333,9.666666666666666,-993.0,-113.33333333333333,-2.0,-9.666666666666666
04:47:25,82827.0,RTL,0.015476112253963947,-0.0051307405810803175,-1.7060812711715698,0.3900987034042676,0.007888832439978918,-0.011613382336994013,-35.3632632,149.16524176666667,367216.0,20.333333333333332,-16.666666666666668,-1.0,-0.3333333333333333,3.0,-1006.3333333333334,394.6666666666667,11.0,-7.0
04:47:27,82827.0,RTL,0.008647523160713414,0.00022946070142400762,-1.7223827441533406,-0.09952745338280995,0.002142683525259296,-0.008412163394192854,-35.36326283333333,149.1652399,367220.6666666667,10.333333333333334,-13.0,0.0,-0.6666666666666666,-19.333333333333332,-996.3333333333334,-94.33333333333333,4.666666666666667,-3.6666666666666665
04:47:29,100081.0,RTL,0.0025090303582449756,-0.0004273706435924396,-1.7356759707132976,0.7241519888242086,0.0006411103531718254,-0.005298030252257983,-35.3632628,149.16523886666667,366850.0,7.666666666666667,-8.333333333333334,68.0,-1.0,58.0,-962.6666666666666,732.0,3.6666666666666665,-1.0
04:47:31,117335.0,RTL,-0.0004018195237828574,0.0028634221913913884,-1.747847596804301,-0.600568155447642,-0.0005941127892583609,-0.013287415107091268,-35.36326173333333,149.16523809999998,364767.6666666667,0.3333333333333333,-5.0,105.33333333333333,2.6666666666666665,-72.66666666666667,-960.3333333333334,-596.3333333333334,2.0,-8.666666666666666
04:47:33,117335.0,RTL,-0.013512187326947847,0.0024587723116079965,-1.7552824417750041,0.6909683247407278,-0.0021425290033221245,-0.004571682463089625,-35.36325926666667,149.16523743333335,362697.0,-20.333333333333332,-0.3333333333333333,104.66666666666667,0.0,-4.0,-1003.3333333333334,694.0,0.3333333333333333,-0.3333333333333333
04:47:34,60977.0,RTL,-0.04093570510546366,-0.00022078220354160294,-1.7612882852554321,-0.328438679377238,5.9395174806316696e-05,0.004172128935654958,-35.363258566666666,149.1652372,361427.6666666667,-33.0,2.0,103.0,-1.0,23.0,-1018.0,-321.3333333333333,2.6666666666666665,8.333333333333334
04:47:35,60977.0,RTL,-0.03971069802840551,-0.0029125992053498826,-1.7641095320383708,-1.3533421754837036,-0.002162119916950663,-0.01062769303098321,-35.363258566666666,149.16523723333333,360661.0,-36.0,3.3333333333333335,100.0,-3.0,-65.66666666666667,-1010.6666666666666,-1348.6666666666667,0.6666666666666666,-5.666666666666667
04:47:37,60977.0,RTL,0.03294363245368004,-0.003848855849355459,-1.7714280287424724,1.1705091794331868,-0.00554779792825381,-0.013668646415074667,-35.36326143333333,149.16523796666667,358619.0,-15.0,-1.3333333333333333,101.33333333333333,-3.0,28.0,-1055.3333333333333,1174.0,-2.6666666666666665,-9.0
04:47:39,291935.0,RTL,0.040328784535328545,-0.007559489614019792,-1.7792473236719768,-0.8812726140022278,0.0010670343569169443,-0.005462077058230837,-35.363264566666665,149.1652388,356563.0,6.666666666666667,-5.333333333333333,100.0,-4.666666666666667,-62.333333333333336,-1019.3333333333334,-877.6666666666666,3.6666666666666665,-1.6666666666666667
04:47:41,291935.0,RTL,0.061608518163363137,0.0011127654773493607,-1.7846179405848186,0.906978189945221,0.004665529355406761,-0.007249665368969242,-35.363267433333334,149.1652394,354531.0,48.666666666666664,-17.666666666666668,102.33333333333333,3.0,1.3333333333333333,-1013.0,911.3333333333334,7.0,-3.0
04:47:43,291935.0,RTL,0.01412586381775327,0.003086453264889618,-1.7884664138158162,0.7180655896663666,-0.005509998261307676,-0.005403000085304181,-35.36326536666667,149.16523846666666,352485.0,39.0,-11.0,101.66666666666667,2.3333333333333335,62.333333333333336,-989.3333333333334,726.0,-3.0,-1.3333333333333333
04:47:44,52942.0,RTL,0.017593052393446367,0.00018043020584930977,-1.7897776365280151,-1.111478606859843,-0.005648053794478376,0.002633694869776567,-35.36326506666666,149.1652385,351194.6666666667,30.666666666666668,-8.333333333333334,100.66666666666667,0.3333333333333333,-69.66666666666667,-980.6666666666666,-1106.0,-3.0,6.333333333333333
04:47:45,52942.0,RTL,0.03801349177956581,-0.0004295907589645746,-1.7916127443313599,-0.12064400315284729,0.005941617224986355,0.0014897404859463375,-35.363265266666666,149.16523853333334,350439.6666666667,29.666666666666668,-8.0,96.0,0.0,-46.333333333333336,-1000.3333333333334,-115.66666666666667,8.0,5.333333333333333
04:47:47,52942.0,RTL,0.039661346624294914,0.00127467771138375,-1.7964399258295696,1.3420117696126301,0.0030639891823132834,-0.003938080354904135,-35.363265266666666,149.1652386,348397.6666666667,34.0,-9.666666666666666,99.33333333333333,0.6666666666666666,58.666666666666664,-1034.3333333333333,1350.3333333333333,5.333333333333333,-0.3333333333333333
04:47:49,52942.0,RTL,0.02616240767141183,0.0005800030970325073,-1.7981887658437092,-1.0547676881154378,0.002565554187943538,0.00901185612504681,-35.36326566666667,149.1652386,346335.3333333333,34.666666666666664,-9.0,94.33333333333333,-0.6666666666666666,-52.333333333333336,-1007.3333333333334,-1046.3333333333333,4.666666666666667,12.666666666666666
04:47:50,272494.0,RTL,0.045443655302127205,0.0003903961575512464,-1.8012985388437908,1.4781444072723389,0.004315465533485015,0.003922058579822381,-35.3632661,149.16523873333333,345068.6666666667,41.666666666666664,-10.0,94.66666666666667,-1.3333333333333333,63.666666666666664,-1014.0,1487.0,6.333333333333333,8.0
04:47:51,272494.0,RTL,0.047788750380277634,0.00010524293854056548,-1.8019089301427205,1.3864163160324097,-0.0063765317512055235,-0.0042394772948076325,-35.3632666,149.16523883333332,344307.6666666667,43.666666666666664,-10.333333333333334,101.0,-0.6666666666666666,75.0,-983.6666666666666,1397.0,-3.3333333333333335,-0.6666666666666666
04:47:53,272494.0,RTL,0.0005985535681247711,0.007910302529732386,-1.8046951691309612,-0.6848358710606893,0.006318924715742469,0.0005727096771200498,-35.36326623333333,149.16523859999998,342247.0,48.333333333333336,-13.333333333333334,98.66666666666667,6.0,4.0,-989.3333333333334,-671.6666666666666,8.333333333333334,4.0
04:47:55,81067.0,RTL,-0.03766771778464317,0.011233849140504995,-1.8068419694900513,-0.3401578366756439,-0.012138845709462961,-0.022672036041816074,-35.36326003333333,149.1652366666667,340203.0,2.0,-0.6666666666666666,96.33333333333333,8.666666666666666,-62.0,-1016.6666666666666,-332.3333333333333,-9.333333333333334,-18.666666666666668
04:47:57,81067.0,RTL,-0.053222728272279106,0.0040430106067409115,-1.8074971437454224,1.4377487103144329,-0.0016605960360417764,0.004551044975717862,-35.363255099999996,149.16523553333332,338097.6666666667,-56.0,13.333333333333334,98.66666666666667,2.3333333333333335,61.0,-1016.0,1447.6666666666667,0.6666666666666666,8.0
04:47:59,81067.0,RTL,-0.07511715839306514,-0.0002876368052966427,-1.8095340728759766,-0.46582725644111633,-0.0005813115276396275,-0.008064229817440113,-35.36325446666667,149.1652356,336078.0,-76.66666666666667,16.666666666666668,106.0,-1.3333333333333333,26.666666666666668,-996.6666666666666,-456.3333333333333,1.3333333333333333,-3.6666666666666665
04:48:00,93660.0,RTL,-0.021947434172034264,-0.0002148245209051917,-1.809035340944926,1.242423137029012,0.006350506562739611,0.003807735862210393,-35.3632551,149.1652358,334787.3333333333,-75.0,15.333333333333334,99.0,0.0,32.666666666666664,-979.0,1248.0,7.666666666666667,7.333333333333333
04:48:01,93660.0,RTL,-0.04790866871674856,0.00022238320282970866,-1.8103420337041218,1.2813496788342793,0.0008370358652124802,-0.005377201208223899,-35.36325513333333,149.1652358,334019.0,-73.0,14.333333333333334,101.33333333333333,-1.6666666666666667,74.33333333333333,-1009.6666666666666,1289.3333333333333,2.3333333333333335,-1.3333333333333333
04:48:03,93660.0,RTL,-0.045444014171759285,-0.0024515145923942327,-1.811763087908427,-1.1848526000976562,-0.00041602000904579956,0.0014054063552369673,-35.3632575,149.1652364,331964.6666666667,-62.0,12.333333333333334,98.66666666666667,-1.6666666666666667,-23.0,-1029.3333333333333,-1177.6666666666667,1.3333333333333333,4.666666666666667
04:48:05,74619.0,RTL,-0.028155320324003696,0.0019195338245481253,-1.8124682903289795,0.6533134977022806,-0.0028582023611913123,0.0032413745454202094,-35.363258699999996,149.1652367,329906.3333333333,-42.666666666666664,6.333333333333333,97.0,1.6666666666666667,49.333333333333336,-1027.3333333333333,660.0,-0.6666666666666666,6.666666666666667
04:48:07,74619.0,RTL,-0.08673430979251862,0.005423508274058501,-1.8141850630442302,-1.3517762819925945,-0.007531888162096341,-0.006283249473199248,-35.36325603333333,149.16523576666668,327882.3333333333,-55.666666666666664,10.666666666666666,99.0,2.0,-43.666666666666664,-995.6666666666666,-1347.3333333333333,-5.333333333333333,-2.0
04:48:09,74619.0,RTL,-0.016749089118093252,-0.0008989492586503426,-1.8140634298324585,0.988643949230512,0.004451281197058658,-0.002074869737649957,-35.36325646666667,149.1652359,325845.3333333333,-68.33333333333333,16.0,100.66666666666667,-1.6666666666666667,34.666666666666664,-991.3333333333334,990.0,6.0,1.6666666666666667
04:48:10,295999.0,RTL,-0.05422361195087433,-0.00040077769275133807,-1.814700722694397,-1.0397854099671047,-0.0043991366401314735,-0.0032504566479474306,-35.363257366666666,149.16523613333334,324592.6666666667,-56.0,13.0,100.66666666666667,-3.0,-13.333333333333334,-1026.0,-1037.0,-2.0,0.6666666666666666
04:48:11,295999.0,RTL,-0.022150394817193348,-0.0025245401775464416,-1.814364751180013,-1.1018682916959126,-0.005329301425566276,0.0016901597070197265,-35.36325846666667,149.1652365,323827.3333333333,-52.0,12.666666666666666,102.0,-6.0,-67.0,-1004.0,-1101.6666666666667,-3.3333333333333335,5.333333333333333
04:48:13,295999.0,RTL,0.026427730297048885,-0.0008363449693812678,-1.8152543306350708,0.5246955454349518,0.0027540642768144608,-0.00384231082474192,-35.363262033333335,149.16523753333334,321785.0,-15.333333333333334,2.0,104.0,-2.0,-16.0,-971.0,523.3333333333334,3.6666666666666665,-0.6666666666666666
04:48:15,295999.0,RTL,0.022839674609713256,-0.000887464235953909,-1.8158770004908245,0.33188924690087634,0.002816809768167635,-0.007091751787811518,-35.36326446666667,149.16523816666665,319732.6666666667,11.0,-2.6666666666666665,105.66666666666667,-3.3333333333333335,48.666666666666664,-999.0,335.0,4.333333333333333,-3.3333333333333335
04:48:16,117550.0,RTL,0.03459573102494081,-0.0006474484204469869,-1.8166841665903728,-1.0867167711257935,0.0026755567329625287,0.003161437576636672,-35.36326603333333,149.1652387,318482.3333333333,26.666666666666668,-7.333333333333333,101.66666666666667,-1.0,-69.66666666666667,-989.6666666666666,-1086.6666666666667,4.333333333333333,6.0
04:48:17,117550.0,RTL,0.03070035328467687,0.0009377077649332932,-1.8161829710006714,-1.04390154282252,-0.003943880088627338,0.0007818247346828381,-35.3632665,149.1652389,317736.0,32.666666666666664,-9.333333333333334,101.66666666666667,-0.6666666666666666,-77.66666666666667,-978.6666666666666,-1043.6666666666667,-2.0,4.333333333333333
04:48:19,117550.0,RTL,0.02152737354238828,0.005803579930216074,-1.8160382111867268,1.3908485174179077,0.0021612041940291724,0.002558531162018577,-35.363265033333334,149.16523829999997,315678.6666666667,36.0,-9.666666666666666,100.66666666666667,0.6666666666666666,62.666666666666664,-1035.0,1393.6666666666667,3.6666666666666665,6.0
04:48:21,126069.0,RTL,0.008640218060463667,0.001167872726606826,-1.816790779431661,-1.3421006202697754,0.0005666525103151798,-0.00775474589318037,-35.3632646,149.1652382,313630.6666666667,22.0,-4.333333333333333,101.33333333333333,0.0,-71.33333333333333,-975.0,-1339.6666666666667,2.0,-4.0
04:48:23,134588.0,RTL,0.006737068489504357,0.005449302028864622,-1.8170454502105713,1.1719660758972168,-0.0002333553663144509,0.0038601763856907687,-35.363263800000006,149.16523800000002,311555.3333333333,25.333333333333332,-7.0,99.33333333333333,1.3333333333333333,71.66666666666667,-1008.6666666666666,1176.6666666666667,1.6666666666666667,7.0
04:48:25,134588.0,RTL,0.013355708370606104,0.0025866941238443055,-1.817064921061198,-0.41871588428815204,0.002927176964779695,0.0013201329857110977,-35.363262666666664,149.1652377,309486.0,9.333333333333334,-1.6666666666666667,101.33333333333333,1.0,-42.333333333333336,-990.0,-417.0,4.333333333333333,4.666666666666667
04:48:26,52310.0,RTL,0.004964373637146006,0.0015221449624126155,-1.8172255357106526,0.9734671314557394,-0.00013508833944797516,0.007981864735484123,-35.3632624,149.1652377,308188.3333333333,6.666666666666667,-1.6666666666666667,95.33333333333333,0.3333333333333333,72.66666666666667,-1011.3333333333334,978.6666666666666,1.3333333333333333,11.0
04:48:27,52310.0,RTL,0.0059105814434587955,0.0016283344787855942,-1.8173634608586628,0.759714941183726,0.0005111279897391796,-0.009956500337769588,-35.363262633333335,149.1652377,307431.6666666667,6.666666666666667,-1.6666666666666667,95.33333333333333,0.0,69.0,-960.0,765.6666666666666,2.3333333333333335,-6.0
04:48:29,52310.0,RTL,-0.01895250380039215,0.002352272936453422,-1.817928711573283,-0.9157842000325521,-0.0031310101815809808,0.002728163885573546,-35.3632628,149.1652377,305380.0,6.666666666666667,-2.0,93.0,0.0,-6.0,-995.6666666666666,-910.0,-1.3333333333333333,6.0
04:48:31,185869.0,RTL,0.017120379954576492,0.003539857299377521,-1.8176037867863972,0.5701933254798254,0.00038646402147909004,0.0004657613268742959,-35.3632625,149.16523766666668,303330.0,2.6666666666666665,-1.0,90.33333333333333,2.6666666666666665,-18.0,-999.0,571.3333333333334,2.0,3.6666666666666665
04:48:33,185869.0,RTL,-0.018532254733145237,0.007650383903334538,-1.819080114364624,1.2826322714487712,0.0005507345777004957,0.005891704233363271,-35.36325946666667,149.1652366,301325.6666666667,-13.333333333333334,2.3333333333333335,94.33333333333333,2.3333333333333335,38.0,-1049.0,1285.3333333333333,2.0,8.666666666666666
04:48:35,185869.0,RTL,-0.01669512006143729,0.0008538897382095456,-1.8182665904362996,1.2554895083109539,-0.001624804805032909,0.002175738181297978,-35.3632582,149.16523636666668,299309.6666666667,-36.666666666666664,9.333333333333334,98.0,0.0,76.33333333333333,-1006.3333333333334,1259.0,0.0,5.333333333333333
04:48:36,64065.0,RTL,-0.04022933294375738,-0.004533114610239863,-1.8172595103581746,-1.2487701972325642,-0.008710033260285854,-0.005192389711737633,-35.363258933333334,149.16523686666667,298033.6666666667,-37.666666666666664,9.333333333333334,98.0,-5.0,-22.666666666666668,-978.0,-1245.0,-6.666666666666667,-1.6666666666666667
04:48:37,64065.0,RTL,-0.009079567389562726,-0.0066345979770024615,-1.8178867896397908,-1.4808733065923054,-0.007545827150655289,-0.0015874379314482212,-35.3632606,149.1652375,297272.0,-31.333333333333332,6.0,97.66666666666667,-4.0,-54.333333333333336,-999.0,-1478.3333333333333,-5.666666666666667,1.6666666666666667
04:48:39,64065.0,RTL,0.020626965910196304,-0.0006620443309657276,-1.8176942269007366,0.6340576112270355,0.0027571230117852488,0.0010578900886078675,-35.363262533333334,149.1652381,295226.0,-2.0,-3.0,98.33333333333333,-0.6666666666666666,-6.666666666666667,-978.0,634.0,4.0,4.333333333333333
04:48:41,64065.0,RTL,0.002158770337700844,0.0006143360709150633,-1.8176560004552205,-1.3409151434898376,0.0025321107047299543,-0.002665230461085836,-35.3632637,149.1652382,293166.6666666667,10.0,-5.0,96.66666666666667,-0.3333333333333333,-54.666666666666664,-997.3333333333334,-1338.3333333333333,4.0,0.6666666666666666
04:48:42,197178.0,RTL,0.0217841025441885,0.001128054146344463,-1.8181567589441936,-0.18341353038946787,-0.00031732833789040643,0.0031414462719112635,-35.363263866666664,149.1652382,291917.6666666667,13.666666666666666,-5.333333333333333,100.66666666666667,-0.3333333333333333,-50.0,-968.0,-183.33333333333334,1.0,5.666666666666667
04:48:43,197178.0,RTL,0.029942314450939495,0.0011972726012269657,-1.8179568847020466,0.13979904850323996,0.00037297191253552836,-0.005028824787586927,-35.36326400000001,149.16523823333333,291154.0,14.333333333333334,-5.0,99.0,-0.3333333333333333,-31.333333333333332,-997.0,140.0,1.3333333333333333,-1.3333333333333333
04:48:45,197178.0,RTL,-0.003840328116590778,0.0050386580017705756,-1.8187636931737263,0.6217115372419357,0.003369279205799103,0.0010972176678478718,-35.36326356666667,149.16523800000002,289129.6666666667,18.333333333333332,-6.333333333333333,102.33333333333333,1.6666666666666667,61.666666666666664,-1014.0,627.0,4.666666666666667,4.0
04:48:47,87108.0,RTL,-0.04861128702759743,0.007518623645106952,-1.8174707889556885,-1.1880907615025837,-0.0002926015295088291,-0.008959371596574783,-35.3632601,149.16523676666668,287077.0,-9.666666666666666,1.0,102.0,3.3333333333333335,-58.0,-992.6666666666666,-1184.3333333333333,1.3333333333333333,-5.666666666666667
04:48:48,87108.0,RTL,-0.06443276442587376,0.004086042870767415,-1.8187217116355896,-1.0536957681179047,-0.0060712057165801525,0.006149146822281182,-35.3632583,149.1652363,285835.0,-29.5,7.5,98.0,1.0,-18.5,-1000.0,-1049.5,-4.5,8.5
04:48:50,87108.0,RTL,-0.04751497134566307,0.0009011424699565396,-1.8187665343284607,-1.3687984943389893,-0.003864389262162149,-0.010585951618850231,-35.363258,149.1652364,283798.0,-43.0,10.0,102.0,-0.5,-55.0,-1028.0,-1367.5,-2.0,-7.5
04:48:52,58366.0,RTL,0.004786656820215285,0.0011256409052293748,-1.8190895318984985,1.2971081733703613,0.00027613015845417976,-0.007502477616071701,-35.363259,149.16523675000002,281768.5,-37.5,7.5,104.5,-1.0,44.5,-1029.5,1297.0,1.5,-4.5
04:48:54,29624.0,RTL,-0.019535088911652565,0.0009483970061410218,-1.819495439529419,0.8056474328041077,0.008327716263011098,-0.0023539114044979215,-35.36325925,149.16523665,279732.0,-33.5,7.5,104.0,-2.0,69.5,-970.0,808.5,9.5,0.5
04:48:56,29624.0,RTL,0.002299656393006444,0.0003908057333319448,-1.816560447216034,-0.5194140141829848,0.006566258380189538,0.013424129923805594,-35.363261,149.1652372,277652.0,-21.0,4.5,100.0,0.0,-55.0,-1037.5,-521.0,8.0,16.0
04:48:57,173487.0,RTL,0.012430974757080548,0.0014206282066879794,-1.8175423741340637,0.3509781062602997,0.005758892570156604,0.00036893750075250864,-35.3632612,149.1652373,276893.75,-15.75,2.25,99.0,0.25,-31.0,-987.5,348.25,6.75,3.5
04:48:58,173487.0,RTL,0.009626180864870548,0.003120895358733833,-1.8179908394813538,1.285549819469452,0.008085064589977264,0.0047564980341121554,-35.36326085,149.16523725000002,275613.0,-15.0,1.0,98.0,3.5,31.5,-1009.5,1284.5,8.5,7.5
04:49:00,173487.0,RTL,-0.039687493816018105,-0.0009876614640234038,-1.8178390264511108,-0.10354093834757805,-0.0059958763886243105,-0.0033907059114426374,-35.363259400000004,149.16523695,273570.0,-24.5,4.5,95.0,-3.5,38.0,-1019.5,-102.0,-4.5,-0.5
