time_stamp,MODE,lat,lon,alt,relative_alt,roll,pitch,yaw,rollspeed,pitchspeed,yawspeed,xacc,yacc,zacc,xgyro,ygyro,zgyro,vx,vy,vz
11:01:25.232,STABILIZE,-35.3632621,149.1652374,584000,15,0.0003328573366161436,0.0013998306822031736,0.02674906887114048,0.00026581063866615295,0.0001766227651387453,0.002350481227040291,0,1,-1000,0,0,0,0,2,1
11:01:25.434,STABILIZE,-35.3632621,149.1652374,584000,15,0.0003367311437614262,0.0015666899271309376,0.025999387726187706,0.0003467802598606795,0.00030401142430491745,0.002216195687651634,0,1,-1000,0,0,0,0,2,1
11:01:25.640,STABILIZE,-35.3632621,149.1652374,584000,15,0.0003367311437614262,0.0015666899271309376,0.025999387726187706,0.0003467802598606795,0.00030401142430491745,0.002216195687651634,0,1,-1000,0,0,0,0,2,1
11:01:25.842,STABILIZE,-35.3632621,149.1652374,584000,15,0.0003367311437614262,0.0015666899271309376,0.025999387726187706,0.0003467802598606795,0.00030401142430491745,0.002216195687651634,0,1,-1000,0,0,0,0,2,1
11:01:26.043,STABILIZE,-35.3632621,149.1652374,584000,15,0.0003367311437614262,0.0015666899271309376,0.025999387726187706,0.0003467802598606795,0.00030401142430491745,0.002216195687651634,0,1,-1000,0,0,0,0,2,1
11:01:26.246,STABILIZE,-35.3632621,149.1652374,584000,15,0.0003367311437614262,0.0015666899271309376,0.025999387726187706,0.0003467802598606795,0.00030401142430491745,0.002216195687651634,0,1,-1000,0,0,0,0,2,1
11:01:26.447,STABILIZE,-35.3632621,149.1652374,584000,15,0.0003367311437614262,0.0015666899271309376,0.025999387726187706,0.0003467802598606795,0.00030401142430491745,0.002216195687651634,0,1,-1000,0,0,0,0,2,1
11:01:26.648,STABILIZE,-35.3632621,149.1652374,584000,15,0.0003367311437614262,0.0015666899271309376,0.025999387726187706,0.0003467802598606795,0.00030401142430491745,0.002216195687651634,0,1,-1000,0,0,0,0,2,1
11:01:26.850,STABILIZE,-35.3632621,149.1652374,584000,15,0.0003367311437614262,0.0015666899271309376,0.025999387726187706,0.0003467802598606795,0.00030401142430491745,0.002216195687651634,0,1,-1000,0,0,0,0,2,1
11:01:27.055,STABILIZE,-35.3632621,149.1652374,584000,15,0.0003367311437614262,0.0015666899271309376,0.025999387726187706,0.0003467802598606795,0.00030401142430491745,0.002216195687651634,0,1,-1000,0,0,0,0,2,1
11:01:27.262,STABILIZE,-35.3632621,149.1652374,584000,15,0.0003367311437614262,0.0015666899271309376,0.025999387726187706,0.0003467802598606795,0.00030401142430491745,0.002216195687651634,0,1,-1000,0,0,0,0,2,1
11:01:27.463,STABILIZE,-35.3632622,149.1652375,583980,0,-0.0002802565577439964,0.0013906124513596296,0.02474386617541313,0.00010089905117638409,0.00028374986140988767,0.0021080707665532827,0,1,-1000,0,0,0,-2,2,1
11:01:27.665,STABILIZE,-35.3632622,149.1652375,583980,0,-0.0002802565577439964,0.0013906124513596296,0.02474386617541313,0.00010089905117638409,0.00028374986140988767,0.0021080707665532827,0,1,-1000,0,0,0,-2,2,1
11:01:27.868,STABILIZE,-35.3632622,149.1652375,583980,0,-0.0002802565577439964,0.0013906124513596296,0.02474386617541313,0.00010089905117638409,0.00028374986140988767,0.0021080707665532827,0,1,-1000,0,0,0,-2,2,1
11:01:28.071,STABILIZE,-35.3632622,149.1652375,583980,0,-0.0002802565577439964,0.0013906124513596296,0.02474386617541313,0.00010089905117638409,0.00028374986140988767,0.0021080707665532827,0,1,-1000,0,0,0,-2,2,1
11:01:28.276,STABILIZE,-35.3632622,149.1652375,583980,0,-0.0002802565577439964,0.0013906124513596296,0.02474386617541313,0.00010089905117638409,0.00028374986140988767,0.0021080707665532827,0,1,-1000,0,0,0,-2,2,1
11:01:28.479,STABILIZE,-35.3632622,149.1652375,583980,0,-0.0002802565577439964,0.0013906124513596296,0.02474386617541313,0.00010089905117638409,0.00028374986140988767,0.0021080707665532827,0,1,-1000,0,0,0,-2,2,1
11:01:28.683,STABILIZE,-35.3632622,149.1652375,583980,0,-0.0002802565577439964,0.0013906124513596296,0.02474386617541313,0.00010089905117638409,0.00028374986140988767,0.0021080707665532827,0,1,-1000,0,0,0,-2,2,1
11:01:28.891,STABILIZE,-35.3632622,149.1652375,583980,0,-0.0002802565577439964,0.0013906124513596296,0.02474386617541313,0.00010089905117638409,0.00028374986140988767,0.0021080707665532827,0,1,-1000,0,0,0,-2,2,1
11:01:29.096,STABILIZE,-35.3632622,149.1652375,583980,0,-0.0002802565577439964,0.0013906124513596296,0.02474386617541313,0.00010089905117638409,0.00028374986140988767,0.0021080707665532827,0,1,-1000,0,0,0,-2,2,1
11:01:29.301,STABILIZE,-35.3632622,149.1652376,583970,0,-0.0004594034980982542,0.0012275250628590584,0.024350158870220184,0.00017983675934374332,0.00019201217219233513,0.002060261322185397,0,2,-1000,0,0,0,-1,2,2
11:01:29.506,STABILIZE,-35.3632622,149.1652375,583970,0,-0.0009831796633079648,0.0010506163816899061,0.023822758346796036,0.0001567958970554173,0.0002680172328837216,0.001982935704290867,0,1,-1000,0,0,0,-1,1,1
11:01:29.714,STABILIZE,-35.3632622,149.1652375,583970,0,-0.0009831796633079648,0.0010506163816899061,0.023822758346796036,0.0001567958970554173,0.0002680172328837216,0.001982935704290867,0,1,-1000,0,0,0,-1,1,1
11:01:29.925,STABILIZE,-35.3632622,149.1652375,583970,0,-0.0009831796633079648,0.0010506163816899061,0.023822758346796036,0.0001567958970554173,0.0002680172328837216,0.001982935704290867,0,1,-1000,0,0,0,-1,1,1
11:01:30.127,STABILIZE,-35.3632622,149.1652375,583970,0,-0.0009831796633079648,0.0010506163816899061,0.023822758346796036,0.0001567958970554173,0.0002680172328837216,0.001982935704290867,0,1,-1000,0,0,0,-1,1,1
11:01:30.330,STABILIZE,-35.3632622,149.1652375,583970,0,-0.0009831796633079648,0.0010506163816899061,0.023822758346796036,0.0001567958970554173,0.0002680172328837216,0.001982935704290867,0,1,-1000,0,0,0,-1,1,1
11:01:30.534,STABILIZE,-35.3632622,149.1652375,583970,0,-0.0009831796633079648,0.0010506163816899061,0.023822758346796036,0.0001567958970554173,0.0002680172328837216,0.001982935704290867,0,1,-1000,0,0,0,-1,1,1
11:01:30.738,STABILIZE,-35.3632622,149.1652375,583970,0,-0.0009831796633079648,0.0010506163816899061,0.023822758346796036,0.0001567958970554173,0.0002680172328837216,0.001982935704290867,0,1,-1000,0,0,0,-1,1,1
11:01:30.944,STABILIZE,-35.3632622,149.1652375,583970,0,-0.0009831796633079648,0.0010506163816899061,0.023822758346796036,0.0001567958970554173,0.0002680172328837216,0.001982935704290867,0,1,-1000,0,0,0,-1,1,1
11:01:31.150,STABILIZE,-35.3632622,149.1652375,583970,0,-0.0009831796633079648,0.0010506163816899061,0.023822758346796036,0.0001567958970554173,0.0002680172328837216,0.001982935704290867,0,1,-1000,0,0,0,-1,1,1
11:01:31.353,STABILIZE,-35.3632622,149.1652375,583970,0,-0.0012219727504998446,0.0009709974401630461,0.02343476377427578,0.00016477872850373387,0.00036146867205388844,0.001854712376371026,0,1,-1000,0,1,0,-1,1,1
11:01:31.556,STABILIZE,-35.3632622,149.1652375,583970,0,-0.0010946650290861726,0.0009501749300397933,0.02329368144273758,0.00019079388584941626,0.00026777313905768096,0.0019203517585992813,0,1,-1000,0,0,0,-1,0,0
11:01:31.758,STABILIZE,-35.3632622,149.1652375,583970,0,-0.0010946650290861726,0.0009501749300397933,0.02329368144273758,0.00019079388584941626,0.00026777313905768096,0.0019203517585992813,0,1,-1000,0,0,0,-1,0,0
11:01:31.964,STABILIZE,-35.3632622,149.1652375,583970,0,-0.0010946650290861726,0.0009501749300397933,0.02329368144273758,0.00019079388584941626,0.00026777313905768096,0.0019203517585992813,0,1,-1000,0,0,0,-1,0,0
11:01:32.168,STABILIZE,-35.3632622,149.1652375,583970,0,-0.0010946650290861726,0.0009501749300397933,0.02329368144273758,0.00019079388584941626,0.00026777313905768096,0.0019203517585992813,0,1,-1000,0,0,0,-1,0,0
11:01:32.378,STABILIZE,-35.3632622,149.1652375,583970,0,-0.0010946650290861726,0.0009501749300397933,0.02329368144273758,0.00019079388584941626,0.00026777313905768096,0.0019203517585992813,0,1,-1000,0,0,0,-1,0,0
11:01:32.582,STABILIZE,-35.3632622,149.1652375,583970,0,-0.0010946650290861726,0.0009501749300397933,0.02329368144273758,0.00019079388584941626,0.00026777313905768096,0.0019203517585992813,0,1,-1000,0,0,0,-1,0,0
11:01:32.784,STABILIZE,-35.3632622,149.1652375,583970,0,-0.0010946650290861726,0.0009501749300397933,0.02329368144273758,0.00019079388584941626,0.00026777313905768096,0.0019203517585992813,0,1,-1000,0,0,0,-1,0,0
11:01:33.034,STABILIZE,-35.3632622,149.1652375,583970,0,-0.0010946650290861726,0.0009501749300397933,0.02329368144273758,0.00019079388584941626,0.00026777313905768096,0.0019203517585992813,0,1,-1000,0,0,0,-1,0,0
11:01:33.236,STABILIZE,-35.3632622,149.1652375,583980,0,-0.0009767020819708705,0.0009298782097175717,0.02297605574131012,0.00025631138123571873,0.00020499463425949216,0.0018342004623264074,0,2,-1000,0,0,0,-1,0,0
11:01:33.443,STABILIZE,-35.3632622,149.1652375,583980,0,-0.0009108930244110525,0.0009251859737560153,0.022762373089790344,0.0001690676435828209,0.00027558067813515663,0.0017764805816113949,0,1,-1000,0,0,0,-1,0,0
11:01:33.646,STABILIZE,-35.3632622,149.1652375,583980,0,-0.0009108930244110525,0.0009251859737560153,0.022762373089790344,0.0001690676435828209,0.00027558067813515663,0.0017764805816113949,0,1,-1000,0,0,0,-1,0,0
11:01:33.848,STABILIZE,-35.3632622,149.1652375,583980,0,-0.0009108930244110525,0.0009251859737560153,0.022762373089790344,0.0001690676435828209,0.00027558067813515663,0.0017764805816113949,0,1,-1000,0,0,0,-1,0,0
11:01:34.054,STABILIZE,-35.3632622,149.1652375,583980,0,-0.0009108930244110525,0.0009251859737560153,0.022762373089790344,0.0001690676435828209,0.00027558067813515663,0.0017764805816113949,0,1,-1000,0,0,0,-1,0,0
11:01:34.257,STABILIZE,-35.3632622,149.1652375,583980,0,-0.0009108930244110525,0.0009251859737560153,0.022762373089790344,0.0001690676435828209,0.00027558067813515663,0.0017764805816113949,0,1,-1000,0,0,0,-1,0,0
11:01:34.461,STABILIZE,-35.3632622,149.1652375,583980,0,-0.0009108930244110525,0.0009251859737560153,0.022762373089790344,0.0001690676435828209,0.00027558067813515663,0.0017764805816113949,0,1,-1000,0,0,0,-1,0,0
11:01:34.663,STABILIZE,-35.3632622,149.1652375,583980,0,-0.0009108930244110525,0.0009251859737560153,0.022762373089790344,0.0001690676435828209,0.00027558067813515663,0.0017764805816113949,0,1,-1000,0,0,0,-1,0,0
11:01:34.866,STABILIZE,-35.3632622,149.1652375,583980,0,-0.0009108930244110525,0.0009251859737560153,0.022762373089790344,0.0001690676435828209,0.00027558067813515663,0.0017764805816113949,0,1,-1000,0,0,0,-1,0,0
11:01:35.071,STABILIZE,-35.3632622,149.1652375,583980,0,-0.0009108930244110525,0.0009251859737560153,0.022762373089790344,0.0001690676435828209,0.00027558067813515663,0.0017764805816113949,0,1,-1000,0,0,0,-1,0,0
11:01:35.275,STABILIZE,-35.3632622,149.1652375,583980,0,-0.0008594129467383027,0.0009242868982255459,0.02225235477089882,0.0003344761789776385,0.0003922361647710204,0.001709158532321453,0,1,-1000,0,0,0,-1,1,0
11:01:35.476,STABILIZE,-35.3632622,149.1652375,583980,0,-0.0008594129467383027,0.0009242868982255459,0.02225235477089882,0.0003344761789776385,0.0003922361647710204,0.001709158532321453,0,1,-1000,0,0,0,-1,1,0
11:01:35.678,STABILIZE,-35.3632622,149.1652375,583980,0,-0.0008594129467383027,0.0009242868982255459,0.02225235477089882,0.0003344761789776385,0.0003922361647710204,0.001709158532321453,0,1,-1000,0,0,0,-1,1,0
11:01:35.882,STABILIZE,-35.3632622,149.1652375,583980,0,-0.0008594129467383027,0.0009242868982255459,0.02225235477089882,0.0003344761789776385,0.0003922361647710204,0.001709158532321453,0,1,-1000,0,0,0,-1,1,0
11:01:36.085,STABILIZE,-35.3632622,149.1652375,583980,0,-0.0008594129467383027,0.0009242868982255459,0.02225235477089882,0.0003344761789776385,0.0003922361647710204,0.001709158532321453,0,1,-1000,0,0,0,-1,1,0
11:01:36.289,STABILIZE,-35.3632622,149.1652375,583980,0,-0.0008594129467383027,0.0009242868982255459,0.02225235477089882,0.0003344761789776385,0.0003922361647710204,0.001709158532321453,0,1,-1000,0,0,0,-1,1,0
11:01:36.492,STABILIZE,-35.3632622,149.1652375,583980,0,-0.0008594129467383027,0.0009242868982255459,0.02225235477089882,0.0003344761789776385,0.0003922361647710204,0.001709158532321453,0,1,-1000,0,0,0,-1,1,0
11:01:36.693,STABILIZE,-35.3632622,149.1652375,583980,0,-0.0008594129467383027,0.0009242868982255459,0.02225235477089882,0.0003344761789776385,0.0003922361647710204,0.001709158532321453,0,1,-1000,0,0,0,-1,1,0
11:01:36.895,STABILIZE,-35.3632622,149.1652375,583980,0,-0.0008594129467383027,0.0009242868982255459,0.02225235477089882,0.0003344761789776385,0.0003922361647710204,0.001709158532321453,0,1,-1000,0,0,0,-1,1,0
11:01:37.104,STABILIZE,-35.3632622,149.1652375,583980,0,-0.0008594129467383027,0.0009242868982255459,0.02225235477089882,0.0003344761789776385,0.0003922361647710204,0.001709158532321453,0,1,-1000,0,0,0,-1,1,0
11:01:38.652,STABILIZE,-35.3632622,149.1652375,583990,1,-0.0009003145387396216,0.0009494521655142307,0.021737780421972275,0.00022475363221019506,0.0002510296762920916,0.0016869858372956514,0,1,-1000,0,0,0,-1,1,0
11:01:38.857,STABILIZE,-35.3632622,149.1652375,583990,1,-0.0009003145387396216,0.0009494521655142307,0.021737780421972275,0.00022475363221019506,0.0002510296762920916,0.0016869858372956514,0,1,-1000,0,0,0,-1,1,0
11:01:39.060,STABILIZE,-35.3632622,149.1652375,583990,1,-0.0009003145387396216,0.0009494521655142307,0.021737780421972275,0.00022475363221019506,0.0002510296762920916,0.0016869858372956514,0,1,-1000,0,0,0,-1,1,0
11:01:39.267,STABILIZE,-35.3632622,149.1652375,583990,1,-0.0009003145387396216,0.0009494521655142307,0.021737780421972275,0.00022475363221019506,0.0002510296762920916,0.0016869858372956514,0,1,-1000,0,0,0,-1,1,0
11:01:39.469,STABILIZE,-35.3632622,149.1652375,583990,1,-0.0009003145387396216,0.0009494521655142307,0.021737780421972275,0.00022475363221019506,0.0002510296762920916,0.0016869858372956514,0,1,-1000,0,0,0,-1,1,0
11:01:39.672,STABILIZE,-35.3632622,149.1652375,583990,1,-0.0009003145387396216,0.0009494521655142307,0.021737780421972275,0.00022475363221019506,0.0002510296762920916,0.0016869858372956514,0,1,-1000,0,0,0,-1,1,0
11:01:39.874,STABILIZE,-35.3632622,149.1652375,583990,1,-0.0009003145387396216,0.0009494521655142307,0.021737780421972275,0.00022475363221019506,0.0002510296762920916,0.0016869858372956514,0,1,-1000,0,0,0,-1,1,0
11:01:40.076,STABILIZE,-35.3632622,149.1652375,583990,1,-0.0009003145387396216,0.0009494521655142307,0.021737780421972275,0.00022475363221019506,0.0002510296762920916,0.0016869858372956514,0,1,-1000,0,0,0,-1,1,0
11:01:40.283,STABILIZE,-35.3632622,149.1652375,583990,1,-0.0009003145387396216,0.0009494521655142307,0.021737780421972275,0.00022475363221019506,0.0002510296762920916,0.0016869858372956514,0,1,-1000,0,0,0,-1,1,0
11:01:40.487,STABILIZE,-35.3632622,149.1652375,583990,1,-0.0009003145387396216,0.0009494521655142307,0.021737780421972275,0.00022475363221019506,0.0002510296762920916,0.0016869858372956514,0,1,-1000,0,0,0,-1,1,0
11:01:40.690,STABILIZE,-35.3632622,149.1652375,583980,0,-0.000466204626718536,0.0009493948891758919,0.02144107222557068,0.00019262806745246053,0.00030419492395594716,0.0015476690605282784,0,1,-1000,1,0,1,-1,2,1
11:01:40.895,STABILIZE,-35.3632622,149.1652376,583970,0,-0.000466204626718536,0.0009493948891758919,0.02144107222557068,0.00019262806745246053,0.00030419492395594716,0.0015476690605282784,0,1,-1000,1,1,0,-1,2,1
11:01:41.099,STABILIZE,-35.3632622,149.1652376,583970,0,-0.000466204626718536,0.0009493948891758919,0.02144107222557068,0.00019262806745246053,0.00030419492395594716,0.0015476690605282784,0,1,-1000,1,1,0,-1,2,1
11:01:41.301,STABILIZE,-35.3632622,149.1652376,583970,0,-0.000466204626718536,0.0009493948891758919,0.02144107222557068,0.00019262806745246053,0.00030419492395594716,0.0015476690605282784,0,1,-1000,1,1,0,-1,2,1
11:01:41.507,STABILIZE,-35.3632622,149.1652376,583970,0,-0.000466204626718536,0.0009493948891758919,0.02144107222557068,0.00019262806745246053,0.00030419492395594716,0.0015476690605282784,0,1,-1000,1,1,0,-1,2,1
11:01:41.710,STABILIZE,-35.3632622,149.1652376,583970,0,-0.000466204626718536,0.0009493948891758919,0.02144107222557068,0.00019262806745246053,0.00030419492395594716,0.0015476690605282784,0,1,-1000,1,1,0,-1,2,1
11:01:41.914,STABILIZE,-35.3632622,149.1652376,583970,0,-0.000466204626718536,0.0009493948891758919,0.02144107222557068,0.00019262806745246053,0.00030419492395594716,0.0015476690605282784,0,1,-1000,1,1,0,-1,2,1
11:01:42.116,STABILIZE,-35.3632622,149.1652376,583970,0,-0.000466204626718536,0.0009493948891758919,0.02144107222557068,0.00019262806745246053,0.00030419492395594716,0.0015476690605282784,0,1,-1000,1,1,0,-1,2,1
11:01:42.324,STABILIZE,-35.3632622,149.1652376,583970,0,-0.000466204626718536,0.0009493948891758919,0.02144107222557068,0.00019262806745246053,0.00030419492395594716,0.0015476690605282784,0,1,-1000,1,1,0,-1,2,1
11:01:42.527,STABILIZE,-35.3632622,149.1652376,583970,0,-0.000466204626718536,0.0009493948891758919,0.02144107222557068,0.00019262806745246053,0.00030419492395594716,0.0015476690605282784,0,1,-1000,1,1,0,-1,2,1
11:01:42.731,STABILIZE,-35.3632622,149.1652375,583970,0,-0.0010471814312040806,0.0009825811721384525,0.020648080855607986,0.0002853282494470477,0.0002458019880577922,0.0015830748016014695,0,1,-1000,0,0,0,-1,1,0
11:01:42.933,AUTO,-35.3632622,149.1652375,583970,0,-0.0010471814312040806,0.0009825811721384525,0.020648080855607986,0.0002853282494470477,0.0002458019880577922,0.0015830748016014695,0,2,-1000,1,0,1,-1,1,0
11:01:43.139,AUTO,-35.3632622,149.1652375,583970,0,-0.0010471814312040806,0.0009825811721384525,0.020648080855607986,0.0002853282494470477,0.0002458019880577922,0.0015830748016014695,0,2,-1000,1,0,1,-1,1,0
11:01:43.345,AUTO,-35.3632622,149.1652375,583970,0,-0.0010471814312040806,0.0009825811721384525,0.020648080855607986,0.0002853282494470477,0.0002458019880577922,0.0015830748016014695,0,2,-1000,1,0,1,-1,1,0
11:01:43.551,AUTO,-35.3632622,149.1652375,583970,0,-0.0010471814312040806,0.0009825811721384525,0.020648080855607986,0.0002853282494470477,0.0002458019880577922,0.0015830748016014695,0,2,-1000,1,0,1,-1,1,0
11:01:43.757,AUTO,-35.3632622,149.1652375,583970,0,-0.0010471814312040806,0.0009825811721384525,0.020648080855607986,0.0002853282494470477,0.0002458019880577922,0.0015830748016014695,0,2,-1000,1,0,1,-1,1,0
11:01:43.959,AUTO,-35.3632622,149.1652375,583970,0,-0.0010471814312040806,0.0009825811721384525,0.020648080855607986,0.0002853282494470477,0.0002458019880577922,0.0015830748016014695,0,2,-1000,1,0,1,-1,1,0
11:01:44.161,AUTO,-35.3632622,149.1652375,583970,0,-0.0010471814312040806,0.0009825811721384525,0.020648080855607986,0.0002853282494470477,0.0002458019880577922,0.0015830748016014695,0,2,-1000,1,0,1,-1,1,0
11:01:44.365,AUTO,-35.3632622,149.1652375,583970,0,-0.0010471814312040806,0.0009825811721384525,0.020648080855607986,0.0002853282494470477,0.0002458019880577922,0.0015830748016014695,0,2,-1000,1,0,1,-1,1,0
11:01:44.572,AUTO,-35.3632622,149.1652375,583970,0,-0.0010471814312040806,0.0009825811721384525,0.020648080855607986,0.0002853282494470477,0.0002458019880577922,0.0015830748016014695,0,2,-1000,1,0,1,-1,1,0
11:01:44.776,AUTO,-35.3632622,149.1652375,583970,6,-0.0010781766613945365,0.001069402089342475,0.020472189411520958,0.0003237618366256356,0.00027046777540817857,0.0013595453929156065,0,1,-1000,0,1,0,0,0,0
11:01:44.982,AUTO,-35.3632622,149.1652375,583970,6,-0.00096289993962273,0.0012250361032783985,0.02035284973680973,0.00033348449505865574,0.00020170188508927822,0.0014447401044890285,0,1,-1000,1,0,0,0,0,0
11:01:45.185,AUTO,-35.3632622,149.1652375,583970,6,-0.00096289993962273,0.0012250361032783985,0.02035284973680973,0.00033348449505865574,0.00020170188508927822,0.0014447401044890285,0,1,-1000,1,0,0,0,0,0
11:01:45.391,AUTO,-35.3632622,149.1652375,583970,6,-0.00096289993962273,0.0012250361032783985,0.02035284973680973,0.00033348449505865574,0.00020170188508927822,0.0014447401044890285,0,1,-1000,1,0,0,0,0,0
11:01:45.594,AUTO,-35.3632622,149.1652375,583970,6,-0.00096289993962273,0.0012250361032783985,0.02035284973680973,0.00033348449505865574,0.00020170188508927822,0.0014447401044890285,0,1,-1000,1,0,0,0,0,0
11:01:45.796,AUTO,-35.3632622,149.1652375,583970,6,-0.00096289993962273,0.0012250361032783985,0.02035284973680973,0.00033348449505865574,0.00020170188508927822,0.0014447401044890285,0,1,-1000,1,0,0,0,0,0
11:01:46.002,AUTO,-35.3632622,149.1652375,583970,6,-0.00096289993962273,0.0012250361032783985,0.02035284973680973,0.00033348449505865574,0.00020170188508927822,0.0014447401044890285,0,1,-1000,1,0,0,0,0,0
11:01:46.207,AUTO,-35.3632622,149.1652375,583970,6,-0.00096289993962273,0.0012250361032783985,0.02035284973680973,0.00033348449505865574,0.00020170188508927822,0.0014447401044890285,0,1,-1000,1,0,0,0,0,0
11:01:46.413,AUTO,-35.3632622,149.1652375,583970,6,-0.00096289993962273,0.0012250361032783985,0.02035284973680973,0.00033348449505865574,0.00020170188508927822,0.0014447401044890285,0,1,-1000,1,0,0,0,0,0
11:01:46.617,AUTO,-35.3632622,149.1652374,583970,8,-0.0007113819010555744,0.001572769950143993,0.02012692391872406,0.00033499201526865363,0.0004079077625647187,0.001437285216525197,0,2,-1000,0,1,0,0,0,0
11:01:46.819,AUTO,-35.3632622,149.1652374,583980,9,0.000495603249873966,0.001385431969538331,0.01996317133307457,0.019918987527489662,-0.011461538262665272,0.0012269435683265328,0,0,-1059,20,-10,0,0,0,-3
11:01:47.022,AUTO,-35.3632622,149.1652374,583980,9,0.000495603249873966,0.001385431969538331,0.01996317133307457,0.019918987527489662,-0.011461538262665272,0.0012269435683265328,0,0,-1059,20,-10,0,0,0,-3
11:01:47.229,AUTO,-35.3632622,149.1652374,583980,9,0.000495603249873966,0.001385431969538331,0.01996317133307457,0.019918987527489662,-0.011461538262665272,0.0012269435683265328,0,0,-1059,20,-10,0,0,0,-3
11:01:47.433,AUTO,-35.3632622,149.1652374,583980,9,0.000495603249873966,0.001385431969538331,0.01996317133307457,0.019918987527489662,-0.011461538262665272,0.0012269435683265328,0,0,-1059,20,-10,0,0,0,-3
11:01:47.636,AUTO,-35.3632622,149.1652374,583980,9,0.000495603249873966,0.001385431969538331,0.01996317133307457,0.019918987527489662,-0.011461538262665272,0.0012269435683265328,0,0,-1059,20,-10,0,0,0,-3
11:01:47.841,AUTO,-35.3632622,149.1652374,583980,9,0.000495603249873966,0.001385431969538331,0.01996317133307457,0.019918987527489662,-0.011461538262665272,0.0012269435683265328,0,0,-1059,20,-10,0,0,0,-3
11:01:48.044,AUTO,-35.3632622,149.1652374,583980,9,0.000495603249873966,0.001385431969538331,0.01996317133307457,0.019918987527489662,-0.011461538262665272,0.0012269435683265328,0,0,-1059,20,-10,0,0,0,-3
11:01:48.250,AUTO,-35.3632622,149.1652374,583980,9,0.000495603249873966,0.001385431969538331,0.01996317133307457,0.019918987527489662,-0.011461538262665272,0.0012269435683265328,0,0,-1059,20,-10,0,0,0,-3
11:01:48.456,AUTO,-35.3632622,149.1652374,583980,9,0.000495603249873966,0.001385431969538331,0.01996317133307457,0.019918987527489662,-0.011461538262665272,0.0012269435683265328,0,0,-1059,20,-10,0,0,0,-3
11:01:48.658,AUTO,-35.3632621,149.1652375,584980,1013,0.009036162868142128,0.0012630806304514408,0.019555242732167244,0.04698947072029114,-0.005932108964771032,0.0013578605139628053,0,0,-1045,47,-5,0,0,1,-138
11:01:48.862,AUTO,-35.3632619,149.1652381,586110,2143,0.0433867946267128,-0.0045947483740746975,0.019978070631623268,0.04258481413125992,-0.009298184886574745,0.003329208353534341,0,-2,-1003,43,-8,3,2,19,-148
11:01:49.067,AUTO,-35.3632619,149.1652381,586110,2143,0.0433867946267128,-0.0045947483740746975,0.019978070631623268,0.04258481413125992,-0.009298184886574745,0.003329208353534341,0,-2,-1003,43,-8,3,2,19,-148
11:01:49.271,AUTO,-35.3632619,149.1652381,586110,2143,0.0433867946267128,-0.0045947483740746975,0.019978070631623268,0.04258481413125992,-0.009298184886574745,0.003329208353534341,0,-2,-1003,43,-8,3,2,19,-148
11:01:49.476,AUTO,-35.3632619,149.1652381,586110,2143,0.0433867946267128,-0.0045947483740746975,0.019978070631623268,0.04258481413125992,-0.009298184886574745,0.003329208353534341,0,-2,-1003,43,-8,3,2,19,-148
11:01:49.681,AUTO,-35.3632619,149.1652381,586110,2143,0.0433867946267128,-0.0045947483740746975,0.019978070631623268,0.04258481413125992,-0.009298184886574745,0.003329208353534341,0,-2,-1003,43,-8,3,2,19,-148
11:01:49.886,AUTO,-35.3632619,149.1652381,586110,2143,0.0433867946267128,-0.0045947483740746975,0.019978070631623268,0.04258481413125992,-0.009298184886574745,0.003329208353534341,0,-2,-1003,43,-8,3,2,19,-148
11:01:50.089,AUTO,-35.3632619,149.1652381,586110,2143,0.0433867946267128,-0.0045947483740746975,0.019978070631623268,0.04258481413125992,-0.009298184886574745,0.003329208353534341,0,-2,-1003,43,-8,3,2,19,-148
11:01:50.292,AUTO,-35.3632619,149.1652381,586110,2143,0.0433867946267128,-0.0045947483740746975,0.019978070631623268,0.04258481413125992,-0.009298184886574745,0.003329208353534341,0,-2,-1003,43,-8,3,2,19,-148
11:01:50.495,AUTO,-35.3632614,149.1652409,587260,3293,0.04523399472236633,0.00968552939593792,-0.0266686100512743,-0.1250436156988144,0.10492944717407227,-0.10400180518627167,2,-11,-990,-124,105,-104,9,52,-146
11:01:50.697,AUTO,-35.363261,149.1652458,588780,4817,-0.04236132651567459,0.014254210516810417,-0.0874856635928154,-0.05192336440086365,-0.03003941848874092,-0.027125202119350433,4,-7,-1000,-51,-29,-27,-3,27,-150
11:01:50.900,AUTO,-35.363261,149.1652464,589170,5202,-0.05915285646915436,0.0034746951423585415,-0.08912729471921921,-0.07583865523338318,-0.05020623654127121,0.00318352272734046,3,-4,-999,-75,-49,3,-5,13,-149
11:01:51.103,AUTO,-35.363261,149.1652464,589170,5202,-0.05915285646915436,0.0034746951423585415,-0.08912729471921921,-0.07583865523338318,-0.05020623654127121,0.00318352272734046,3,-4,-999,-75,-49,3,-5,13,-149
11:01:51.307,AUTO,-35.363261,149.1652464,589170,5202,-0.05915285646915436,0.0034746951423585415,-0.08912729471921921,-0.07583865523338318,-0.05020623654127121,0.00318352272734046,3,-4,-999,-75,-49,3,-5,13,-149
11:01:51.509,AUTO,-35.363261,149.1652464,589170,5202,-0.05915285646915436,0.0034746951423585415,-0.08912729471921921,-0.07583865523338318,-0.05020623654127121,0.00318352272734046,3,-4,-999,-75,-49,3,-5,13,-149
11:01:51.713,AUTO,-35.363261,149.1652464,589170,5202,-0.05915285646915436,0.0034746951423585415,-0.08912729471921921,-0.07583865523338318,-0.05020623654127121,0.00318352272734046,3,-4,-999,-75,-49,3,-5,13,-149
11:01:51.917,AUTO,-35.363261,149.1652464,589170,5202,-0.05915285646915436,0.0034746951423585415,-0.08912729471921921,-0.07583865523338318,-0.05020623654127121,0.00318352272734046,3,-4,-999,-75,-49,3,-5,13,-149
11:01:52.119,AUTO,-35.363261,149.1652464,589170,5202,-0.05915285646915436,0.0034746951423585415,-0.08912729471921921,-0.07583865523338318,-0.05020623654127121,0.00318352272734046,3,-4,-999,-75,-49,3,-5,13,-149
11:01:52.322,AUTO,-35.363261,149.1652464,589170,5202,-0.05915285646915436,0.0034746951423585415,-0.08912729471921921,-0.07583865523338318,-0.05020623654127121,0.00318352272734046,3,-4,-999,-75,-49,3,-5,13,-149
11:01:52.526,AUTO,-35.3632612,149.1652441,590710,6741,-0.044948481023311615,-0.011009824462234974,-0.08944439142942429,0.060442112386226654,0.006053578574210405,0.0008562886505387723,-3,6,-1001,55,1,-1,0,-50,-149
11:01:52.731,AUTO,-35.3632613,149.1652393,591870,7900,0.002851284807547927,-0.0016078816261142492,-0.08910099416971207,0.06730830669403076,0.01585983671247959,0.0035756994038820267,-7,11,-1004,67,16,3,-1,-59,-151
11:01:52.933,AUTO,-35.3632614,149.1652376,592260,8291,0.01926933228969574,0.0022455023135989904,-0.08825631439685822,0.0659744068980217,0.014947016723453999,0.004014390055090189,-7,11,-1004,66,15,3,-2,-54,-152
11:01:53.136,AUTO,-35.3632614,149.1652376,592260,8291,0.01926933228969574,0.0022455023135989904,-0.08825631439685822,0.0659744068980217,0.014947016723453999,0.004014390055090189,-7,11,-1004,66,15,3,-2,-54,-152
11:01:53.352,AUTO,-35.3632614,149.1652376,592260,8291,0.01926933228969574,0.0022455023135989904,-0.08825631439685822,0.0659744068980217,0.014947016723453999,0.004014390055090189,-7,11,-1004,66,15,3,-2,-54,-152
11:01:53.556,AUTO,-35.3632614,149.1652376,592260,8291,0.01926933228969574,0.0022455023135989904,-0.08825631439685822,0.0659744068980217,0.014947016723453999,0.004014390055090189,-7,11,-1004,66,15,3,-2,-54,-152
11:01:53.759,AUTO,-35.3632614,149.1652376,592260,8291,0.01926933228969574,0.0022455023135989904,-0.08825631439685822,0.0659744068980217,0.014947016723453999,0.004014390055090189,-7,11,-1004,66,15,3,-2,-54,-152
11:01:53.964,AUTO,-35.3632614,149.1652376,592260,8291,0.01926933228969574,0.0022455023135989904,-0.08825631439685822,0.0659744068980217,0.014947016723453999,0.004014390055090189,-7,11,-1004,66,15,3,-2,-54,-152
11:01:54.167,AUTO,-35.3632614,149.1652376,592260,8291,0.01926933228969574,0.0022455023135989904,-0.08825631439685822,0.0659744068980217,0.014947016723453999,0.004014390055090189,-7,11,-1004,66,15,3,-2,-54,-152
11:01:54.370,AUTO,-35.3632614,149.1652376,592260,8291,0.01926933228969574,0.0022455023135989904,-0.08825631439685822,0.0659744068980217,0.014947016723453999,0.004014390055090189,-7,11,-1004,66,15,3,-2,-54,-152
11:01:54.572,AUTO,-35.363262,149.1652341,594220,10254,0.051395315676927567,0.007957296445965767,-0.08445020020008087,-0.09450016915798187,-0.01717396453022957,0.005639676470309496,1,0,-993,-93,-16,5,-7,14,-150
11:01:54.776,AUTO,-35.3632623,149.165235,594990,11025,0.006168052554130554,-0.0012011316139250994,-0.08523967862129211,-0.06932055950164795,-0.013958761468529701,-0.006127479486167431,3,-3,-1002,-68,-13,-6,-5,24,-149
11:01:54.979,AUTO,-35.3632624,149.1652357,595380,11410,-0.007687476929277182,-0.0037152685690671206,-0.08844072371721268,-0.04039875045418739,-0.007412274833768606,-0.014133093878626823,3,-2,-1004,-39,-7,-14,-3,22,-150
11:01:55.181,AUTO,-35.3632624,149.1652357,595380,11410,-0.007687476929277182,-0.0037152685690671206,-0.08844072371721268,-0.04039875045418739,-0.007412274833768606,-0.014133093878626823,3,-2,-1004,-39,-7,-14,-3,22,-150
11:01:55.387,AUTO,-35.3632624,149.1652357,595380,11410,-0.007687476929277182,-0.0037152685690671206,-0.08844072371721268,-0.04039875045418739,-0.007412274833768606,-0.014133093878626823,3,-2,-1004,-39,-7,-14,-3,22,-150
11:01:55.591,AUTO,-35.3632624,149.1652357,595380,11410,-0.007687476929277182,-0.0037152685690671206,-0.08844072371721268,-0.04039875045418739,-0.007412274833768606,-0.014133093878626823,3,-2,-1004,-39,-7,-14,-3,22,-150
11:01:55.796,AUTO,-35.3632624,149.1652357,595380,11410,-0.007687476929277182,-0.0037152685690671206,-0.08844072371721268,-0.04039875045418739,-0.007412274833768606,-0.014133093878626823,3,-2,-1004,-39,-7,-14,-3,22,-150
11:01:55.999,AUTO,-35.3632624,149.1652357,595380,11410,-0.007687476929277182,-0.0037152685690671206,-0.08844072371721268,-0.04039875045418739,-0.007412274833768606,-0.014133093878626823,3,-2,-1004,-39,-7,-14,-3,22,-150
11:01:56.202,AUTO,-35.3632624,149.1652357,595380,11410,-0.007687476929277182,-0.0037152685690671206,-0.08844072371721268,-0.04039875045418739,-0.007412274833768606,-0.014133093878626823,3,-2,-1004,-39,-7,-14,-3,22,-150
11:01:56.407,AUTO,-35.3632624,149.1652357,595380,11410,-0.007687476929277182,-0.0037152685690671206,-0.08844072371721268,-0.04039875045418739,-0.007412274833768606,-0.014133093878626823,3,-2,-1004,-39,-7,-14,-3,22,-150
11:01:56.613,AUTO,-35.3632624,149.1652368,596930,12960,-0.014705791138112545,-0.004086794797331095,-0.1124851331114769,0.014880845323204994,0.003005316248163581,-0.023181863129138947,0,-1,-1002,11,4,-24,2,1,-152
11:01:56.815,AUTO,-35.363262,149.1652363,598490,14525,0.0024932341184467077,0.002867066999897361,-0.13767655193805695,0.015386673621833324,0.008288427256047726,-0.022109681740403175,-2,0,-1000,16,8,-22,3,-7,-153
11:01:57.021,AUTO,-35.363262,149.1652363,598490,14525,0.0024932341184467077,0.002867066999897361,-0.13767655193805695,0.015386673621833324,0.008288427256047726,-0.022109681740403175,-2,0,-1000,16,8,-22,3,-7,-153
11:01:57.229,AUTO,-35.363262,149.1652363,598490,14525,0.0024932341184467077,0.002867066999897361,-0.13767655193805695,0.015386673621833324,0.008288427256047726,-0.022109681740403175,-2,0,-1000,16,8,-22,3,-7,-153
11:01:57.431,AUTO,-35.363262,149.1652363,598490,14525,0.0024932341184467077,0.002867066999897361,-0.13767655193805695,0.015386673621833324,0.008288427256047726,-0.022109681740403175,-2,0,-1000,16,8,-22,3,-7,-153
11:01:57.636,AUTO,-35.363262,149.1652363,598490,14525,0.0024932341184467077,0.002867066999897361,-0.13767655193805695,0.015386673621833324,0.008288427256047726,-0.022109681740403175,-2,0,-1000,16,8,-22,3,-7,-153
11:01:57.838,AUTO,-35.363262,149.1652363,598490,14525,0.0024932341184467077,0.002867066999897361,-0.13767655193805695,0.015386673621833324,0.008288427256047726,-0.022109681740403175,-2,0,-1000,16,8,-22,3,-7,-153
11:01:58.044,AUTO,-35.363262,149.1652363,598490,14525,0.0024932341184467077,0.002867066999897361,-0.13767655193805695,0.015386673621833324,0.008288427256047726,-0.022109681740403175,-2,0,-1000,16,8,-22,3,-7,-153
11:01:58.248,AUTO,-35.363262,149.1652363,598490,14525,0.0024932341184467077,0.002867066999897361,-0.13767655193805695,0.015386673621833324,0.008288427256047726,-0.022109681740403175,-2,0,-1000,16,8,-22,3,-7,-153
11:01:58.450,AUTO,-35.3632617,149.1652356,600060,16093,0.009475341066718102,0.006500133313238621,-0.15520212054252625,0.0027729440480470657,-0.00043683429248631,-0.011680524796247482,-1,0,-1000,3,0,-12,0,-1,-153
11:01:58.653,AUTO,-35.3632617,149.1652355,601230,17266,0.007726561743766069,0.005590829998254776,-0.1644686609506607,-0.005675125867128372,-0.001428675139322877,-0.012076993472874165,0,0,-1000,-5,0,-12,-1,3,-153
11:01:58.855,AUTO,-35.3632616,149.1652355,601620,17656,0.006422795355319977,0.0053007034584879875,-0.16777554154396057,-0.005258494988083839,-0.001085196272470057,-0.013648658990859985,0,0,-1000,-4,0,-13,-2,4,-153
11:01:59.057,AUTO,-35.3632616,149.1652355,601620,17656,0.006422795355319977,0.0053007034584879875,-0.16777554154396057,-0.005258494988083839,-0.001085196272470057,-0.013648658990859985,0,0,-1000,-4,0,-13,-2,4,-153
11:01:59.263,AUTO,-35.3632616,149.1652355,601620,17656,0.006422795355319977,0.0053007034584879875,-0.16777554154396057,-0.005258494988083839,-0.001085196272470057,-0.013648658990859985,0,0,-1000,-4,0,-13,-2,4,-153
11:01:59.471,AUTO,-35.3632616,149.1652355,601620,17656,0.006422795355319977,0.0053007034584879875,-0.16777554154396057,-0.005258494988083839,-0.001085196272470057,-0.013648658990859985,0,0,-1000,-4,0,-13,-2,4,-153
11:01:59.673,AUTO,-35.3632616,149.1652355,601620,17656,0.006422795355319977,0.0053007034584879875,-0.16777554154396057,-0.005258494988083839,-0.001085196272470057,-0.013648658990859985,0,0,-1000,-4,0,-13,-2,4,-153
11:01:59.876,AUTO,-35.3632616,149.1652355,601620,17656,0.006422795355319977,0.0053007034584879875,-0.16777554154396057,-0.005258494988083839,-0.001085196272470057,-0.013648658990859985,0,0,-1000,-4,0,-13,-2,4,-153
11:02:00.081,AUTO,-35.3632616,149.1652355,601620,17656,0.006422795355319977,0.0053007034584879875,-0.16777554154396057,-0.005258494988083839,-0.001085196272470057,-0.013648658990859985,0,0,-1000,-4,0,-13,-2,4,-153
11:02:00.284,AUTO,-35.3632616,149.1652355,601620,17656,0.006422795355319977,0.0053007034584879875,-0.16777554154396057,-0.005258494988083839,-0.001085196272470057,-0.013648658990859985,0,0,-1000,-4,0,-13,-2,4,-153
11:02:00.493,AUTO,-35.3632616,149.1652357,602640,18672,0.004164770245552063,0.004604228772222996,-0.17762422561645508,-0.0006142354686744511,0.0006295301718637347,-0.01680641807615757,0,0,-1000,0,1,-16,-2,5,-153
11:02:00.697,AUTO,-35.3632617,149.1652361,604200,20234,0.0022380196023732424,0.003879540367051959,-0.1954672634601593,-0.00048568847705610096,0.0015119398012757301,-0.020277908071875572,0,0,-1000,0,2,-20,-3,5,-153
11:02:00.900,AUTO,-35.3632617,149.1652361,604590,20625,0.0020293700508773327,0.003688329830765724,-0.20022885501384735,-0.001851858338341117,4.285003524273634e-05,-0.019837699830532074,0,0,-1000,0,0,-20,-3,5,-153
11:02:01.105,AUTO,-35.3632617,149.1652361,604590,20625,0.0020293700508773327,0.003688329830765724,-0.20022885501384735,-0.001851858338341117,4.285003524273634e-05,-0.019837699830532074,0,0,-1000,0,0,-20,-3,5,-153
11:02:01.312,AUTO,-35.3632617,149.1652361,604590,20625,0.0020293700508773327,0.003688329830765724,-0.20022885501384735,-0.001851858338341117,4.285003524273634e-05,-0.019837699830532074,0,0,-1000,0,0,-20,-3,5,-153
11:02:01.514,AUTO,-35.3632617,149.1652361,604590,20625,0.0020293700508773327,0.003688329830765724,-0.20022885501384735,-0.001851858338341117,4.285003524273634e-05,-0.019837699830532074,0,0,-1000,0,0,-20,-3,5,-153
11:02:01.717,AUTO,-35.3632617,149.1652361,604590,20625,0.0020293700508773327,0.003688329830765724,-0.20022885501384735,-0.001851858338341117,4.285003524273634e-05,-0.019837699830532074,0,0,-1000,0,0,-20,-3,5,-153
11:02:01.920,AUTO,-35.3632617,149.1652361,604590,20625,0.0020293700508773327,0.003688329830765724,-0.20022885501384735,-0.001851858338341117,4.285003524273634e-05,-0.019837699830532074,0,0,-1000,0,0,-20,-3,5,-153
11:02:02.123,AUTO,-35.3632617,149.1652361,604590,20625,0.0020293700508773327,0.003688329830765724,-0.20022885501384735,-0.001851858338341117,4.285003524273634e-05,-0.019837699830532074,0,0,-1000,0,0,-20,-3,5,-153
11:02:02.326,AUTO,-35.3632617,149.1652361,604590,20625,0.0020293700508773327,0.003688329830765724,-0.20022885501384735,-0.001851858338341117,4.285003524273634e-05,-0.019837699830532074,0,0,-1000,0,0,-20,-3,5,-153
11:02:02.539,AUTO,-35.3632617,149.1652364,606150,22188,0.0016536202747374773,0.003150055417791009,-0.21964603662490845,-0.001760129234753549,0.00021391082555055618,-0.02014659158885479,0,0,-1000,1,2,-20,-2,4,-153
11:02:02.750,AUTO,-35.3632618,149.1652366,607720,23759,0.0015659327618777752,0.0030314764007925987,-0.23967958986759186,0.0027017430402338505,0.0015953367110341787,-0.020803408697247505,0,0,-1000,2,2,-20,-2,3,-153
11:02:02.952,AUTO,-35.3632618,149.1652366,607720,23759,0.0015659327618777752,0.0030314764007925987,-0.23967958986759186,0.0027017430402338505,0.0015953367110341787,-0.020803408697247505,0,0,-1000,3,2,-21,-2,3,-153
11:02:03.154,AUTO,-35.3632618,149.1652366,607720,23759,0.0015659327618777752,0.0030314764007925987,-0.23967958986759186,0.0027017430402338505,0.0015953367110341787,-0.020803408697247505,0,0,-1000,3,2,-21,-2,3,-153
11:02:03.357,AUTO,-35.3632618,149.1652366,607720,23759,0.0015659327618777752,0.0030314764007925987,-0.23967958986759186,0.0027017430402338505,0.0015953367110341787,-0.020803408697247505,0,0,-1000,3,2,-21,-2,3,-153
11:02:03.561,AUTO,-35.3632618,149.1652366,607720,23759,0.0015659327618777752,0.0030314764007925987,-0.23967958986759186,0.0027017430402338505,0.0015953367110341787,-0.020803408697247505,0,0,-1000,3,2,-21,-2,3,-153
11:02:03.763,AUTO,-35.3632618,149.1652366,607720,23759,0.0015659327618777752,0.0030314764007925987,-0.23967958986759186,0.0027017430402338505,0.0015953367110341787,-0.020803408697247505,0,0,-1000,3,2,-21,-2,3,-153
11:02:03.970,AUTO,-35.3632618,149.1652366,607720,23759,0.0015659327618777752,0.0030314764007925987,-0.23967958986759186,0.0027017430402338505,0.0015953367110341787,-0.020803408697247505,0,0,-1000,3,2,-21,-2,3,-153
11:02:04.175,AUTO,-35.3632618,149.1652366,607720,23759,0.0015659327618777752,0.0030314764007925987,-0.23967958986759186,0.0027017430402338505,0.0015953367110341787,-0.020803408697247505,0,0,-1000,3,2,-21,-2,3,-153
11:02:04.379,AUTO,-35.3632618,149.1652366,607720,23759,0.0015659327618777752,0.0030314764007925987,-0.23967958986759186,0.0027017430402338505,0.0015953367110341787,-0.020803408697247505,0,0,-1000,3,2,-21,-2,3,-153
11:02:04.582,AUTO,-35.3632618,149.1652366,607720,23759,0.0015659327618777752,0.0030314764007925987,-0.23967958986759186,0.0027017430402338505,0.0015953367110341787,-0.020803408697247505,0,0,-1000,3,2,-21,-2,3,-153
11:02:04.784,AUTO,-35.3632789,149.1652406,610540,26573,-0.0022926938254386187,-0.057249702513217926,-0.1858963817358017,0.012499266304075718,-0.018281424418091774,0.08496177941560745,-7,-3,-997,13,-17,84,-19,-2,-155
11:02:04.987,AUTO,-35.3632805,149.1652403,610940,26974,-0.006394479423761368,-0.06497546285390854,-0.16803954541683197,-0.01873861439526081,-0.036303676664829254,0.10643088817596436,-9,-5,-995,-17,-36,106,-8,-9,-154
11:02:05.189,AUTO,-35.3632805,149.1652403,610940,26974,-0.006394479423761368,-0.06497546285390854,-0.16803954541683197,-0.01873861439526081,-0.036303676664829254,0.10643088817596436,-9,-5,-995,-17,-36,106,-8,-9,-154
11:02:05.392,AUTO,-35.3632805,149.1652403,610940,26974,-0.006394479423761368,-0.06497546285390854,-0.16803954541683197,-0.01873861439526081,-0.036303676664829254,0.10643088817596436,-9,-5,-995,-17,-36,106,-8,-9,-154
11:02:05.595,AUTO,-35.3632805,149.1652403,610940,26974,-0.006394479423761368,-0.06497546285390854,-0.16803954541683197,-0.01873861439526081,-0.036303676664829254,0.10643088817596436,-9,-5,-995,-17,-36,106,-8,-9,-154
11:02:05.802,AUTO,-35.3632805,149.1652403,610940,26974,-0.006394479423761368,-0.06497546285390854,-0.16803954541683197,-0.01873861439526081,-0.036303676664829254,0.10643088817596436,-9,-5,-995,-17,-36,106,-8,-9,-154
11:02:06.009,AUTO,-35.3632805,149.1652403,610940,26974,-0.006394479423761368,-0.06497546285390854,-0.16803954541683197,-0.01873861439526081,-0.036303676664829254,0.10643088817596436,-9,-5,-995,-17,-36,106,-8,-9,-154
11:02:06.213,AUTO,-35.3632805,149.1652403,610940,26974,-0.006394479423761368,-0.06497546285390854,-0.16803954541683197,-0.01873861439526081,-0.036303676664829254,0.10643088817596436,-9,-5,-995,-17,-36,106,-8,-9,-154
11:02:06.415,AUTO,-35.3632805,149.1652403,610940,26974,-0.006394479423761368,-0.06497546285390854,-0.16803954541683197,-0.01873861439526081,-0.036303676664829254,0.10643088817596436,-9,-5,-995,-17,-36,106,-8,-9,-154
11:02:06.618,AUTO,-35.3632744,149.1652301,613170,29200,-0.04915105178952217,-0.08965254575014114,0.038604505360126495,0.11752476543188095,0.037617046386003494,0.01784549094736576,-40,0,-1000,118,38,17,108,-104,-138
11:02:06.821,AUTO,-35.3632666,149.1652226,613810,29840,0.005659943912178278,-0.06929980963468552,0.05078717693686485,0.10394827276468277,0.07355696707963943,-0.06278972327709198,-50,3,-1016,105,75,-62,146,-120,-140
11:02:07.024,AUTO,-35.3632666,149.1652226,613810,29840,0.005659943912178278,-0.06929980963468552,0.05078717693686485,0.10394827276468277,0.07355696707963943,-0.06278972327709198,-50,3,-1016,105,75,-62,146,-120,-140
11:02:07.226,AUTO,-35.3632666,149.1652226,613810,29840,0.005659943912178278,-0.06929980963468552,0.05078717693686485,0.10394827276468277,0.07355696707963943,-0.06278972327709198,-50,3,-1016,105,75,-62,146,-120,-140
11:02:07.431,AUTO,-35.3632666,149.1652226,613810,29840,0.005659943912178278,-0.06929980963468552,0.05078717693686485,0.10394827276468277,0.07355696707963943,-0.06278972327709198,-50,3,-1016,105,75,-62,146,-120,-140
11:02:07.636,AUTO,-35.3632666,149.1652226,613810,29840,0.005659943912178278,-0.06929980963468552,0.05078717693686485,0.10394827276468277,0.07355696707963943,-0.06278972327709198,-50,3,-1016,105,75,-62,146,-120,-140
11:02:07.840,AUTO,-35.3632666,149.1652226,613810,29840,0.005659943912178278,-0.06929980963468552,0.05078717693686485,0.10394827276468277,0.07355696707963943,-0.06278972327709198,-50,3,-1016,105,75,-62,146,-120,-140
11:02:08.044,AUTO,-35.3632666,149.1652226,613810,29840,0.005659943912178278,-0.06929980963468552,0.05078717693686485,0.10394827276468277,0.07355696707963943,-0.06278972327709198,-50,3,-1016,105,75,-62,146,-120,-140
11:02:08.253,AUTO,-35.3632666,149.1652226,613810,29840,0.005659943912178278,-0.06929980963468552,0.05078717693686485,0.10394827276468277,0.07355696707963943,-0.06278972327709198,-50,3,-1016,105,75,-62,146,-120,-140
11:02:08.458,AUTO,-35.3632666,149.1652226,613810,29840,0.005659943912178278,-0.06929980963468552,0.05078717693686485,0.10394827276468277,0.07355696707963943,-0.06278972327709198,-50,3,-1016,105,75,-62,146,-120,-140
11:02:08.661,AUTO,-35.3632273,149.1651896,616150,32186,0.07974682748317719,0.09757910668849945,0.04746638610959053,0.06226414069533348,0.10247454792261124,0.012296153232455254,-25,-5,-1011,63,104,12,136,-95,-168
11:02:08.864,AUTO,-35.3632207,149.1651852,617000,33039,0.11686376482248306,0.13518641889095306,0.020624671131372452,0.05599586293101311,0.04726538062095642,0.025842249393463135,-7,-3,-995,57,49,25,76,-41,-163
11:02:09.066,AUTO,-35.3632207,149.1651852,617000,33039,0.11686376482248306,0.13518641889095306,0.020624671131372452,0.05599586293101311,0.04726538062095642,0.025842249393463135,-7,-3,-995,57,49,25,76,-41,-163
11:02:09.273,AUTO,-35.3632207,149.1651852,617000,33039,0.11686376482248306,0.13518641889095306,0.020624671131372452,0.05599586293101311,0.04726538062095642,0.025842249393463135,-7,-3,-995,57,49,25,76,-41,-163
11:02:09.476,AUTO,-35.3632207,149.1651852,617000,33039,0.11686376482248306,0.13518641889095306,0.020624671131372452,0.05599586293101311,0.04726538062095642,0.025842249393463135,-7,-3,-995,57,49,25,76,-41,-163
11:02:09.679,AUTO,-35.3632207,149.1651852,617000,33039,0.11686376482248306,0.13518641889095306,0.020624671131372452,0.05599586293101311,0.04726538062095642,0.025842249393463135,-7,-3,-995,57,49,25,76,-41,-163
11:02:09.884,AUTO,-35.3632207,149.1651852,617000,33039,0.11686376482248306,0.13518641889095306,0.020624671131372452,0.05599586293101311,0.04726538062095642,0.025842249393463135,-7,-3,-995,57,49,25,76,-41,-163
11:02:10.087,AUTO,-35.3632207,149.1651852,617000,33039,0.11686376482248306,0.13518641889095306,0.020624671131372452,0.05599586293101311,0.04726538062095642,0.025842249393463135,-7,-3,-995,57,49,25,76,-41,-163
11:02:10.294,AUTO,-35.3632207,149.1651852,617000,33039,0.11686376482248306,0.13518641889095306,0.020624671131372452,0.05599586293101311,0.04726538062095642,0.025842249393463135,-7,-3,-995,57,49,25,76,-41,-163
11:02:10.504,AUTO,-35.3632207,149.1651852,617000,33039,0.11686376482248306,0.13518641889095306,0.020624671131372452,0.05599586293101311,0.04726538062095642,0.025842249393463135,-7,-3,-995,57,49,25,76,-41,-163
11:02:10.710,LOITER,-35.3632207,149.1651893,618860,34894,0.16493821144104004,0.07809767127037048,-0.033410049974918365,0.017747674137353897,-0.11906732618808746,0.02258334681391716,42,-19,-989,18,-117,22,-50,136,-128
11:02:12.260,LOITER,-35.3632252,149.1652039,619760,35793,0.1758464127779007,-0.027166912332177162,-0.021378301084041595,0.047706279903650284,-0.09204035997390747,0.09390322864055634,53,-35,-991,48,-90,94,-35,242,-118
11:02:12.466,LOITER,-35.3632252,149.1652039,619760,35793,0.1758464127779007,-0.027166912332177162,-0.021378301084041595,0.047706279903650284,-0.09204035997390747,0.09390322864055634,53,-35,-991,48,-90,94,-35,242,-118
11:02:12.674,LOITER,-35.3632252,149.1652039,619760,35793,0.1758464127779007,-0.027166912332177162,-0.021378301084041595,0.047706279903650284,-0.09204035997390747,0.09390322864055634,53,-35,-991,48,-90,94,-35,242,-118
11:02:12.877,LOITER,-35.3632252,149.1652039,619760,35793,0.1758464127779007,-0.027166912332177162,-0.021378301084041595,0.047706279903650284,-0.09204035997390747,0.09390322864055634,53,-35,-991,48,-90,94,-35,242,-118
11:02:13.080,LOITER,-35.3632252,149.1652039,619760,35793,0.1758464127779007,-0.027166912332177162,-0.021378301084041595,0.047706279903650284,-0.09204035997390747,0.09390322864055634,53,-35,-991,48,-90,94,-35,242,-118
11:02:13.285,LOITER,-35.3632252,149.1652039,619760,35793,0.1758464127779007,-0.027166912332177162,-0.021378301084041595,0.047706279903650284,-0.09204035997390747,0.09390322864055634,53,-35,-991,48,-90,94,-35,242,-118
11:02:13.491,LOITER,-35.3632252,149.1652039,619760,35793,0.1758464127779007,-0.027166912332177162,-0.021378301084041595,0.047706279903650284,-0.09204035997390747,0.09390322864055634,53,-35,-991,48,-90,94,-35,242,-118
11:02:13.693,LOITER,-35.3632252,149.1652039,619760,35793,0.1758464127779007,-0.027166912332177162,-0.021378301084041595,0.047706279903650284,-0.09204035997390747,0.09390322864055634,53,-35,-991,48,-90,94,-35,242,-118
11:02:13.898,LOITER,-35.3632284,149.1652271,620510,36541,0.11312578618526459,0.05294201150536537,0.03190447762608528,-0.2885359227657318,0.4288642406463623,0.08653572201728821,40,-67,-935,-287,430,87,-8,322,-99
11:02:14.102,LOITER,-35.3632383,149.1652483,620410,36449,-0.491329550743103,0.060675736516714096,0.33594828844070435,-0.8422784805297852,-0.2464459389448166,-0.047218888998031616,26,5,-825,-832,-244,-47,-69,83,98
11:02:14.306,LOITER,-35.3632387,149.1652483,620070,36106,-0.47219446301460266,0.01803215593099594,0.35093510150909424,-1.0579726696014404,-0.10174498707056046,-0.01871165819466114,13,-8,-831,-1051,-100,-18,-36,-7,161
11:02:14.510,LOITER,-35.3632387,149.1652483,620070,36106,-0.47219446301460266,0.01803215593099594,0.35093510150909424,-1.0579726696014404,-0.10174498707056046,-0.01871165819466114,13,-8,-831,-1051,-100,-18,-36,-7,161
11:02:14.714,LOITER,-35.3632387,149.1652483,620070,36106,-0.47219446301460266,0.01803215593099594,0.35093510150909424,-1.0579726696014404,-0.10174498707056046,-0.01871165819466114,13,-8,-831,-1051,-100,-18,-36,-7,161
11:02:14.917,LOITER,-35.3632387,149.1652483,620070,36106,-0.47219446301460266,0.01803215593099594,0.35093510150909424,-1.0579726696014404,-0.10174498707056046,-0.01871165819466114,13,-8,-831,-1051,-100,-18,-36,-7,161
11:02:15.120,LOITER,-35.3632387,149.1652483,620070,36106,-0.47219446301460266,0.01803215593099594,0.35093510150909424,-1.0579726696014404,-0.10174498707056046,-0.01871165819466114,13,-8,-831,-1051,-100,-18,-36,-7,161
11:02:15.326,LOITER,-35.3632387,149.1652483,620070,36106,-0.47219446301460266,0.01803215593099594,0.35093510150909424,-1.0579726696014404,-0.10174498707056046,-0.01871165819466114,13,-8,-831,-1051,-100,-18,-36,-7,161
11:02:15.534,LOITER,-35.3632387,149.1652483,620070,36106,-0.47219446301460266,0.01803215593099594,0.35093510150909424,-1.0579726696014404,-0.10174498707056046,-0.01871165819466114,13,-8,-831,-1051,-100,-18,-36,-7,161
11:02:15.744,LOITER,-35.3632387,149.1652483,620070,36106,-0.47219446301460266,0.01803215593099594,0.35093510150909424,-1.0579726696014404,-0.10174498707056046,-0.01871165819466114,13,-8,-831,-1051,-100,-18,-36,-7,161
11:02:15.947,LOITER,-35.3632387,149.1652483,620070,36106,-0.21084235608577728,-0.011450997553765774,0.3634171485900879,-1.310663104057312,0.07215255498886108,-0.04272136092185974,13,-8,-831,-1051,-100,-18,-36,-7,161
11:02:16.153,AUTO,-35.3632196,149.1652329,616200,32230,0.10775139927864075,0.1470079869031906,0.34238114953041077,2.0826213359832764,0.07266104221343994,0.03943301737308502,17,101,-1045,2080,73,39,19,-154,204
11:02:16.357,AUTO,-35.3632188,149.1652318,615610,31649,0.11766902357339859,0.15108564496040344,0.340435266494751,1.967924952507019,-0.0067344787530601025,0.07003272324800491,40,162,-1058,1972,-5,70,-22,-120,199
11:02:16.561,AUTO,-35.3632188,149.1652318,615610,31649,0.11766902357339859,0.15108564496040344,0.340435266494751,1.967924952507019,-0.0067344787530601025,0.07003272324800491,40,162,-1058,1972,-5,70,-22,-120,199
11:02:16.766,AUTO,-35.3632188,149.1652318,615610,31649,0.11766902357339859,0.15108564496040344,0.340435266494751,1.967924952507019,-0.0067344787530601025,0.07003272324800491,40,162,-1058,1972,-5,70,-22,-120,199
11:02:16.973,AUTO,-35.3632188,149.1652318,615610,31649,0.11766902357339859,0.15108564496040344,0.340435266494751,1.967924952507019,-0.0067344787530601025,0.07003272324800491,40,162,-1058,1972,-5,70,-22,-120,199
11:02:17.178,AUTO,-35.3632188,149.1652318,615610,31649,0.11766902357339859,0.15108564496040344,0.340435266494751,1.967924952507019,-0.0067344787530601025,0.07003272324800491,40,162,-1058,1972,-5,70,-22,-120,199
11:02:17.387,AUTO,-35.3632188,149.1652318,615610,31649,0.11766902357339859,0.15108564496040344,0.340435266494751,1.967924952507019,-0.0067344787530601025,0.07003272324800491,40,162,-1058,1972,-5,70,-22,-120,199
11:02:17.590,AUTO,-35.3632188,149.1652318,615610,31649,0.11766902357339859,0.15108564496040344,0.340435266494751,1.967924952507019,-0.0067344787530601025,0.07003272324800491,40,162,-1058,1972,-5,70,-22,-120,199
11:02:17.795,AUTO,-35.3632188,149.1652318,615610,31649,0.11766902357339859,0.15108564496040344,0.340435266494751,1.967924952507019,-0.0067344787530601025,0.07003272324800491,40,162,-1058,1972,-5,70,-22,-120,199
11:02:18.000,AUTO,-35.3632372,149.1652321,614320,30359,-0.13843506574630737,-0.17362603545188904,0.33873528242111206,0.2023080736398697,-0.3730195462703705,-0.008429448120296001,30,131,-955,1330,-519,30,-98,-65,126
11:02:18.207,AUTO,-35.3632442,149.1652219,613770,29807,-0.055859651416540146,-0.28951120376586914,0.3571968078613281,1.0788178443908691,0.14274342358112335,0.005175923928618431,-55,64,-1109,1080,142,5,155,-89,82
11:02:18.419,AUTO,-35.3632442,149.1652219,613770,29807,-0.055859651416540146,-0.28951120376586914,0.3571968078613281,1.0788178443908691,0.14274342358112335,0.005175923928618431,-55,64,-1109,1080,142,5,155,-89,82
11:02:18.627,AUTO,-35.3632442,149.1652219,613770,29807,-0.055859651416540146,-0.28951120376586914,0.3571968078613281,1.0788178443908691,0.14274342358112335,0.005175923928618431,-55,64,-1109,1080,142,5,155,-89,82
11:02:18.831,AUTO,-35.3632442,149.1652219,613770,29807,-0.055859651416540146,-0.28951120376586914,0.3571968078613281,1.0788178443908691,0.14274342358112335,0.005175923928618431,-55,64,-1109,1080,142,5,155,-89,82
11:02:19.033,AUTO,-35.3632442,149.1652219,613770,29807,-0.055859651416540146,-0.28951120376586914,0.3571968078613281,1.0788178443908691,0.14274342358112335,0.005175923928618431,-55,64,-1109,1080,142,5,155,-89,82
11:02:19.238,AUTO,-35.3632442,149.1652219,613770,29807,-0.055859651416540146,-0.28951120376586914,0.3571968078613281,1.0788178443908691,0.14274342358112335,0.005175923928618431,-55,64,-1109,1080,142,5,155,-89,82
11:02:19.441,AUTO,-35.3632442,149.1652219,613770,29807,-0.055859651416540146,-0.28951120376586914,0.3571968078613281,1.0788178443908691,0.14274342358112335,0.005175923928618431,-55,64,-1109,1080,142,5,155,-89,82
11:02:19.645,AUTO,-35.3632442,149.1652219,613770,29807,-0.055859651416540146,-0.28951120376586914,0.3571968078613281,1.0788178443908691,0.14274342358112335,0.005175923928618431,-55,64,-1109,1080,142,5,155,-89,82
11:02:19.848,AUTO,-35.3632442,149.1652219,613770,29807,-0.055859651416540146,-0.28951120376586914,0.3571968078613281,1.0788178443908691,0.14274342358112335,0.005175923928618431,-55,64,-1109,1080,142,5,155,-89,82
11:02:20.051,AUTO,-35.363216,149.1652173,613420,29455,0.11655820906162262,0.18238332867622375,0.3821585774421692,-0.19280917942523956,0.04270925745368004,-0.023796232417225838,-26,6,-1136,-189,43,-23,93,26,-29
11:02:20.258,AUTO,-35.3632149,149.1652176,613500,29534,0.09906765818595886,0.17789031565189362,0.37893104553222656,0.31054481863975525,-0.0675235167145729,-0.023925693705677986,-10,28,-1088,313,-67,-23,33,31,-48
11:02:20.460,AUTO,-35.3632149,149.1652176,613500,29534,0.09906765818595886,0.17789031565189362,0.37893104553222656,0.31054481863975525,-0.0675235167145729,-0.023925693705677986,-10,28,-1088,313,-67,-23,33,31,-48
11:02:20.666,AUTO,-35.3632149,149.1652176,613500,29534,0.09906765818595886,0.17789031565189362,0.37893104553222656,0.31054481863975525,-0.0675235167145729,-0.023925693705677986,-10,28,-1088,313,-67,-23,33,31,-48
11:02:20.868,AUTO,-35.3632149,149.1652176,613500,29534,0.09906765818595886,0.17789031565189362,0.37893104553222656,0.31054481863975525,-0.0675235167145729,-0.023925693705677986,-10,28,-1088,313,-67,-23,33,31,-48
11:02:21.072,AUTO,-35.3632149,149.1652176,613500,29534,0.09906765818595886,0.17789031565189362,0.37893104553222656,0.31054481863975525,-0.0675235167145729,-0.023925693705677986,-10,28,-1088,313,-67,-23,33,31,-48
11:02:21.276,AUTO,-35.3632149,149.1652176,613500,29534,0.09906765818595886,0.17789031565189362,0.37893104553222656,0.31054481863975525,-0.0675235167145729,-0.023925693705677986,-10,28,-1088,313,-67,-23,33,31,-48
11:02:21.482,AUTO,-35.3632149,149.1652176,613500,29534,0.09906765818595886,0.17789031565189362,0.37893104553222656,0.31054481863975525,-0.0675235167145729,-0.023925693705677986,-10,28,-1088,313,-67,-23,33,31,-48
11:02:21.686,AUTO,-35.3632149,149.1652176,613500,29534,0.09906765818595886,0.17789031565189362,0.37893104553222656,0.31054481863975525,-0.0675235167145729,-0.023925693705677986,-10,28,-1088,313,-67,-23,33,31,-48
11:02:21.889,AUTO,-35.3632251,149.1652183,614380,30419,-0.02986212447285652,-0.029837852343916893,0.37675926089286804,-0.15327176451683044,-0.24342089891433716,-0.029065532609820366,14,-1,-1066,-153,-243,-29,-104,21,-122
11:02:22.096,AUTO,-35.363235,149.1652184,615380,31413,-0.07606789469718933,-0.16226668655872345,0.3879464864730835,0.025038020685315132,-0.041853003203868866,0.023805027827620506,2,0,-1050,-50,-169,13,-28,10,-153
11:02:22.300,AUTO,-35.363235,149.1652184,615380,31413,-0.07606789469718933,-0.16226668655872345,0.3879464864730835,0.025038020685315132,-0.041853003203868866,0.023805027827620506,-8,0,-1019,25,-42,23,-28,10,-153
11:02:22.503,AUTO,-35.363235,149.1652184,615380,31413,-0.07606789469718933,-0.16226668655872345,0.3879464864730835,0.025038020685315132,-0.041853003203868866,0.023805027827620506,-8,0,-1019,25,-42,23,-28,10,-153
11:02:22.705,AUTO,-35.363235,149.1652184,615380,31413,-0.07606789469718933,-0.16226668655872345,0.3879464864730835,0.025038020685315132,-0.041853003203868866,0.023805027827620506,-8,0,-1019,25,-42,23,-28,10,-153
11:02:22.911,AUTO,-35.363235,149.1652184,615380,31413,-0.07606789469718933,-0.16226668655872345,0.3879464864730835,0.025038020685315132,-0.041853003203868866,0.023805027827620506,-8,0,-1019,25,-42,23,-28,10,-153
11:02:23.115,AUTO,-35.363235,149.1652184,615380,31413,-0.07606789469718933,-0.16226668655872345,0.3879464864730835,0.025038020685315132,-0.041853003203868866,0.023805027827620506,-8,0,-1019,25,-42,23,-28,10,-153
11:02:23.317,AUTO,-35.363235,149.1652184,615380,31413,-0.07606789469718933,-0.16226668655872345,0.3879464864730835,0.025038020685315132,-0.041853003203868866,0.023805027827620506,-8,0,-1019,25,-42,23,-28,10,-153
11:02:23.522,AUTO,-35.363235,149.1652184,615380,31413,-0.07606789469718933,-0.16226668655872345,0.3879464864730835,0.025038020685315132,-0.041853003203868866,0.023805027827620506,-8,0,-1019,25,-42,23,-28,10,-153
11:02:23.726,AUTO,-35.363235,149.1652184,615380,31413,-0.07606789469718933,-0.16226668655872345,0.3879464864730835,0.025038020685315132,-0.041853003203868866,0.023805027827620506,-8,0,-1019,25,-42,23,-28,10,-153
11:02:23.929,AUTO,-35.3632114,149.1652239,616990,33029,-0.03505139425396919,-0.0846073254942894,0.3856549561023712,0.036425624042749405,0.14090315997600555,-0.0006027178606018424,-55,-3,-1016,37,141,0,198,7,-141
11:02:24.130,AUTO,-35.3631833,149.1652255,618090,34121,-0.009273490868508816,0.022233452647924423,0.38092535734176636,0.043714042752981186,0.16434557735919952,-0.0011779933702200651,-58,-3,-1038,45,165,-1,254,-6,-163
11:02:24.334,AUTO,-35.3631833,149.1652255,618090,34121,-0.009273490868508816,0.022233452647924423,0.38092535734176636,0.043714042752981186,0.16434557735919952,-0.0011779933702200651,-58,-3,-1038,45,165,-1,254,-6,-163
11:02:24.538,AUTO,-35.3631833,149.1652255,618090,34121,-0.009273490868508816,0.022233452647924423,0.38092535734176636,0.043714042752981186,0.16434557735919952,-0.0011779933702200651,-58,-3,-1038,45,165,-1,254,-6,-163
11:02:24.744,AUTO,-35.3631833,149.1652255,618090,34121,-0.009273490868508816,0.022233452647924423,0.38092535734176636,0.043714042752981186,0.16434557735919952,-0.0011779933702200651,-58,-3,-1038,45,165,-1,254,-6,-163
11:02:24.947,AUTO,-35.3631833,149.1652255,618090,34121,-0.009273490868508816,0.022233452647924423,0.38092535734176636,0.043714042752981186,0.16434557735919952,-0.0011779933702200651,-58,-3,-1038,45,165,-1,254,-6,-163
11:02:25.149,AUTO,-35.3631833,149.1652255,618090,34121,-0.009273490868508816,0.022233452647924423,0.38092535734176636,0.043714042752981186,0.16434557735919952,-0.0011779933702200651,-58,-3,-1038,45,165,-1,254,-6,-163
11:02:25.359,AUTO,-35.3631833,149.1652255,618090,34121,-0.009273490868508816,0.022233452647924423,0.38092535734176636,0.043714042752981186,0.16434557735919952,-0.0011779933702200651,-58,-3,-1038,45,165,-1,254,-6,-163
