time_stamp,RTL_ALT,MODE,roll,pitch,yaw,rollspeed,pitchspeed,yawspeed,lat,lon,relative_alt,vx,vy,vz,xacc,yacc,zacc,xgyro,ygyro,zgyro
14:09:49,1500.0,STABILIZE,-0.0009233776363544166,0.0009860082063823938,0.021659942343831062,0.00038497959030792117,0.00021841644775122404,0.001578779541887343,-35.3632622,149.1652376,0.0,-1.0,2.0,1.0,0.0,1.0,-1000.0,0.5,1.0,0.5
14:09:51,128111.5,AUTO,-0.0010133030882570893,0.0009984401986002922,0.021331160329282284,0.00030477403197437525,0.0002564791066106409,0.0014602502924390137,-35.3632622,149.1652376,0.0,-1.0,1.5,2.0,0.0,1.0,-1000.0,0.5,1.0,0.5
14:09:53,254723.0,AUTO,-0.000938046199735254,0.0012764944112859666,0.020995426923036575,0.000156638358021155,0.00026060009258799255,0.0014412555028684437,-35.3632621,149.1652375,0.0,0.0,0.0,1.0,0.0,1.0,-1000.0,0.5,0.5,1.0
14:09:54,136476.0,AUTO,-0.0006769379251636565,0.0015540224558208138,0.02080012671649456,0.00027565096388570964,0.0003081935574300587,0.0013949097774457186,-35.3632621,149.16523745,0.0,0.0,0.0,1.0,0.0,1.25,-1000.0,0.5,0.5,0.25
14:09:55,136476.0,AUTO,0.0011340284254401922,0.001044615826685913,0.020702713169157505,-0.010915062361164019,0.002342557127121836,0.0009578760073054582,-35.3632621,149.16523745,117.0,0.0,0.0,-40.0,0.0,0.5,-1066.5,-10.5,2.0,0.0
14:09:57,147869.0,AUTO,0.048048608005046844,-0.005428304779343307,0.004741427022963762,0.008436735719442368,0.013565883971750736,-0.02850693161599338,-35.363261800000004,149.16523884999998,2469.0,4.5,28.0,-147.0,0.5,-4.5,-998.0,9.0,14.5,-29.0
14:09:59,159262.0,AUTO,-0.06679298914968967,0.003309644031105563,-0.09065788611769676,0.03144354501273483,-0.004096858901903033,-0.02152492245659232,-35.363261,149.1652442,5524.5,-4.0,-23.5,-149.0,-1.0,2.5,-1003.0,31.5,-3.5,-21.5
14:10:00,148418.0,AUTO,-0.009210131596773863,0.005377283087000251,-0.10247036442160606,0.06713540852069855,0.008275850559584796,-0.001751931631588377,-35.3632617,149.16523925,7064.5,-12.25,-57.75,-150.25,-5.0,12.0,-1002.5,67.25,8.5,-2.0
14:10:01,148418.0,AUTO,0.04737015627324581,0.0009366180747747421,-0.09325046092271805,0.02031499706208706,-0.04441577522084117,0.04387355619110167,-35.36326325,149.1652343,8624.0,-18.5,-23.5,-151.5,-1.0,8.5,-1000.5,21.0,-44.0,43.0
14:10:03,189918.0,AUTO,-0.017181205563247204,0.002590958494693041,-0.09868887439370155,-0.001993470825254917,0.040674193762242794,-0.0669355932623148,-35.363262199999994,149.16523535,11714.0,26.0,5.5,-151.0,-5.0,-5.0,-1003.5,-1.5,41.0,-66.5
14:10:05,231418.0,AUTO,0.013654345646500587,0.016203416045755148,-0.15836074203252792,0.002776485402137041,-0.009782141773030162,-0.0006342378619592637,-35.363260249999996,149.1652343,14838.5,-8.5,2.0,-152.5,1.0,0.5,-999.0,3.5,-8.0,-1.0
14:10:06,197339.0,AUTO,0.006990913883782923,0.004382634913781658,-0.15947241708636284,-0.008898326545022428,-0.008746751584112644,-0.007539964921306819,-35.363261075,149.16523467500002,16391.75,-12.0,10.5,-152.0,2.25,0.0,-1000.0,-7.75,-7.5,-7.25
14:10:07,197339.0,AUTO,-4.269473720341921e-06,-0.0007749162477921345,-0.17533652484416962,-0.0005513250362128019,-0.0013716937974095345,-0.02223485428839922,-35.363261800000004,149.16523560000002,17950.0,-7.0,9.0,-152.5,2.0,0.0,-1000.5,0.0,-0.5,-21.5
14:10:09,114990.0,AUTO,0.0028887480730190873,0.0024370503379032016,-0.226802259683609,0.003958947258070111,0.0029606985626742244,-0.025166829116642475,-35.3632621,149.1652362,21073.5,-1.0,2.5,-153.0,0.0,0.0,-1000.0,4.5,3.5,-25.0
14:10:11,32641.0,AUTO,0.0021619709441438317,0.00278366229031235,-0.2687394767999649,0.00030836445512250066,0.0007430067926179618,-0.01908408012241125,-35.3632621,149.16523660000001,24186.5,-1.0,3.5,-153.0,0.0,0.0,-1000.0,0.5,1.0,-19.0
14:10:12,108081.0,AUTO,-0.002382504113484174,0.0058683197712525725,-0.27046380192041397,0.012473140901420265,-0.0004313415556680411,0.02032445091754198,-35.363262125,149.1652367,25747.5,-3.0,1.0,-152.25,0.0,0.0,-1001.5,12.75,0.5,19.75
14:10:13,108081.0,AUTO,0.007707465440034866,0.0022250077745411545,-0.23924841731786728,0.0036554208490997553,-0.0027476590184960514,0.02809955272823572,-35.36326235,149.16523675000002,27296.5,-4.0,2.5,-153.0,0.0,0.5,-999.5,4.5,-1.5,27.5
14:10:15,118880.5,AUTO,-0.00020926102297380567,0.0007371061074081808,-0.19567730277776718,-0.0031680420506745577,0.0014536481467075646,0.019000199623405933,-35.3632625,149.16523775000002,30405.5,0.0,5.5,-153.0,0.0,-0.5,-999.5,-2.0,2.0,19.0
14:10:17,129680.0,AUTO,0.000859886989928782,0.001876594324130565,-0.16470202803611755,0.0037402819143608212,0.00040389245259575546,0.014462116174399853,-35.3632623,149.165238,33509.5,0.0,0.5,-153.0,0.0,0.0,-1000.0,4.0,1.0,13.5
14:10:18,113019.0,AUTO,0.0011441689566709101,0.0013981732190586627,-0.15214236825704575,-0.0011318252509227023,-0.0004018726758658886,0.011684297351166606,-35.3632622,149.16523794999998,35062.5,0.0,0.0,-153.0,0.0,0.0,-999.75,0.0,0.25,11.0
14:10:19,113019.0,AUTO,0.0014442187966778874,0.001309987565036863,-0.14134597033262253,0.0017436054768040776,-0.00033970046206377447,0.011275623925030231,-35.3632622,149.1652378,36615.5,0.0,0.0,-153.0,0.0,0.0,-1000.0,2.5,0.5,11.0
14:10:21,190268.5,AUTO,0.0020987174939364195,0.0013260244159027934,-0.12377392873167992,0.0011354328598827124,-0.0007720244757365435,0.007256880169734359,-35.3632621,149.16523755,39721.5,0.0,0.0,-153.0,0.0,0.0,-1000.5,2.0,0.0,7.0
14:10:23,267518.0,AUTO,0.0017229369259439409,0.0016011715633794665,-0.10994743928313255,0.00018255278700962663,0.0010134111216757447,0.007303935941308737,-35.36326205,149.1652374,42824.5,-0.5,1.0,-153.0,0.0,0.0,-1000.0,1.0,1.5,7.0
14:10:24,47638.0,AUTO,0.0018489909416530281,0.0014150417118798941,-0.10387570224702358,0.0015044088795548305,0.0002930878836195916,0.0074372958624735475,-35.363262,149.1652374,44376.5,-1.0,1.0,-153.0,0.0,0.0,-1000.0,2.0,1.25,7.25
14:10:25,47638.0,AUTO,-0.025376048870384693,0.019133218564093113,0.08552996441721916,-0.019053306430578232,-0.04262562841176987,0.23172131180763245,-35.363262500000005,149.16523665,45817.5,-17.0,-17.5,-121.5,1.5,3.0,-939.0,-18.0,-41.5,231.5
14:10:27,90235.0,AUTO,0.03675690572708845,-0.029465436935424805,0.26259899139404297,0.21242155879735947,0.03355446271598339,-0.03832289017736912,-35.36326425,149.16523295000002,47237.0,13.0,13.5,-38.5,-1.0,0.5,-1009.0,213.0,34.0,-38.0
14:10:29,132832.0,AUTO,-0.03290632180869579,0.014492237009108067,0.1996082067489624,0.08031067810952663,-0.0043508633971214294,-0.015753661282360554,-35.3632616,149.1652378,47636.5,6.5,4.0,6.0,-0.5,4.5,-974.5,81.0,-3.5,-15.0
14:10:30,182241.0,AUTO,-0.05373148433864117,-0.03955134702846408,0.17899839207530022,-0.4997229054570198,-0.03466285625472665,-0.040337059646844864,-35.3632608,149.16523692500002,47534.75,23.75,-31.25,4.25,-7.0,-9.0,-999.75,-498.0,-33.0,-39.75
14:10:31,182241.0,AUTO,-0.024206499801948667,-0.08382559940218925,-0.19180791452527046,0.719537615776062,-0.058510664850473404,-0.7045600414276123,-35.36325735,149.1652326,47467.0,67.5,-65.0,5.5,-16.5,31.0,-988.0,720.5,-57.0,-703.5
14:10:33,122254.0,AUTO,0.00542393047362566,-0.17317668348550797,-0.5688854455947876,-0.02029670774936676,-0.034117807634174824,-0.011772435391321778,-35.363234750000004,149.16520835,47087.0,204.0,-184.5,30.0,-50.0,-16.0,-988.5,-18.5,-32.5,-11.5
14:10:35,62267.0,AUTO,0.03997662663459778,-0.2154235616326332,-0.5939440429210663,0.022167503833770752,0.01169870886951685,-0.019125769671518356,-35.3631831,149.16515345,46117.5,366.0,-325.5,59.0,-101.5,-53.0,-991.0,22.5,12.5,-18.5
14:10:36,203622.0,AUTO,0.061639830470085144,-0.2027871385216713,-0.6060061603784561,-0.05390731571242213,0.027076534228399396,-0.014244475401937962,-35.363147525,149.165115375,45474.0,437.25,-383.0,63.25,-119.0,-62.5,-1001.5,-53.25,27.75,-13.5
14:10:37,203622.0,AUTO,0.07898012548685074,-0.18664130568504333,-0.6138533353805542,0.19343487173318863,0.023925949819386005,-0.007362138479948044,-35.36310605,149.1650713,44835.5,485.0,-415.5,61.5,-129.0,-60.0,-976.0,193.5,24.5,-7.0
14:10:39,234964.5,AUTO,0.10424931347370148,-0.1447938159108162,-0.6229700446128845,0.020911097526550293,-0.010197136551141739,0.002199862152338028,-35.363016,149.1649754,43306.5,522.5,-431.0,74.5,-147.0,-84.0,-1004.0,21.5,-9.5,2.5
14:10:41,266307.0,AUTO,0.09719793125987053,-0.13554434478282928,-0.6331213712692261,-0.14335189387202263,0.022062814328819513,-0.00505402684211731,-35.362922850000004,149.16487805,41736.5,534.0,-427.5,77.0,-131.5,-85.5,-982.0,-141.5,23.5,-5.0
14:10:42,238503.0,AUTO,0.09735513292253017,-0.09786111488938332,-0.6394714713096619,-0.10886092483997345,0.05019554775208235,0.01930488576181233,-35.362875975,149.164830325,40946.25,518.5,-422.75,76.0,-127.5,-106.5,-968.25,-108.25,50.5,19.5
14:10:43,238503.0,AUTO,0.0814201720058918,-0.045220416970551014,-0.6436021327972412,-0.3321252968162298,0.05362238921225071,-0.029720644000917673,-35.3628317,149.16478515,40111.0,472.0,-387.5,79.5,-124.0,-84.5,-1030.5,-329.0,53.5,-29.5
14:10:45,138483.5,AUTO,0.08007171750068665,0.030671581625938416,-0.6484715342521667,0.7887820899486542,0.01054677926003933,-0.008651011623442173,-35.362760449999996,149.16471285,38779.0,315.0,-260.0,42.0,-83.5,-35.5,-1081.0,789.0,11.0,-8.0
14:10:47,38464.0,AUTO,0.042543431743979454,0.06374749168753624,-0.6539029479026794,0.008672952651977539,-0.00590685848146677,-0.007017275071120821,-35.36272055,149.164671,38107.5,148.5,-116.0,22.5,-35.0,-8.5,-1016.0,11.0,-5.5,-6.5
14:10:48,29780.0,AUTO,0.0316222901456058,0.04987461864948273,-0.6573276370763779,-0.0964826513081789,-0.027207461884245276,0.0008988699119072407,-35.3627115,149.16466114999997,37915.0,79.0,-53.0,10.75,-17.25,-24.25,-1005.5,-95.25,-26.5,1.5
14:10:49,29780.0,AUTO,0.021823114715516567,0.031409552320837975,-0.6617154181003571,0.21823071502149105,-0.021634336560964584,-0.002873841905966401,-35.362707799999995,149.16465714999998,37821.5,36.5,-14.0,6.0,-7.5,5.5,-1001.5,219.0,-21.0,-2.5
14:10:51,37309.5,AUTO,0.022425681352615356,-0.015151668339967728,-0.6711802184581757,0.03362208604812622,-0.03600168414413929,0.0076881335116922855,-35.36270785,149.1646553,37804.0,11.0,9.5,-2.0,-1.5,5.5,-1004.0,35.5,-35.5,8.0
14:10:53,44839.0,RTL,0.031084232032299042,0.004198595765046775,-0.6756544709205627,-0.1016732007265091,0.00644475594162941,0.010278078727424145,-35.36270775,149.1646528,37893.5,27.5,14.0,-20.0,-1.5,-11.0,-1033.5,-99.5,6.5,11.0
14:10:54,247117.0,RTL,0.01396676478907466,0.0053534634644165635,-0.6757528781890869,-0.06297571770846844,-0.001795325064449571,0.006712598726153374,-35.362706925,149.16465275000002,38296.25,20.0,21.0,-63.75,0.75,-5.5,-1040.75,-60.25,-1.0,7.0
14:10:55,247117.0,RTL,0.001956595691808616,0.0020444553229026496,-0.6766546070575714,-0.11065232940018177,-0.0026783934445120394,0.0010851488332264125,-35.3627063,149.1646537,39153.0,10.5,17.5,-101.0,1.5,-9.5,-1037.5,-107.0,-2.5,2.0
14:10:57,162730.5,RTL,0.03713210579007864,-0.010692921001464128,-0.6798026263713837,-0.0011115334928035736,0.01693369820713997,-0.03197099326644093,-35.3627045,149.16465614999998,41887.5,19.0,19.0,-147.5,1.0,-6.5,-996.5,2.0,17.0,-30.5
14:10:59,78344.0,RTL,-0.07069871015846729,0.0023579466505907476,-0.7722868323326111,0.026070868596434593,-0.009554190211929381,-0.014388659270480275,-35.36270075,149.1646601,44931.5,-27.5,-13.5,-148.0,0.0,2.5,-1003.5,29.0,-9.0,-13.0
14:11:00,258984.0,RTL,-0.015872858464717865,0.0015116411668714136,-0.7784631550312042,0.0631750961765647,0.00753367692232132,3.598601324483752e-05,-35.3627036,149.16465755,46470.25,-54.5,-35.5,-149.25,-5.5,10.25,-1002.25,65.75,7.5,1.0
14:11:01,258984.0,RTL,0.03185829147696495,-0.01055091549642384,-0.7602702677249908,0.018829899840056896,-0.042396341217681766,0.05381267610937357,-35.362707099999994,149.1646551,48030.0,-38.5,-12.5,-151.0,-2.0,7.5,-1000.5,22.0,-42.0,54.5
14:11:03,199910.5,RTL,-0.013378622941672802,0.007875440060161054,-0.7760298550128937,-0.00560396583750844,0.024701307993382215,-0.04511048458516598,-35.362706450000005,149.16465315,51133.5,0.5,-13.5,-150.5,-4.0,-1.5,-1001.5,-3.0,25.0,-43.5
14:11:05,140837.0,RTL,0.004687758060754277,0.007442278787493706,-0.8086658716201782,0.008894702419638634,-0.008197643794119358,0.0029958102386444807,-35.36270705,149.16465075000002,54253.0,-22.5,-0.5,-151.5,0.0,3.0,-999.5,11.0,-7.0,4.0
14:11:06,112662.0,RTL,0.012039836961776018,0.000376483061700128,-0.8053363263607025,-0.0020737001905217767,0.010109453462064266,0.02785833366215229,-35.362708,149.16465095,55810.0,-14.25,8.5,-150.75,1.0,1.25,-995.25,0.25,11.0,28.75
14:11:07,112662.0,RTL,0.0030533197095792275,0.009008073946461082,-0.7042844891548157,-0.0029340730980038643,-0.01145877130329609,0.11592595279216766,-35.36270835,149.1646522,57343.0,-12.0,16.0,-147.5,2.5,0.0,-997.5,0.0,-10.5,117.0
14:11:09,116533.5,RTL,0.006656959594693035,-0.009675565990619361,-0.6575470268726349,-0.013641827274113894,0.02053988166153431,-0.0073798480443656445,-35.3627075,149.16465534999998,60399.5,13.5,11.5,-150.5,0.5,-4.0,-1001.5,-11.0,21.0,-5.5
14:11:11,120405.0,RTL,-0.006684403400868177,0.005226275301538408,-0.6618111729621887,0.0008663460612297058,-0.0009391749044880271,-0.0031960306223481894,-35.3627046,149.1646565,63502.0,1.0,1.0,-152.0,0.0,-1.0,-1000.0,3.0,0.0,-1.0
14:11:12,157663.0,RTL,-0.002590217554825358,0.0008099688202491961,-0.6658254116773605,0.01293296949006617,-0.004126800340600312,-0.0028469235985539854,-35.3627043,149.1646565,65053.5,-5.75,-0.75,-151.5,0.0,0.0,-1000.5,14.75,-2.5,-1.0
14:11:13,157663.0,RTL,0.029890100937336683,-0.005338700138963759,-0.6675415337085724,0.04505901411175728,-0.007770854514092207,0.0008932134951464832,-35.362704300000004,149.1646566,66615.5,1.5,6.5,-153.0,0.0,-1.0,-1000.5,46.5,-6.0,1.5
14:11:15,199355.0,RTL,-0.06645665317773819,0.004824118106625974,-0.7379633188247681,-0.03312833979725838,-0.017697468167170882,-0.02768012136220932,-35.36270075,149.1646606,69703.0,-3.5,5.5,-150.0,2.5,-3.0,-1006.0,-30.5,-16.0,-25.5
14:11:17,241047.0,RTL,0.01686979620717466,-0.0027091552037745714,-0.7458696961402893,0.04743424989283085,-0.013660550117492676,0.026346039667259902,-35.362706700000004,149.1646548,72799.5,-48.0,-29.5,-152.5,-4.0,12.0,-1002.5,49.5,-12.0,27.0
14:11:18,9378.0,RTL,0.0456467904150486,-0.030626564752310514,-0.7032334953546524,0.009938710136339068,-0.012849498074501753,0.03912221803329885,-35.36270965,149.1646526,74365.5,-13.75,-5.5,-153.25,-1.25,4.5,-999.5,12.0,-11.0,40.5
14:11:19,9378.0,RTL,0.03120371326804161,-0.008792140521109104,-0.7169166207313538,-0.026028172113001347,0.03597754333168268,-0.04875139892101288,-35.362708600000005,149.1646525,75920.5,24.0,8.5,-150.5,-0.5,-6.0,-1000.0,-23.5,37.5,-47.0
14:11:21,114162.0,RTL,-0.016113588120788336,0.009495522594079375,-0.8023946285247803,0.019159283954650164,-0.003617523529101163,-0.021484889555722475,-35.36270485,149.16465355,79025.0,-6.0,0.5,-153.0,0.0,0.0,-1000.0,20.5,-2.0,-19.0
14:11:23,218946.0,RTL,0.006691142916679382,-0.004023888264782727,-0.8224883377552032,0.0009839482372626662,-0.0018984059570357203,-0.012132457690313458,-35.362706349999996,149.16465355,82137.0,-9.5,4.5,-152.0,0.5,1.5,-1000.0,2.5,0.0,-10.0
14:11:24,56414.0,RTL,0.004495793313253671,-0.0056076496839523315,-0.8389734923839569,-0.0021115868585184216,0.0017019036458805203,-0.02082356857135892,-35.362706825000004,149.16465384999998,83691.5,-3.75,4.0,-152.0,0.0,0.0,-999.75,0.0,2.5,-18.75
14:11:25,56414.0,RTL,-0.03442124277353287,0.022292242851108313,-0.7882989346981049,-0.03352932445704937,0.014724932378157973,0.1970635922625661,-35.36270735,149.1646537,85221.0,-19.0,-5.5,-144.0,-0.5,3.0,-976.5,-31.0,16.0,199.0
14:11:27,166895.5,RTL,0.04995703510940075,-0.03069735039025545,-0.6445663571357727,-0.02771065989509225,0.02964779920876026,-0.014479812409263104,-35.3627113,149.16465255,87567.0,13.5,10.5,-101.0,1.0,-3.5,-1035.5,-25.0,31.0,-12.5
14:11:29,277377.0,RTL,0.020127942319959402,0.00864621507935226,-0.6869588792324066,-0.020626616082154214,0.004239740781486034,-0.0381022933870554,-35.3627046,149.16465675,90302.0,41.5,30.0,-151.0,2.5,-12.5,-1000.0,-18.5,6.0,-35.5
14:11:30,146253.0,RTL,-0.029657785838935524,0.007611458073370159,-0.7272806614637375,-0.0798156475648284,-0.007493003155104816,-0.036342550069093704,-35.362700925,149.16466020000001,91838.0,28.0,27.25,-150.75,4.25,-10.25,-1001.5,-77.25,-5.25,-34.25
14:11:31,146253.0,RTL,-0.06170606426894665,0.000419990043155849,-0.7571999728679657,0.020653588697314262,-0.0016874721040949225,-0.021452996879816055,-35.362700149999995,149.16466105,93381.0,-16.0,-14.5,-151.0,-1.0,1.5,-1002.5,23.0,0.0,-19.0
14:11:33,195641.0,RTL,0.03166444040834904,-0.01794427854474634,-0.7429879903793335,0.0065587470307946205,-0.03279967047274113,0.04510500933974981,-35.36270655,149.1646558,96487.5,-29.0,-12.0,-152.5,-1.5,7.5,-999.5,8.5,-30.0,47.0
14:11:35,245029.0,RTL,0.004074697382748127,0.001982068410143256,-0.7585369050502777,0.0029530387837439775,0.013285529799759388,-0.03229804616421461,-35.3627072,149.1646533,99593.0,4.5,-8.0,-152.0,-3.5,0.0,-1001.0,5.0,15.0,-30.0
14:11:36,253369.0,RTL,0.00873334868811071,0.007047855877317488,-0.7817905843257904,0.0029114437056705356,-0.0006545340875163674,-0.013742554932832718,-35.362706849999995,149.164652375,101147.0,-0.25,-0.75,-152.0,-1.0,0.0,-999.75,4.75,1.5,-11.5
14:11:37,253369.0,RTL,0.0053727817721664906,0.003287804895080626,-0.7945189476013184,-0.0011188825592398643,-0.0034716788213700056,-0.012364755384624004,-35.3627068,149.16465234999998,102703.5,-2.5,5.5,-152.0,0.5,0.0,-999.0,1.0,-0.5,-9.5
14:11:39,147397.0,RTL,0.005631917010759935,-0.004177830182015896,-0.8268405199050903,-0.01383473863825202,-0.0001207827590405941,-0.022356495261192322,-35.3627069,149.16465355,105814.0,2.5,9.5,-152.0,1.0,-0.5,-1000.0,-11.0,1.5,-20.0
14:11:41,41425.0,RTL,0.0026507077272981405,-0.0020917790825478733,-0.8785779774188995,0.005246521672233939,0.0020898329094052315,-0.023836356587707996,-35.36270655,149.1646543,108926.0,-0.5,2.0,-152.0,0.0,0.0,-1000.0,7.0,4.0,-21.5
14:11:42,94489.0,RTL,0.005282766534946859,-0.0015480783767998219,-0.9002986997365952,0.0007793806435074657,0.0003201944928150624,-0.02027026889845729,-35.3627066,149.164654325,110482.75,-0.25,2.5,-152.0,0.0,0.0,-1000.0,2.75,2.0,-17.75
14:11:43,94489.0,RTL,0.004448217339813709,-0.0016518248594366014,-0.9204176664352417,-0.0012227672850713134,0.0016741278814151883,-0.02102745696902275,-35.3627066,149.16465445,112038.0,0.0,3.5,-152.0,0.0,0.0,-1000.0,1.0,3.5,-18.5
14:11:45,137666.5,RTL,0.006345836911350489,-0.0006461345183197409,-0.9439731240272522,0.0022799985017627478,0.002590376534499228,0.009732787148095667,-35.3627066,149.1646548,115146.0,0.5,5.0,-152.0,0.0,0.0,-999.5,4.0,5.0,11.0
14:11:47,180844.0,RTL,0.0024344546254724264,-0.0037678362568840384,-0.9043783843517303,9.103049524128437e-05,-0.0004705280880443752,0.02111779246479273,-35.362706450000005,149.1646556,118255.0,1.0,5.0,-152.0,0.0,0.0,-1000.0,2.0,1.5,22.5
14:11:48,135153.0,RTL,-7.491879659937695e-05,-0.0023189520434243605,-0.8789596110582352,-0.003094572195550427,0.0029485103441402316,0.03955553751438856,-35.3627064,149.1646558,119805.75,0.0,2.0,-151.25,0.0,0.0,-999.25,-0.75,5.0,41.25
14:11:49,135153.0,RTL,0.005199935636483133,-0.004440210177563131,-0.8459601998329163,0.009017606265842915,-0.005053771892562509,0.018484497326426208,-35.362706450000005,149.16465585,121356.5,-1.0,1.5,-152.0,0.0,0.0,-1001.0,11.5,-2.5,20.0
14:11:51,134121.5,RTL,0.0006121660117059946,-0.003697966050822288,-0.8489341735839844,0.00035201036371290684,0.003332898486405611,-0.0020851818844676018,-35.36270625,149.16465570000003,124465.0,1.0,-2.0,-152.0,-0.5,0.0,-1000.0,2.5,5.5,0.0
14:11:53,133090.0,RTL,0.0014467033524852013,2.7441419661045074e-05,-0.7677655816078186,0.0009703583782538772,-0.007763725705444813,0.05048390105366707,-35.36270675,149.16465505000002,127562.0,-8.0,0.5,-151.5,0.0,1.5,-1000.5,2.5,-5.0,52.0
14:11:54,148709.0,RTL,0.005388578283600509,-0.007495857193134725,-0.7221096307039261,0.004257641616277397,-0.0036835409118793905,0.04120835568755865,-35.362707424999996,149.164655,129110.75,-5.75,1.0,-152.0,0.0,0.75,-1000.0,6.5,-0.75,42.75
14:11:55,148709.0,RTL,0.0026865939289564267,-0.0048220946919173,-0.6664537191390991,-0.004464457568246871,0.004968455468770117,0.07133453711867332,-35.36270775,149.164655,130658.0,-2.0,0.0,-151.0,0.0,0.0,-999.0,-2.0,7.0,73.0
14:11:57,191523.5,RTL,0.0062203058041632175,-0.008898443076759577,-0.5215756595134735,0.0044548328733071685,-0.0022527086548507214,0.07059632241725922,-35.3627081,149.1646547,133745.5,1.0,-1.0,-151.0,0.0,0.0,-999.0,6.5,0.0,72.0
14:11:59,234338.0,RTL,0.009317633230239153,-0.0033636558218859136,-0.4915166348218918,-0.01050843857228756,0.012071812059730291,-0.02596890088170767,-35.36270665,149.1646546,136820.0,14.0,4.0,-150.0,-1.0,-3.5,-1000.0,-7.5,13.5,-23.5
14:12:00,19979.0,RTL,0.001068620269506937,0.003996043116785586,-0.5164635181427002,-0.005945546668954194,0.0018280224758200347,-0.02155793784186244,-35.362705325,149.16465495,138355.0,9.25,4.5,-150.0,0.0,-2.5,-1000.0,-3.0,4.0,-18.75
14:12:01,19979.0,RTL,-0.0010994786280207336,0.002079920785035938,-0.537463903427124,0.0024344107368960977,-0.003709383774548769,-0.020216121338307858,-35.3627048,149.1646553,139883.0,1.5,3.0,-149.0,0.0,-1.0,-998.0,4.0,-0.5,-17.5
14:12:03,71213.5,RTL,0.0022411876125261188,-0.0024152386467903852,-0.5699719488620758,0.0021906752372160554,-0.00031981884967535734,-0.014620598871260881,-35.362705,149.1646555,142926.0,-4.0,0.0,-149.0,0.0,0.5,-1000.0,4.0,1.5,-12.0
14:12:05,122448.0,RTL,0.004582225810736418,-0.003267197869718075,-0.5949979424476624,0.0013779309811070561,0.0004208303289487958,-0.01043366128578782,-35.3627056,149.16465525,145962.5,-3.0,0.5,-148.0,0.0,0.0,-1000.0,3.5,2.5,-7.5
14:12:06,106627.0,RTL,0.005308817490004003,-0.0025806170888245106,-0.6053531169891357,0.0004287150513846427,0.0010865701478905976,-0.010161745361983776,-35.362705850000005,149.16465505000002,147471.5,-2.0,1.25,-148.0,0.0,0.0,-999.75,2.5,3.0,-7.5
14:12:07,106627.0,RTL,0.011985760182142258,-0.0026832883013412356,-0.6161365509033203,0.007885968312621117,-0.0016780414152890444,-0.011075216345489025,-35.3627059,149.16465505000002,149008.0,1.0,5.5,-151.0,0.0,-0.5,-1005.0,10.0,0.5,-8.5
14:12:09,164366.0,RTL,-0.00956934504210949,-0.0022162385866977274,-0.6561147570610046,0.0009544300846755505,0.0023104352876544,-0.021730763837695122,-35.3627055,149.16465555,152107.5,-3.0,-2.0,-152.0,-0.5,0.5,-1000.5,4.0,4.5,-19.0
14:12:11,222105.0,RTL,0.011414135340601206,-0.0020773287978954613,-0.6414099037647247,0.0018571789260022342,-0.005438255611807108,0.013171323109418154,-35.36270675,149.16465415,155210.0,-8.0,0.5,-151.5,0.0,1.5,-999.5,4.0,-3.0,15.5
14:12:12,206546.0,RTL,0.011578095145523548,-0.007573738927021623,-0.6415517032146454,-0.003920023300452158,0.00161288445815444,-0.006923963432200253,-35.3627072,149.164654175,156758.0,-0.25,5.0,-151.0,0.0,0.0,-1000.5,-1.0,4.0,-3.75
14:12:13,206546.0,RTL,0.006121876649558544,-0.0036604562774300575,-0.6475423872470856,-0.0026468313299119473,0.0048937766114249825,-0.004537190776318312,-35.36270695,149.16465449999998,158284.0,4.5,5.5,-147.0,0.0,-0.5,-992.5,0.0,7.0,-1.5
14:12:15,105670.0,RTL,0.0022488170070573688,-0.0013053089496679604,-0.6571323573589325,0.0008009932935237885,0.00047714298125356436,-0.0050510813016444445,-35.3627063,149.16465495,161316.5,1.0,2.5,-150.0,0.0,0.0,-1001.0,3.0,3.0,-2.5
14:12:17,4794.0,RTL,0.00190555804874748,-0.0017262924811802804,-0.6672912836074829,0.0010504653910174966,0.0018302161479368806,-0.0018770904862321913,-35.3627061,149.1646551,164407.0,-0.5,1.0,-151.5,0.0,0.0,-999.0,3.0,4.5,0.0
14:12:18,181038.0,RTL,0.0033169928356073797,-0.003118448716122657,-0.6690123528242111,0.0006599706830456853,-0.00032687035854905844,-0.005522814346477389,-35.362706124999995,149.1646551,165947.25,-1.0,1.0,-150.0,0.0,0.0,-999.0,3.0,2.0,-2.75
14:12:19,181038.0,RTL,0.00471821753308177,-0.003441238426603377,-0.67320916056633,0.0011022064136341214,0.0001224169973284006,-0.0035865993704646826,-35.36270625,149.1646551,167472.0,-0.5,1.0,-148.5,0.0,0.0,-996.5,3.0,2.5,-0.5
14:12:21,204021.5,RTL,0.004229077836498618,-0.002632003161124885,-0.6793643236160278,0.0012701444793492556,0.00039752363227307796,-0.0007044603116810322,-35.3627063,149.164655,170502.5,0.0,2.0,-148.5,0.0,0.0,-1000.0,4.0,2.5,1.0
14:12:23,227005.0,RTL,0.003959570080041885,-0.002536040614359081,-0.6851069033145905,0.0006450681248679757,0.00020130339544266462,0.0007923402590677142,-35.3627063,149.164655,173531.5,0.0,2.0,-148.0,0.0,0.0,-1000.0,3.0,2.5,3.0
14:12:24,107241.0,RTL,0.003995204460807145,-0.002483121585100889,-0.6878424137830734,-0.0009072069660760462,0.0007492781151086092,-0.0025819312140811235,-35.3627063,149.164655,175041.5,0.0,2.0,-148.0,0.0,0.0,-999.75,1.5,3.25,0.0
14:12:25,107241.0,RTL,0.0036716171307489276,-0.0021749427542090416,-0.6902133822441101,-0.0024637822061777115,0.00025596655905246735,-0.0015572510310448706,-35.3627063,149.164655,176556.5,0.0,2.0,-148.5,0.0,0.0,-1002.5,0.5,2.5,0.0
14:12:27,96697.5,RTL,0.0038702450692653656,-0.0025252607883885503,-0.6944655478000641,0.0017815218307077885,-5.224253982305527e-05,-0.0009709413279779255,-35.3627063,149.164655,179592.5,0.0,2.0,-148.0,0.0,0.0,-999.5,4.0,2.0,1.0
14:12:29,86154.0,RTL,0.0038715973496437073,-0.002584366942755878,-0.6981867551803589,-0.001022015349008143,0.0005652235122397542,-0.0016581628588028252,-35.3627063,149.164655,182649.0,0.0,1.0,-149.5,0.0,0.0,-999.0,1.5,3.5,0.5
14:12:31,229818.0,RTL,0.004069779999554157,-0.002701589255593717,-0.701576828956604,0.0015787327429279685,0.0008603093447163701,-0.0011262549087405205,-35.3627063,149.164655,185687.0,0.0,1.5,-146.5,0.0,0.0,-993.0,4.0,3.5,1.0
14:12:33,229818.0,RTL,0.0038565698778256774,-0.0025893194833770394,-0.7042607665061951,-0.0015935695264488459,0.0009380986448377371,-0.0015883274609223008,-35.3627063,149.164655,188679.5,0.0,1.5,-147.5,0.0,0.0,-1000.5,1.0,3.0,1.0
14:12:34,276887.0,RTL,0.02120929874945432,-0.004288498952519149,-0.7066415548324585,0.03195065027102828,0.0002694561844691634,-0.006256027903873473,-35.362706275,149.16465505,190203.75,3.5,5.25,-151.75,0.0,-0.25,-1004.5,34.5,3.5,-4.0
14:12:35,276887.0,RTL,0.009839009493589401,-0.0015905547770671546,-0.7253307104110718,-0.04168219491839409,0.0001272507943212986,-0.023877723142504692,-35.36270535,149.16465614999998,191753.0,14.0,15.0,-151.0,1.5,-4.0,-999.0,-38.0,3.5,-21.0
14:12:37,49292.0,RTL,-0.02944669220596552,-0.0021836122032254934,-0.7737626731395721,0.0068786367774009705,0.0036851296899840236,-0.006992667447775602,-35.3627048,149.1646562,194847.5,-18.5,-18.0,-151.5,-2.5,4.0,-997.5,10.0,6.0,-4.0
14:12:39,49292.0,RTL,0.0419909730553627,-0.015828680247068405,-0.703231006860733,-0.0045688580721616745,-0.004691367968916893,-0.0027389299357309937,-35.36270945,149.1646521,197909.5,-8.0,2.0,-147.5,0.5,3.0,-999.5,-1.5,-2.0,-0.5
14:12:40,35195.0,RTL,0.0375203862786293,-0.008882730442564934,-0.7167418897151947,0.0015230899443849921,0.011100099247414619,-0.025225972291082144,-35.3627089,149.164652875,199422.5,22.5,18.5,-150.25,0.75,-4.75,-1005.0,4.25,13.75,-22.0
14:12:41,35195.0,RTL,0.009144934825599194,0.0002887736773118377,-0.7560136318206787,-0.04611730948090553,0.003141831955872476,-0.04226372390985489,-35.36270605,149.16465525,200964.5,34.0,26.5,-150.5,2.0,-9.0,-1000.5,-42.5,6.0,-39.0
14:12:43,204553.0,RTL,-0.026324992068111897,0.0011813231540145352,-0.8323818445205688,0.0115343127399683,-0.0016154610784724355,-0.019863044377416372,-35.36270285,149.1646574,204072.5,-8.5,-7.5,-152.0,-1.0,1.5,-999.5,14.5,1.5,-16.5
14:12:45,204553.0,RTL,0.014272501692175865,-0.005603896686807275,-0.8399766981601715,0.0069660310400649905,-0.004666235530748963,0.003981556044891477,-35.36270655,149.16465449999998,207185.0,-17.5,-7.5,-152.0,-1.5,5.0,-1000.0,9.5,-1.0,6.5
14:12:46,180415.0,RTL,-0.0009171823621727526,-0.006964062689803541,-0.8432408720254898,-0.02363043953664601,0.0008465939317829907,-0.008419895952101797,-35.362707825,149.16465367499998,208733.0,-9.25,-3.5,-151.5,-0.25,2.0,-999.25,-20.25,3.5,-5.0
14:12:47,180415.0,RTL,0.007085693534463644,-0.0012408707989379764,-0.8382985591888428,0.02665140200406313,0.008453542250208557,0.03753942018374801,-35.362708850000004,149.16465265,210286.5,-10.0,-6.0,-151.5,-1.0,3.0,-1000.5,29.5,11.0,40.5
14:12:49,241707.0,RTL,0.014082380570471287,-0.00689938641153276,-0.7086353898048401,-0.008974191267043352,-0.0056738045532256365,0.04317303188145161,-35.36270965,149.16465315,213382.0,6.0,14.5,-151.0,1.5,-1.5,-1000.5,-5.0,-2.0,45.5
14:12:51,241707.0,RTL,0.0025686652516014874,-0.00485440029297024,-0.6747132241725922,-0.003977297223173082,0.003862712997943163,-0.003347765770740807,-35.362707349999994,149.16465540000002,216475.0,15.0,6.0,-151.0,-0.5,-4.0,-999.5,-0.5,6.5,0.0
14:12:52,185684.0,RTL,-0.00022417097534344066,-0.00020959143148502335,-0.6795213371515274,-0.0022517641191370785,0.0035094142658635974,-0.004311541386414319,-35.362706075,149.1646558,218004.5,10.75,2.25,-148.0,-0.25,-2.75,-996.75,0.75,6.25,-0.75
14:12:53,185684.0,RTL,-0.0010056764294859022,0.0007448222168022767,-0.6830970942974091,0.00011267745867371559,-0.0015079285949468613,-0.0024236952885985374,-35.36270535,149.1646559,219517.0,4.5,0.5,-148.5,0.0,-1.5,-1001.0,3.0,1.0,0.5
14:12:55,272241.0,RTL,0.0019011872354894876,-0.002675775671377778,-0.6896599531173706,0.0014876492787152529,0.00033426634036004543,-0.003931904444471002,-35.362705250000005,149.16465575,222561.0,-2.0,0.0,-149.5,0.0,0.0,-1000.5,4.0,3.0,-0.5
14:12:57,272241.0,RTL,0.004238037276081741,-0.002851220197044313,-0.6955145299434662,0.0021906759357079864,0.0008953673532232642,-0.0016573971370235085,-35.3627057,149.16465540000002,225605.0,-2.5,0.0,-148.0,0.0,1.0,-999.0,5.0,4.0,1.0
14:12:58,274496.0,RTL,0.004604022018611431,-0.002886225003749132,-0.6982161104679108,-0.001096510619390756,0.0010492908186279237,-0.0029082246765028685,-35.362705925,149.164655225,227120.25,-1.5,0.5,-147.75,0.0,0.0,-999.0,1.75,3.75,0.0
14:12:59,274496.0,RTL,0.004777816124260426,-0.00234478956554085,-0.7005995213985443,0.0035859454656019807,-7.756624836474657e-05,-0.0017582543077878654,-35.36270605,149.1646551,228627.5,-1.0,1.0,-147.0,0.0,0.0,-1000.0,6.5,3.0,0.5
14:13:01,67068.0,RTL,0.004204570548608899,-0.002617427264340222,-0.7052211463451385,0.0010476656025275588,-2.6024412363767624e-05,0.00038572808261960745,-35.3627062,149.164655,231648.5,0.0,2.0,-148.5,0.0,0.0,-1001.0,4.0,3.0,3.0
14:13:03,67068.0,RTL,0.003766662790440023,-0.0022998658241704106,-0.7088002860546112,-0.00047237868420779705,0.0003678430803120136,-0.0013429466634988785,-35.3627063,149.164655,234708.0,0.0,2.0,-148.5,0.0,0.0,-999.5,2.5,3.0,1.5
14:13:04,112606.0,RTL,0.0037353134248405695,-0.002362050407100469,-0.7105372101068497,0.0005524312728084624,0.00013886034139432013,-0.0007710177160333842,-35.3627063,149.164655,236213.0,0.0,2.0,-146.0,0.0,0.0,-996.75,3.5,3.25,1.75
14:13:05,112606.0,RTL,0.003836111747659743,-0.0025557331973686814,-0.7122755944728851,0.0006814977386966348,2.0118430256843567e-05,5.875248461961746e-05,-35.3627063,149.164655,237700.5,0.0,2.0,-145.5,0.0,0.0,-1001.5,3.5,3.0,2.5
14:13:07,99860.0,RTL,0.00916005508042872,0.04399331659078598,-0.7262413799762726,-0.022585975122638047,0.05315366946160793,-0.0548106636852026,-35.3627074,149.16465635,240714.0,-20.0,26.0,-148.5,5.0,1.0,-1001.0,-19.0,56.5,-51.0
14:13:09,99860.0,RTL,-0.023224188946187496,0.13195596635341644,-0.7137233316898346,0.015595838194712996,0.026483768015168607,0.009345798753201962,-35.36271995,149.16467045,243334.5,-142.0,111.5,-85.5,30.5,23.0,-950.5,19.0,29.5,12.5
14:13:10,51418.0,RTL,-0.024521003011614084,0.15619375556707382,-0.7174723446369171,-0.025414636358618736,0.017108049476519227,-0.002384946681559086,-35.362735574999995,149.1646862,244014.75,-212.5,180.5,-48.25,50.0,32.25,-972.0,-21.75,20.25,0.5
14:13:11,51418.0,RTL,-0.04159056209027767,0.17881382256746292,-0.7188891470432281,0.13880116865038872,0.015252945595420897,0.002470826730132103,-35.362757900000005,149.1647102,244306.0,-285.0,249.5,-9.0,76.5,54.0,-965.5,142.0,18.5,5.5
14:13:13,38215.0,RTL,-0.07350528985261917,0.1843077689409256,-0.7198027968406677,-0.10064760223031044,-0.045492712408304214,0.00437741877976805,-35.36282305,149.16478,244118.5,-440.0,377.0,5.0,120.5,75.5,-1018.5,-97.0,-41.5,7.5
14:13:15,38215.0,RTL,-0.07435314357280731,0.1427583396434784,-0.7159048616886139,0.003091057762503624,-0.052345385774970055,-0.0011486192233860493,-35.362910049999996,149.16487015,244144.0,-511.0,434.5,-4.0,126.5,80.5,-994.0,6.5,-48.0,2.5
14:13:16,29787.0,RTL,-0.07634016312658787,0.12404989823698997,-0.7161880284547806,0.02697395533323288,0.009725363808684051,0.005961011920589954,-35.362956425,149.1649181,244184.25,-513.25,439.0,-1.75,132.5,91.25,-984.75,30.5,13.0,8.75
14:13:17,29787.0,RTL,-0.07659699022769928,0.13724146783351898,-0.7186264991760254,0.0062593333423137665,0.008952782722190022,-0.006356782978400588,-35.363002699999996,149.16496619999998,244166.0,-515.0,442.0,3.0,122.5,82.5,-987.5,9.5,12.0,-3.0
14:13:19,1697.0,RTL,-0.0789606161415577,0.0939764603972435,-0.7174140512943268,-0.0025229929015040398,-0.048049550503492355,0.005451159551739693,-35.363096,149.16506345,244176.0,-509.5,438.0,-3.5,133.5,92.0,-998.5,1.0,-44.0,8.0
14:13:21,1697.0,RTL,-0.06308435834944248,-0.004311286378651857,-0.7135924994945526,0.15014282800257206,-0.05979171022772789,0.0016959905624389648,-35.3631794,149.16515025,244189.0,-399.5,342.0,3.5,103.5,80.5,-1009.0,153.5,-55.5,5.0
14:13:22,237905.0,RTL,-0.05841204151511192,-0.0465628569945693,-0.7138334810733795,-0.19832020439207554,-0.02293046098202467,0.014795118942856789,-35.363212250000004,149.165184025,244169.25,-313.5,267.5,3.0,83.0,59.75,-1004.0,-193.75,-19.0,18.25
14:13:23,237905.0,RTL,-0.027789299376308918,-0.05724877119064331,-0.7130132019519806,0.54464490711689,-0.010013118386268616,0.00796637125313282,-35.363236400000005,149.16520855,244151.0,-224.5,191.5,2.0,62.5,60.5,-1018.5,548.0,-6.0,11.5
14:13:25,105502.0,RTL,0.009561124723404646,-0.06837507523596287,-0.7143958210945129,0.25832071900367737,0.029398828744888306,-0.0013824887573719025,-35.3632632,149.16523415,244152.0,-61.5,64.0,2.5,18.0,15.5,-1007.0,262.0,32.5,2.0
14:13:27,105502.0,RTL,0.01861665863543749,-0.024158268235623837,-0.7133601009845734,0.040198564529418945,0.025625986978411674,-0.002816512482240796,-35.3632682,149.1652391,244157.5,14.0,10.0,1.0,0.5,1.0,-1002.5,44.0,28.5,1.0
14:13:28,189201.0,RTL,0.01336539862677455,-0.0037532740461756475,-0.7127244174480438,0.04909592866897583,-0.0033901152200996876,-0.002838709275238216,-35.363267825,149.165239175,244158.75,19.75,8.75,1.25,0.25,7.75,-1002.75,53.75,0.0,1.0
14:13:29,189201.0,RTL,0.006694093870464712,-0.013717354275286198,-0.7140956521034241,0.056017160415649414,-0.011453907005488873,-0.00031599821522831917,-35.363266949999996,149.1652397,244157.5,20.5,5.5,1.0,0.5,4.5,-1001.5,60.5,-7.5,3.5
14:13:31,274570.0,RTL,8.379761129617691e-05,-0.007619027979671955,-0.7150463461875916,-0.011231988668441772,-0.00016896618762984872,0.0003271844470873475,-35.363264799999996,149.16523984999998,244154.0,16.5,-7.5,1.0,-0.5,0.0,-1000.5,-6.5,3.0,3.5
14:13:33,274570.0,RTL,-0.0005001956596970558,-0.006249243160709739,-0.7160187661647797,0.2796553075313568,-0.00465768831782043,0.0022083291551098228,-35.363263200000006,149.16523955000002,244137.0,6.5,-10.0,8.5,-0.5,14.5,-977.5,284.5,-1.0,5.5
14:13:34,31645.0,RTL,0.016376195242628455,-0.007962527917698026,-0.7159545421600342,0.7812792062759399,-0.0036857997765764594,0.001155516947619617,-35.3632629,149.1652392,243863.0,2.25,-11.0,57.25,0.0,7.75,-925.75,784.25,-0.5,4.5
14:13:35,31645.0,RTL,0.02797127515077591,-0.007313990965485573,-0.7149897813796997,0.7938498854637146,0.002099414588883519,-0.0043011135421693325,-35.3632629,149.1652388,243430.0,2.0,-10.0,91.0,-2.0,-3.0,-885.0,796.0,5.0,0.0
14:13:37,74564.0,RTL,-0.023575536673888564,-0.0020465735433390364,-0.7163054645061493,1.0492995381355286,-0.0019365965854376554,0.007537490455433726,-35.3632611,149.16524015,240929.0,-3.5,-11.5,97.0,1.5,65.5,-951.5,1054.5,1.0,11.0
14:13:39,74564.0,RTL,0.00997711111085664,-0.01756507344543934,-0.7165489792823792,-0.8609801977872849,-0.00948413391597569,0.009831341914832592,-35.3632628,149.1652384,238890.0,-7.5,-15.0,103.0,-5.0,-6.5,-977.0,-855.5,-6.5,13.0
14:13:40,167591.0,RTL,0.01947370159905404,-0.011855571996420622,-0.715950071811676,-1.2550755143165588,0.007628237421158701,0.0013511659926734865,-35.36326435,149.16523625000002,237898.0,10.5,0.0,91.25,-1.75,-31.75,-1007.0,-1250.0,10.0,4.25
14:13:41,167591.0,RTL,0.007460415596142411,-0.005125105148181319,-0.7158454954624176,-1.2673150897026062,0.0018447288312017918,0.005070865387097001,-35.3632643,149.16523575000002,236909.0,19.5,9.5,97.5,1.0,-53.5,-1036.5,-1262.5,4.0,9.0
14:13:43,58127.0,RTL,-0.0038669651839882135,-0.000706427963450551,-0.715883731842041,-0.7776639461517334,0.0003772103227674961,-0.0152047760784626,-35.3632628,149.1652371,235261.0,11.0,5.0,95.0,2.0,-73.0,-1003.0,-775.0,3.0,-11.0
14:13:45,58127.0,RTL,-0.02009778656065464,-0.0041361801559105515,-0.7157506942749023,0.8332588076591492,-0.011273966636508703,-0.007564756320789456,-35.363260499999996,149.16524035,232926.0,-9.0,-14.0,97.5,1.0,30.5,-984.0,836.5,-8.0,-4.0
14:13:46,223042.0,RTL,-0.007448912248946726,-0.013538296101614833,-0.7168411910533905,0.7610200345516205,-0.006066508241929114,-0.008256193366833031,-35.36326105,149.16524007499999,231863.25,-15.25,-18.0,110.5,-7.5,70.5,-1001.25,766.5,-3.25,-4.0
14:13:47,223042.0,RTL,0.014923440292477608,-0.01658564619719982,-0.7162850499153137,0.326233834028244,-0.004914576653391123,0.015406102873384953,-35.3632624,149.1652386,231119.0,-10.0,-15.0,114.0,-6.0,70.0,-957.0,332.0,-2.0,19.0
14:13:49,160936.0,RTL,0.035216704942286015,-0.005090123973786831,-0.7156586050987244,0.1010759249329567,0.010367501992732286,-0.004272131947800517,-35.36326575,149.1652332,228651.5,31.0,27.5,98.5,-4.0,37.0,-1035.5,108.0,12.5,-0.5
14:13:51,160936.0,RTL,0.00176613696385175,0.0033712037838995457,-0.7144194841384888,-0.752985954284668,0.009287660010159016,0.0025420200545340776,-35.3632648,149.1652336,226962.0,34.0,34.0,110.0,3.0,1.0,-996.0,-745.0,11.0,6.0
14:13:52,109672.0,RTL,-0.029150336608290674,0.0038371659815311433,-0.7137230634689331,-0.6950290441513062,-0.001898496854119003,0.005989904794842005,-35.36326276,149.16523632000002,225711.2,18.8,20.4,89.0,4.6,-4.6,-1016.2,-687.6,0.6,9.4
14:13:53,109672.0,RTL,-0.0435845535248518,0.0016757034318288788,-0.7144324481487274,-0.8400464802980423,-0.005372506158892065,-9.417207911610603e-05,-35.36326125,149.16523865,224687.5,2.0,3.5,91.5,4.0,-25.5,-1007.5,-833.5,-3.0,4.0
14:13:55,171598.0,RTL,-0.028067266568541527,-0.005744189955294132,-0.7151631116867065,-1.3864686489105225,-0.0030143901240080595,-0.0013861614279448986,-35.3632604,149.1652405,223055.0,-16.0,-18.0,106.0,0.0,-90.0,-894.0,-1383.0,0.0,2.0
14:13:57,171598.0,RTL,0.0037335946690291166,-0.0054897465743124485,-0.714247465133667,1.3350696563720703,0.003868015483021736,-0.0008319218177348375,-35.3632607,149.1652402,221039.0,-15.0,-21.0,102.0,0.0,37.0,-1120.0,1339.0,6.0,2.0
14:13:58,34192.0,RTL,-0.009636651445180177,-0.004137988667935133,-0.7150235533714294,1.0487518787384034,0.0015683609526604414,0.007437176536768675,-35.363260659999995,149.16524006000003,219773.4,-14.6,-19.0,98.0,-1.6,68.6,-1021.8,1054.0,3.4,10.8
14:13:59,34192.0,RTL,-0.006975801661610603,-0.004885335918515921,-0.7152101397514343,0.9215079545974731,-0.0005594358080998063,-0.002844454487785697,-35.3632608,149.1652398,219037.0,-14.0,-18.0,102.0,-2.0,90.0,-1014.0,926.0,1.0,1.0
14:14:01,235144.0,RTL,0.016021987423300743,-0.011493057012557983,-0.7153201103210449,0.34402135014533997,0.014022751711308956,0.009115508757531643,-35.3632631,149.1652369,216992.0,0.0,0.0,96.0,-7.0,66.0,-979.0,350.0,16.0,12.0
14:14:03,235144.0,RTL,0.021804925054311752,-0.006550874561071396,-0.7142540216445923,-0.9669054746627808,-0.005085165146738291,0.002121757250279188,-35.363265,149.1652341,214929.0,22.0,20.0,97.0,0.0,-11.0,-1017.0,-960.0,-2.0,6.0
14:14:04,242847.0,RTL,0.012908726930618286,-0.002805765811353922,-0.7137975215911865,-1.2902230978012086,0.002713880967348814,-0.008469262160360813,-35.36326458,149.16523448000004,213609.6,26.4,24.6,103.8,2.8,-80.4,-976.4,-1286.0,4.6,-4.2
14:14:05,242847.0,RTL,0.019108647480607033,-0.0016198669327422976,-0.7159382700920105,-0.4279877245426178,-0.0015162264462560415,-0.01194924395531416,-35.363264,149.1652352,212760.0,23.0,21.0,110.0,3.0,-71.0,-981.0,-424.0,0.0,-8.0
14:14:07,80881.0,RTL,-0.022447271272540092,0.003929706639610231,-0.713851660490036,0.21270789206027985,0.00012001744471490383,-0.0076029825722798705,-35.36326115,149.16523915,210820.5,3.0,-0.5,101.5,8.0,-39.5,-1011.0,216.0,2.5,-3.5
14:14:09,80881.0,RTL,-0.04679868929088116,-0.00039841613033786416,-0.714139312505722,0.6169905364513397,-0.01441950909793377,-0.00555841252207756,-35.3632577,149.1652441,208883.0,-33.0,-39.0,105.5,3.5,-12.0,-1006.0,619.0,-11.5,-2.0
14:14:10,274734.0,RTL,-0.015254638204351068,-0.013261033967137337,-0.7147246718406677,1.3109995603561402,-0.005017484119161963,0.0028907389845699073,-35.36325840000001,149.16524404,207479.0,-44.0,-51.8,102.6,-5.2,56.6,-1018.0,1313.8,-2.6,6.2
14:14:11,274734.0,RTL,0.010194533504545689,-0.016993418335914612,-0.7145580649375916,1.3522621393203735,-0.000702884397469461,0.012294963002204895,-35.3632598,149.1652425,206702.0,-38.0,-47.0,102.0,-10.0,48.0,-972.0,1355.0,1.0,16.0
14:14:13,197092.0,RTL,0.06636814028024673,-0.011786708608269691,-0.7143386900424957,1.2834768295288086,0.00861585047096014,0.0063661744352430105,-35.3632639,149.1652363,204777.5,0.5,-7.5,103.5,-6.5,33.0,-1002.0,1285.5,10.5,10.0
14:14:15,197092.0,RTL,0.046835361048579216,-0.004822366870939732,-0.7129712402820587,0.9150986671447754,0.0012439432321116328,-0.001154657220467925,-35.3632654,149.16523304999998,202651.5,27.0,27.5,104.0,-3.0,68.0,-1037.0,920.5,2.5,3.0
14:14:16,18610.0,RTL,0.04347400739789009,-0.0026796910096891224,-0.713003933429718,1.1013159602880478,-0.0004175883950665593,0.005121251801028848,-35.36326545,149.1652327,201262.5,34.0,38.75,106.5,-0.75,75.0,-995.5,1106.75,1.5,8.5
14:14:17,18610.0,RTL,0.035457126796245575,-0.002736050169914961,-0.7125526666641235,0.7793554365634918,0.0022515865275636315,-0.0028336176183074713,-35.3632654,149.1652327,200461.0,34.5,40.5,108.0,0.0,67.0,-1007.0,785.5,4.0,1.5
14:14:19,283927.0,RTL,0.03887249156832695,-0.004584812559187412,-0.7127367556095123,0.3792010396718979,-0.0038174475193955004,0.006990665569901466,-35.3632656,149.1652326,198398.0,35.0,42.0,103.5,0.0,59.0,-988.5,387.0,-1.5,10.5
14:14:21,283927.0,RTL,0.012183007202111185,0.0014653740217909217,-0.7122250199317932,0.2764280140399933,0.000903115258552134,0.0023505198769271374,-35.363264900000004,149.16523360000002,196602.5,36.5,40.0,105.5,3.5,41.0,-1064.0,285.0,3.5,5.5
14:14:22,287815.0,RTL,-0.01819896511733532,0.0013969852880109102,-0.7124052196741104,-0.75394207239151,-0.00029832194559276104,0.0011336173629388213,-35.36326335,149.16523569999998,195325.0,23.25,27.0,101.75,3.25,-2.0,-994.75,-744.75,1.5,4.5
14:14:23,287815.0,RTL,-0.014071307145059109,-0.00041436667379457504,-0.7127251327037811,-0.3708057850599289,-0.0076389259193092585,0.011476528597995639,-35.363262750000004,149.16523665,194565.0,14.5,18.0,102.5,0.5,10.5,-1043.5,-361.5,-4.5,15.0
14:14:25,252860.0,RTL,-0.01062962505966425,-0.005497438134625554,-0.7131769359111786,-1.1231818795204163,-0.0013027626555413008,-0.004544008057564497,-35.3632624,149.1652377,192510.5,2.0,2.0,100.0,0.0,-34.5,-1054.5,-1115.0,0.5,-0.5
14:14:27,252860.0,RTL,-0.0015614221192663535,-0.0054456067737191916,-0.7123373746871948,-1.019075870513916,0.000906709989067167,-0.006042502238415182,-35.3632624,149.1652377,190428.0,2.5,0.0,99.0,-1.5,-67.5,-1032.0,-1013.0,2.5,-2.0
14:14:28,192061.0,RTL,0.02897461038082838,-0.007565079955384135,-0.7131189107894897,1.2621097266674042,-0.0016010808758437634,0.004794424050487578,-35.36326275,149.165237375,189264.5,4.5,2.5,101.0,-2.25,38.25,-1001.75,1268.75,0.5,8.5
14:14:29,192061.0,RTL,0.036079106852412224,-0.0077631003223359585,-0.7125679850578308,1.326413631439209,0.002782363211736083,-0.0015411593485623598,-35.3632633,149.16523660000001,188474.0,6.5,5.0,103.0,-2.5,79.5,-1021.5,1335.0,5.0,2.0
14:14:31,13392.0,RTL,0.03972241096198559,-0.005494348704814911,-0.7123155295848846,1.3796688318252563,-0.003814920666627586,0.00646360102109611,-35.36326405,149.16523525000002,186349.5,17.5,17.5,103.0,-0.5,74.5,-989.5,1388.5,-2.0,10.0
14:14:33,13392.0,RTL,-0.004034898476675153,0.00031953891084413044,-0.711313009262085,0.15488995611667633,-1.3691838830709457e-05,0.013174898456782103,-35.363263599999996,149.16523555,184224.0,21.5,21.0,99.0,2.5,39.0,-1004.5,165.0,1.5,17.0
14:14:34,240771.0,RTL,-0.028428200166672468,0.0007004786566540133,-0.7120051831007004,-0.7300909832119942,-0.00037089461693540215,-0.0010031298734247684,-35.363262325,149.165237225,182938.75,9.25,9.75,100.0,1.25,1.5,-977.25,-719.25,1.5,3.0
14:14:35,240771.0,RTL,-0.034417071379721165,0.0005036634393036366,-0.7095933854579926,-0.8649690449237823,-0.0037018167786300182,0.004890927812084556,-35.363261800000004,149.1652381,182181.0,2.0,2.0,105.0,3.0,-2.5,-996.0,-854.5,-1.0,8.0
14:14:37,15337.0,RTL,-0.05561462789773941,0.00029114942299202085,-0.7119599878787994,-0.895773857831955,-0.0033365488052368164,0.008287696167826653,-35.3632599,149.1652411,180141.0,-14.0,-18.5,101.0,5.0,-10.0,-984.0,-886.0,-1.5,11.5
14:14:39,15337.0,RTL,-0.05225234664976597,-0.008031817618757486,-0.7120087444782257,-1.3560906648635864,-0.0011414963519200683,0.0035676402039825916,-35.3632589,149.1652429,178254.0,-34.5,-41.0,105.0,0.0,-40.0,-1017.5,-1348.5,0.5,7.0
14:14:40,4575.0,RTL,-0.030068438965827227,-0.008960783248767257,-0.7115942090749741,-1.431582659482956,-0.001258601521840319,-0.0031077556777745485,-35.363259725,149.16524195,176978.75,-31.0,-39.75,106.5,-1.0,-69.0,-983.0,-1425.5,0.5,0.75
14:14:41,4575.0,RTL,-0.030141768045723438,-0.007200933527201414,-0.7117660641670227,-1.3190633058547974,5.684723146259785e-05,-0.003592940280213952,-35.363260049999994,149.1652415,176183.5,-25.5,-35.5,105.5,-0.5,-72.0,-1004.5,-1313.5,1.5,0.0
14:14:43,156935.0,RTL,0.001453528180718422,-0.006407701643183827,-0.7125084698200226,0.25098454440012574,-0.00629326916532591,0.003204904729500413,-35.36326055,149.16524049999998,174134.5,-21.0,-28.5,107.0,-0.5,-33.0,-1021.5,254.5,-4.0,7.0
14:14:45,156935.0,RTL,-0.03136264439672232,-0.00013173916158848442,-0.7116610109806061,0.40120749920606613,0.006598465726710856,0.00953321997076273,-35.36326055,149.16524015,171984.0,-13.0,-20.5,102.0,2.0,41.0,-1022.0,408.0,8.0,13.0
14:14:46,171511.0,RTL,-0.06077879201620817,-0.0007770211559545714,-0.7121804803609848,-0.9824602752923965,-0.008516986010363325,0.0051828400464728475,-35.36325935000001,149.16524164999998,170708.25,-24.5,-30.25,95.0,2.0,-17.25,-1019.25,-976.25,-6.5,8.75
14:14:47,171511.0,RTL,-0.06266755610704422,-0.0022708941251039505,-0.7125242352485657,-0.48746659606695175,-0.005938875954598188,0.007646077778190374,-35.363258849999994,149.1652424,170039.5,-29.0,-34.0,89.5,0.0,15.5,-965.5,-481.0,-4.0,11.5
14:14:49,144963.0,RTL,-0.029994206503033638,-0.007686356082558632,-0.7117703557014465,-1.122819185256958,-0.0020913518383167684,-4.544970579445362e-05,-35.36325945,149.16524195,168030.0,-32.5,-39.5,102.0,-0.5,-70.5,-1006.0,-1120.0,-0.5,3.5
14:14:51,144963.0,RTL,-0.0019349235226400197,-0.00686914729885757,-0.7114821076393127,-0.18426740914583206,-0.0020440660882741213,-0.0018343600677326322,-35.36326045,149.16524049999998,165963.0,-23.5,-31.0,99.0,-1.5,-46.0,-996.5,-183.0,0.0,2.0
14:14:52,131969.0,RTL,0.015323659172281623,-0.006882208515889943,-0.7129594087600708,0.7271547615528107,-0.0031215623603202403,0.00112271896796301,-35.36326115,149.165239375,164677.25,-15.75,-20.75,97.0,-3.25,5.0,-988.5,727.5,-1.25,4.25
14:14:53,131969.0,RTL,0.02542921621352434,-0.009128860663622618,-0.7114256620407104,0.10127223189920187,-0.006109075737185776,0.00042670685797929764,-35.36326185,149.16523840000002,163932.0,-13.0,-16.0,99.0,-5.0,-33.0,-984.5,102.0,-4.5,4.0
14:14:55,93347.0,RTL,0.045043475925922394,-0.005779041210189462,-0.7118298709392548,-0.05630335956811905,0.00321654649451375,-0.00472209055442363,-35.36326405,149.16523519999998,161888.0,9.0,7.5,99.0,-1.0,-49.5,-941.5,-55.5,4.0,-1.0
14:14:57,93347.0,RTL,0.018499521538615227,-0.0009329799213446677,-0.7104198932647705,1.3118814826011658,-0.006040644599124789,0.0017115580849349499,-35.363263450000005,149.16523560000002,159807.0,17.0,18.5,98.5,1.0,68.5,-1027.0,1315.5,-4.0,5.5
14:14:58,255723.0,RTL,0.006166202336316928,-0.001289430569158867,-0.7114830911159515,0.957529291510582,0.007070043706335127,0.006444746628403664,-35.363262875000004,149.1652364,158535.25,10.75,12.75,97.75,0.5,70.0,-974.0,962.0,8.25,9.75
14:14:59,255723.0,RTL,-0.002943110594060272,-0.00027231017884332687,-0.7111000716686249,0.6433224231004715,0.0020032337633892894,0.005995892221108079,-35.36326245,149.1652369,157791.0,7.5,9.0,94.5,1.0,54.0,-1036.5,647.5,3.0,9.5
14:15:01,218182.0,RTL,-0.03730416111648083,-0.002704522921703756,-0.7116673588752747,-0.7455843389034271,-0.012800977565348148,0.025610999204218388,-35.3632613,149.16523875000001,155764.5,-4.0,-2.5,104.5,3.0,8.5,-989.0,-740.5,-10.5,29.0
14:15:03,218182.0,RTL,-0.023956038057804108,-0.003232786781154573,-0.7111508250236511,-0.8637546896934509,-0.001176090445369482,-0.008984919637441635,-35.363260749999995,149.16523999999998,153501.5,-12.0,-16.0,105.5,2.0,-70.5,-1051.0,-862.0,0.0,-4.5
14:15:04,225552.0,RTL,-0.019876919453963637,-0.0030204232316464186,-0.7114159762859344,0.02674228372052312,-0.0030854025681037456,-0.005352128355298191,-35.363260000000004,149.165241125,152228.25,-19.0,-25.0,96.0,1.25,-42.0,-1011.25,27.0,-1.0,-1.25
14:15:05,225552.0,RTL,-0.036959460005164146,-0.0038689750945195556,-0.71065953373909,-1.0973189771175385,0.0030123250326141715,-0.00402551784645766,-35.36325965,149.16524164999998,151606.5,-24.0,-30.5,83.5,0.5,-62.0,-976.5,-1096.0,4.0,0.0
14:15:07,24855.0,RTL,-0.009273415664210916,-0.00730281719006598,-0.7104400098323822,-0.8226072192192078,-0.0006357331294566393,-0.009680717252194881,-35.363260249999996,149.1652411,149608.0,-25.0,-33.0,103.5,-1.5,-71.5,-1022.0,-822.5,1.0,-5.5
14:15:09,24855.0,RTL,0.008051395881921053,-0.005660236114636064,-0.7117868959903717,0.17320352047681808,-0.0007781964959576726,0.003160041756927967,-35.3632609,149.16523995,147583.5,-16.5,-24.5,103.0,-1.0,-36.0,-1009.5,171.5,0.5,6.5
14:15:10,175201.0,RTL,0.018240176374092698,-0.006722149788402021,-0.7108070552349091,1.3210561573505402,-0.0040382357547059655,-0.007901127624791116,-35.363261425000005,149.16523905000003,146312.25,-12.0,-16.75,99.0,-1.0,41.25,-1010.0,1320.75,-2.25,-4.0
14:15:11,175201.0,RTL,0.023800022900104523,-0.006810448365285993,-0.7111594974994659,1.3033623099327087,-0.0020773360738530755,0.0017684879712760448,-35.36326185,149.1652384,145573.5,-8.5,-12.5,98.5,-1.0,30.0,-1008.0,1303.0,0.0,5.0
14:15:13,90660.0,RTL,0.022608747705817223,-0.003053280175663531,-0.7110670208930969,1.1513261198997498,0.002214448293671012,0.006620440282858908,-35.36326235,149.1652375,143530.0,0.0,-2.0,100.5,0.0,36.0,-1013.0,1151.0,3.0,9.5
14:15:15,90660.0,RTL,0.012245941441506147,-0.003555213217623532,-0.7108610570430756,0.8191369771957397,-0.005114884290378541,-0.001974978484213352,-35.3632617,149.1652383,141498.5,-4.0,-5.0,102.0,0.5,5.5,-1003.0,817.5,-3.5,2.0
14:15:16,180712.0,RTL,0.02069615153595805,-0.005285857943817973,-0.7114785611629486,0.6476486250758171,-0.001514736475655809,-0.0026172688812948763,-35.363261875,149.1652383,140221.25,-4.25,-6.5,102.25,0.25,-9.75,-991.5,645.5,-0.25,0.75
14:15:17,180712.0,RTL,0.017305200453847647,-0.004891961580142379,-0.7122140228748322,0.7250741422176361,-0.000269837211817503,0.006059833336621523,-35.36326185,149.1652384,139438.5,-2.5,-5.5,100.5,0.0,-1.0,-991.5,723.5,0.5,9.0
14:15:19,265123.0,RTL,0.03806031681597233,-0.012010406237095594,-0.7112084329128265,1.4516040682792664,-0.0022196618374437094,0.009876611642539501,-35.363263,149.16523734999998,137403.5,1.5,-1.0,101.5,-3.5,59.5,-1012.5,1451.0,-1.0,13.0
14:15:21,265123.0,RTL,0.019995818845927715,-0.008364343550056219,-0.7108860313892365,-0.4572816789150238,0.00015081855235621333,0.006351204472593963,-35.363264799999996,149.16523465,135280.0,20.5,17.5,100.5,-5.0,18.5,-1018.0,-454.0,1.0,10.0
14:15:22,140560.0,RTL,0.022652795538306236,-0.005588600179180503,-0.7110879421234131,-0.7034296989440918,0.00015608506510034204,0.003928225254639983,-35.363265299999995,149.1652336,134011.5,28.25,27.0,103.0,-1.25,3.25,-1014.5,-700.5,1.25,7.25
14:15:23,140560.0,RTL,0.02090208325535059,-0.003462966065853834,-0.7103168070316315,-0.9880563914775848,0.0022831877577118576,0.001046318095177412,-35.363265350000006,149.1652333,133268.5,30.5,30.5,98.5,1.0,-17.5,-964.0,-985.0,3.0,4.0
14:15:25,65239.0,RTL,-0.020329756196588278,0.003035159083083272,-0.7095800936222076,-1.4166474342346191,-0.0004961774684488773,-0.00886238575913012,-35.3632631,149.16523595,131247.0,21.5,22.5,105.0,6.0,-62.5,-1013.0,-1414.5,0.5,-4.5
14:15:27,65239.0,RTL,-0.05461161583662033,0.0006622077926294878,-0.7098890841007233,-1.1763989329338074,0.0019463823409751058,-0.008459824370220304,-35.363260600000004,149.16523985,129242.5,-4.0,-5.0,105.5,4.0,-30.0,-994.5,-1173.5,3.0,-5.0
14:15:28,36979.0,RTL,-0.052706523798406124,-0.004445419239345938,-0.7105591595172882,-1.0024559646844864,-0.007303093560039997,-0.0016065072268247604,-35.363259674999995,149.165241375,127961.25,-19.75,-21.75,107.75,-0.5,-14.75,-995.0,-999.5,-5.75,1.25
14:15:29,36979.0,RTL,-0.04173446632921696,-0.00988333486020565,-0.7105275988578796,-1.0770878195762634,-0.0072125818114727736,0.002850020071491599,-35.36326005,149.16524125,127133.0,-24.5,-27.0,117.5,-4.0,-19.5,-1039.0,-1074.5,-5.5,5.5
14:15:31,278840.0,RTL,0.032939909026026726,-0.007501729764044285,-0.7090624868869781,-0.033930106088519096,0.0059642246924340725,-0.0049971300177276134,-35.36326245,149.1652379,125032.0,-5.0,-10.5,107.5,-1.0,-48.5,-928.0,-35.0,6.5,-1.0
14:15:33,278840.0,RTL,0.023697204887866974,-0.003383745439350605,-0.7100819647312164,0.5010257363319397,-0.0004891541320830584,0.005451421835459769,-35.3632625,149.16523734999998,123069.0,0.5,-0.5,104.5,0.5,-19.5,-973.5,499.5,0.5,8.0
14:15:34,140260.0,RTL,0.019820412155240774,-0.002496350643923506,-0.7097716480493546,0.4252891056239605,0.0030635043513029814,0.006649902818026021,-35.3632624,149.16523734999998,121776.5,1.5,0.25,102.75,0.25,-18.5,-981.25,424.0,3.75,9.5
14:15:35,140260.0,RTL,0.011070423293858767,-0.0017750519909895957,-0.7096087336540222,0.3498493880033493,-0.0015249791322275996,-0.0015032307710498571,-35.3632621,149.16523775000002,120981.5,0.5,0.0,104.5,2.0,-31.5,-1005.0,348.5,0.0,2.0
14:15:37,107021.0,RTL,0.006771463202312589,-0.0040433305548503995,-0.7098826467990875,1.4853202104568481,0.0020705392817035317,0.003911898820661008,-35.363261249999994,149.16523925,118907.0,-7.0,-10.5,95.0,1.0,60.0,-1013.5,1486.0,2.5,6.5
14:15:39,107021.0,RTL,-0.009985369862988591,-0.007273769937455654,-0.7102224230766296,0.7374848276376724,-0.002745875157415867,0.01959055056795478,-35.363261249999994,149.16523945,116950.0,-8.5,-13.0,101.5,-1.0,74.5,-938.5,739.5,-1.5,22.5
14:15:40,175080.0,RTL,-0.009949930012226105,-0.009524446097202599,-0.7104385942220688,-0.4679778665304184,-0.00707900442648679,0.010944979381747544,-35.363262125,149.16523842499998,115668.75,-5.25,-9.5,96.0,-3.25,19.75,-997.0,-465.0,-5.75,14.0
14:15:41,175080.0,RTL,0.0019161307718604803,-0.010278410743921995,-0.7094742953777313,-0.8646019995212555,0.0013930623535998166,0.00041992077603936195,-35.36326285,149.1652375,114906.5,0.0,-4.0,93.5,-3.0,2.5,-999.5,-862.0,2.0,3.5
14:15:43,294242.0,RTL,0.01219024183228612,-0.005613034358248115,-0.7098386883735657,-1.1995766758918762,0.005286821105983108,-0.0013345456682145596,-35.36326425,149.1652353,112879.5,16.5,12.5,96.0,-0.5,-31.0,-987.0,-1198.0,6.0,2.0
14:15:45,294242.0,RTL,-0.01483438489958644,0.0012007525656372309,-0.7089891731739044,-1.3585298657417297,0.001424296060577035,-0.008294363971799612,-35.3632631,149.16523615,110742.0,14.0,13.0,97.5,3.0,-61.5,-1020.0,-1357.5,2.5,-4.5
14:15:46,205965.0,RTL,-0.003444862668402493,0.0009399452353591187,-0.7098035514354706,-0.20913231745362282,-0.0017153472872450948,0.0010883004870265722,-35.3632618,149.165237925,109465.0,2.75,3.0,92.75,3.5,-48.0,-1032.5,-210.0,-0.75,4.25
14:15:47,205965.0,RTL,-0.0076080625876784325,-0.0006279716471908614,-0.7096487283706665,-0.5665088146924973,-0.0028491829871200025,-0.0012354119680821896,-35.3632612,149.1652388,108761.5,-4.5,-4.0,86.0,1.0,-61.5,-974.5,-566.5,-1.5,2.0
14:15:49,111396.5,RTL,0.0008617757121101022,-0.0012117433943785727,-0.7093115448951721,0.6006113290786743,-0.004072696436196566,-0.004749958054162562,-35.36326045,149.16523990000002,106767.0,-14.0,-14.0,96.0,1.5,-3.5,-1074.5,599.0,-2.5,-1.5
14:15:51,16828.0,RTL,0.022765008732676506,-0.008832006715238094,-0.7099531888961792,1.345737338066101,-0.004596547340042889,0.0002503065625205636,-35.3632616,149.16523855,104741.0,-13.0,-11.0,98.0,-4.0,56.0,-1070.5,1345.5,-3.0,3.0
14:15:52,180214.0,RTL,0.048321472480893135,-0.010597086977213621,-0.7098201215267181,1.545758068561554,-0.000869536364916712,-0.0012012861552648246,-35.3632635,149.16523610000002,103473.5,1.5,2.5,101.25,-5.0,78.5,-972.25,1546.75,0.0,1.75
14:15:53,180214.0,RTL,0.05022583343088627,-0.009751605801284313,-0.7092344760894775,0.9511620104312897,0.005900996271520853,0.006744664628058672,-35.3632646,149.16523460000002,102598.0,12.5,13.5,125.5,-4.0,85.5,-1015.0,953.5,6.0,9.0
14:15:55,235012.0,RTL,0.03799072094261646,-0.00628983648493886,-0.7086122632026672,-1.4810249209403992,0.0010696663230191916,-0.006267782300710678,-35.36326605,149.1652322,100366.5,33.0,37.0,97.5,-2.5,-52.5,-1020.0,-1479.0,1.5,-2.5
14:15:57,289810.0,RTL,0.015701224096119404,-0.0009203169902320951,-0.7089841663837433,-1.1992139220237732,-6.791343912482262e-05,-0.006412997841835022,-35.3632657,149.1652325,98450.0,40.0,44.5,100.0,3.0,-29.5,-1010.0,-1195.5,0.5,-2.5
14:15:58,291749.0,RTL,0.0017272769182454795,-0.0008958929211075883,-0.7081888318061829,-0.701400987803936,-0.003122374720987864,0.0013719536364078522,-35.363264775000005,149.16523382499997,97171.75,32.75,37.0,100.25,2.0,4.25,-986.25,-696.25,-2.0,4.5
14:15:59,291749.0,RTL,0.005310554639436305,-0.001162109023425728,-0.7083338797092438,-0.5422274172306061,0.001969747623661533,0.0001918240450322628,-35.3632643,149.16523465,96480.0,27.5,30.0,80.0,5.0,0.5,-1018.5,-537.0,2.5,3.0
14:16:01,272391.0,RTL,-0.019004845060408115,-0.005068288650363684,-0.7089196443557739,-1.52312570810318,-0.0025332816876471043,-0.005421726033091545,-35.3632626,149.16523734999998,94529.0,8.0,8.5,99.0,1.0,-57.5,-995.5,-1519.0,-1.0,-2.0
14:16:03,253033.0,RTL,-0.016503632999956608,9.707713616080582e-05,-0.7081428468227386,-1.4431586265563965,0.0033910692436620593,-0.008294621482491493,-35.3632622,149.16523784999998,92531.5,4.0,0.0,101.0,3.5,-73.0,-1006.0,-1440.0,3.5,-4.5
14:16:04,21929.0,RTL,-0.03138913121074438,0.002464472665451467,-0.707719087600708,-1.043443277478218,-0.00356898654717952,-0.008699216559762135,-35.363260525,149.16523995,91251.5,-7.25,-11.0,101.0,4.5,-79.0,-1002.25,-1041.5,-3.0,-5.75
14:16:05,21929.0,RTL,-0.04623407498002052,7.998530054464936e-05,-0.7093811929225922,-1.1908227801322937,-0.009118334855884314,-0.0133587047457695,-35.3632597,149.1652411,90485.0,-17.5,-20.5,101.0,3.0,-77.0,-985.0,-1189.0,-8.0,-10.5
14:16:07,80778.0,RTL,-0.016742493025958538,-0.006571842124685645,-0.7091284394264221,-0.0522647425532341,-0.0032255967962555587,-0.0028770739445462823,-35.3632596,149.1652417,88455.5,-28.0,-32.5,104.0,-1.5,-39.0,-980.5,-51.5,-1.5,-0.5
14:16:09,139627.0,RTL,0.013105806428939104,-0.0068894915748387575,-0.709232896566391,0.5666835904121399,-0.0027826397272292525,-0.0025033411802724004,-35.36326085,149.16523990000002,86411.5,-18.5,-24.0,103.5,-1.0,-5.5,-1011.0,566.5,-2.0,0.0
14:16:10,119516.0,RTL,0.018926757154986262,-0.006299600354395807,-0.7085772454738617,1.1805302649736404,-2.714963920880109e-05,-0.0007446928066201508,-35.363261349999995,149.1652391,85136.5,-11.5,-16.0,102.0,-1.25,29.75,-997.75,1181.0,0.5,2.0
