time_stamp,MODE,RTL_ALT,roll,pitch,yaw,rollspeed,pitchspeed,yawspeed,lat,lon,relative_alt,vx,vy,vz,xacc,yacc,zacc,xgyro,ygyro,zgyro
04:51:31,STABILIZE,49656.0,-0.0011714540887624025,0.0009853972005657852,0.02388959564268589,0.00028309819754213095,0.00017735868459567428,0.001655647880397737,-35.3632622,149.1652375,0.0,-1.0,1.0,1.0,0.0,1.5,-1000.0,0.0,0.0,0.0
04:51:35,AUTO,49656.0,-0.0011230441159568727,0.0009599364129826427,0.022941535338759422,0.00016433914424851537,0.0002591742086224258,0.0015328810550272465,-35.3632622,149.1652375,0.0,-1.0,0.0,0.0,0.0,1.0,-1000.0,1.0,0.0,0.0
04:51:37,AUTO,50934.5,-0.0009961542673408985,0.0011015224154107273,0.02252031024545431,0.00022190503659658134,0.00026147396420128644,0.0014678198494948447,-35.3632621,149.1652375,11.5,0.0,0.0,-1.0,0.0,1.0,-1000.0,0.0,0.0,0.5
04:51:39,AUTO,52213.0,-0.0004084193496964872,0.0016441771876998246,0.021956144832074642,0.0003349168982822448,0.0003188213158864528,0.0014295774744823575,-35.3632621,149.1652375,16.0,0.0,0.0,-1.0,0.0,1.5,-1000.0,1.0,0.5,0.5
04:51:41,AUTO,52213.0,0.028454534709453583,-0.0021040705614723265,0.021359962411224842,0.04589122720062733,-0.007505815709009767,0.002445975667797029,-35.363262,149.1652376,1605.5,1.0,8.0,-146.5,0.0,-0.5,-1012.0,46.0,-6.5,1.5
04:51:42,AUTO,2495.0,0.01976936572464183,0.009566528722643852,-0.03552393929567188,-0.08252965472638607,0.012456084601581097,-0.050776645075529814,-35.363261275,149.16524177500003,3516.25,6.75,49.25,-146.75,3.0,-10.25,-1000.25,-81.25,13.25,-50.75
04:51:43,AUTO,2495.0,-0.034820204600691795,-0.005505305729457177,-0.055412497371435165,-0.04686261713504791,-0.041790710762143135,0.005352269625291228,-35.363260749999995,149.16524545,4666.0,5.5,32.5,-150.0,3.5,-7.5,-1002.0,-45.5,-40.5,5.0
04:51:45,AUTO,2495.0,-0.02210829919204116,0.028513513505458832,-0.13657379150390625,0.0752105861902237,0.01564389979466796,-0.012565749697387218,-35.363260800000006,149.16523785,7704.0,-27.5,-83.5,-148.5,-7.5,17.0,-1003.5,75.5,16.0,-13.0
04:51:47,AUTO,41205.5,0.1062810830771923,-0.010728523135185242,-0.11811093613505363,-0.0313315843231976,-0.12592246383428574,0.09020333923399448,-35.36327,149.1652294,10818.0,-53.0,49.5,-148.5,15.0,2.0,-995.5,-30.5,-125.0,89.5
04:51:49,AUTO,79916.0,-0.11271766200661659,-0.019775573629885912,-0.18841682374477386,-0.0006603766232728958,0.06889046914875507,-0.13331618905067444,-35.363265600000005,149.1652423,13825.5,80.0,-11.0,-149.0,-12.5,-14.0,-1014.0,0.0,69.0,-133.0
04:51:51,AUTO,79916.0,-0.005463853478431702,0.08047834038734436,-0.29061344265937805,0.083250030875206,0.04379601590335369,-0.010010101832449436,-35.363259,149.16522285000002,16867.5,-34.5,-109.0,-151.5,-19.0,18.5,-1007.5,83.5,44.0,-10.0
04:51:52,AUTO,24348.0,0.09941612370312214,0.08201155811548233,-0.28888267278671265,0.08036238886415958,-0.04172747186385095,0.009339599870145321,-35.363267875000005,149.165214425,18795.0,-113.75,4.25,-148.75,12.25,19.0,-1001.5,80.25,-40.5,8.75
04:51:53,AUTO,24348.0,0.14978187531232834,0.027142159175127745,-0.2842250317335129,0.019418801181018353,-0.12593058869242668,0.05071347486227751,-35.36327555,149.16521825,19911.5,-109.0,108.0,-141.5,33.5,8.5,-997.0,20.0,-125.0,50.0
04:51:55,AUTO,24348.0,-0.04518422018736601,0.027333910344168544,-0.0636249277740717,0.19917234778404236,0.18411826342344284,-0.02121125254780054,-35.3632698,149.1652383,22222.5,131.0,-27.0,-53.0,-28.0,-15.0,-953.0,199.5,184.0,-21.0
04:51:57,AUTO,29424.0,0.045895203948020935,0.058678869158029556,-0.0676497034728527,0.7461678683757782,0.1074589267373085,0.07065207092091441,-35.3632597,149.16523460000002,22520.0,-4.0,9.5,19.0,0.5,15.0,-980.0,746.0,108.5,70.0
04:51:59,AUTO,34500.0,0.0169523605145514,-0.08630619198083878,0.08081241697072983,-0.21278993412852287,-0.05426817387342453,0.7746006846427917,-35.363258849999994,149.16524114999999,22255.5,62.0,34.5,0.0,-5.0,-40.0,-1002.0,-213.0,-53.0,773.5
04:52:01,AUTO,34500.0,0.02490191627293825,-0.17413976043462753,0.47099539637565613,0.375836506485939,-0.02141043869778514,-0.01432909700088203,-35.36323275,149.16525495000002,22285.0,246.0,95.5,-4.0,-49.5,-12.5,-1003.5,376.0,-20.0,-14.5
04:52:02,AUTO,173181.0,0.04947539543112119,-0.18731809159119925,0.4673563738663991,0.16703937078515688,-0.03204725248118242,-0.005408839633067449,-35.3631989,149.16527176666668,22343.333333333332,367.6666666666667,154.0,-8.333333333333334,-80.66666666666667,-36.333333333333336,-1004.3333333333334,168.0,-30.666666666666668,-5.333333333333333
04:52:03,AUTO,173181.0,0.0596133458117644,-0.20730852087338766,0.4631229341030121,0.015404822925726572,-0.015680488975097735,-0.0005413999121325711,-35.3631717,149.1652857,22396.666666666668,438.0,191.33333333333334,-8.0,-97.66666666666667,-46.0,-1000.6666666666666,16.0,-15.0,-0.6666666666666666
04:52:05,AUTO,173181.0,0.08410971363385518,-0.17282832165559134,0.4572227994600932,0.0076848700021704035,0.016342121021201212,-0.003642738277752263,-35.36307756666667,149.16533559999996,22665.0,576.0,271.6666666666667,-19.666666666666668,-130.66666666666666,-59.0,-993.3333333333334,8.666666666666666,16.666666666666668,-3.3333333333333335
04:52:07,AUTO,170210.5,0.08453172693649928,-0.12526521335045496,0.4560110867023468,-0.005473167247449358,0.021839932228128116,-0.008729082842667898,-35.36296836666667,149.1653962,23030.666666666668,613.3333333333334,294.6666666666667,-20.0,-131.66666666666666,-79.66666666666667,-989.0,-4.0,22.0,-8.666666666666666
04:52:09,AUTO,167240.0,0.07776900877555211,-0.13745395839214325,0.4497065742810567,-0.016562016991277535,0.00033905388166507083,-0.0034616461489349604,-35.36285696666666,149.1654595,23296.666666666668,619.3333333333334,288.3333333333333,-10.666666666666666,-138.66666666666666,-76.33333333333333,-992.3333333333334,-15.333333333333334,1.0,-3.3333333333333335
04:52:11,AUTO,167240.0,0.08029059320688248,-0.132672851284345,0.4441785514354706,0.05414167419075966,0.003307012375444174,-0.013252222910523415,-35.362744766666665,149.16552236666666,23562.333333333332,625.0,280.6666666666667,-13.0,-132.0,-77.33333333333333,-986.3333333333334,54.666666666666664,4.0,-13.0
04:52:12,AUTO,42699.0,0.08121214807033539,-0.13049772381782532,0.4427887499332428,0.0009961617179214954,-0.0011552954092621803,0.006395715997011091,-35.362674399999996,149.16556119999998,23731.333333333332,623.3333333333334,279.3333333333333,-11.666666666666666,-132.66666666666666,-79.0,-985.6666666666666,2.0,-0.3333333333333333,6.0
04:52:13,AUTO,42699.0,0.07955236236254375,-0.1314554661512375,0.4411975145339966,-0.0010660408685604732,-0.010357635716597239,-0.0016389957260495673,-35.3626323,149.1655845,23832.0,621.6666666666666,278.0,-12.0,-135.0,-79.33333333333333,-987.0,0.0,-9.333333333333334,-1.6666666666666667
04:52:15,AUTO,42699.0,0.08171111345291138,-0.10101550072431564,0.43908535440762836,-0.01115456409752369,0.06764600550134976,-0.0074374619871377945,-35.362520866666664,149.165646,24110.666666666668,613.6666666666666,274.0,-18.0,-130.33333333333334,-76.66666666666667,-997.0,-9.666666666666666,68.0,-7.0
04:52:17,AUTO,202650.0,0.07651879638433456,-0.0016315442432338993,0.4396313627560933,-0.017475339273611706,0.05105455468098322,-0.008790219202637672,-35.362419100000004,149.16570213333333,24476.333333333332,488.6666666666667,220.33333333333334,-10.666666666666666,-102.0,-75.33333333333333,-988.0,-15.666666666666666,51.333333333333336,-8.666666666666666
04:52:19,AUTO,202650.0,0.045566303034623466,0.05341184884309769,0.43742669622103375,0.1968558927377065,0.00718673225492239,0.011559067914883295,-35.36234916666667,149.16574223333333,24560.666666666668,277.3333333333333,125.33333333333333,0.0,-62.0,-48.666666666666664,-1011.0,197.33333333333334,8.0,11.666666666666666
04:52:21,AUTO,202650.0,0.005443288867051403,0.06349016726016998,0.43649038672447205,-0.4821222523848216,-0.027447113767266273,0.00536302678907911,-35.36231646666667,149.1657611,24580.0,90.0,36.333333333333336,0.0,-20.0,-29.666666666666668,-997.0,-480.3333333333333,-26.0,5.333333333333333
04:52:22,AUTO,23356.0,0.00858702112842972,0.03423009750743707,0.434757928053538,-0.18860667943954468,-0.02107279437283675,0.004551996088897188,-35.36231043333333,149.1657636,24582.666666666668,23.333333333333332,7.333333333333333,0.0,-5.333333333333333,-15.666666666666666,-992.0,-187.66666666666666,-19.666666666666668,4.666666666666667
04:52:23,AUTO,23356.0,0.011916267219930887,0.017482316121459007,0.43383801976839703,0.2787400235732396,-0.025499482328693073,0.003555594041245058,-35.36230953333334,149.16576326666666,24585.666666666668,1.6666666666666667,1.0,-0.3333333333333333,-2.0,19.333333333333332,-1009.0,280.6666666666667,-24.0,3.6666666666666665
04:52:25,RTL,23356.0,-8.2135161695381e-05,-0.002386914740782231,0.4325112501780192,-0.29778699204325676,0.014716204178209106,0.0031631794602920613,-35.36230963333333,149.16576186666668,24606.666666666668,0.3333333333333333,7.666666666666667,-2.0,0.3333333333333333,-8.333333333333334,-1014.0,-295.6666666666667,15.333333333333334,3.0
04:52:27,RTL,75938.0,-0.0031431231764145195,0.0018145735763634245,0.4329562783241272,-0.04040401894599199,-0.0011094496197377641,0.0008673048772228261,-35.36230976666666,149.1657627666667,25265.0,0.0,2.0,-79.66666666666667,0.0,-3.3333333333333335,-1064.6666666666667,-38.666666666666664,0.0,1.0
04:52:29,RTL,128520.0,0.022615632663170498,-0.0020532958830396333,0.4315786063671112,0.045394825438658394,-0.006967390887439251,0.0007524397030162314,-35.3623099,149.16576310000002,27700.666666666668,-0.6666666666666666,4.666666666666667,-147.66666666666666,0.0,-0.6666666666666666,-1008.0,46.666666666666664,-5.666666666666667,1.0
04:52:31,RTL,128520.0,-0.07566312327980995,0.009162414508561293,0.3594149549802144,-0.05445376752565304,-0.016802193286518257,-0.036634438360730805,-35.3623112,149.1657701,30746.333333333332,-6.666666666666667,14.0,-148.33333333333334,3.0,-5.666666666666667,-1007.6666666666666,-52.333333333333336,-15.333333333333334,-35.0
04:52:32,RTL,293925.0,-0.032848856722315155,0.003980189949894945,0.33588603138923645,0.0628398023545742,0.008418135810643435,-0.00596799065048496,-35.362310433333334,149.16576696666667,32670.0,13.333333333333334,-55.333333333333336,-149.33333333333334,-5.0,10.0,-1001.6666666666666,64.0,9.333333333333334,-4.666666666666667
04:52:33,RTL,293925.0,0.016471002459487256,0.011066300484041372,0.33404603600502014,0.0665833552678426,0.008552744363745054,0.0010354117839597166,-35.36230963333333,149.1657623,33835.333333333336,5.0,-55.0,-152.0,-5.0,12.333333333333334,-1003.3333333333334,67.66666666666667,9.0,1.6666666666666667
04:52:35,RTL,293925.0,-0.01027845967716227,-0.019657294110705454,0.37891311446825665,-0.047371936651567616,0.0710337186853091,-0.06776394198338191,-35.36230990000001,149.16575999999998,36954.333333333336,12.666666666666666,23.333333333333332,-149.33333333333334,-1.6666666666666667,-6.333333333333333,-1003.0,-45.333333333333336,71.33333333333333,-66.33333333333333
04:52:37,RTL,101363.0,0.007136329465235273,0.02104713146885236,0.28484854102134705,0.013646358624100685,-0.006620398877809445,-0.007461661647539586,-35.36230683333333,149.1657613,40065.666666666664,-2.0,-6.666666666666667,-152.66666666666666,-1.0,0.6666666666666666,-999.3333333333334,15.0,-5.0,-6.0
04:52:39,RTL,101363.0,-0.0008127508723797897,0.0003821951007315268,0.2705237070719401,-0.004806587317337592,-0.00524692873780926,-0.01602797241260608,-35.36230836666667,149.16576116666667,43190.0,-14.0,2.0,-152.0,2.3333333333333335,0.0,-1000.0,-2.6666666666666665,-3.6666666666666665,-14.333333333333334
04:52:41,RTL,101363.0,-0.0004124796299341445,0.0012494792075206835,0.21871407330036163,0.002306369870590667,0.002987740095704794,-0.02652881604929765,-35.3623093,149.1657616,46311.666666666664,-3.3333333333333335,0.0,-153.0,0.0,0.0,-1000.0,3.6666666666666665,4.0,-25.0
04:52:42,RTL,75182.0,0.001665881252847612,0.0037649834994226694,0.18667678038279215,0.0018365002470090985,0.0011093826809277136,-0.022208924715717632,-35.3623093,149.1657617,48257.333333333336,-3.0,1.0,-153.0,0.0,0.0,-1000.0,3.3333333333333335,2.0,-20.666666666666668
04:52:43,RTL,75182.0,0.0010900336201302707,0.0037038608764608703,0.1700099060932795,-0.0016807740709433954,-4.661867084602515e-05,-0.020767652119199436,-35.3623093,149.16576183333333,49428.666666666664,-3.6666666666666665,1.0,-153.0,0.0,0.0,-999.6666666666666,0.0,0.6666666666666666,-19.0
04:52:45,RTL,75182.0,0.002784956945106387,0.0053798190007607145,0.14661229153474173,0.0026509392773732543,0.0018456355901435018,0.017579306848347187,-35.36230953333334,149.16576223333334,52541.0,-4.666666666666667,1.6666666666666667,-152.0,0.0,0.0,-999.6666666666666,3.6666666666666665,2.6666666666666665,18.666666666666668
04:52:47,RTL,17486.0,-0.0018695155158638954,0.001434212860961755,0.19705167412757874,-0.0016981886389354865,-0.00030632055131718516,0.024860770752032597,-35.36231006666667,149.16576286666668,55643.333333333336,-4.666666666666667,1.6666666666666667,-152.0,0.0,0.0,-1000.0,0.3333333333333333,0.6666666666666666,25.666666666666668
04:52:49,RTL,17486.0,-0.0006674511823803186,0.0015411641992007692,0.23753763735294342,0.0021962505221987763,0.0004453444853425026,0.01877168007194996,-35.3623102,149.165763,58750.666666666664,-1.0,0.0,-152.33333333333334,0.0,0.0,-1000.0,3.3333333333333335,1.3333333333333333,19.666666666666668
04:52:51,RTL,17486.0,0.0012287401865857344,0.001726338523440063,0.2679317692915599,0.001557121363778909,0.00229779037181288,0.013083664700388908,-35.36231,149.16576283333336,61851.0,0.0,0.0,-152.0,0.0,0.0,-999.6666666666666,3.0,3.3333333333333335,14.0
04:52:52,RTL,134211.0,0.0012614188405374687,0.0024348165219028792,0.28381149967511493,-0.00015206631117810807,0.001498980602870385,0.01193647738546133,-35.3623098,149.1657627,63951.0,-1.0,0.0,-152.0,0.0,0.0,-1000.0,1.6666666666666667,3.0,12.666666666666666
04:52:53,RTL,134211.0,0.0009330972679890692,0.0027683991162727275,0.29163118203481037,-0.00040078597764174145,-0.0004429961748731633,0.010595244665940603,-35.3623097,149.1657627,65123.0,-1.6666666666666667,0.0,-152.0,0.0,0.0,-1000.0,1.3333333333333333,0.6666666666666666,11.666666666666666
04:52:55,RTL,134211.0,0.0005296068363046894,0.002119210548698902,0.3079443673292796,0.0011938140572359164,0.000431061916363736,0.007544209094097217,-35.3623096,149.1657627,68220.0,-2.0,0.0,-152.0,0.0,0.0,-1000.3333333333334,2.3333333333333335,1.3333333333333333,8.333333333333334
04:52:57,RTL,134211.0,0.0007116821167680124,0.001900376829629143,0.32120967904726666,0.0006657037107894818,7.296524321039517e-05,0.006661954956750075,-35.3623096,149.1657626,71324.66666666667,-2.0,0.0,-152.0,0.0,0.0,-999.6666666666666,2.0,1.3333333333333333,7.333333333333333
04:52:58,RTL,226074.0,0.0007449325639754534,0.0018992364639416337,0.3287293513615926,0.001075983086290459,-3.5819907983144127e-05,0.007953320319453875,-35.3623096,149.1657626,73272.0,-2.0,0.0,-152.0,0.0,0.0,-1000.0,2.3333333333333335,1.0,8.666666666666666
04:52:59,RTL,226074.0,0.0008084552828222513,0.0017541192161540191,0.3329421281814575,0.0009721925792594751,0.0006064502134298285,0.006396715218822162,-35.3623096,149.1657626,74436.33333333333,-2.0,0.0,-152.0,0.0,0.0,-1000.0,2.0,2.0,7.333333333333333
04:53:01,RTL,226074.0,0.000843116024043411,0.0012566106161102653,0.34355392058690387,0.0010451878188177943,0.000898889770420889,0.005866776841382186,-35.3623096,149.1657626,77545.0,-2.0,0.0,-152.0,0.0,0.0,-999.6666666666666,2.3333333333333335,2.0,6.666666666666667
04:53:03,RTL,103763.0,0.000892003474291414,0.0016048179240897298,0.3520146906375885,0.0004656972596421838,-0.00012488670957585177,0.0043398370034992695,-35.3623096,149.1657626,80646.0,-1.3333333333333333,0.0,-152.0,0.0,0.0,-1000.0,2.0,1.0,5.333333333333333
04:53:05,RTL,103763.0,0.0009986451865794759,0.0020514955588926873,0.3596166471640269,-0.000614330405369401,0.0003554204401249687,0.004152712722619374,-35.3623096,149.1657626,83751.66666666667,-2.0,0.0,-152.0,0.0,0.0,-1000.0,1.0,1.6666666666666667,5.333333333333333
04:53:07,RTL,103763.0,0.0008218273287639022,0.0017113573849201202,0.36637893319129944,-0.0005823771158854166,-0.0015862853809570272,0.003902515551696221,-35.3623096,149.1657626,86861.0,-2.0,0.0,-152.0,0.0,0.0,-1000.0,1.0,0.0,4.666666666666667
04:53:08,RTL,87809.0,0.0007787211798131466,0.0017268649923304717,0.3697117269039154,-0.00036102673038840294,-0.0007263439862678448,0.0039492337964475155,-35.3623096,149.1657626,88798.33333333333,-2.0,0.0,-152.0,0.0,0.0,-1000.0,1.3333333333333333,1.0,4.666666666666667
04:53:09,RTL,87809.0,0.0008203482915026447,0.0016141821009417374,0.3717098832130432,-0.0009565170233448347,-0.0003345289345209797,0.00439815556940933,-35.3623096,149.1657626,89965.66666666667,-2.0,0.0,-152.0,0.0,0.0,-1000.0,0.6666666666666666,1.0,5.333333333333333
04:53:11,RTL,87809.0,0.0005285043541031579,0.0016533630744864543,0.37702911098798114,0.00022949980727086464,-0.0013390805494661133,0.0018818217795342207,-35.3623096,149.1657626,93068.66666666667,-2.0,0.0,-152.0,0.0,0.0,-1000.0,1.6666666666666667,0.3333333333333333,3.0
04:53:13,RTL,115444.0,0.0005291929022253802,0.0010216633478800456,0.3813231388727824,0.0005051251888896028,2.9806590949495635e-06,0.002235036032895247,-35.3623096,149.1657626,96183.0,-1.6666666666666667,0.0,-152.0,0.0,0.0,-999.6666666666666,2.3333333333333335,1.3333333333333333,3.3333333333333335
04:53:15,RTL,115444.0,0.0009785743507867057,0.0012838435747350256,0.3852778971195221,0.00014453610250105461,0.0006795979182546338,0.0026872819289565086,-35.3623096,149.1657626,99284.0,-1.0,0.0,-152.0,0.0,0.0,-999.6666666666666,1.6666666666666667,2.3333333333333335,4.0
04:53:17,RTL,115444.0,0.0009049436775967479,0.0013573247706517577,0.38920624057451886,-0.0002239263461281856,-0.0002949846675619483,0.0027256308433910212,-35.3623096,149.1657626,102390.33333333333,-2.0,0.0,-152.0,0.0,0.0,-1000.0,1.6666666666666667,1.3333333333333333,4.0
04:53:18,RTL,90768.0,0.0008888324567427238,0.0014035496084640424,0.39104053378105164,-0.0004560896195471287,0.0002938484928260247,0.0030795243801549077,-35.3623096,149.1657626,104333.33333333333,-1.0,0.0,-152.0,0.0,0.0,-999.6666666666666,1.6666666666666667,1.6666666666666667,4.0
04:53:19,RTL,90768.0,0.000891561716950188,0.001616437880632778,0.3921853204568227,-0.0006501191140462955,-0.0003577931396042307,0.001486878531674544,-35.3623096,149.1657626,105503.66666666667,-2.0,0.0,-152.0,0.0,0.0,-1000.3333333333334,1.0,1.0,2.6666666666666665
04:53:21,RTL,90768.0,0.0008425275445915759,0.0015596064428488414,0.39459918936093646,-0.000170484883710742,-0.00013369690471639237,0.002492546491945783,-35.3623096,149.1657626,108611.0,-2.0,0.0,-152.0,0.0,0.0,-999.6666666666666,1.6666666666666667,1.3333333333333333,4.0
04:53:23,RTL,99744.0,0.0008933740900829434,0.001457882773441573,0.39664750297864276,-0.0006574927053103844,-0.0005448802063862482,0.002186274155974388,-35.3623096,149.1657626,111716.0,-2.0,0.0,-152.0,0.0,0.0,-999.6666666666666,1.0,1.3333333333333333,3.6666666666666665
04:53:25,RTL,99744.0,0.0005545643604515741,0.00118117827999716,0.39860021074612934,-0.0008534782488519946,-0.0008773835531125466,0.0020909402519464493,-35.3623096,149.1657626,114822.0,-2.0,0.0,-152.0,0.0,0.0,-1000.0,0.6666666666666666,1.0,3.3333333333333335
04:53:27,RTL,99744.0,0.000653204023061941,0.0014588291912029188,0.4001702070236206,0.0007990113614747921,0.0007521749163667361,-1.7463462427258492e-06,-35.3623096,149.1657626,117931.66666666667,-1.0,0.0,-152.0,0.0,0.0,-1000.0,2.6666666666666665,2.3333333333333335,1.3333333333333333
04:53:28,RTL,33245.0,0.0009467025326254467,0.00134551792871207,0.40099912881851196,0.0004402635774264733,0.00019223619407663742,0.0009750334235529105,-35.3623096,149.1657626,119869.33333333333,-1.6666666666666667,0.0,-152.0,0.0,0.0,-1000.0,2.6666666666666665,1.6666666666666667,2.6666666666666665
04:53:29,RTL,33245.0,0.000946429247657458,0.0011657975458850463,0.40167800585428876,-0.0006411004966745774,-1.7296600465973217e-05,-0.00047283293679356575,-35.3623096,149.1657626,121036.33333333333,-1.6666666666666667,0.0,-152.0,0.0,0.0,-1000.0,1.6666666666666667,1.6666666666666667,1.0
04:53:31,RTL,33245.0,0.0008260822699715694,0.0013263104483485222,0.40279794732729596,-9.127500622222821e-05,-0.00013128710755457482,0.0014119274370993178,-35.3623096,149.1657626,124141.33333333333,-1.6666666666666667,0.0,-152.0,0.0,0.0,-1000.0,1.6666666666666667,2.0,3.0
04:53:33,RTL,33245.0,0.0010493024407575529,0.001575608078079919,0.4045386115709941,0.00024252765191098055,-0.00031752604991197586,-0.000798423153658708,-35.3623096,149.1657626,127251.0,-2.0,0.0,-152.0,0.0,0.0,-1000.3333333333334,2.3333333333333335,1.0,0.6666666666666666
04:53:34,RTL,26820.0,0.0008309183758683503,0.0014982961971933644,0.4052491287390391,0.0007019879994913936,0.00017999535581717888,0.0006286400991181532,-35.3623096,149.1657626,129192.66666666667,-2.0,0.0,-152.0,0.0,0.0,-1000.3333333333334,2.6666666666666665,2.0,2.0
04:53:35,RTL,26820.0,0.0007510680588893592,0.0016544503935923178,0.4054402907689412,0.0008795878384262323,0.0011891732768466075,0.0010656498682995637,-35.3623096,149.1657626,130357.33333333333,-2.0,0.0,-152.0,0.0,0.0,-1000.0,3.0,3.0,2.6666666666666665
04:53:37,RTL,26820.0,0.0006573580321855843,0.0010953292367048562,0.40631399552027386,-0.0008094216852138439,-0.0002257172018289566,0.0016688176741202672,-35.3623096,149.1657626,133467.66666666666,-1.3333333333333333,0.0,-152.0,0.0,0.0,-999.6666666666666,1.0,2.0,3.3333333333333335
04:53:39,RTL,210586.0,0.0008132340153679252,0.0012160774397974212,0.406704306602478,0.0017915165517479181,0.0003566024824976921,0.0009493835968896747,-35.3623096,149.1657626,136574.66666666666,-1.0,0.0,-152.0,0.0,0.0,-1000.0,3.6666666666666665,2.3333333333333335,2.6666666666666665
04:53:41,RTL,210586.0,0.0004834088225228091,0.0015669651329517365,0.40740607182184857,-0.00047584025499721366,-0.00042348688778777915,0.0005454573159416517,-35.3623096,149.1657626,139688.0,-1.0,0.0,-152.0,0.0,0.0,-1000.0,1.6666666666666667,1.3333333333333333,2.3333333333333335
04:53:43,RTL,210586.0,0.0007579858647659421,0.0012705889530479908,0.4079013566176097,0.0013744703804453213,0.00012938825724025568,0.0013893013820052147,-35.3623096,149.1657626,142792.33333333334,-1.0,0.0,-152.0,0.0,0.0,-1000.3333333333334,3.3333333333333335,1.6666666666666667,3.3333333333333335
04:53:44,RTL,221879.0,0.0009742775776733955,0.001220740571928521,0.40832937757174176,-0.00013103863845268884,-0.00046634658550222713,0.0007330638666947683,-35.3623096,149.1657626,144729.33333333334,-1.0,0.0,-152.0,0.0,0.0,-999.6666666666666,2.0,1.3333333333333333,2.3333333333333335
04:53:45,RTL,221879.0,0.0010609156840170424,0.0012326333671808243,0.40822823842366535,-0.00021504261530935764,0.00046860892325639725,-0.0002862523930768172,-35.3623096,149.1657626,145894.0,-1.0,0.0,-152.0,0.0,0.0,-1000.0,1.6666666666666667,2.6666666666666665,1.3333333333333333
04:53:47,RTL,221879.0,0.0008842381454693774,0.0015581874952962,0.4088574747244517,-5.162270584454139e-05,-0.00027098366990685463,0.0008597629300008217,-35.3623096,149.1657626,149006.66666666666,-2.0,0.0,-152.0,0.0,0.0,-1000.0,1.6666666666666667,1.6666666666666667,2.6666666666666665
04:53:49,RTL,153823.0,0.0007988346430162588,0.001545303074332575,0.40994273622830707,0.0003051684082796176,0.00018248167665054402,-0.00035465202139069635,-35.3623096,149.1657626,152117.0,-2.0,0.0,-152.0,0.0,0.0,-1000.0,2.3333333333333335,2.0,1.3333333333333333
04:53:51,RTL,153823.0,0.0007388171118994554,0.001077794663918515,0.4099172353744507,0.0015010960244884093,0.001149736267204086,0.00155466771684587,-35.3623096,149.1657626,155222.0,-1.0,0.0,-152.0,0.0,0.0,-999.6666666666666,3.3333333333333335,2.6666666666666665,3.3333333333333335
04:53:53,RTL,153823.0,0.0008855440537445247,0.0015517158123354118,0.4100475311279297,0.0010101698183765013,-0.00026496569626033306,0.000993553704271714,-35.3623096,149.1657626,158325.33333333334,-1.0,0.0,-152.0,0.0,0.0,-1000.0,3.0,1.6666666666666667,2.6666666666666665
04:53:54,RTL,48009.0,0.0008645454266419014,0.0011558190065746505,0.41032589475313824,0.000497353496029973,5.1804507772127785e-05,0.000662054323280851,-35.3623096,149.1657626,160266.33333333334,-1.0,0.0,-152.0,0.0,0.0,-999.6666666666666,2.3333333333333335,2.0,2.3333333333333335
04:53:55,RTL,48009.0,0.0008703525915431479,0.0013928134770443041,0.41037338972091675,0.0003790029635032018,0.0012639203729728858,0.00019957955616215864,-35.3623096,149.1657626,161431.33333333334,-1.0,0.0,-152.0,0.0,0.0,-1000.0,2.6666666666666665,3.6666666666666665,2.0
04:53:58,RTL,48009.0,0.000902955187484622,0.0014450702583417296,0.41044782102108,-0.00036051985807716846,-0.0007075672619976103,0.0020444124238565564,-35.3623096,149.1657626,166441.5,-1.5,0.0,-152.0,0.0,0.0,-1000.0,1.5,1.5,4.0
04:54:00,RTL,48009.0,0.0011206280323676765,0.001773316995240748,0.41056692600250244,-0.0004059585044160485,0.0003056832356378436,-0.000512613623868674,-35.3623096,149.1657626,169552.5,-2.0,0.0,-152.0,0.0,0.0,-1000.0,2.0,2.5,1.5
04:54:01,RTL,38027.0,0.0010202384437434375,0.001581869408255443,0.41058655828237534,0.0017332880524918437,0.00010402171756140888,0.0008663448097649962,-35.3623096,149.1657626,170725.25,-2.0,0.0,-152.0,0.0,0.0,-1000.0,4.25,2.25,2.75
04:54:04,RTL,38027.0,0.00020338988360890653,0.0011467959848232567,0.41083893179893494,0.0002783549716696143,0.0005343008670024574,0.0017222216119989753,-35.3623096,149.1657626,175764.5,-2.0,0.0,-152.0,0.0,0.0,-999.5,3.0,3.0,4.0
04:54:06,RTL,20915.0,0.001028391474392265,0.0009778269159141928,0.4117538630962372,0.00029897718923166394,-0.000438180286437273,0.0017913548508659005,-35.3623096,149.1657626,178879.5,-1.0,0.0,-152.0,0.0,0.0,-999.5,2.5,2.0,3.5
04:54:08,RTL,3803.0,0.0008160927100107074,0.0013326017069630325,0.4114484190940857,-0.000638062774669379,0.0008706469088792801,-4.590931348502636e-05,-35.3623096,149.1657626,181985.0,-1.0,0.0,-152.0,0.0,0.0,-999.5,2.0,3.5,2.0
04:54:10,RTL,3803.0,0.000849272939376533,0.0012661133077926934,0.41126999258995056,0.0002184974728152156,-0.0002444699639454484,4.125665873289108e-05,-35.3623096,149.1657626,185092.5,-1.0,0.0,-152.0,0.0,0.0,-1000.0,3.0,2.0,2.0
04:54:11,RTL,157765.0,0.00085181332542561,0.0013778561260551214,0.4115708917379379,-0.0003850864595733583,0.00020729313837364316,-0.0002883205597754568,-35.3623096,149.1657626,186258.25,-1.0,0.0,-152.0,0.0,0.0,-1000.0,2.0,2.5,1.75
04:54:12,RTL,157765.0,0.000836117920698598,0.0013391005340963602,0.4113869220018387,-0.00046649493742734194,0.00015988631639629602,0.00045883993152529,-35.3623096,149.1657626,188199.0,-1.0,0.0,-152.0,0.0,0.0,-999.5,2.0,2.5,2.5
04:54:14,RTL,157765.0,0.0007360595336649567,0.0014036851935088634,0.41149336099624634,0.0005346921971067786,-0.0008664997294545174,0.0010607294971123338,-35.3623096,149.1657626,191304.5,-1.0,0.0,-152.0,0.0,0.0,-1000.0,3.0,1.5,3.5
04:54:16,RTL,157765.0,0.0009686894190963358,0.0012564088683575392,0.4114079028367996,0.000332873547449708,-0.0002559472341090441,-0.0009551719995215535,-35.3623096,149.1657626,194412.0,-1.0,0.0,-152.0,0.0,0.0,-1000.0,2.5,2.0,1.5
04:54:17,RTL,59438.0,0.0008884756389306858,0.0013764981122221798,0.4114020839333534,-0.0005166899645701051,0.001187335408758372,0.0009175679879263043,-35.3623096,149.1657626,195579.75,-1.0,0.0,-152.0,0.0,0.0,-999.75,2.25,3.75,3.25
04:54:18,RTL,59438.0,0.0005815604527015239,0.0017220709123648703,0.41155967116355896,0.0024071799125522375,0.00015940237790346146,0.0006000309949740767,-35.3623096,149.1657626,197518.0,-2.0,0.0,-152.0,0.0,0.0,-1000.5,5.0,2.5,2.5
04:54:20,RTL,59438.0,0.0007384292257484049,0.0012874670210294425,0.4114357680082321,-0.00036840373650193214,5.6188320741057396e-05,0.00011565955355763435,-35.3623096,149.1657626,200629.0,-2.0,0.0,-152.0,0.0,0.0,-1000.0,2.0,2.5,2.0
04:54:22,RTL,72716.5,0.001162817468866706,0.0008172291854862124,0.41234560310840607,0.0007348363287746906,-0.00023381575010716915,0.001166986534371972,-35.3623096,149.1657626,203735.0,-1.0,0.0,-152.0,0.0,0.0,-1000.5,3.0,2.0,3.5
04:54:24,RTL,85995.0,0.0008070643525570631,0.001260549994185567,0.41200651228427887,0.0009030132787302136,-0.0009607268148101866,0.0012296574423089623,-35.3623096,149.1657626,206841.0,-1.0,0.0,-152.0,0.0,0.0,-1000.0,3.5,1.5,3.5
04:54:26,RTL,85995.0,0.0009095882996916771,0.0014020800008438528,0.4117331802845001,-0.0007141289534047246,-0.000756374909542501,0.0014571535866707563,-35.3623096,149.1657626,209952.0,-1.0,0.0,-152.0,0.0,0.0,-1000.0,2.0,1.5,3.5
04:54:27,RTL,61850.0,0.0009151175618171692,0.001318694354267791,0.41199589520692825,0.0009347661689389497,1.057889312505722e-05,0.001988654024899006,-35.3623096,149.1657626,211120.5,-1.0,0.0,-152.0,0.0,0.0,-999.75,3.25,2.5,4.0
04:54:28,RTL,61850.0,0.0008581296424381435,0.0014684183988720179,0.41182728111743927,0.0008477336959913373,-0.0010669586481526494,0.00077014637645334,-35.3623096,149.1657626,213061.5,-2.0,0.0,-152.0,0.0,0.0,-1000.0,3.5,1.5,3.0
04:54:30,RTL,61850.0,0.0009220863285008818,0.0015416035894304514,0.4117678552865982,-0.0005541857099160552,-0.000809025950729847,0.0007599404780194163,-35.3623096,149.1657626,216168.0,-1.0,0.0,-152.0,0.0,0.0,-1000.0,2.5,2.0,3.0
04:54:32,RTL,43341.5,0.0010414411081001163,0.0016747720073908567,0.4117107093334198,-0.0002309923293069005,-0.00029344530776143074,-0.0006059508305042982,-35.3623096,149.1657626,219275.0,-2.0,0.0,-152.0,0.0,0.0,-1000.5,2.5,2.0,2.0
04:54:34,RTL,24833.0,0.0007844472420401871,0.0015025894390419126,0.4116317927837372,-0.0002645120257511735,0.0001242693979293108,0.0006752037443220615,-35.3623096,149.1657626,222381.0,-2.0,0.0,-152.0,0.0,0.0,-1000.0,3.0,3.0,3.0
04:54:36,RTL,24833.0,0.000643912615487352,0.0008663076150696725,0.41176722943782806,0.00027907034382224083,8.63061286509037e-05,-0.0004231345374137163,-35.3623096,149.1657626,225487.0,-1.5,0.0,-152.0,0.0,0.0,-1000.5,3.5,2.5,2.0
04:54:37,RTL,20183.0,0.0005841747915837914,0.0013064894010312855,0.4122515842318535,-2.011161996051669e-05,0.00013721681898459792,0.0009830009075812995,-35.3623096,149.1657626,226652.25,-1.25,0.0,-152.0,0.0,0.0,-1000.0,2.75,3.0,3.5
04:54:38,RTL,20183.0,0.000988058396615088,0.016437683254480362,0.4125232696533203,0.00204692711122334,0.05307788960635662,0.001007887884043157,-35.3623096,149.16576255,228750.0,-4.0,-0.5,-151.0,0.0,0.0,-998.0,5.0,55.5,3.5
04:54:40,RTL,20183.0,-0.009948231745511293,0.09321173280477524,0.41211557388305664,-0.0072888839058578014,0.03679202310740948,-0.00014320912305265665,-35.36231665,149.165759,231781.5,-93.5,-38.5,-142.5,16.0,9.0,-992.5,-3.5,40.0,2.0
04:54:42,RTL,150018.0,0.06563178636133671,0.12123070657253265,0.9189515709877014,0.047862096689641476,-0.034956345334649086,0.11485717073082924,-35.3623483,149.1657378,233816.0,-267.5,-151.5,-37.5,65.0,12.0,-940.0,50.5,-31.0,117.5
04:54:44,RTL,279853.0,0.06296444125473499,0.22219488769769669,0.9560551643371582,-0.21087835729122162,0.0420282706618309,-0.045415389351546764,-35.36241315,149.16570535,233656.0,-467.0,-172.0,27.0,112.0,-10.0,-1011.5,-207.0,44.5,-42.0
04:54:46,RTL,279853.0,0.03513680584728718,0.228824645280838,0.8777734935283661,0.010987808927893639,-0.021089931949973106,-0.02986854501068592,-35.3625157,149.16565450000002,233353.0,-664.0,-282.5,5.0,165.0,17.5,-993.5,14.0,-17.0,-26.5
04:54:47,RTL,62654.0,0.022915839916095138,0.24813639000058174,0.8442751914262772,-0.009699707210529596,0.08040782739408314,-0.047706570476293564,-35.362562525,149.165630275,233275.5,-714.5,-297.25,16.25,172.25,13.75,-950.25,-6.25,83.25,-44.0
04:54:48,RTL,62654.0,-0.023165326565504074,0.2880701869726181,0.7346242070198059,-0.04378454014658928,-0.15755341202020645,-0.15120679140090942,-35.3626485,149.16558495,232487.5,-823.5,-367.5,93.5,203.0,31.5,-1027.0,-40.0,-154.0,-147.5
04:54:50,RTL,62654.0,-0.1230224184691906,0.16250662505626678,0.392456978559494,-0.08298597298562527,0.3097955659031868,-0.01155478716827929,-35.362796349999996,149.1655049,232660.0,-771.5,-332.0,-49.0,163.0,80.0,-846.0,-79.0,312.5,-8.0
04:54:52,RTL,62654.0,-0.09781133756041527,0.1636347398161888,0.4188537895679474,-0.029950260184705257,-0.0926790852099657,-0.014062581118196249,-35.36293475,149.16542694999998,232827.5,-779.5,-367.0,-4.5,162.0,90.0,-1016.5,-26.0,-89.0,-10.0
04:54:53,RTL,54801.0,-0.09934682957828045,0.1610394101589918,0.4203029125928879,-0.018997539416886866,-0.06480397656559944,-0.006976326112635434,-35.362987425,149.165397125,232884.5,-778.0,-366.75,-12.75,166.75,87.75,-1008.5,-15.25,-61.25,-4.0
04:54:54,RTL,54801.0,-0.16919546574354172,0.1088101975619793,0.6962710916996002,-0.07415384612977505,-0.17181361094117165,0.43943797051906586,-35.363071950000005,149.1653484,233443.0,-695.0,-366.5,-59.5,167.5,46.5,-960.5,-70.5,-168.0,442.0
04:54:56,RTL,54801.0,-0.028578563593328,-0.027324307709932327,0.8193469643592834,0.9645831882953644,0.021418534219264984,0.014550879132002592,-35.363172750000004,149.1652833,233703.0,-434.0,-194.5,16.5,116.5,71.0,-1032.5,968.0,24.5,18.0
04:54:58,RTL,146752.0,-0.06792190857231617,-0.011164899682626128,0.7562110424041748,-0.6071155369281769,-0.02596643567085266,-0.04900160804390907,-35.363233550000004,149.16525395,233508.5,-255.5,-99.0,-3.5,65.0,-18.5,-1018.5,-604.0,-22.0,-45.5
04:55:00,RTL,238703.0,-0.0525209940969944,-0.05040137656033039,0.7182306051254272,0.17019794881343842,0.016886448487639427,-0.007652763044461608,-35.36326355,149.16524,233542.5,-66.0,-50.5,0.0,19.0,30.0,-1001.5,174.5,20.0,-4.5
04:55:02,RTL,238703.0,-0.018943942617624998,-0.018162952736020088,0.686290055513382,0.13514228910207748,0.029881714843213558,-0.005747339688241482,-35.36326835,149.1652362,233537.0,16.0,-13.5,-2.0,-1.0,13.0,-991.5,138.5,33.0,-2.0
04:55:03,RTL,157201.0,-0.007614250818733126,0.0015878225676715374,0.676525428891182,0.3483889549970627,0.015117473434656858,-0.003529874433297664,-35.36326795,149.16523660000001,233541.5,18.5,-10.75,-1.75,-1.25,8.0,-1008.5,350.25,18.5,0.0
04:55:04,RTL,157201.0,-0.00908736209385097,-0.010500103700906038,0.6643429398536682,0.47947143018245697,-0.004783380543813109,-0.0003015941474586725,-35.363267449999995,149.1652369,233548.5,18.0,-11.5,-0.5,-1.5,24.0,-1001.0,481.5,-1.0,3.0
04:55:06,RTL,157201.0,0.005932309024501592,-0.00505036860704422,0.6504434049129486,-0.16321368515491486,0.001535888877697289,-0.004790111794136465,-35.363265150000004,149.1652367,233550.0,19.0,-4.0,-0.5,-3.5,-17.5,-1011.0,-162.5,4.5,-1.0
04:55:08,RTL,88070.5,0.02854389324784279,-0.00461152009665966,0.6389576196670532,0.5635881274938583,-0.0009362431010231376,-0.0070364223793148994,-35.363262500000005,149.1652354,233556.5,3.5,5.5,-0.5,-5.0,30.5,-987.0,565.0,2.5,-3.0
04:55:10,RTL,18940.0,0.011967970058321953,0.00232462928397581,0.6277125477790833,-0.9829528108239174,0.004733036854304373,-0.01123742200434208,-35.3632612,149.16523485,232434.5,-8.5,20.0,114.0,1.0,-72.5,-912.5,-982.0,8.0,-7.5
04:55:12,RTL,18940.0,-0.032156601548194885,0.004175489186309278,0.6189108490943909,0.2795286104083061,-0.0075346354860812426,-0.01384613779373467,-35.363262750000004,149.16523845,230208.0,-0.5,1.5,108.0,3.0,50.5,-991.5,283.5,-3.5,-10.0
04:55:13,RTL,84911.0,-0.04553874768316746,0.003430906217545271,0.615091547369957,-1.2684849500656128,0.00388839008519426,-0.0047720693401061,-35.363263525,149.165239725,229427.0,5.75,-7.25,100.5,5.0,-46.5,-991.5,-1265.5,7.0,-1.0
04:55:14,RTL,84911.0,-0.05140295624732971,0.004149800166487694,0.609685480594635,-0.6208916455507278,-0.0026800333289429545,-0.010586156509816647,-35.363265150000004,149.1652426,228170.5,20.5,-29.0,99.5,4.0,-70.0,-974.0,-621.0,0.5,-6.5
04:55:16,RTL,84911.0,-0.017643896862864494,-0.004885000176727772,0.601431667804718,1.248249351978302,-0.0010375527199357748,-0.006227103294804692,-35.363265850000005,149.16524345,226134.5,34.0,-51.5,100.5,-2.0,31.5,-1022.0,1247.5,2.5,-2.0
04:55:18,RTL,84911.0,-0.029099118895828724,-0.0077285803854465485,0.5939033031463623,-1.1174386739730835,-0.004607560811564326,0.00017022236716002226,-35.3632642,149.16524049999998,224071.0,23.0,-34.5,99.0,-7.5,-16.0,-1015.5,-1116.5,-1.0,3.5
04:55:19,RTL,93466.0,0.005225052256719209,-0.011107281316071749,0.5923735648393631,-1.0235477536916733,-0.0029376017628237605,0.005119381588883698,-35.3632627,149.1652378,223305.5,14.5,-23.25,97.5,-12.25,-2.75,-1006.5,-1022.25,0.5,8.25
04:55:20,RTL,93466.0,0.06018808297812939,-0.00977914035320282,0.5891284346580505,-1.2529866099357605,0.012339354027062654,-0.006089193746447563,-35.3632597,149.1652325,222028.5,-7.0,11.5,98.0,-8.0,-56.5,-1022.5,-1253.0,15.5,-2.0
04:55:22,RTL,93466.0,0.06580353900790215,0.0030435712542384863,0.5875722765922546,0.42245303839445114,0.00808478007093072,-0.018786925822496414,-35.3632582,149.16523080000002,220035.0,-32.5,52.0,107.0,3.5,-33.5,-923.5,422.0,11.0,-14.5
04:55:24,RTL,67818.0,-0.020154098980128765,0.013223056215792894,0.5838182270526886,0.9774127900600433,-3.577978350222111e-05,0.002638045232743025,-35.36326185,149.1652383,217978.5,-15.5,21.5,111.0,14.0,-8.0,-1063.0,977.0,3.5,6.0
04:55:26,RTL,42170.0,-0.04308542236685753,-0.0031030914979055524,0.5790904760360718,0.9140650629997253,-0.007618636125698686,0.0007205391302704811,-35.3632659,149.1652441,215937.5,24.0,-41.0,99.5,1.5,-2.5,-993.5,913.0,-3.5,4.0
04:55:28,RTL,42170.0,0.007276564836502075,-0.010317079722881317,0.5783061981201172,1.3180376291275024,0.0044404491782188416,0.01908164471387863,-35.3632654,149.165242,213919.0,33.0,-46.0,105.0,-6.0,36.0,-1062.0,1316.0,7.0,22.0
04:55:29,RTL,226534.0,0.002253075610497035,-0.008785206358879805,0.5751248747110367,1.1361471489071846,0.002909826929681003,-0.005042927921749651,-35.3632646,149.16524065,213270.0,28.5,-38.25,103.25,-7.25,73.0,-1019.5,1136.25,6.0,-1.25
04:55:30,RTL,226534.0,0.010681654792279005,-0.004054388264194131,0.5742631554603577,0.8605161905288696,0.004193567554466426,-0.0015465564792975783,-35.3632633,149.16523890000002,212270.0,17.5,-21.5,94.5,-5.0,68.5,-1049.5,861.5,7.5,2.0
04:55:32,RTL,226534.0,0.007387521211057901,-0.00013217300875112414,0.5720421671867371,0.26154806464910507,0.0024243845837190747,-0.0088710046838969,-35.3632615,149.16523675,210216.5,-2.0,0.5,102.0,-3.0,57.5,-944.5,262.5,5.5,-5.0
04:55:34,RTL,132297.0,-0.009586178697645664,0.00013802803005091846,0.5683968961238861,-1.35896897315979,0.011062832549214363,-0.020870452746748924,-35.36326085,149.16523575000002,208165.0,-10.5,11.5,103.0,-2.0,-27.5,-875.0,-1358.0,14.0,-16.5
04:55:36,RTL,38060.0,0.0051427900907583535,0.0009924616606440395,0.5678758919239044,-1.1767445504665375,-0.0023329214891418815,-0.006662074476480484,-35.363261,149.16523585,206113.5,-10.5,13.0,96.5,1.5,-70.5,-953.5,-1178.0,1.5,-3.0
04:55:38,RTL,38060.0,0.018337762914597988,0.0005980976275168359,0.5664537847042084,1.1375423669815063,-0.004423186415806413,-0.00031629379373043776,-35.36326185,149.16523715,204074.5,-6.5,8.0,97.0,2.0,19.5,-952.5,1135.5,0.0,3.0
04:55:39,RTL,143485.0,0.0024406792945228517,-0.0006675801578239771,0.5651724934577942,1.1965408623218536,0.008761112403590232,0.008107906905934215,-35.363262150000004,149.16523755,203037.5,-3.0,3.0,100.25,0.5,64.5,-1000.0,1197.25,12.25,11.5
04:55:40,RTL,143485.0,-0.020403428003191948,1.8369537428952754e-05,0.5643748342990875,0.284470209851861,0.00248357723467052,0.007876289077103138,-35.363262649999996,149.1652383,202021.0,0.5,-0.5,98.0,1.5,51.0,-983.0,286.0,5.5,11.5
04:55:42,RTL,143485.0,-0.034550114534795284,-0.001741461717756465,0.5629706680774689,-0.39023473858833313,-0.001185030909255147,0.0017897356301546097,-35.3632633,149.16523934999998,199994.0,7.5,-12.0,98.5,-1.0,24.0,-996.5,-388.0,2.5,5.0
04:55:44,RTL,207267.0,-0.0026704901829361916,-0.005769097711890936,0.5618919432163239,-0.07516276836395264,-0.0003272441681474447,-0.0005409081932157278,-35.363262899999995,149.1652382,197951.0,7.5,-10.0,105.5,-3.0,-13.5,-1025.5,-76.0,3.0,2.5
04:55:46,RTL,271049.0,0.04555104486644268,-0.005747730610892177,0.5610142052173615,0.9215563535690308,-0.0010357237188145518,0.0009768148884177208,-35.363261300000005,149.16523510000002,195925.0,-3.0,8.5,98.5,-2.0,13.5,-1016.5,920.0,2.0,5.0
04:55:48,RTL,271049.0,0.0157161015085876,0.002897212514653802,0.5597937703132629,1.2160006165504456,0.0029488386353477836,-0.00031145161483436823,-35.363260999999994,149.1652355,193878.5,-12.0,22.5,103.0,1.0,59.0,-952.5,1216.5,6.0,3.0
04:55:49,RTL,172879.0,-0.02048164908774197,0.0007597193907713518,0.5600912272930145,-0.5505732574965805,0.00011105136945843697,-0.004177235474344343,-35.363261474999995,149.16523654999997,192854.5,-8.75,12.75,101.0,-0.25,17.5,-974.75,-548.25,3.25,0.0
04:55:50,RTL,172879.0,-0.010974869132041931,-0.0007839671598048881,0.5602765679359436,-1.4675043225288391,-0.004076485522091389,0.0003040424780920148,-35.363261550000004,149.16523654999997,191843.0,-5.5,7.0,104.5,1.0,-55.5,-1034.5,-1466.5,0.0,3.5
04:55:52,RTL,172879.0,-0.010498662246391177,0.001533078437205404,0.5591466128826141,-0.09808558970689774,-0.0018243949161842465,-0.0020543616265058517,-35.3632627,149.16523865,189808.5,1.0,-2.0,107.0,2.5,-45.0,-1023.5,-99.5,1.5,2.0
04:55:54,RTL,162843.5,0.03862207941710949,-0.008571995422244072,0.5594490170478821,1.5242021679878235,-0.0020436678314581513,0.002324475208297372,-35.3632623,149.16523695,187767.0,1.0,-3.0,102.5,-3.5,63.0,-977.5,1524.5,2.0,6.0
04:55:56,RTL,152808.0,0.05877930112183094,-0.007989608682692051,0.5583146810531616,1.3891444206237793,0.002581983571872115,0.005486511858180165,-35.3632604,149.16523295000002,185751.5,-12.0,27.0,98.0,-3.0,72.5,-981.0,1390.5,5.5,9.0
04:55:58,RTL,152808.0,0.022859519347548485,-0.0017752164858393371,0.5568496882915497,-0.053456902503967285,-0.0014627657365053892,0.01791550125926733,-35.3632597,149.1652323,183709.5,-23.5,45.0,108.0,-0.5,42.0,-983.0,-49.5,2.0,21.5
04:55:59,RTL,232657.0,0.0142938073258847,-0.001948840101249516,0.5589241981506348,-1.291621834039688,0.0012088593794032931,-0.00386872049421072,-35.363259525,149.16523217500003,182683.25,-25.25,44.25,100.5,-1.5,-31.0,-1029.75,-1288.0,4.5,0.25
04:56:00,RTL,232657.0,0.01885186554864049,0.0007806518697179854,0.558731734752655,-1.2317457795143127,0.002432934707030654,-0.0008603290189057589,-35.36325945,149.16523225,181664.5,-26.0,44.5,103.0,1.5,-38.0,-1015.5,-1228.0,5.5,2.5
04:56:02,RTL,232657.0,-0.028914633207023144,0.006772283930331469,0.5580801069736481,-1.0542413294315338,0.0028648460283875465,-0.01242223964072764,-35.36326135,149.16523655,179593.5,-15.0,24.0,100.5,7.0,-59.0,-1043.0,-1051.0,6.5,-7.5
04:56:04,RTL,232657.0,-0.013391305692493916,0.0021522007882595062,0.5580458045005798,0.9803897440433502,-0.0012302889954298735,-0.004954028059728444,-35.3632638,149.16524065,177567.5,6.0,-11.0,97.0,5.0,12.0,-1057.5,982.0,2.0,-1.0
04:56:05,RTL,25410.0,-0.0231616732198745,-0.002615677716676146,0.5572011470794678,1.2366814613342285,-0.0047404602519236505,0.0050527636194601655,-35.363264725,149.16524197500001,176572.5,16.25,-27.0,104.25,0.25,35.25,-1003.75,1238.25,-1.0,8.75
04:56:06,RTL,25410.0,-0.007471821096260101,-0.008103148080408573,0.5567995309829712,1.170395851135254,-0.007135903928428888,-0.005359599366784096,-35.3632647,149.1652413,175554.0,21.0,-32.5,100.5,-0.5,45.5,-1046.0,1172.5,-3.0,-0.5
04:56:08,RTL,25410.0,0.0013902867212891579,-0.012407103087753057,0.5570273697376251,-0.3977827727794647,0.00038105889689177275,0.004542070906609297,-35.363262750000004,149.165237,173495.0,10.5,-11.0,102.5,-7.5,35.0,-975.5,-392.5,3.5,8.0
04:56:10,RTL,84339.5,0.024105173535645008,-0.001982274727197364,0.5580478012561798,-1.107483983039856,0.005955489119514823,-0.009037765907123685,-35.3632603,149.16523325,171432.5,-10.5,27.5,98.0,0.5,-64.0,-1012.5,-1105.0,9.0,-4.5
04:56:12,RTL,143269.0,-0.014199827797710896,0.004454575129784644,0.5590361952781677,-1.055980622768402,-0.004347199806943536,-0.010720322141423821,-35.36326135,149.16523635,169393.5,-9.5,18.0,96.0,5.0,-71.5,-1040.5,-1053.5,-1.0,-7.0
04:56:14,RTL,143269.0,-0.015139950904995203,-0.00011443723633419722,0.5580153167247772,-0.7974264174699783,-0.004652021452784538,-8.947798050940037e-05,-35.36326295,149.16523905,167308.0,4.5,-8.0,105.5,2.0,-78.5,-1000.0,-795.5,-1.5,3.0
04:56:15,RTL,137858.0,-0.018651382764801383,0.0018764397827908397,0.5581571906805038,0.03148281387984753,0.0018821903504431248,-0.010985803150106221,-35.363263700000005,149.16524045,166243.25,10.75,-15.25,102.25,4.5,-44.5,-993.75,32.25,4.5,-6.75
04:56:16,RTL,137858.0,-0.03922344744205475,0.0017573646910022944,0.5587031245231628,-0.3128933981060982,-0.0005115721141919494,-0.0017295234138146043,-35.36326455,149.16524205000002,165241.5,17.5,-28.0,100.0,3.0,-41.0,-1020.0,-312.0,2.0,1.0
04:56:18,RTL,137858.0,-0.0038036212063161656,-0.006735901813954115,0.5581861436367035,0.8954086005687714,0.0003800084814429283,0.008049878873862326,-35.3632647,149.1652417,163200.5,24.5,-40.0,105.0,-2.0,26.5,-985.5,895.0,3.5,11.5
04:56:20,RTL,133079.0,-0.007886396255344152,-0.0021749167071902775,0.5593673884868622,0.4593425393104553,0.004101363359950483,0.0018692552112042904,-35.3632636,149.16523949999998,161125.0,17.0,-20.5,100.0,1.0,42.5,-1022.0,462.0,7.0,5.0
04:56:22,RTL,128300.0,-0.06214525178074837,0.0009878341516014189,0.5577806234359741,-0.3756492845714092,-0.005446706898510456,0.009751934558153152,-35.36326455,149.16524220000002,159083.5,20.5,-32.0,102.0,0.0,12.5,-1126.5,-374.0,-1.5,13.0
04:56:24,RTL,128300.0,-0.04506332240998745,-0.007519865874201059,0.5587215423583984,-1.4956629872322083,-0.013534184079617262,0.019833180122077465,-35.3632645,149.1652414,157039.5,24.5,-39.5,101.5,-4.0,-41.5,-968.0,-1495.5,-10.0,23.0
04:56:25,RTL,65761.0,-0.01241237367503345,-0.0069455469492822886,0.5581107884645462,-1.1395254880189896,0.007487108086934313,-0.002850008546374738,-35.3632638,149.165239925,156009.0,21.75,-32.5,98.75,-3.25,-64.5,-1018.25,-1141.25,10.0,1.25
04:56:26,RTL,65761.0,-0.0015041076112538576,-0.0012916758423671126,0.557949036359787,-0.7507970631122589,0.005780990933999419,-0.008157334290444851,-35.36326305,149.16523899999999,155005.5,16.5,-22.0,99.0,1.0,-67.0,-1042.5,-753.0,8.5,-3.5
04:56:28,RTL,65761.0,-0.02645237371325493,0.0036966503248549998,0.5575901567935944,-0.027482762932777405,-0.00013485434465110302,0.007955691777169704,-35.36326365,149.1652412,152953.0,14.5,-26.5,102.5,1.0,-40.0,-1030.5,-31.5,2.5,11.0
04:56:30,RTL,65761.0,-0.01108033227501437,-0.005366265773773193,0.5576952695846558,1.2119439840316772,-0.002021426917053759,0.0003801174461841583,-35.3632638,149.1652406,150920.5,16.0,-30.0,98.0,-3.0,70.5,-952.0,1210.5,1.0,4.0
04:56:31,RTL,279584.0,-0.016341773443855345,-0.007660783710889518,0.5580085813999176,-0.3469642139971256,-0.0014303626376204193,-0.0007890239357948303,-35.3632633,149.16523915,149905.5,13.0,-22.75,103.25,-4.25,24.25,-994.5,-347.5,1.75,3.5
04:56:32,RTL,279584.0,-0.00659359874407528,-0.00841129943728447,0.5580724477767944,-1.1657312512397766,0.004297589533962309,1.2593809515237808e-05,-35.363262500000005,149.16523745,148890.0,7.0,-10.0,96.5,-4.0,-20.5,-1021.0,-1167.0,7.0,3.5
04:56:34,RTL,279584.0,0.015267194248735905,-0.007354825502261519,0.5582922399044037,-1.251685082912445,0.005269662709906697,0.005174888763576746,-35.36326075,149.1652339,146873.0,-7.5,18.0,102.5,-1.5,-33.0,-1001.0,-1252.5,8.0,8.5
04:56:36,RTL,222211.0,0.022222047671675682,-0.0016548189742024988,0.5586725473403931,-0.33203523606061935,-0.0032069063745439053,-0.003974416642449796,-35.36326045,149.16523375,144857.0,-15.0,31.0,107.5,1.5,-33.0,-1069.0,-335.5,-0.5,0.0
04:56:38,RTL,164838.0,0.0029919055523350835,0.005339452065527439,0.5592052638530731,0.34981293231248856,0.00121689448133111,0.0012499182485044003,-35.363261699999995,149.16523695,142803.5,-7.5,15.5,113.0,4.5,-42.0,-976.5,346.5,3.5,5.0
04:56:40,RTL,164838.0,-0.022268581204116344,0.00018036470282822847,0.5591984689235687,0.9172931909561157,-0.01071634329855442,0.004325611982494593,-35.363263950000004,149.16524099999998,140747.0,9.5,-16.5,104.5,2.5,36.5,-1082.5,914.5,-7.0,8.0
04:56:41,RTL,246318.0,-0.018870339496061206,-0.008245979784987867,0.5579293817281723,1.0334046334028244,-0.009828734444454312,0.00493231532163918,-35.3632643,149.165240875,139728.0,15.0,-26.0,105.75,-3.5,80.25,-987.25,1032.5,-6.25,8.5
04:56:42,RTL,246318.0,0.008408760651946068,-0.01336797047406435,0.5553694367408752,1.6419552564620972,-0.007587780244648457,-0.015641052275896072,-35.363264,149.1652396,139087.0,16.0,-25.0,99.0,-6.0,77.0,-969.0,1641.0,-4.0,-11.0
04:56:44,RTL,246318.0,0.03548890973130862,-0.006885367135206859,0.5577351649602255,0.6937678456306458,0.0002613417260969679,-0.0056455181911587715,-35.3632613,149.16523443333332,136767.66666666666,-2.3333333333333335,14.666666666666666,97.66666666666667,-3.0,52.0,-997.3333333333334,693.3333333333334,3.0,-1.6666666666666667
04:56:46,RTL,156498.0,0.02116451784968376,0.0018779448582790792,0.5603056252002716,-0.43530236929655075,0.006633878336288035,-0.006514813983812928,-35.36326075,149.16523460000002,134585.0,-11.0,26.5,97.0,3.0,-61.0,-997.5,-438.0,9.0,-2.5
04:56:48,RTL,66678.0,-0.016453998163342476,0.006236392073333263,0.560298502445221,0.023552652448415756,-0.007954161614179611,0.004832910373806953,-35.3632624,149.1652386,132934.0,-2.0,5.0,100.0,7.0,-43.0,-982.0,20.0,-5.0,8.0
04:56:50,RTL,66678.0,-0.010871422477066517,-0.0025631114840507507,0.5599909424781799,-0.4204358160495758,-0.0018563634948804975,-0.008343474473804235,-35.363263849999996,149.16524065,130895.0,14.0,-23.0,98.5,1.5,-61.0,-976.5,-423.5,1.5,-4.0
04:56:51,RTL,33665.0,-0.020339989074273035,-0.004239012603648007,0.559593141078949,1.0790783613920212,-0.005537075630854815,0.002530499710701406,-35.36326425,149.165240925,129622.25,15.5,-23.75,96.25,-1.0,67.5,-1011.75,1077.25,-2.5,5.75
04:56:52,RTL,33665.0,-0.011268944130279124,-0.007082332391291857,0.5599702596664429,1.2528518438339233,-0.0028626780258491635,-0.00020049232989549637,-35.3632641,149.16524045,128883.0,17.0,-26.0,100.0,-3.5,75.0,-988.0,1251.5,0.0,3.0
04:56:54,RTL,33665.0,0.0284366300329566,-0.014362684916704893,0.5584745109081268,-1.0698174238204956,-0.004346831934526563,0.009682118892669678,-35.3632614,149.1652348,126834.0,0.5,0.0,98.5,-10.5,-0.5,-1043.5,-1070.0,-1.5,13.0
04:56:56,RTL,33665.0,0.08203652501106262,-0.010994484648108482,0.5613289773464203,-1.5101003050804138,0.0021215903107076883,0.003829937893897295,-35.363257250000004,149.16522675,124825.0,-37.0,68.0,100.0,-3.0,-59.0,-956.0,-1510.5,5.0,7.0
04:56:57,RTL,4869.0,0.09139435179531574,-0.004110519395908341,0.5628439486026764,-0.2002095803618431,0.006411107839085162,-0.006941104191355407,-35.3632565,149.16522575000002,123582.75,-50.75,92.75,104.75,1.25,-42.75,-980.75,-201.0,8.75,-2.75
04:56:58,RTL,4869.0,0.07087564095854759,0.0007417707247441285,0.5621603727340698,-0.5671566277742386,0.0034160338109359145,-0.027963820844888687,-35.36325685,149.16522675,122827.0,-52.5,95.5,105.5,4.5,-70.0,-964.0,-567.5,5.5,-23.5
04:57:00,RTL,4869.0,0.012553606880828738,0.007197016850113869,0.5645758509635925,0.9166231453418732,-0.003965188981965184,-0.014459450729191303,-35.363260100000005,149.1652338,120743.5,-34.0,60.0,103.0,8.0,2.0,-997.0,917.5,-1.0,-10.5
04:57:02,RTL,100010.0,-0.010025448515079916,-0.004795545479282737,0.562847763299942,1.0051161646842957,-0.004095834738109261,0.014304704032838345,-35.36326285,149.1652381,118680.0,-5.0,9.0,99.5,-1.0,86.5,-935.0,1008.5,-1.5,17.5
04:57:04,RTL,195151.0,0.03408602252602577,-0.01100890152156353,0.561838299036026,-0.028393455781042576,0.003709289710968733,0.018182274885475636,-35.363261550000004,149.16523465,116639.5,-3.5,13.0,102.5,-3.5,49.0,-953.5,-23.0,6.0,21.5
04:57:06,RTL,195151.0,0.017375529278069735,3.3242686185985804e-06,0.5626190006732941,0.2981080077588558,0.011303165461868048,-0.0009699099464341998,-35.3632606,149.1652337,114590.0,-16.0,36.0,103.5,1.0,48.5,-965.5,304.0,13.5,2.0
04:57:07,RTL,2695.0,0.000516628148034215,0.0003406325849937275,0.5632537007331848,-1.3537318110466003,0.000580612279009074,-0.005081770766992122,-35.363260775,149.16523475,113304.0,-14.25,27.5,98.75,-0.5,-63.25,-1010.25,-1349.75,3.0,-1.25
04:57:08,RTL,2695.0,0.007929760264232755,-0.0007400560425594449,0.5644561052322388,-1.341383159160614,-0.003779490652959794,-0.00559688382782042,-35.3632608,149.1652349,112536.0,-13.0,23.0,97.0,2.0,-72.0,-1007.0,-1337.5,-1.0,-2.0
04:57:10,RTL,2695.0,-0.012703253887593746,0.003426705952733755,0.5630985200405121,-0.8106182813644409,-0.000788968987762928,-0.008767671650275588,-35.36326205,149.16523745,110505.5,-5.5,10.5,99.0,5.5,-69.0,-981.0,-808.5,1.0,-4.5
04:57:12,RTL,2695.0,0.0037049223901703954,-0.0006270338199101388,0.5640305578708649,1.1874310374259949,-0.005044496909249574,-0.008491375134326518,-35.36326335,149.16523965,108443.5,7.5,-12.5,97.5,3.5,25.0,-1102.5,1190.5,-2.5,-5.0
04:57:13,RTL,37275.0,-0.03510527033358812,-0.00023936780235089827,0.5651777386665344,0.13096007052809,0.0006100631144363433,0.0031129242852330208,-35.3632639,149.1652405,107178.0,13.25,-19.5,99.75,3.5,33.25,-1012.25,136.75,3.0,6.25
04:57:14,RTL,37275.0,-0.04329619184136391,0.0007296059193322435,0.5639091730117798,0.27829311788082123,0.004755241563543677,0.001640483969822526,-35.363264349999994,149.16524135,106436.5,17.0,-24.0,98.0,3.5,46.5,-952.0,283.0,6.5,4.0
04:57:16,RTL,37275.0,-0.06739615648984909,-0.0016183988482225686,0.5632537007331848,-0.512671709060669,-0.0022713629296049476,-0.00011911476030945778,-35.3632658,149.165244,104407.5,31.5,-49.0,98.0,-0.5,14.0,-1001.0,-508.0,0.0,2.5
04:57:18,RTL,61810.0,-0.05831736698746681,-0.00560625153593719,0.5634683668613434,-0.7737573087215424,-0.006815728265792131,0.008500809781253338,-35.363265549999994,149.16524314999998,102372.5,35.5,-53.0,103.5,-1.5,9.0,-967.5,-770.5,-4.0,11.5
04:57:20,RTL,86345.0,-0.026139159686863422,-0.0038716779090464115,0.5636901557445526,0.16994129586964846,0.0025227561127394438,-0.0041808513924479485,-35.363265150000004,149.16524275,100331.0,33.0,-49.0,101.5,-2.0,-21.5,-995.0,167.5,4.5,-1.0
04:57:22,RTL,86345.0,-0.0042587160132825375,-0.0037109865806996822,0.5622555017471313,1.1251791417598724,-0.003866811632178724,-0.0009261812083423138,-35.3632645,149.16524185,98292.0,26.5,-43.0,105.0,-4.0,33.5,-1010.0,1123.5,-1.5,2.5
04:57:23,RTL,36279.0,-0.0040074121206998825,-0.00804769666865468,0.5621675550937653,0.7711456194519997,-0.0024303317768499255,0.005088204343337566,-35.363263425,149.165239675,97019.5,18.0,-30.75,104.0,-5.25,80.5,-956.5,771.5,0.0,8.0
04:57:24,RTL,36279.0,0.006957781268283725,-0.008902086410671473,0.563438355922699,-0.02672220580279827,5.7838973589241505e-05,-0.00028032518457621336,-35.36326255,149.1652378,96244.0,11.5,-19.0,100.0,-6.0,41.5,-1030.0,-26.0,1.5,3.0
04:57:26,RTL,36279.0,0.012771501671522856,-0.0060796348843723536,0.5640738606452942,-0.6051749140024185,0.002392665366642177,0.0022023291094228625,-35.363260749999995,149.1652342,94196.0,-7.0,16.0,100.0,-2.5,17.0,-1002.0,-604.0,4.0,5.0
04:57:28,RTL,39735.5,-0.008224105695262551,0.002229589328635484,0.5647549629211426,-0.5968896448612213,0.002594496007077396,-0.002760656294412911,-35.3632607,149.1652348,92142.0,-14.0,27.5,101.0,2.5,7.0,-988.5,-595.0,4.5,0.5
04:57:30,RTL,43192.0,-0.01740412227809429,-0.00017800550108404423,0.5645078122615814,-1.3345536589622498,-0.006988676963374019,-0.0023416944313794374,-35.363261949999995,149.16523725000002,90083.0,-4.0,6.5,94.0,2.0,-66.5,-1016.0,-1335.5,-4.5,0.5
04:57:32,RTL,43192.0,-0.0012749292509397492,-0.0013426733203232288,0.5632137954235077,0.5711885839700699,-0.0023436801275238395,-0.006081131752580404,-35.36326305,149.16523884999998,88052.0,5.5,-6.5,99.5,2.0,-10.0,-986.0,568.5,-0.5,-2.5
04:57:33,RTL,56170.0,-0.018764198175631464,-0.0031829745857976377,0.5638474375009537,0.5220453180372715,0.0012643332011066377,0.0066572652431204915,-35.363263475000004,149.16523945,86776.0,8.25,-10.5,99.5,0.0,50.75,-995.5,522.75,3.25,9.5
04:57:34,RTL,56170.0,-0.027016088366508484,-0.004397240583784878,0.5630281865596771,-0.042578428983688354,-0.004603359033353627,-0.0021182505879551172,-35.36326355,149.16523949999998,86006.5,11.0,-15.5,96.0,-2.5,29.0,-1018.5,-41.5,-2.0,1.0
04:57:36,RTL,56170.0,-0.005306193284923211,-0.007677784189581871,0.5634929835796356,-1.0817079544067383,-0.005510621704161167,0.005377459805458784,-35.3632623,149.165237,83946.0,4.0,-4.0,98.0,-4.5,-13.0,-1034.0,-1081.0,-3.0,8.0
04:57:38,RTL,84794.0,0.030641306191682816,0.0010447479726281017,0.565496414899826,0.43696391582489014,0.007507291389629245,-0.002098847588058561,-35.3632613,149.16523569999998,81906.0,-5.5,16.5,92.5,2.5,-17.0,-1005.5,434.5,9.5,0.5
04:57:40,RTL,113418.0,0.002176750625949353,-0.0036983498139306903,0.5637404322624207,1.3377214074134827,-0.009685895405709743,0.0010509466519579291,-35.3632623,149.1652378,79913.5,-1.5,1.5,100.0,-1.0,79.5,-990.0,1338.0,-7.0,3.5
04:57:42,RTL,113418.0,0.031671673990786076,-0.009407717734575272,0.5638436079025269,0.7732241749763489,0.0022650937316939235,-0.0019694645307026803,-35.3632613,149.16523469999998,77867.0,-6.0,14.5,100.5,-3.0,72.0,-1004.5,774.5,4.0,0.5
04:57:43,RTL,133556.0,0.014008312835358083,-0.003306377533590421,0.564743772149086,-1.3399430215358734,0.003691328165587038,0.0013546975678764284,-35.3632606,149.16523365,76582.75,-12.5,27.75,100.75,0.5,-38.25,-981.25,-1338.75,5.0,4.0
04:57:44,RTL,133556.0,-0.0008061414118856192,0.0007221146515803412,0.565333217382431,-1.0038809478282928,0.008082307642325759,-0.012392718577757478,-35.36326065,149.1652342,75826.0,-14.0,31.0,100.5,1.5,-24.5,-1021.5,-1002.5,9.5,-9.0
04:57:46,RTL,133556.0,-0.02887571882456541,0.0033603482879698277,0.5659092962741852,-1.265496850013733,-0.009391088970005512,-0.0009310779860243201,-35.363262250000005,149.16523785,73793.0,-2.5,7.5,101.0,6.0,-71.5,-1031.0,-1265.5,-7.5,1.5
04:57:48,RTL,133556.0,-0.04250049342711767,0.002882565565717717,0.564846913019816,0.4772209922472636,-0.007501621342574556,-0.004213754242906968,-35.36326496666667,149.16524293333333,71651.66666666667,19.333333333333332,-30.666666666666668,104.0,4.333333333333333,-20.0,-998.3333333333334,474.3333333333333,-5.333333333333333,-1.3333333333333333
04:57:49,RTL,80848.0,-0.03668137965723872,-0.0038359619793482125,0.5642197877168655,-0.11027004010975361,-0.00782375130802393,-0.004344437678810209,-35.363265725,149.16524385,70407.0,31.0,-51.0,103.0,-0.25,-40.5,-977.0,-113.5,-5.25,-1.5
04:57:50,RTL,80848.0,-0.023912258446216583,-0.006051700795069337,0.5661453306674957,-0.24029323272407055,0.002918318845331669,0.003961216076277196,-35.3632656,149.1652433,69642.5,33.5,-52.5,106.5,0.0,-44.5,-980.0,-243.5,4.5,6.0
04:57:52,RTL,80848.0,-0.017054799012839794,-0.004064449341967702,0.5652481615543365,1.057358980178833,-0.0026049797888845205,-0.0018095915438607335,-35.3632653,149.1652427,67560.5,32.0,-46.0,103.0,-1.5,17.5,-946.5,1053.0,-0.5,1.0
04:57:54,RTL,106212.0,-0.03019031509757042,-0.008554361760616302,0.5638211369514465,-0.5727106034755707,0.0019276984967291355,-0.002839910623151809,-35.3632641,149.16524049999998,65493.0,22.5,-34.0,95.0,-5.0,19.0,-1014.0,-574.0,3.5,0.0
04:57:56,RTL,131576.0,-0.00584843335673213,-0.005248047178611159,0.5650739669799805,-1.0795880854129791,0.0034802152076736093,0.0008490793406963348,-35.36326215,149.16523684999999,63481.5,6.0,-4.5,97.5,-1.5,-24.0,-1015.0,-1081.5,4.5,3.0
04:57:58,RTL,131576.0,0.018476440804079175,-0.005657657282426953,0.5649025738239288,-1.0166224241256714,-0.0023557948879897594,0.002486279234290123,-35.363261249999994,149.16523560000002,61435.0,-2.5,4.5,102.5,-3.5,-68.0,-1005.5,-1020.0,0.0,4.5
04:57:59,RTL,22017.0,0.030440932139754295,-0.0027346310816938058,0.566322073340416,-0.6267390875145793,0.005378957954235375,-0.004036164027638733,-35.363260675,149.165234425,60167.25,-9.0,19.0,101.75,2.25,-65.0,-981.75,-630.75,6.75,-1.25
04:58:00,RTL,22017.0,0.009480960201472044,0.001894374843686819,0.5672502815723419,-0.6472645699977875,0.0005249860696494579,-0.009647756349295378,-35.363261,149.16523525,59397.5,-10.0,21.5,98.0,4.5,-65.0,-1014.5,-651.5,2.0,-6.5
04:58:02,RTL,22017.0,-0.019069490022957325,0.0019408466760069132,0.5659240782260895,0.3025047034025192,-0.01159845944494009,-0.0048842489486560225,-35.3632634,149.16524015,57373.0,6.0,-10.5,103.0,2.5,-34.0,-965.0,297.5,-9.5,-2.0
04:58:04,RTL,72277.0,-0.01865843590348959,-0.003760930965654552,0.5656011700630188,1.4354514479637146,-0.003173937904648483,0.004473014734685421,-35.3632644,149.1652412,55337.5,18.0,-27.0,102.0,0.0,76.0,-966.5,1432.5,-1.5,6.5
