time_stamp,MODE,lat,lon,relative_alt,roll,pitch,yaw,rollspeed,pitchspeed,yawspeed,xacc,yacc,zacc,xgyro,ygyro,zgyro,vx,vy,vz,RTL_ALT
13:06:54.175,STABILIZE,-35.3632621,149.1652374,0,2.0898005459457636e-05,0.0015972246183082461,0.027983909472823143,0.0002296792808920145,0.0002419205557089299,0.0024635246954858303,0,-1,-1005,0,1,0,-2,0,-2,1500.0
13:06:54.376,STABILIZE,-35.3632621,149.1652374,0,-1.3184881026973017e-05,0.001558511983603239,0.02782248891890049,0.0002348909038119018,0.00028621969977393746,0.002289633732289076,0,1,-1000,0,0,0,-2,0,-2,1500.0
13:06:54.577,STABILIZE,-35.3632621,149.1652374,0,-1.3184881026973017e-05,0.001558511983603239,0.02782248891890049,0.0002348909038119018,0.00028621969977393746,0.002289633732289076,0,1,-1000,0,0,0,-2,0,-2,1500.0
13:06:54.779,STABILIZE,-35.3632622,149.1652374,0,1.719790634524543e-05,0.0014533412177115679,0.027523932978510857,0.00022244505817070603,0.0002750196435954422,0.002257929416373372,0,1,-1000,0,0,0,-2,0,-2,1500.0
13:06:54.980,STABILIZE,-35.3632622,149.1652374,0,2.8491038392530754e-05,0.0014064720598980784,0.02736242488026619,0.00030773261096328497,0.0002687382511794567,0.002061598002910614,0,1,-1000,0,0,0,-2,0,-2,1500.0
13:06:55.181,STABILIZE,-35.3632622,149.1652374,0,2.8491038392530754e-05,0.0014064720598980784,0.02736242488026619,0.00030773261096328497,0.0002687382511794567,0.002061598002910614,0,1,-1000,0,0,0,-2,0,-2,1500.0
13:06:55.383,STABILIZE,-35.3632622,149.1652374,0,2.8491038392530754e-05,0.0014064720598980784,0.02736242488026619,0.00030773261096328497,0.0002687382511794567,0.002061598002910614,0,1,-1000,0,0,0,-2,0,-2,1500.0
13:06:55.584,STABILIZE,-35.3632622,149.1652374,0,2.8491038392530754e-05,0.0014064720598980784,0.02736242488026619,0.00030773261096328497,0.0002687382511794567,0.002061598002910614,0,1,-1000,0,0,0,-2,0,-2,1500.0
13:06:55.785,STABILIZE,-35.3632622,149.1652374,0,2.8491038392530754e-05,0.0014064720598980784,0.02736242488026619,0.00030773261096328497,0.0002687382511794567,0.002061598002910614,0,1,-1000,0,0,0,-2,0,-2,1500.0
13:06:55.987,STABILIZE,-35.3632622,149.1652374,0,-7.199692481663078e-05,0.001199596794322133,0.026752684265375137,0.00022566510597243905,0.00027370575116947293,0.0021962951868772507,0,1,-1000,0,0,0,-1,1,-1,1500.0
13:06:56.188,STABILIZE,-35.3632622,149.1652374,0,-7.199692481663078e-05,0.001199596794322133,0.026752684265375137,0.00022566510597243905,0.00027370575116947293,0.0021962951868772507,0,1,-1000,0,0,0,-1,1,-1,1500.0
13:06:56.390,STABILIZE,-35.3632622,149.1652374,0,-7.199692481663078e-05,0.001199596794322133,0.026752684265375137,0.00022566510597243905,0.00027370575116947293,0.0021962951868772507,0,1,-1000,0,0,0,-1,1,-1,1500.0
13:06:56.591,STABILIZE,-35.3632622,149.1652374,0,-7.199692481663078e-05,0.001199596794322133,0.026752684265375137,0.00022566510597243905,0.00027370575116947293,0.0021962951868772507,0,1,-1000,0,0,0,-1,1,-1,1500.0
13:06:56.793,STABILIZE,-35.3632622,149.1652374,0,-7.199692481663078e-05,0.001199596794322133,0.026752684265375137,0.00022566510597243905,0.00027370575116947293,0.0021962951868772507,0,1,-1000,0,0,1,-1,1,-1,1500.0
13:06:56.994,STABILIZE,-35.3632622,149.1652374,0,-7.199692481663078e-05,0.001199596794322133,0.026752684265375137,0.00022566510597243905,0.00027370575116947293,0.0021962951868772507,0,1,-1000,0,1,0,-1,1,-1,1500.0
13:06:57.196,STABILIZE,-35.3632622,149.1652374,0,-7.199692481663078e-05,0.001199596794322133,0.026752684265375137,0.00022566510597243905,0.00027370575116947293,0.0021962951868772507,0,1,-1000,0,1,0,-1,1,-1,1500.0
13:06:57.397,STABILIZE,-35.3632622,149.1652374,0,-7.199692481663078e-05,0.001199596794322133,0.026752684265375137,0.00022566510597243905,0.00027370575116947293,0.0021962951868772507,0,1,-1000,0,1,0,-1,1,-1,1500.0
13:06:57.599,STABILIZE,-35.3632622,149.1652374,0,-7.199692481663078e-05,0.001199596794322133,0.026752684265375137,0.00022566510597243905,0.00027370575116947293,0.0021962951868772507,0,1,-1000,0,1,0,-1,1,-1,1500.0
13:06:57.800,STABILIZE,-35.3632622,149.1652374,0,-7.199692481663078e-05,0.001199596794322133,0.026752684265375137,0.00022566510597243905,0.00027370575116947293,0.0021962951868772507,0,1,-1000,0,1,0,-1,1,-1,1500.0
13:06:58.001,STABILIZE,-35.3632622,149.1652374,0,-7.199692481663078e-05,0.001199596794322133,0.026752684265375137,0.00022566510597243905,0.00027370575116947293,0.0021962951868772507,0,1,-1000,0,1,0,-1,1,-1,1500.0
13:06:58.202,STABILIZE,-35.3632622,149.1652374,0,-7.199692481663078e-05,0.001199596794322133,0.026752684265375137,0.00022566510597243905,0.00027370575116947293,0.0021962951868772507,0,1,-1000,0,1,0,-1,1,-1,1500.0
13:06:58.404,STABILIZE,-35.3632622,149.1652374,0,-7.199692481663078e-05,0.001199596794322133,0.026752684265375137,0.00022566510597243905,0.00027370575116947293,0.0021962951868772507,0,1,-1000,0,1,0,-1,1,-1,1500.0
13:06:58.605,STABILIZE,-35.3632621,149.1652375,0,-0.0003447346098255366,0.0009665190009400249,0.025411561131477356,0.0001441338681615889,0.00029685566551052034,0.001921711373142898,0,1,-1000,0,0,0,-1,2,0,1500.0
13:06:58.806,STABILIZE,-35.3632621,149.1652375,0,-0.0003447346098255366,0.0009665190009400249,0.025411561131477356,0.0001441338681615889,0.00029685566551052034,0.001921711373142898,0,1,-1000,0,0,0,-1,2,0,1500.0
13:06:59.007,STABILIZE,-35.3632621,149.1652375,0,-0.0004841422487515956,0.0009457266423851252,0.025205744430422783,0.00022289069602265954,0.00020256126299500465,0.0017946360167115927,0,1,-1000,0,0,0,-1,2,0,1500.0
13:06:59.208,STABILIZE,-35.3632621,149.1652375,0,-0.0004841422487515956,0.0009457266423851252,0.025205744430422783,0.00022289069602265954,0.00020256126299500465,0.0017946360167115927,0,1,-1000,0,0,0,-1,2,0,1500.0
13:06:59.409,STABILIZE,-35.3632621,149.1652375,0,-0.0004841422487515956,0.0009457266423851252,0.025205744430422783,0.00022289069602265954,0.00020256126299500465,0.0017946360167115927,0,1,-1000,0,0,0,-1,2,0,1500.0
13:06:59.610,STABILIZE,-35.3632621,149.1652375,0,-0.0004841422487515956,0.0009457266423851252,0.025205744430422783,0.00022289069602265954,0.00020256126299500465,0.0017946360167115927,0,1,-1000,0,0,0,-1,2,0,1500.0
13:06:59.812,STABILIZE,-35.3632621,149.1652375,0,-0.0006584340590052307,0.000925965141505003,0.024871917441487312,0.00020451209275051951,0.00020404779934324324,0.0018391767516732216,0,2,-1000,0,0,1,-1,1,0,1500.0
13:07:00.014,STABILIZE,-35.3632621,149.1652375,0,-0.0007173505146056414,0.0009241056395694613,0.024763215333223343,0.00023591448552906513,0.0002232218685094267,0.0017241613240912557,0,2,-1000,0,0,1,-1,1,0,1500.0
13:07:00.216,STABILIZE,-35.3632621,149.1652375,0,-0.0007667008903808892,0.0009226309484802186,0.024655824527144432,0.00020279537420719862,0.0002669142559170723,0.001850096508860588,0,1,-1000,1,0,1,-1,1,0,1500.0
13:07:00.418,STABILIZE,-35.3632621,149.1652375,0,-0.0007667008903808892,0.0009226309484802186,0.024655824527144432,0.00020279537420719862,0.0002669142559170723,0.001850096508860588,0,1,-1000,1,0,1,-1,1,0,1500.0
13:07:00.619,STABILIZE,-35.3632621,149.1652375,0,-0.0007667008903808892,0.0009226309484802186,0.024655824527144432,0.00020279537420719862,0.0002669142559170723,0.001850096508860588,0,1,-1000,1,0,1,-1,1,0,1500.0
13:07:00.820,STABILIZE,-35.3632621,149.1652375,0,-0.0008342665969394147,0.0009264930849894881,0.024494389072060585,0.00029364542569965124,0.00025327224284410477,0.0017892306204885244,0,1,-1000,1,0,1,-1,1,0,1500.0
13:07:01.021,STABILIZE,-35.3632621,149.1652375,0,-0.0005446603754535317,0.0009313338086940348,0.02439119853079319,0.00019412912661209702,0.00027079926803708076,0.0017768886173143983,0,1,-1000,0,1,0,-1,2,1,1500.0
13:07:01.223,STABILIZE,-35.3632621,149.1652375,0,-0.0005446603754535317,0.0009313338086940348,0.02439119853079319,0.00019412912661209702,0.00027079926803708076,0.0017768886173143983,0,1,-1000,0,1,0,-1,2,1,1500.0
13:07:01.433,STABILIZE,-35.3632621,149.1652375,0,-0.0005446603754535317,0.0009313338086940348,0.02439119853079319,0.00019412912661209702,0.00027079926803708076,0.0017768886173143983,0,1,-1000,0,1,0,-1,2,1,1500.0
13:07:01.634,STABILIZE,-35.3632621,149.1652375,0,-0.0005446603754535317,0.0009313338086940348,0.02439119853079319,0.00019412912661209702,0.00027079926803708076,0.0017768886173143983,0,1,-1000,0,1,0,-1,2,1,1500.0
13:07:01.836,STABILIZE,-35.3632621,149.1652375,0,-0.0007180903339758515,0.0009410476195625961,0.024104412645101547,0.00022775045363232493,0.0003321595722809434,0.0016775112599134445,0,1,-1000,0,0,0,-1,2,1,1500.0
13:07:02.037,STABILIZE,-35.3632621,149.1652375,0,-0.0007180903339758515,0.0009410476195625961,0.024104412645101547,0.00022775045363232493,0.0003321595722809434,0.0016775112599134445,0,2,-1000,0,0,0,-1,2,1,1500.0
13:07:02.238,STABILIZE,-35.3632621,149.1652375,0,-0.0007180903339758515,0.0009410476195625961,0.024104412645101547,0.00022775045363232493,0.0003321595722809434,0.0016775112599134445,0,2,-1000,0,0,0,-1,2,1,1500.0
13:07:02.439,STABILIZE,-35.3632621,149.1652375,0,-0.0007180903339758515,0.0009410476195625961,0.024104412645101547,0.00022775045363232493,0.0003321595722809434,0.0016775112599134445,0,2,-1000,0,0,0,-1,2,1,1500.0
13:07:02.640,STABILIZE,-35.3632621,149.1652375,0,-0.0007180903339758515,0.0009410476195625961,0.024104412645101547,0.00022775045363232493,0.0003321595722809434,0.0016775112599134445,0,1,-1000,0,0,0,-1,2,1,1500.0
13:07:02.841,STABILIZE,-35.3632621,149.1652375,0,-0.0007180903339758515,0.0009410476195625961,0.024104412645101547,0.00022775045363232493,0.0003321595722809434,0.0016775112599134445,0,1,-1000,0,0,0,-1,2,1,1500.0
13:07:03.042,STABILIZE,-35.3632621,149.1652375,0,-0.0007180903339758515,0.0009410476195625961,0.024104412645101547,0.00022775045363232493,0.0003321595722809434,0.0016775112599134445,0,1,-1000,0,0,0,-1,2,1,1500.0
13:07:03.244,STABILIZE,-35.3632621,149.1652375,0,-0.0007180903339758515,0.0009410476195625961,0.024104412645101547,0.00022775045363232493,0.0003321595722809434,0.0016775112599134445,0,1,-1000,0,0,0,-1,2,1,1500.0
13:07:03.445,STABILIZE,-35.3632621,149.1652375,0,-0.0007180903339758515,0.0009410476195625961,0.024104412645101547,0.00022775045363232493,0.0003321595722809434,0.0016775112599134445,0,1,-1000,0,0,0,-1,2,1,1500.0
13:07:03.646,STABILIZE,-35.3632621,149.1652375,0,-0.0007180903339758515,0.0009410476195625961,0.024104412645101547,0.00022775045363232493,0.0003321595722809434,0.0016775112599134445,0,1,-1000,0,0,0,-1,2,1,1500.0
13:07:03.847,STABILIZE,-35.3632621,149.1652375,0,-0.0007180903339758515,0.0009410476195625961,0.024104412645101547,0.00022775045363232493,0.0003321595722809434,0.0016775112599134445,0,1,-1000,0,0,0,-1,2,1,1500.0
13:07:04.048,STABILIZE,-35.3632622,149.1652375,0,-0.0011113669024780393,0.0009696691413410008,0.02341991290450096,0.00017352384747937322,0.0002929221373051405,0.001791997579857707,0,1,-1000,0,0,0,-1,1,0,1500.0
13:07:04.249,STABILIZE,-35.3632622,149.1652375,0,-0.001131106517277658,0.0009672273299656808,0.02334154210984707,0.00013484107330441475,0.0001765030319802463,0.0016434130957350135,0,1,-1000,0,0,0,-1,1,0,1500.0
13:07:04.450,STABILIZE,-35.3632622,149.1652375,0,-0.001131106517277658,0.0009672273299656808,0.02334154210984707,0.00013484107330441475,0.0001765030319802463,0.0016434130957350135,0,1,-1000,0,0,0,-1,1,0,1500.0
13:07:04.652,STABILIZE,-35.3632622,149.1652375,0,-0.0009988055098801851,0.0009668656857684255,0.023267535492777824,0.00029017782071605325,0.0002433747285977006,0.001664775307290256,0,1,-1000,0,0,0,-1,2,1,1500.0
13:07:04.853,STABILIZE,-35.3632622,149.1652375,0,-0.0009988055098801851,0.0009668656857684255,0.023267535492777824,0.00029017782071605325,0.0002433747285977006,0.001664775307290256,0,1,-1000,0,0,0,-1,2,1,1500.0
13:07:05.054,STABILIZE,-35.3632622,149.1652375,0,-0.0010746830375865102,0.0009651137515902519,0.023162413388490677,0.00029380543855950236,0.0001786999055184424,0.0017054971540346742,0,1,-1000,0,0,1,-1,2,1,1500.0
13:07:05.255,STABILIZE,-35.3632622,149.1652375,0,-0.0010746830375865102,0.0009651137515902519,0.023162413388490677,0.00029380543855950236,0.0001786999055184424,0.0017054971540346742,0,1,-1000,0,0,1,-1,2,1,1500.0
13:07:05.457,STABILIZE,-35.3632622,149.1652375,0,-0.0010746830375865102,0.0009651137515902519,0.023162413388490677,0.00029380543855950236,0.0001786999055184424,0.0017054971540346742,0,1,-1000,0,0,1,-1,2,1,1500.0
13:07:05.658,STABILIZE,-35.3632622,149.1652375,0,-0.0010746830375865102,0.0009651137515902519,0.023162413388490677,0.00029380543855950236,0.0001786999055184424,0.0017054971540346742,0,1,-1000,0,0,1,-1,2,1,1500.0
13:07:05.859,STABILIZE,-35.3632622,149.1652375,0,-0.0010746830375865102,0.0009651137515902519,0.023162413388490677,0.00029380543855950236,0.0001786999055184424,0.0017054971540346742,0,1,-1000,0,0,1,-1,2,1,1500.0
13:07:06.060,STABILIZE,-35.3632622,149.1652375,0,-0.0012233176967129111,0.0009542116313241422,0.02293465845286846,0.00028850178932771087,0.00022008665837347507,0.0016721091233193874,0,1,-1000,0,1,0,-1,1,0,1500.0
13:07:06.262,STABILIZE,-35.3632622,149.1652375,0,-0.0012233176967129111,0.0009542116313241422,0.02293465845286846,0.00028850178932771087,0.00022008665837347507,0.0016721091233193874,0,1,-1000,0,1,0,-1,1,0,1500.0
13:07:06.463,STABILIZE,-35.3632622,149.1652375,0,-0.0012233176967129111,0.0009542116313241422,0.02293465845286846,0.00028850178932771087,0.00022008665837347507,0.0016721091233193874,0,1,-1000,0,1,0,-1,1,0,1500.0
13:07:06.664,STABILIZE,-35.3632622,149.1652375,0,-0.0012233176967129111,0.0009542116313241422,0.02293465845286846,0.00028850178932771087,0.00022008665837347507,0.0016721091233193874,0,1,-1000,0,1,0,-1,1,0,1500.0
13:07:06.865,STABILIZE,-35.3632622,149.1652375,0,-0.0012233176967129111,0.0009542116313241422,0.02293465845286846,0.00028850178932771087,0.00022008665837347507,0.0016721091233193874,0,1,-1000,0,1,0,-1,1,0,1500.0
13:07:07.066,STABILIZE,-35.3632622,149.1652375,0,-0.0012909321812912822,0.000955530209466815,0.02272806689143181,0.00027743878308683634,0.0003263084217905998,0.0016179566737264395,0,1,-1000,0,1,0,-1,1,0,1500.0
13:07:07.268,AUTO,-35.3632622,149.1652375,0,-0.0012909321812912822,0.000955530209466815,0.02272806689143181,0.00027743878308683634,0.0003263084217905998,0.0016179566737264395,0,1,-1000,0,1,0,-1,1,0,1500.0
13:07:07.471,AUTO,-35.3632622,149.1652375,0,-0.0012909321812912822,0.000955530209466815,0.02272806689143181,0.00027743878308683634,0.0003263084217905998,0.0016179566737264395,0,1,-1000,0,1,0,-1,1,0,30872.0
13:07:07.673,AUTO,-35.3632622,149.1652375,0,-0.0012909321812912822,0.000955530209466815,0.02272806689143181,0.00027743878308683634,0.0003263084217905998,0.0016179566737264395,0,1,-1000,0,1,0,-1,1,0,30872.0
13:07:07.874,AUTO,-35.3632622,149.1652375,6,-0.0013158892979845405,0.0009760056855157018,0.022594500333070755,0.0002770583378151059,0.00029503292171284556,0.0016288566403090954,0,2,-1000,0,0,0,-1,0,0,30872.0
13:07:08.075,AUTO,-35.3632622,149.1652375,5,-0.0011477628722786903,0.0009926415514200926,0.022548792883753777,0.0003275491180829704,0.00023264647461473942,0.0014885137788951397,0,1,-1000,1,0,0,-1,1,0,30872.0
13:07:08.277,AUTO,-35.3632621,149.1652375,3,-0.0011429659789428115,0.0010054708691313863,0.02249732054769993,0.0001660032430663705,0.00028894696151837707,0.0015116739086806774,0,1,-1000,0,0,0,0,1,0,30872.0
13:07:08.478,AUTO,-35.3632621,149.1652375,2,-0.0011269376846030354,0.0010390941752120852,0.02244524285197258,0.0002606406342238188,0.00018170458497479558,0.0015549741219729185,0,1,-1000,0,0,0,0,0,0,30872.0
13:07:08.680,AUTO,-35.3632621,149.1652375,2,-0.0011269376846030354,0.0010390941752120852,0.02244524285197258,0.0002606406342238188,0.00018170458497479558,0.0015549741219729185,0,1,-1000,0,0,0,0,0,0,30872.0
13:07:08.881,AUTO,-35.3632621,149.1652375,2,-0.0011030631139874458,0.0010870773112401366,0.022400127723813057,0.00023883342510089278,0.00023359217448160052,0.0015581095358356833,0,1,-1000,0,0,0,0,0,0,30872.0
13:07:09.083,AUTO,-35.3632621,149.1652375,2,-0.0010687721660360694,0.0011420221999287605,0.022354666143655777,0.00025210261810570955,0.0003391773207113147,0.0015785768628120422,0,2,-1000,0,1,0,0,0,0,30872.0
13:07:09.285,AUTO,-35.3632621,149.1652375,2,-0.0010687721660360694,0.0011420221999287605,0.022354666143655777,0.00025210261810570955,0.0003391773207113147,0.0015785768628120422,0,2,-1000,0,1,0,0,0,0,30872.0
13:07:09.486,AUTO,-35.3632621,149.1652375,2,-0.0010687721660360694,0.0011420221999287605,0.022354666143655777,0.00025210261810570955,0.0003391773207113147,0.0015785768628120422,0,2,-1000,0,1,0,0,0,0,30872.0
13:07:09.688,AUTO,-35.3632621,149.1652375,2,-0.0010687721660360694,0.0011420221999287605,0.022354666143655777,0.00025210261810570955,0.0003391773207113147,0.0015785768628120422,0,2,-1000,0,1,0,0,0,0,30872.0
13:07:09.890,AUTO,-35.3632621,149.1652375,3,-0.0009288504370488226,0.0013496545143425465,0.022190099582076073,0.00019886007066816092,0.00034029578091576695,0.0014184069586917758,0,1,-1000,0,1,0,0,0,0,30872.0
13:07:10.091,AUTO,-35.3632621,149.1652375,3,-0.0008740810444578528,0.0014265497447922826,0.022126298397779465,0.00022601394448429346,0.0003137741587124765,0.001486450433731079,0,2,-1000,0,1,0,0,0,0,30872.0
13:07:10.292,AUTO,-35.3632621,149.1652375,4,-0.0008227921207435429,0.0015019592829048634,0.02206055074930191,0.00025439588353037834,0.0002790858270600438,0.0014834750909358263,0,1,-1000,0,1,0,0,0,0,861.0
13:07:10.494,AUTO,-35.3632621,149.1652375,4,-0.0007657771930098534,0.0015775775536894798,0.02198970690369606,0.00033413886558264494,0.00030656473245471716,0.0014271927066147327,0,1,-1000,0,0,0,0,0,0,861.0
13:07:10.696,AUTO,-35.3632621,149.1652375,4,-0.0007657771930098534,0.0015775775536894798,0.02198970690369606,0.00033413886558264494,0.00030656473245471716,0.0014271927066147327,0,1,-1000,0,0,0,0,0,0,861.0
13:07:10.897,AUTO,-35.3632621,149.1652375,5,-0.0007078066118992865,0.0016466793604195118,0.02193157561123371,0.0003431753139011562,0.00017423275858163834,0.0014808240812271833,0,1,-1000,0,0,0,0,0,0,861.0
13:07:11.099,AUTO,-35.3632621,149.1652375,5,-0.0006476002163253725,0.0017157589318230748,0.02185993082821369,0.00022398604778572917,0.0002559633576311171,0.0015418012626469135,0,2,-1000,1,1,1,0,0,0,861.0
13:07:11.301,AUTO,-35.3632621,149.1652375,5,-0.0006476002163253725,0.0017157589318230748,0.02185993082821369,0.00022398604778572917,0.0002559633576311171,0.0015418012626469135,0,2,-1000,1,1,1,0,0,0,861.0
13:07:11.502,AUTO,-35.3632621,149.1652375,5,-0.0006476002163253725,0.0017157589318230748,0.02185993082821369,0.00022398604778572917,0.0002559633576311171,0.0015418012626469135,0,2,-1000,1,1,1,0,0,0,861.0
13:07:11.705,AUTO,-35.3632621,149.1652375,5,-0.0006476002163253725,0.0017157589318230748,0.02185993082821369,0.00022398604778572917,0.0002559633576311171,0.0015418012626469135,0,2,-1000,1,1,1,0,0,0,861.0
13:07:11.906,AUTO,-35.3632621,149.1652375,198,0.003150573465973139,0.00015910564980003983,0.0216039028018713,0.005594796966761351,0.0041549913585186005,0.00037743733264505863,0,0,-1130,6,4,0,0,0,-71,861.0
13:07:12.108,AUTO,-35.3632621,149.1652375,413,0.0015867503825575113,0.0010427358793094754,0.021546196192502975,-0.013498467393219471,0.0023529543541371822,0.0015252911252900958,0,0,-1108,-12,2,1,0,1,-100,861.0
13:07:12.310,AUTO,-35.3632621,149.1652375,693,0.001093439175747335,0.0016372473910450935,0.021652985364198685,0.001406224211677909,0.0009220485226251185,0.0012364254798740149,0,0,-1088,1,1,0,0,0,-124,861.0
13:07:12.512,AUTO,-35.3632621,149.1652375,1030,0.010164940729737282,0.0007382395560853183,0.02152211032807827,0.04759230464696884,-0.006030933931469917,0.0017969965701922774,0,0,-1041,48,-5,1,0,1,-139,861.0
13:07:12.713,AUTO,-35.3632621,149.1652375,1030,0.010164940729737282,0.0007382395560853183,0.02152211032807827,0.04759230464696884,-0.006030933931469917,0.0017969965701922774,0,0,-1041,48,-5,1,0,1,-139,861.0
13:07:12.915,AUTO,-35.363262,149.1652375,1396,0.021951159462332726,-0.0010119746439158916,0.021605122834444046,0.046906691044569016,-0.00716440100222826,0.0025939836632460356,0,0,-1017,47,-6,2,1,5,-145,861.0
13:07:13.117,AUTO,-35.363262,149.1652377,1776,0.033417992293834686,-0.002948481822386384,0.021820969879627228,0.045510996133089066,-0.007926790975034237,0.0031849294900894165,0,-1,-1007,46,-7,2,1,11,-148,861.0
13:07:13.319,AUTO,-35.363262,149.1652377,1776,0.033417992293834686,-0.002948481822386384,0.021820969879627228,0.045510996133089066,-0.007926790975034237,0.0031849294900894165,0,-1,-1007,46,-7,2,1,11,-148,77257.0
13:07:13.520,AUTO,-35.363262,149.1652377,1776,0.033417992293834686,-0.002948481822386384,0.021820969879627228,0.045510996133089066,-0.007926790975034237,0.0031849294900894165,0,-1,-1007,46,-7,2,1,11,-148,77257.0
13:07:13.722,AUTO,-35.363262,149.1652377,1776,0.033417992293834686,-0.002948481822386384,0.021820969879627228,0.045510996133089066,-0.007926790975034237,0.0031849294900894165,0,-1,-1007,46,-7,2,1,11,-148,77257.0
13:07:13.924,AUTO,-35.3632616,149.1652397,2932,0.061422742903232574,-0.009080509655177593,-0.006224066950380802,-0.0038482951931655407,0.01783188432455063,-0.03435605391860008,2,-7,-994,-3,18,-34,8,43,-148,77257.0
13:07:14.125,AUTO,-35.3632614,149.165241,3313,0.041481293737888336,0.012997336685657501,-0.029091060161590576,-0.12728258967399597,0.10252799093723297,-0.10415792465209961,3,-10,-992,-126,103,-104,9,53,-146,77257.0
13:07:14.327,AUTO,-35.3632611,149.1652425,3690,-0.0019249895121902227,0.024442357942461967,-0.04937170445919037,-0.16052626073360443,0.006368657574057579,-0.07989156246185303,4,-11,-1003,-160,6,-80,6,54,-145,77257.0
13:07:14.529,AUTO,-35.363261,149.1652438,4068,-0.029192477464675903,0.022174058482050896,-0.06455302238464355,-0.09314294159412384,-0.02073761634528637,-0.05190778151154518,5,-11,-1007,-92,-20,-52,2,47,-147,77257.0
13:07:14.731,AUTO,-35.363261,149.165245,4454,-0.054998110979795456,0.012399709783494473,-0.07089954614639282,-0.11150576919317245,-0.04867533594369888,-0.0160105861723423,5,-8,-1003,-110,-47,-16,0,33,-148,77257.0
13:07:14.935,AUTO,-35.363261,149.165245,4454,-0.054998110979795456,0.012399709783494473,-0.07089954614639282,-0.11150576919317245,-0.04867533594369888,-0.0160105861723423,5,-8,-1003,-110,-47,-16,0,33,-148,77257.0
13:07:15.137,AUTO,-35.3632609,149.1652456,4838,-0.07602770626544952,0.0023243362084031105,-0.07417413592338562,-0.05154314264655113,-0.02124401554465294,-0.024701008573174477,3,-4,-1006,-50,-20,-25,-1,15,-149,77257.0
13:07:15.339,AUTO,-35.3632609,149.1652456,4838,-0.07602770626544952,0.0023243362084031105,-0.07417413592338562,-0.05154314264655113,-0.02124401554465294,-0.024701008573174477,3,-4,-1006,-50,-20,-25,-1,15,-149,77257.0
13:07:15.544,AUTO,-35.3632609,149.1652456,4838,-0.07602770626544952,0.0023243362084031105,-0.07417413592338562,-0.05154314264655113,-0.02124401554465294,-0.024701008573174477,3,-4,-1006,-50,-20,-25,-1,15,-149,77257.0
13:07:15.746,AUTO,-35.363261,149.1652446,5991,-0.05589092895388603,-0.001952099148184061,-0.08921405673027039,0.055764421820640564,-0.0003071873798035085,-0.010819771327078342,-3,7,-1000,56,0,-11,-4,-37,-150,77257.0
13:07:15.948,AUTO,-35.363261,149.1652446,5991,-0.05589092895388603,-0.001952099148184061,-0.08921405673027039,0.055764421820640564,-0.0003071873798035085,-0.010819771327078342,-3,7,-1000,56,0,-11,-4,-37,-150,77257.0
13:07:16.149,AUTO,-35.3632611,149.1652434,6376,-0.041311513632535934,-0.0014344181399792433,-0.09180024266242981,0.06104346737265587,0.0049890149384737015,-0.006843056995421648,-4,9,-1001,61,5,-7,-5,-48,-150,77257.0
13:07:16.352,AUTO,-35.3632613,149.165242,6762,-0.025831323117017746,0.0001576623908476904,-0.09356632083654404,0.06306035816669464,0.007698409259319305,-0.0033732091542333364,-5,9,-1002,63,8,-3,-6,-54,-150,298208.0
13:07:16.553,AUTO,-35.3632614,149.1652405,7148,-0.00984201394021511,0.0023727421648800373,-0.09435427188873291,0.06524020433425903,0.00960488896816969,-0.0008231460233218968,-6,11,-1003,65,10,-1,-8,-56,-151,298208.0
13:07:16.755,AUTO,-35.3632616,149.1652389,7535,0.0067229545675218105,0.0049228486604988575,-0.09445815533399582,0.06707611680030823,0.010280285030603409,0.0005077478708699346,-6,14,-1003,67,10,0,-10,-54,-152,298208.0
13:07:16.957,AUTO,-35.3632616,149.1652389,7535,0.0067229545675218105,0.0049228486604988575,-0.09445815533399582,0.06707611680030823,0.010280285030603409,0.0005077478708699346,-6,14,-1003,67,10,0,-10,-54,-152,298208.0
13:07:17.159,AUTO,-35.3632619,149.1652375,7926,0.023114394396543503,0.007137516513466835,-0.0939657986164093,0.06644277274608612,0.008287372067570686,0.0022891389671713114,-4,11,-1004,67,9,1,-11,-48,-153,298208.0
13:07:17.360,AUTO,-35.3632619,149.1652375,7926,0.023114394396543503,0.007137516513466835,-0.0939657986164093,0.06644277274608612,0.008287372067570686,0.0022891389671713114,-4,11,-1004,67,9,1,-11,-48,-153,298208.0
13:07:17.562,AUTO,-35.3632619,149.1652375,7926,0.023114394396543503,0.007137516513466835,-0.0939657986164093,0.06644277274608612,0.008287372067570686,0.0022891389671713114,-4,11,-1004,67,9,1,-11,-48,-153,298208.0
13:07:17.764,AUTO,-35.3632628,149.1652347,9107,0.05374356731772423,-0.006250698585063219,-0.0767669603228569,-0.019175659865140915,-0.0797574445605278,0.07973814755678177,0,6,-997,-18,-79,79,-13,-10,-152,298208.0
13:07:17.966,AUTO,-35.3632628,149.1652347,9107,0.05374356731772423,-0.006250698585063219,-0.0767669603228569,-0.019175659865140915,-0.0797574445605278,0.07973814755678177,0,6,-997,-18,-79,79,-13,-10,-152,298208.0
13:07:18.167,AUTO,-35.3632631,149.1652345,9496,0.04387310892343521,-0.027974747121334076,-0.05757457762956619,-0.05754852667450905,-0.05485614761710167,0.06004931032657623,1,3,-995,-56,-54,59,-8,1,-151,298208.0
13:07:18.369,AUTO,-35.3632632,149.1652346,9882,0.025189602747559547,-0.029868775978684425,-0.05117243155837059,-0.07477007061243057,0.024422848597168922,0.002579445717856288,1,0,-998,-74,25,1,0,8,-150,298208.0
13:07:18.571,AUTO,-35.3632631,149.1652348,10266,0.009571596048772335,-0.020535314455628395,-0.05490955337882042,-0.053304992616176605,0.03981148451566696,-0.028225542977452278,0,-2,-1000,-52,40,-28,7,11,-150,298208.0
13:07:18.772,AUTO,-35.3632629,149.165235,10651,-0.00055866310140118,-0.011160321533679962,-0.0644427016377449,-0.03103911317884922,0.03265150636434555,-0.04079793766140938,0,-3,-1002,-30,33,-41,11,10,-150,298208.0
13:07:18.974,AUTO,-35.3632627,149.1652352,11036,-0.006532170809805393,-0.0041369907557964325,-0.07608018070459366,-0.016900841146707535,0.02481815591454506,-0.04529869183897972,-1,-3,-1002,-16,25,-45,13,7,-151,298208.0
13:07:19.176,AUTO,-35.3632627,149.1652352,11036,-0.006532170809805393,-0.0041369907557964325,-0.07608018070459366,-0.016900841146707535,0.02481815591454506,-0.04529869183897972,-1,-3,-1002,-16,25,-45,13,7,-151,298208.0
13:07:19.378,AUTO,-35.3632627,149.1652352,11036,-0.006532170809805393,-0.0041369907557964325,-0.07608018070459366,-0.016900841146707535,0.02481815591454506,-0.04529869183897972,-1,-3,-1002,-16,25,-45,13,7,-151,221547.0
13:07:19.580,AUTO,-35.3632627,149.1652352,11036,-0.006532170809805393,-0.0041369907557964325,-0.07608018070459366,-0.016900841146707535,0.02481815591454506,-0.04529869183897972,-1,-3,-1002,-16,25,-45,13,7,-151,221547.0
13:07:19.781,AUTO,-35.3632618,149.1652353,12200,-0.006151127628982067,0.00690456060692668,-0.10776666551828384,0.012202860787510872,0.011616169475018978,-0.0348900742828846,-2,-1,-1001,12,12,-35,10,-1,-152,221547.0
13:07:19.983,AUTO,-35.3632616,149.1652353,12589,-0.0029141558334231377,0.009239422157406807,-0.11615220457315445,0.015446560457348824,0.00871225818991661,-0.02823379449546337,-2,-1,-1000,15,9,-28,8,-3,-152,221547.0
13:07:20.184,AUTO,-35.3632616,149.1652353,12589,-0.0029141558334231377,0.009239422157406807,-0.11615220457315445,0.015446560457348824,0.00871225818991661,-0.02823379449546337,-2,-1,-1000,15,9,-28,8,-3,-152,221547.0
13:07:20.385,AUTO,-35.3632614,149.1652352,12980,0.000609340553637594,0.010445009917020798,-0.12263742834329605,0.012979475781321526,0.002147914143279195,-0.020592762157320976,-2,0,-1000,13,2,-20,6,-4,-153,221547.0
13:07:20.587,AUTO,-35.3632613,149.1652351,13370,0.0037802965380251408,0.010979477316141129,-0.12780436873435974,0.01163680199533701,0.000562365516088903,-0.01413416676223278,-2,0,-1000,12,1,-14,3,-3,-153,221547.0
13:07:20.788,AUTO,-35.3632612,149.165235,13759,0.006292630452662706,0.01077937614172697,-0.1318681240081787,0.010644407011568546,0.00022854009876027703,-0.015104693360626698,-1,0,-1000,11,0,-15,1,-2,-153,221547.0
13:07:20.990,AUTO,-35.3632611,149.1652349,14148,0.008114003576338291,0.010766347870230675,-0.1355050504207611,0.006743003614246845,-0.00043002725578844547,-0.01364191249012947,-1,0,-1000,7,0,-14,0,-1,-153,221547.0
13:07:21.192,AUTO,-35.3632611,149.1652349,14148,0.008114003576338291,0.010766347870230675,-0.1355050504207611,0.006743003614246845,-0.00043002725578844547,-0.01364191249012947,-1,0,-1000,7,0,-14,0,-1,-153,221547.0
13:07:21.394,AUTO,-35.3632611,149.1652349,14148,0.008114003576338291,0.010766347870230675,-0.1355050504207611,0.006743003614246845,-0.00043002725578844547,-0.01364191249012947,-1,0,-1000,7,0,-14,0,-1,-153,221547.0
13:07:21.598,AUTO,-35.3632611,149.1652349,14148,0.008114003576338291,0.010766347870230675,-0.1355050504207611,0.006743003614246845,-0.00043002725578844547,-0.01364191249012947,-1,0,-1000,7,0,-14,0,-1,-153,221547.0
13:07:21.801,AUTO,-35.3632612,149.1652349,15316,0.008532297797501087,0.008002074435353279,-0.14370344579219818,-0.0005520654376596212,-0.004597215447574854,-0.009129496291279793,0,0,-1000,0,-3,-9,-5,4,-152,221547.0
13:07:22.003,AUTO,-35.3632612,149.1652349,15705,0.007430083584040403,0.0067885746248066425,-0.1464836448431015,-0.007196398451924324,-0.0030858211684972048,-0.010755110532045364,0,0,-999,-6,-2,-11,-5,5,-152,221547.0
13:07:22.205,AUTO,-35.3632612,149.1652349,15705,0.007430083584040403,0.0067885746248066425,-0.1464836448431015,-0.007196398451924324,-0.0030858211684972048,-0.010755110532045364,0,0,-999,-6,-2,-11,-5,5,-152,221547.0
13:07:22.406,AUTO,-35.3632613,149.165235,16103,0.006056674290448427,0.005739046726375818,-0.14971080422401428,-0.0034758157562464476,-0.0034456129651516676,-0.0116190817207098,1,0,-1000,-2,-2,-12,-6,6,-152,190539.0
13:07:22.608,AUTO,-35.3632614,149.1652352,16491,0.004834234248846769,0.00470215268433094,-0.1531827598810196,-0.0046661472879350185,-0.0039216880686581135,-0.01339036040008068,1,0,-1000,-4,-3,-13,-6,7,-153,190539.0
13:07:22.809,AUTO,-35.3632615,149.1652353,16880,0.003931775223463774,0.0037598698399960995,-0.15695694088935852,-0.0028278871905058622,-0.0039071799255907536,-0.015227919444441795,1,0,-1000,-2,-3,-15,-6,7,-153,190539.0
13:07:23.011,AUTO,-35.3632615,149.1652354,17270,0.003464324865490198,0.003063034266233444,-0.16124370694160461,-0.00019792903913185,-0.0013865530490875244,-0.017565671354532242,1,0,-1000,0,0,-17,-5,7,-153,190539.0
13:07:23.214,AUTO,-35.3632615,149.1652354,17270,0.003464324865490198,0.003063034266233444,-0.16124370694160461,-0.00019792903913185,-0.0013865530490875244,-0.017565671354532242,1,0,-1000,0,0,-17,-5,7,-153,190539.0
13:07:23.417,AUTO,-35.3632615,149.1652354,17270,0.003464324865490198,0.003063034266233444,-0.16124370694160461,-0.00019792903913185,-0.0013865530490875244,-0.017565671354532242,1,0,-1000,0,0,-17,-5,7,-153,190539.0
13:07:23.618,AUTO,-35.3632615,149.1652354,17270,0.003464324865490198,0.003063034266233444,-0.16124370694160461,-0.00019792903913185,-0.0013865530490875244,-0.017565671354532242,1,0,-1000,0,0,-17,-5,7,-153,190539.0
13:07:23.820,AUTO,-35.3632617,149.1652358,18429,0.0015321742976084352,0.001864599878899753,-0.17572398483753204,-0.0010031668934971094,-0.0002982989535667002,-0.020322751253843307,1,0,-1000,0,0,-20,-4,6,-153,190539.0
13:07:24.022,AUTO,-35.3632618,149.1652359,18818,0.0014450830640271306,0.0016819400480017066,-0.18104639649391174,0.0009588832617737353,-0.0004399296303745359,-0.021669499576091766,0,0,-1000,1,0,-21,-3,5,-153,190539.0
13:07:24.224,AUTO,-35.3632618,149.165236,19207,0.0012574817519634962,0.001805461710318923,-0.18666836619377136,0.000602560758125037,0.0010526420082896948,-0.022637782618403435,0,0,-1000,1,1,-22,-3,5,-153,190539.0
13:07:24.425,AUTO,-35.3632618,149.165236,19207,0.0012574817519634962,0.001805461710318923,-0.18666836619377136,0.000602560758125037,0.0010526420082896948,-0.022637782618403435,0,0,-1000,1,1,-22,-3,5,-153,190539.0
13:07:24.627,AUTO,-35.3632618,149.1652361,19597,0.0013238702667877078,0.0019139738287776709,-0.19224315881729126,0.0020000662188977003,-0.00016375252744182944,-0.02157515473663807,0,0,-1000,2,0,-21,-3,4,-153,190539.0
13:07:24.829,AUTO,-35.3632618,149.1652362,19986,0.0016163185937330127,0.0021049233619123697,-0.1979200839996338,0.0017433175817131996,0.0005608448409475386,-0.023583736270666122,0,0,-1000,2,1,-23,-2,4,-153,190539.0
13:07:25.031,AUTO,-35.3632619,149.1652362,20375,0.0019623502157628536,0.002629136899486184,-0.2038489729166031,0.0036361755337566137,0.003445201553404331,-0.023595932871103287,0,0,-1000,4,4,-23,-2,4,-153,190539.0
13:07:25.235,AUTO,-35.3632619,149.1652362,20375,0.0019623502157628536,0.002629136899486184,-0.2038489729166031,0.0036361755337566137,0.003445201553404331,-0.023595932871103287,0,0,-1000,4,4,-23,-2,4,-153,190539.0
13:07:25.437,AUTO,-35.3632619,149.1652362,20375,0.0019623502157628536,0.002629136899486184,-0.2038489729166031,0.0036361755337566137,0.003445201553404331,-0.023595932871103287,0,0,-1000,4,4,-23,-2,4,-153,175196.0
13:07:25.641,AUTO,-35.3632619,149.1652362,20375,0.0019623502157628536,0.002629136899486184,-0.2038489729166031,0.0036361755337566137,0.003445201553404331,-0.023595932871103287,0,0,-1000,4,4,-23,-2,4,-153,175196.0
13:07:25.843,AUTO,-35.3632619,149.1652364,21551,0.0028661058750003576,0.0028124016243964434,-0.2202162891626358,0.0005031498149037361,-0.000283457717159763,-0.023205088451504707,0,0,-1000,1,0,-23,-2,3,-153,175196.0
13:07:26.044,AUTO,-35.3632619,149.1652364,21941,0.0028199844527989626,0.00282236747443676,-0.22530314326286316,0.0021501597948372364,0.000480557675473392,-0.0192731786519289,0,0,-1000,3,1,-19,-2,3,-153,175196.0
13:07:26.245,AUTO,-35.3632619,149.1652365,22332,0.002549354685470462,0.002703922102227807,-0.23023059964179993,-0.0016821939498186111,0.0004968421999365091,-0.01918577402830124,0,0,-1000,0,1,-19,-2,3,-153,175196.0
13:07:26.447,AUTO,-35.3632619,149.1652365,22332,0.002549354685470462,0.002703922102227807,-0.23023059964179993,-0.0016821939498186111,0.0004968421999365091,-0.01918577402830124,0,0,-1000,0,1,-19,-2,3,-153,175196.0
13:07:26.648,AUTO,-35.3632619,149.1652365,22721,0.002470164792612195,0.002752007218077779,-0.23514331877231598,-0.0006016890984028578,-0.0004622260166797787,-0.017570339143276215,0,0,-1000,0,0,-17,-2,3,-153,175196.0
13:07:26.850,AUTO,-35.363262,149.1652366,23110,0.0024609912652522326,0.0027505361940711737,-0.2401619553565979,-0.0005423849215731025,0.0008414712501689792,-0.02276790328323841,0,0,-1000,0,1,-23,-2,3,-153,175196.0
13:07:27.052,AUTO,-35.363262,149.1652366,23500,0.0024472081568092108,0.002804611576721072,-0.245101660490036,0.00026813498698174953,0.0013958956114947796,-0.019838137552142143,0,0,-1000,1,2,-20,-2,3,-153,175196.0
13:07:27.253,AUTO,-35.363262,149.1652366,23500,0.0024472081568092108,0.002804611576721072,-0.245101660490036,0.00026813498698174953,0.0013958956114947796,-0.019838137552142143,0,0,-1000,1,2,-20,-2,3,-153,175196.0
13:07:27.455,AUTO,-35.363262,149.1652366,23500,0.0024472081568092108,0.002804611576721072,-0.245101660490036,0.00026813498698174953,0.0013958956114947796,-0.019838137552142143,0,0,-1000,1,2,-20,-2,3,-153,175196.0
13:07:27.656,AUTO,-35.363262,149.1652366,23500,0.0024472081568092108,0.002804611576721072,-0.245101660490036,0.00026813498698174953,0.0013958956114947796,-0.019838137552142143,0,0,-1000,1,2,-20,-2,3,-153,175196.0
13:07:27.858,AUTO,-35.363262,149.1652367,24668,0.002007018309086561,0.00266343099065125,-0.25958767533302307,0.0011104557197540998,-0.00025780085707083344,-0.02005898579955101,0,0,-1000,2,0,-20,-1,3,-153,175196.0
13:07:28.059,AUTO,-35.363262,149.1652368,25058,0.0019421811448410153,0.0026446906849741936,-0.2643492519855499,0.0020510314498096704,0.0003992452402599156,-0.019166143611073494,0,0,-1000,2,1,-19,-1,3,-153,175196.0
13:07:28.261,AUTO,-35.363262,149.1652368,25448,-0.009292956441640854,0.006016213446855545,-0.2631371021270752,-0.0358869768679142,0.014383603818714619,0.01664711907505989,0,0,-999,-34,15,16,-2,1,-152,175196.0
13:07:28.462,AUTO,-35.363262,149.1652368,25448,-0.009292956441640854,0.006016213446855545,-0.2631371021270752,-0.0358869768679142,0.014383603818714619,0.01664711907505989,0,0,-999,-34,15,16,-2,1,-152,68697.0
13:07:28.664,AUTO,-35.363262,149.1652367,25835,-0.007051948457956314,0.00707707554101944,-0.25798022747039795,0.02725333347916603,-0.003193155163899064,0.023254644125699997,0,0,-1004,28,-2,23,-4,0,-153,68697.0
13:07:28.866,AUTO,-35.3632621,149.1652367,26223,0.0009536307770758867,0.005568366497755051,-0.25106194615364075,0.02903669700026512,-0.007013804279267788,0.02998790331184864,0,0,-1001,30,-6,29,-5,-1,-153,68697.0
13:07:29.067,AUTO,-35.3632622,149.1652367,26612,0.006525096949189901,0.0039034064393490553,-0.24351152777671814,0.01567770726978779,-0.004723744932562113,0.02970465086400509,0,0,-1000,16,-3,29,-5,0,-153,68697.0
13:07:29.269,AUTO,-35.3632622,149.1652367,26612,0.006525096949189901,0.0039034064393490553,-0.24351152777671814,0.01567770726978779,-0.004723744932562113,0.02970465086400509,0,0,-1000,16,-3,29,-5,0,-153,68697.0
13:07:29.470,AUTO,-35.3632622,149.1652367,26612,0.006525096949189901,0.0039034064393490553,-0.24351152777671814,0.01567770726978779,-0.004723744932562113,0.02970465086400509,0,0,-1000,16,-3,29,-5,0,-153,68697.0
13:07:29.672,AUTO,-35.3632622,149.1652367,26612,0.006525096949189901,0.0039034064393490553,-0.24351152777671814,0.01567770726978779,-0.004723744932562113,0.02970465086400509,0,0,-1000,16,-3,29,-5,0,-153,68697.0
13:07:29.874,AUTO,-35.3632624,149.1652367,27774,0.009895573370158672,0.0007963497773744166,-0.22279468178749084,-0.004781764931976795,-5.757482722401619e-05,0.025623062625527382,0,0,-999,-3,1,25,-3,5,-153,68697.0
13:07:30.075,AUTO,-35.3632624,149.1652368,28162,0.008625640533864498,0.0005524051375687122,-0.2167760729789734,-0.0034413947723805904,0.00047708029160276055,0.024490680545568466,0,0,-1000,-2,1,24,-2,6,-153,68697.0
13:07:30.276,AUTO,-35.3632624,149.1652369,28551,0.00694403937086463,0.0007965947734192014,-0.21120965480804443,-0.005697293672710657,0.0021772191394120455,0.02327059395611286,0,0,-1000,-4,3,23,-1,7,-153,68697.0
13:07:30.478,AUTO,-35.3632624,149.1652371,28938,0.005059393122792244,0.0011454096529632807,-0.20590820908546448,-0.009273761883378029,0.000226518081035465,0.022282512858510017,0,-1,-1000,-8,0,22,-1,8,-153,68697.0
13:07:30.680,AUTO,-35.3632624,149.1652371,28938,0.005059393122792244,0.0011454096529632807,-0.20590820908546448,-0.009273761883378029,0.000226518081035465,0.022282512858510017,0,-1,-1000,-8,0,22,-1,8,-153,68697.0
13:07:30.881,AUTO,-35.3632624,149.1652372,29325,0.003122857538983226,0.0007630964973941445,-0.20086947083473206,-0.004401070531457663,-0.0010455461451783776,0.021886063739657402,0,-1,-1000,-3,0,21,0,8,-153,68697.0
13:07:31.083,AUTO,-35.3632625,149.1652374,29713,0.0015839994885027409,0.0006435347604565322,-0.19586671888828278,-0.0047727725468575954,0.0010088298004120588,0.021222475916147232,0,-1,-1000,-3,1,21,0,8,-153,68697.0
13:07:31.285,AUTO,-35.3632625,149.1652374,29713,0.0015839994885027409,0.0006435347604565322,-0.19586671888828278,-0.0047727725468575954,0.0010088298004120588,0.021222475916147232,0,-1,-1000,-3,1,21,0,8,-153,68697.0
13:07:31.486,AUTO,-35.3632625,149.1652374,29713,0.0015839994885027409,0.0006435347604565322,-0.19586671888828278,-0.0047727725468575954,0.0010088298004120588,0.021222475916147232,0,-1,-1000,-3,1,21,0,8,-153,253368.0
13:07:31.688,AUTO,-35.3632625,149.1652374,29713,0.0015839994885027409,0.0006435347604565322,-0.19586671888828278,-0.0047727725468575954,0.0010088298004120588,0.021222475916147232,0,-1,-1000,-3,1,21,0,8,-153,253368.0
13:07:31.890,AUTO,-35.3632625,149.1652378,30875,-0.0005590338842011988,0.0009816718520596623,-0.18225212395191193,-0.0006553615676239133,0.0002425375278107822,0.01708410307765007,0,-1,-1000,0,1,17,0,5,-153,253368.0
13:07:32.091,AUTO,-35.3632625,149.1652379,31264,-0.0006187132676132023,0.0010818666778504848,-0.1780114322900772,0.0002763910451903939,0.002251579426229,0.017366629093885422,0,-1,-1000,1,3,17,0,4,-153,253368.0
13:07:32.293,AUTO,-35.3632624,149.165238,31653,-0.0007195461075752974,0.0014467646833509207,-0.1737804114818573,0.0016563741955906153,0.0034195741172879934,0.018104981631040573,0,-1,-1000,2,4,17,0,3,-153,253368.0
13:07:32.494,AUTO,-35.3632624,149.165238,32040,-0.0006912228418514132,0.0019545620307326317,-0.16964536905288696,-0.0003593495930545032,0.0003080932656303048,0.015619516372680664,0,0,-1000,0,1,15,0,2,-153,253368.0
13:07:32.696,AUTO,-35.3632624,149.165238,32040,-0.0006912228418514132,0.0019545620307326317,-0.16964536905288696,-0.0003593495930545032,0.0003080932656303048,0.015619516372680664,0,0,-1000,0,1,15,0,2,-153,253368.0
13:07:32.898,AUTO,-35.3632623,149.165238,32428,-0.00048395374324172735,0.0019699649419635534,-0.165887713432312,-0.0016695978119969368,-0.00011358648771420121,0.015260911546647549,0,0,-1000,0,0,15,0,2,-153,253368.0
13:07:33.100,AUTO,-35.3632623,149.165238,32817,-2.0177696569589898e-05,0.0020273460540920496,-0.1621638536453247,0.0025454480201005936,0.0002704393118619919,0.013833201490342617,0,0,-1000,3,1,13,0,1,-153,253368.0
13:07:33.301,AUTO,-35.3632623,149.165238,32817,-2.0177696569589898e-05,0.0020273460540920496,-0.1621638536453247,0.0025454480201005936,0.0002704393118619919,0.013833201490342617,0,0,-1000,3,1,13,0,1,-153,253368.0
13:07:33.504,AUTO,-35.3632623,149.165238,32817,-2.0177696569589898e-05,0.0020273460540920496,-0.1621638536453247,0.0025454480201005936,0.0002704393118619919,0.013833201490342617,0,0,-1000,3,1,13,0,1,-153,253368.0
13:07:33.705,AUTO,-35.3632623,149.165238,32817,-2.0177696569589898e-05,0.0020273460540920496,-0.1621638536453247,0.0025454480201005936,0.0002704393118619919,0.013833201490342617,0,0,-1000,3,1,13,0,1,-153,253368.0
13:07:33.907,AUTO,-35.3632623,149.165238,33981,0.0009424302843399346,0.0014614451210945845,-0.15197159349918365,0.0017432667082175612,-0.001141587272286415,0.014970163814723492,0,0,-1000,2,0,14,0,0,-153,253368.0
13:07:34.108,AUTO,-35.3632623,149.165238,34369,0.0011988850310444832,0.0012205125531181693,-0.14876291155815125,0.005803284700959921,0.0009065367048606277,0.014352030120790005,0,0,-1000,6,2,14,0,0,-153,253368.0
13:07:34.309,AUTO,-35.3632622,149.165238,34761,0.001285457401536405,0.0010182543192058802,-0.14561687409877777,0.0016627419972792268,0.0010839413153007627,0.014296429231762886,0,0,-999,2,2,14,0,0,-153,253368.0
13:07:34.511,AUTO,-35.3632622,149.165238,35149,0.0012615546584129333,0.0008466667495667934,-0.142674058675766,-0.001284902449697256,0.0005410033627413213,0.011888131499290466,0,0,-999,0,1,12,0,0,-153,27098.0
13:07:34.713,AUTO,-35.3632622,149.165238,35149,0.0012615546584129333,0.0008466667495667934,-0.142674058675766,-0.001284902449697256,0.0005410033627413213,0.011888131499290466,0,0,-999,0,1,12,0,0,-153,27098.0
13:07:34.915,AUTO,-35.3632622,149.1652379,35537,0.0013530185678973794,0.0011742127826437354,-0.13971680402755737,5.494779907166958e-05,0.002765091136097908,0.012298389337956905,0,0,-1000,0,3,11,0,0,-153,27098.0
13:07:35.117,AUTO,-35.3632622,149.1652379,35925,0.0012635993771255016,0.0012059046421200037,-0.13705165684223175,0.0008045262657105923,0.0017632364761084318,0.01038981694728136,0,0,-999,1,2,10,0,0,-153,27098.0
13:07:35.319,AUTO,-35.3632622,149.1652379,35925,0.0012635993771255016,0.0012059046421200037,-0.13705165684223175,0.0008045262657105923,0.0017632364761084318,0.01038981694728136,0,0,-999,1,2,10,0,0,-153,27098.0
13:07:35.520,AUTO,-35.3632622,149.1652379,35925,0.0012635993771255016,0.0012059046421200037,-0.13705165684223175,0.0008045262657105923,0.0017632364761084318,0.01038981694728136,0,0,-999,1,2,10,0,0,-153,27098.0
13:07:35.722,AUTO,-35.3632622,149.1652379,35925,0.0012635993771255016,0.0012059046421200037,-0.13705165684223175,0.0008045262657105923,0.0017632364761084318,0.01038981694728136,0,0,-999,1,2,10,0,0,-153,27098.0
13:07:35.924,AUTO,-35.3632622,149.1652378,37086,0.0019410772947594523,0.0012361523695290089,-0.12901565432548523,0.0009596969466656446,-0.00016676157247275114,0.007832593284547329,0,0,-1000,1,1,7,0,0,-153,27098.0
13:07:36.125,AUTO,-35.3632622,149.1652377,37475,0.0023113542702049017,0.0013100859941914678,-0.12655848264694214,0.00226909713819623,0.0012000021524727345,0.009844550862908363,0,0,-1000,3,2,9,0,0,-153,27098.0
13:07:36.327,AUTO,-35.3632622,149.1652377,37864,0.002449341118335724,0.0014021963579580188,-0.12450844794511795,-0.0009420738206245005,0.001982810441404581,0.010266977362334728,0,0,-999,0,3,10,0,0,-153,27098.0
13:07:36.528,AUTO,-35.3632621,149.1652376,38252,0.002524513751268387,0.0013859113678336143,-0.12238478660583496,0.004827333148568869,0.00023208954371511936,0.010560672730207443,0,0,-1000,5,1,10,0,0,-153,27098.0
13:07:36.730,AUTO,-35.3632621,149.1652376,38252,0.002524513751268387,0.0013859113678336143,-0.12238478660583496,0.004827333148568869,0.00023208954371511936,0.010560672730207443,0,0,-1000,5,1,10,0,0,-153,27098.0
13:07:36.932,AUTO,-35.3632621,149.1652376,38639,0.002412659814581275,0.0015565422363579273,-0.12013237923383713,-0.002278287662193179,-0.0001976623898372054,0.007190217729657888,0,0,-1000,-1,0,7,0,0,-153,27098.0
13:07:37.133,AUTO,-35.3632621,149.1652376,39028,0.0021099767182022333,0.001546864164993167,-0.11810056865215302,-0.0042888447642326355,-0.00039239501347765326,0.007699792739003897,0,0,-1000,-3,0,7,0,0,-153,27098.0
13:07:37.335,AUTO,-35.3632621,149.1652376,39028,0.0021099767182022333,0.001546864164993167,-0.11810056865215302,-0.0042888447642326355,-0.00039239501347765326,0.007699792739003897,0,0,-1000,-3,0,7,0,0,-153,27098.0
13:07:37.538,AUTO,-35.3632621,149.1652376,39028,0.0021099767182022333,0.001546864164993167,-0.11810056865215302,-0.0042888447642326355,-0.00039239501347765326,0.007699792739003897,0,0,-1000,-3,0,7,0,0,-153,149627.0
13:07:37.740,AUTO,-35.3632621,149.1652376,39028,0.0021099767182022333,0.001546864164993167,-0.11810056865215302,-0.0042888447642326355,-0.00039239501347765326,0.007699792739003897,0,0,-1000,-3,0,7,0,0,-153,149627.0
13:07:37.944,AUTO,-35.3632621,149.1652375,40351,0.0018405065638944507,0.0012416517129167914,-0.11157041788101196,-0.0006601372151635587,0.0014626161428168416,0.007389361038804054,0,0,-1000,0,2,7,0,0,-153,149627.0
13:07:38.145,AUTO,-35.3632621,149.1652375,40739,0.0018096357816830277,0.0011848610593006015,-0.10976918786764145,0.0023111007176339626,-0.0009951835963875055,0.006364499218761921,0,0,-1001,3,0,6,0,0,-153,149627.0
13:07:38.346,AUTO,-35.3632621,149.1652375,41127,0.001794743351638317,0.0011047916486859322,-0.10806223005056381,-0.0004626989830285311,-0.0004889655392616987,0.006677977275103331,0,0,-1000,0,0,6,0,0,-153,149627.0
13:07:38.548,AUTO,-35.3632621,149.1652375,41127,0.001794743351638317,0.0011047916486859322,-0.10806223005056381,-0.0004626989830285311,-0.0004889655392616987,0.006677977275103331,0,0,-1000,0,0,6,0,0,-153,149627.0
13:07:38.749,AUTO,-35.3632621,149.1652374,41520,0.001900128205306828,0.0011844448745250702,-0.10628283023834229,-0.00035319000016897917,0.0013984477845951915,0.009324248880147934,0,0,-999,0,2,9,0,0,-153,149627.0
13:07:38.951,AUTO,-35.3632621,149.1652374,41908,0.00198722374625504,0.0009454153478145599,-0.10434584319591522,0.0010445015504956245,-0.00047456228639930487,0.0063887303695082664,0,0,-1000,2,0,6,0,0,-153,149627.0
13:07:39.153,AUTO,-35.3632621,149.1652374,42295,0.00184869603253901,0.0012365278089419007,-0.10299956798553467,-0.001049479586072266,0.0004052049480378628,0.007133214268833399,0,0,-1000,0,1,7,0,1,-153,149627.0
13:07:39.354,AUTO,-35.3632621,149.1652374,42295,0.00184869603253901,0.0012365278089419007,-0.10299956798553467,-0.001049479586072266,0.0004052049480378628,0.007133214268833399,0,0,-1000,0,1,7,0,1,-153,149627.0
13:07:39.556,AUTO,-35.3632621,149.1652374,42295,0.00184869603253901,0.0012365278089419007,-0.10299956798553467,-0.001049479586072266,0.0004052049480378628,0.007133214268833399,0,0,-1000,0,1,7,0,1,-153,149627.0
13:07:39.758,AUTO,-35.3632621,149.1652374,42295,0.00184869603253901,0.0012365278089419007,-0.10299956798553467,-0.001049479586072266,0.0004052049480378628,0.007133214268833399,0,0,-1000,0,1,7,0,1,-153,149627.0
13:07:39.959,AUTO,-35.3632621,149.1652374,43455,0.0015867346664890647,0.0017450194573029876,-0.09830890595912933,-0.001385789830237627,-0.0005677781300619245,0.007252146955579519,0,0,-1000,0,0,7,-1,1,-153,149627.0
13:07:40.161,AUTO,-35.363262,149.1652374,43838,-0.013485058210790157,0.015861324965953827,-0.0666731521487236,-0.1510709971189499,0.14475911855697632,0.31141340732574463,0,-2,-948,-150,145,311,-2,0,-146,149627.0
13:07:40.362,AUTO,-35.3632621,149.1652372,44190,-0.05821683257818222,0.06721600145101547,0.06616996228694916,-0.2055170089006424,0.17767642438411713,0.6691946387290955,0,0,-941,-204,178,669,-11,-9,-132,149627.0
13:07:40.564,AUTO,-35.3632621,149.1652372,44190,-0.05821683257818222,0.06721600145101547,0.06616996228694916,-0.2055170089006424,0.17767642438411713,0.6691946387290955,0,0,-941,-204,178,669,-11,-9,-132,279400.0
13:07:40.766,AUTO,-35.3632624,149.1652367,44496,-0.06321439146995544,0.07133340835571289,0.19123151898384094,0.06271569430828094,-0.16492918133735657,0.361939400434494,3,5,-875,63,-163,362,-25,-25,-106,279400.0
13:07:40.967,AUTO,-35.3632631,149.1652359,44733,-0.03734585642814636,0.021222060546278954,0.2560989558696747,0.09551291912794113,-0.21829859912395477,0.17383700609207153,4,8,-907,96,-217,174,-32,-36,-79,279400.0
13:07:41.169,AUTO,-35.3632637,149.1652348,44912,-0.007746183313429356,-0.02231614477932453,0.2838423252105713,0.11519809812307358,-0.13891825079917908,0.06810260564088821,5,12,-935,116,-137,68,-29,-38,-61,279400.0
13:07:41.371,AUTO,-35.3632637,149.1652348,44912,-0.007746183313429356,-0.02231614477932453,0.2838423252105713,0.11519809812307358,-0.13891825079917908,0.06810260564088821,5,12,-935,116,-137,68,-29,-38,-61,279400.0
13:07:41.573,AUTO,-35.3632637,149.1652348,44912,-0.007746183313429356,-0.02231614477932453,0.2838423252105713,0.11519809812307358,-0.13891825079917908,0.06810260564088821,5,12,-935,116,-137,68,-29,-38,-61,279400.0
13:07:41.775,AUTO,-35.3632647,149.1652327,45214,0.03240477666258812,-0.054121535271406174,0.28387776017189026,-0.3362118601799011,0.011817372404038906,-0.029460780322551727,0,-15,-972,-335,12,-29,-5,-14,-33,279400.0
13:07:41.976,AUTO,-35.3632647,149.1652327,45214,0.03240477666258812,-0.054121535271406174,0.28387776017189026,-0.3362118601799011,0.011817372404038906,-0.029460780322551727,0,-15,-972,-335,12,-29,-5,-14,-33,279400.0
13:07:42.178,AUTO,-35.3632648,149.1652324,45287,0.036337967962026596,-0.0495002306997776,0.2751363217830658,-0.13134686648845673,0.02839081920683384,-0.03147022798657417,-3,9,-976,-129,29,-31,3,-1,-25,279400.0
13:07:42.380,AUTO,-35.3632647,149.1652325,45347,0.04420382156968117,-0.039552103728055954,0.2656760513782501,0.533614993095398,0.04371435195207596,-0.03350147604942322,-1,25,-998,535,44,-33,11,9,-23,279400.0
13:07:42.582,AUTO,-35.3632644,149.1652328,45405,0.04468187317252159,-0.027136582881212234,0.25617295503616333,0.41314733028411865,0.04610917717218399,-0.0411389097571373,-2,6,-1000,413,46,-41,16,18,-24,279400.0
13:07:42.784,AUTO,-35.363264,149.1652333,45468,0.027714373543858528,-0.01575448364019394,0.24766942858695984,-0.14334596693515778,0.04503902420401573,-0.03689504787325859,-2,-29,-999,-143,46,-36,19,25,-28,279400.0
13:07:42.986,AUTO,-35.3632635,149.1652341,45540,0.013127952814102173,-0.00632464187219739,0.24036888778209686,-0.5630505681037903,0.03928552567958832,-0.02943074330687523,-2,-32,-998,-562,40,-29,21,29,-30,279400.0
13:07:43.188,AUTO,-35.3632635,149.1652341,45540,0.013127952814102173,-0.00632464187219739,0.24036888778209686,-0.5630505681037903,0.03928552567958832,-0.02943074330687523,-2,-32,-998,-562,40,-29,21,29,-30,279400.0
13:07:43.395,AUTO,-35.3632635,149.1652341,45540,0.013127952814102173,-0.00632464187219739,0.24036888778209686,-0.5630505681037903,0.03928552567958832,-0.02943074330687523,-2,-32,-998,-562,40,-29,21,29,-30,279400.0
13:07:43.600,AUTO,-35.3632635,149.1652341,45540,0.013127952814102173,-0.00632464187219739,0.24036888778209686,-0.5630505681037903,0.03928552567958832,-0.02943074330687523,-2,-32,-998,-562,40,-29,21,29,-30,218868.0
13:07:43.802,AUTO,-35.3632635,149.1652341,45540,0.013127952814102173,-0.00632464187219739,0.24036888778209686,-0.5630505681037903,0.03928552567958832,-0.02943074330687523,-2,-32,-998,-562,40,-29,21,29,-30,218868.0
13:07:44.005,AUTO,-35.3632621,149.1652368,45711,-0.009842236526310444,0.03969519957900047,0.21243593096733093,0.2876600921154022,0.02283971570432186,-0.007874476723372936,0,-13,-968,287,24,-7,12,22,-5,218868.0
13:07:44.207,AUTO,-35.3632619,149.1652374,45715,-0.0069205258041620255,0.026403751224279404,0.2082526832818985,-0.4024420380592346,-0.09104690700769424,-0.006215082481503487,0,-39,-979,-402,-90,-5,5,15,0,218868.0
13:07:44.409,AUTO,-35.3632618,149.1652379,45705,0.0023268002551048994,0.003634754568338394,0.20416490733623505,-0.8335041403770447,-0.07668914645910263,-0.012193744070827961,1,-46,-963,-833,-75,-12,2,14,4,218868.0
13:07:44.610,AUTO,-35.3632618,149.1652384,45685,0.01798567920923233,-0.01174736488610506,0.19928176701068878,-0.3839217722415924,-0.047267306596040726,-0.020586352795362473,0,-5,-1010,-382,-46,-19,3,19,4,218868.0
13:07:44.812,AUTO,-35.3632618,149.1652384,45685,0.01798567920923233,-0.01174736488610506,0.19928176701068878,-0.3839217722415924,-0.047267306596040726,-0.020586352795362473,0,-5,-1010,-382,-46,-19,3,19,4,218868.0
13:07:45.014,AUTO,-35.3632617,149.1652392,45668,0.04063211753964424,-0.022456500679254532,0.1948895901441574,0.44538167119026184,-0.03642398491501808,-0.017606789246201515,2,28,-1011,447,-35,-17,6,28,3,218868.0
13:07:45.216,AUTO,-35.3632615,149.1652403,45650,0.055271632969379425,-0.03083048015832901,0.19062791764736176,0.7613618969917297,-0.032426878809928894,-0.014533508569002151,2,30,-1008,763,-31,-14,12,39,5,218868.0
13:07:45.417,AUTO,-35.3632615,149.1652403,45650,0.055271632969379425,-0.03083048015832901,0.19062791764736176,0.7613618969917297,-0.032426878809928894,-0.014533508569002151,2,30,-1008,763,-31,-14,12,39,5,218868.0
13:07:45.619,AUTO,-35.3632615,149.1652403,45650,0.055271632969379425,-0.03083048015832901,0.19062791764736176,0.7613618969917297,-0.032426878809928894,-0.014533508569002151,2,30,-1008,763,-31,-14,12,39,5,218868.0
13:07:45.821,AUTO,-35.3632615,149.1652403,45650,0.055271632969379425,-0.03083048015832901,0.19062791764736176,0.7613618969917297,-0.032426878809928894,-0.014533508569002151,2,30,-1008,763,-31,-14,12,39,5,218868.0
13:07:46.023,AUTO,-35.3632602,149.1652457,45585,0.0700758546590805,-0.06609712541103363,0.43073415756225586,0.07806358486413956,-0.01274941861629486,0.8170063495635986,-3,-39,-1001,77,-11,817,36,79,8,218868.0
13:07:46.225,AUTO,-35.3632594,149.1652483,45552,0.055693358182907104,-0.08767154067754745,0.6403224468231201,-0.737617552280426,-0.05683361738920212,0.8481488227844238,-8,-58,-986,-737,-55,848,45,96,11,218868.0
13:07:46.427,AUTO,-35.3632584,149.1652515,45509,0.035334229469299316,-0.10740994662046432,0.8466434478759766,-0.6712733507156372,-0.05341046676039696,0.8018327951431274,-17,-53,-990,-669,-52,802,55,116,15,51800.0
13:07:46.629,AUTO,-35.3632571,149.1652552,45457,0.024675555527210236,-0.12570525705814362,1.041746735572815,-0.1452818661928177,-0.062047600746154785,0.7388262152671814,-28,-11,-990,-143,-60,738,65,137,19,51800.0
13:07:46.831,AUTO,-35.3632557,149.1652594,45391,0.01399474311619997,-0.14523574709892273,1.227295160293579,0.5104309320449829,-0.06068384274840355,0.6869068741798401,-39,17,-998,512,-59,687,75,160,23,51800.0
13:07:47.033,AUTO,-35.3632557,149.1652594,45391,0.01399474311619997,-0.14523574709892273,1.227295160293579,0.5104309320449829,-0.06068384274840355,0.6869068741798401,-39,17,-998,512,-59,687,75,160,23,51800.0
13:07:47.235,AUTO,-35.3632539,149.1652643,45313,-0.003925547935068607,-0.16254058480262756,1.3833203315734863,0.7221721410751343,-0.06633360683917999,0.4274919927120209,-41,14,-990,723,-65,427,86,185,28,51800.0
13:07:47.437,AUTO,-35.3632539,149.1652643,45313,-0.003925547935068607,-0.16254058480262756,1.3833203315734863,0.7221721410751343,-0.06633360683917999,0.4274919927120209,-41,14,-990,723,-65,427,86,185,28,51800.0
13:07:47.641,AUTO,-35.3632539,149.1652643,45313,-0.003925547935068607,-0.16254058480262756,1.3833203315734863,0.7221721410751343,-0.06633360683917999,0.4274919927120209,-41,14,-990,723,-65,427,86,185,28,51800.0
13:07:47.846,AUTO,-35.3632472,149.1652836,45024,-0.010501585900783539,-0.1920662224292755,1.416156530380249,-0.5917654037475586,-0.010133566334843636,-0.10950900614261627,-69,-48,-989,-591,-9,-109,120,272,39,51800.0
13:07:48.048,AUTO,-35.3632472,149.1652836,45024,-0.010501585900783539,-0.1920662224292755,1.416156530380249,-0.5917654037475586,-0.010133566334843636,-0.10950900614261627,-69,-48,-989,-591,-9,-109,120,272,39,51800.0
13:07:48.250,AUTO,-35.3632444,149.1652915,44910,0.0033064342569559813,-0.19553188979625702,1.3838169574737549,0.11562708020210266,-0.003609391627833247,-0.13840442895889282,-68,-15,-990,117,-2,-138,131,301,42,51800.0
13:07:48.452,AUTO,-35.3632414,149.1653002,44785,0.020308850333094597,-0.19960303604602814,1.3580772876739502,0.6134527921676636,-0.020379528403282166,-0.12253716588020325,-80,-1,-987,615,-19,-122,141,329,49,51800.0
13:07:48.653,AUTO,-35.363238,149.1653097,44646,0.03033086471259594,-0.20356756448745728,1.3410139083862305,0.6269146800041199,-0.010617632418870926,-0.07107894867658615,-81,-14,-976,627,-9,-70,152,356,53,51800.0
13:07:48.855,AUTO,-35.3632344,149.1653198,44499,0.034979261457920074,-0.2065189629793167,1.3296386003494263,-0.1582937389612198,-0.025961104780435562,0.011923462152481079,-89,-57,-971,-158,-24,12,163,382,57,51800.0
13:07:49.057,AUTO,-35.3632344,149.1653198,44499,0.034979261457920074,-0.2065189629793167,1.3296386003494263,-0.1582937389612198,-0.025961104780435562,0.011923462152481079,-89,-57,-971,-158,-24,12,163,382,57,51800.0
13:07:49.259,AUTO,-35.3632305,149.165331,44336,0.03356752544641495,-0.2129133641719818,1.3230619430541992,-0.44307219982147217,-0.030458850786089897,-0.008728559128940105,-105,-48,-987,-442,-29,-8,170,410,62,51800.0
13:07:49.461,AUTO,-35.3632305,149.165331,44336,0.03356752544641495,-0.2129133641719818,1.3230619430541992,-0.44307219982147217,-0.030458850786089897,-0.008728559128940105,-105,-48,-987,-442,-29,-8,170,410,62,107234.0
13:07:49.663,AUTO,-35.3632305,149.165331,44336,0.03356752544641495,-0.2129133641719818,1.3230619430541992,-0.44307219982147217,-0.030458850786089897,-0.008728559128940105,-105,-48,-987,-442,-29,-8,170,410,62,107234.0
13:07:49.865,AUTO,-35.3632176,149.1653679,43779,0.0705142468214035,-0.20909900963306427,1.3125804662704468,0.37977346777915955,0.03401389718055725,0.001842616475187242,-109,-51,-977,379,35,2,194,485,80,107234.0
13:07:50.066,AUTO,-35.3632176,149.1653679,43779,0.0705142468214035,-0.20909900963306427,1.3125804662704468,0.37977346777915955,0.03401389718055725,0.001842616475187242,-109,-51,-977,379,35,2,194,485,80,107234.0
13:07:50.268,AUTO,-35.363213,149.1653816,43563,0.06460453569889069,-0.19721734523773193,1.3121216297149658,-0.4428420960903168,0.04883734509348869,0.039337389171123505,-126,-80,-991,-442,49,39,200,506,83,107234.0
13:07:50.470,AUTO,-35.3632082,149.1653959,43341,0.054915204644203186,-0.19097985327243805,1.3087786436080933,-0.6899323463439941,0.04356031492352486,-0.012049276381731033,-124,-70,-983,-688,44,-11,202,525,85,107234.0
13:07:50.671,AUTO,-35.3632034,149.1654107,43114,0.06549295783042908,-0.18116061389446259,1.303505778312683,0.006919856183230877,0.04775112494826317,-0.07381530106067657,-123,-36,-979,8,49,-73,207,540,86,107234.0
13:07:50.873,AUTO,-35.3631985,149.1654258,42886,0.07665342837572098,-0.17378509044647217,1.302065372467041,0.5637444853782654,0.01999618485569954,-0.07338881492614746,-135,-34,-1003,565,20,-73,210,553,86,107234.0
