time_stamp,MODE,lat,lon,relative_alt,roll,pitch,yaw,rollspeed,pitchspeed,yawspeed,xacc,yacc,zacc,xgyro,ygyro,zgyro,vx,vy,vz,RTL_ALT
14:49:32.816,STABILIZE,-35.3632621,149.1652374,53,-3.122578709735535e-05,0.0014974941732361913,0.029723908752202988,0.00037628153222613037,0.0003015792462974787,0.002465064637362957,0,1,-1000,0,0,0,0,0,-1,1500.0
14:49:33.017,STABILIZE,-35.3632621,149.1652374,48,-1.5026045048216474e-06,0.0015468584606423974,0.02952028252184391,0.00016736099496483803,0.00024849377223290503,0.0024888792540878057,0,1,-1000,0,0,0,-1,1,-1,1500.0
14:49:33.218,STABILIZE,-35.3632621,149.1652374,48,-1.5026045048216474e-06,0.0015468584606423974,0.02952028252184391,0.00016736099496483803,0.00024849377223290503,0.0024888792540878057,0,1,-1000,0,0,0,-1,1,-1,1500.0
14:49:33.419,STABILIZE,-35.3632621,149.1652374,48,-1.5026045048216474e-06,0.0015468584606423974,0.02952028252184391,0.00016736099496483803,0.00024849377223290503,0.0024888792540878057,0,1,-1000,0,0,0,-1,1,-1,1500.0
14:49:33.619,STABILIZE,-35.3632621,149.1652374,48,-1.5026045048216474e-06,0.0015468584606423974,0.02952028252184391,0.00016736099496483803,0.00024849377223290503,0.0024888792540878057,0,1,-1000,0,0,0,-1,1,-1,1500.0
14:49:33.820,STABILIZE,-35.3632621,149.1652374,48,-1.5026045048216474e-06,0.0015468584606423974,0.02952028252184391,0.00016736099496483803,0.00024849377223290503,0.0024888792540878057,0,1,-1000,0,0,0,-1,1,-1,1500.0
14:49:34.021,STABILIZE,-35.3632621,149.1652374,48,-1.5026045048216474e-06,0.0015468584606423974,0.02952028252184391,0.00016736099496483803,0.00024849377223290503,0.0024888792540878057,0,1,-1000,0,0,0,-1,1,-1,1500.0
14:49:34.222,STABILIZE,-35.3632621,149.1652374,48,-1.5026045048216474e-06,0.0015468584606423974,0.02952028252184391,0.00016736099496483803,0.00024849377223290503,0.0024888792540878057,0,1,-1000,0,0,0,-1,1,-1,1500.0
14:49:34.423,STABILIZE,-35.3632621,149.1652374,48,-1.5026045048216474e-06,0.0015468584606423974,0.02952028252184391,0.00016736099496483803,0.00024849377223290503,0.0024888792540878057,0,1,-1000,0,0,0,-1,1,-1,1500.0
14:49:34.623,STABILIZE,-35.3632621,149.1652374,48,-1.5026045048216474e-06,0.0015468584606423974,0.02952028252184391,0.00016736099496483803,0.00024849377223290503,0.0024888792540878057,0,1,-1000,0,0,0,-1,1,-1,1500.0
14:49:34.824,STABILIZE,-35.3632621,149.1652374,48,-1.5026045048216474e-06,0.0015468584606423974,0.02952028252184391,0.00016736099496483803,0.00024849377223290503,0.0024888792540878057,0,1,-1000,0,0,0,-1,1,-1,1500.0
14:49:35.025,STABILIZE,-35.3632621,149.1652374,48,-1.5026045048216474e-06,0.0015468584606423974,0.02952028252184391,0.00016736099496483803,0.00024849377223290503,0.0024888792540878057,0,1,-1000,0,0,0,-1,1,-1,1500.0
14:49:35.226,STABILIZE,-35.3632622,149.1652374,36,-0.00017330341506749392,0.0014894610503688455,0.028055107221007347,0.00027122197207063437,0.0002348992566112429,0.002165579004213214,0,1,-1000,0,0,0,-2,0,-3,1500.0
14:49:35.427,STABILIZE,-35.3632622,149.1652374,36,-0.00017330341506749392,0.0014894610503688455,0.028055107221007347,0.00027122197207063437,0.0002348992566112429,0.002165579004213214,0,1,-1000,0,0,0,-2,0,-3,1500.0
14:49:35.628,STABILIZE,-35.3632622,149.1652374,40,-0.00011126928438898176,0.001400132430717349,0.02773883566260338,0.00024251651484519243,0.00038673297967761755,0.0021863903384655714,0,1,-1000,0,0,0,-2,0,-3,1500.0
14:49:35.830,STABILIZE,-35.3632622,149.1652374,40,-0.00011126928438898176,0.001400132430717349,0.02773883566260338,0.00024251651484519243,0.00038673297967761755,0.0021863903384655714,0,1,-1000,0,0,0,-2,0,-3,1500.0
14:49:36.031,STABILIZE,-35.3632622,149.1652374,40,-0.00011126928438898176,0.001400132430717349,0.02773883566260338,0.00024251651484519243,0.00038673297967761755,0.0021863903384655714,0,1,-1000,0,0,0,-2,0,-3,1500.0
14:49:36.233,STABILIZE,-35.3632622,149.1652374,40,-0.00011126928438898176,0.001400132430717349,0.02773883566260338,0.00024251651484519243,0.00038673297967761755,0.0021863903384655714,0,1,-1000,0,0,0,-2,0,-3,1500.0
14:49:36.434,STABILIZE,-35.3632622,149.1652374,40,-0.00010025208757724613,0.0012295402120798826,0.0272681787610054,0.0002121135185007006,0.0002359656209591776,0.0021406421437859535,0,1,-1000,0,0,0,-1,1,-2,1500.0
14:49:36.636,STABILIZE,-35.3632622,149.1652374,40,-0.00010717958502937108,0.0011934457579627633,0.027100643143057823,0.00028699770336970687,0.00013853295240551233,0.002038534265011549,0,1,-1000,1,0,0,-1,1,-2,1500.0
14:49:36.837,STABILIZE,-35.3632622,149.1652374,39,-0.000138482719194144,0.001143244095146656,0.026969294995069504,0.000137814087793231,0.0002375934855081141,0.0021459036506712437,0,1,-1000,1,0,0,-1,1,-2,1500.0
14:49:37.039,STABILIZE,-35.3632622,149.1652374,39,-0.000138482719194144,0.001143244095146656,0.026969294995069504,0.000137814087793231,0.0002375934855081141,0.0021459036506712437,0,1,-1000,1,0,0,-1,1,-2,1500.0
14:49:37.241,STABILIZE,-35.3632622,149.1652374,39,-0.000138482719194144,0.001143244095146656,0.026969294995069504,0.000137814087793231,0.0002375934855081141,0.0021459036506712437,0,1,-1000,1,0,0,-1,1,-2,1500.0
14:49:37.442,STABILIZE,-35.3632622,149.1652374,39,-0.000138482719194144,0.001143244095146656,0.026969294995069504,0.000137814087793231,0.0002375934855081141,0.0021459036506712437,0,1,-1000,1,0,0,-1,1,-2,1500.0
14:49:37.644,STABILIZE,-35.3632622,149.1652374,39,-0.000138482719194144,0.001143244095146656,0.026969294995069504,0.000137814087793231,0.0002375934855081141,0.0021459036506712437,0,1,-1000,1,0,0,-1,1,-2,1500.0
14:49:37.845,STABILIZE,-35.3632622,149.1652374,39,-0.000138482719194144,0.001143244095146656,0.026969294995069504,0.000137814087793231,0.0002375934855081141,0.0021459036506712437,0,1,-1000,1,0,0,-1,1,-2,1500.0
14:49:38.047,STABILIZE,-35.3632622,149.1652374,39,-0.000138482719194144,0.001143244095146656,0.026969294995069504,0.000137814087793231,0.0002375934855081141,0.0021459036506712437,0,1,-1000,1,0,0,-1,1,-2,1500.0
14:49:38.249,STABILIZE,-35.3632622,149.1652374,39,-0.000138482719194144,0.001143244095146656,0.026969294995069504,0.000137814087793231,0.0002375934855081141,0.0021459036506712437,0,1,-1000,1,0,0,-1,1,-2,1500.0
14:49:38.450,STABILIZE,-35.3632622,149.1652374,39,-0.000138482719194144,0.001143244095146656,0.026969294995069504,0.000137814087793231,0.0002375934855081141,0.0021459036506712437,0,1,-1000,1,0,0,-1,1,-2,1500.0
14:49:38.652,STABILIZE,-35.3632622,149.1652374,39,-0.000138482719194144,0.001143244095146656,0.026969294995069504,0.000137814087793231,0.0002375934855081141,0.0021459036506712437,0,1,-1000,1,0,0,-1,1,-2,1500.0
14:49:38.853,STABILIZE,-35.3632622,149.1652374,39,-0.000138482719194144,0.001143244095146656,0.026969294995069504,0.000137814087793231,0.0002375934855081141,0.0021459036506712437,0,1,-1000,1,0,0,-1,1,-2,1500.0
14:49:39.055,STABILIZE,-35.3632622,149.1652374,39,-0.000138482719194144,0.001143244095146656,0.026969294995069504,0.000137814087793231,0.0002375934855081141,0.0021459036506712437,0,1,-1000,1,0,0,-1,1,-2,1500.0
14:49:39.257,STABILIZE,-35.3632622,149.1652374,39,-0.000138482719194144,0.001143244095146656,0.026969294995069504,0.000137814087793231,0.0002375934855081141,0.0021459036506712437,0,1,-1000,1,0,0,-1,1,-2,1500.0
14:49:39.459,STABILIZE,-35.3632622,149.1652374,39,-0.000138482719194144,0.001143244095146656,0.026969294995069504,0.000137814087793231,0.0002375934855081141,0.0021459036506712437,0,1,-1000,1,0,0,-1,1,-2,1500.0
14:49:39.660,STABILIZE,-35.3632622,149.1652374,39,-0.000138482719194144,0.001143244095146656,0.026969294995069504,0.000137814087793231,0.0002375934855081141,0.0021459036506712437,0,1,-1000,1,0,0,-1,1,-2,1500.0
14:49:39.862,STABILIZE,-35.3632622,149.1652374,39,-0.000138482719194144,0.001143244095146656,0.026969294995069504,0.000137814087793231,0.0002375934855081141,0.0021459036506712437,0,1,-1000,1,0,0,-1,1,-2,1500.0
14:49:40.063,STABILIZE,-35.3632622,149.1652374,39,-0.000138482719194144,0.001143244095146656,0.026969294995069504,0.000137814087793231,0.0002375934855081141,0.0021459036506712437,0,1,-1000,1,0,0,-1,1,-2,1500.0
14:49:40.265,STABILIZE,-35.3632622,149.1652374,39,-0.000138482719194144,0.001143244095146656,0.026969294995069504,0.000137814087793231,0.0002375934855081141,0.0021459036506712437,0,1,-1000,1,0,0,-1,1,-2,1500.0
14:49:40.467,STABILIZE,-35.3632621,149.1652375,24,-0.0004901886568404734,0.0009333163616247475,0.02511708438396454,0.00026503513799980283,0.00016874755965545774,0.0018582025077193975,0,1,-1000,0,0,0,-1,1,0,1500.0
14:49:40.668,STABILIZE,-35.3632621,149.1652375,22,-0.0004901886568404734,0.0009333163616247475,0.02511708438396454,0.00026503513799980283,0.00016874755965545774,0.0018582025077193975,0,1,-1000,0,0,0,-1,1,0,1500.0
14:49:40.869,STABILIZE,-35.3632621,149.1652375,22,-0.0004901886568404734,0.0009333163616247475,0.02511708438396454,0.00026503513799980283,0.00016874755965545774,0.0018582025077193975,0,1,-1000,0,0,0,-1,1,0,1500.0
14:49:41.071,STABILIZE,-35.3632621,149.1652375,22,-0.0004901886568404734,0.0009333163616247475,0.02511708438396454,0.00026503513799980283,0.00016874755965545774,0.0018582025077193975,0,1,-1000,0,0,0,-1,1,0,1500.0
14:49:41.272,STABILIZE,-35.3632621,149.1652375,22,-0.0004901886568404734,0.0009333163616247475,0.02511708438396454,0.00026503513799980283,0.00016874755965545774,0.0018582025077193975,0,1,-1000,0,0,0,-1,1,0,1500.0
14:49:41.474,STABILIZE,-35.3632621,149.1652375,22,-0.0004901886568404734,0.0009333163616247475,0.02511708438396454,0.00026503513799980283,0.00016874755965545774,0.0018582025077193975,0,1,-1000,0,0,0,-1,1,0,1500.0
14:49:41.676,STABILIZE,-35.3632621,149.1652375,22,-0.0004901886568404734,0.0009333163616247475,0.02511708438396454,0.00026503513799980283,0.00016874755965545774,0.0018582025077193975,0,1,-1000,0,0,0,-1,1,0,1500.0
14:49:41.877,STABILIZE,-35.3632621,149.1652375,22,-0.0004901886568404734,0.0009333163616247475,0.02511708438396454,0.00026503513799980283,0.00016874755965545774,0.0018582025077193975,0,1,-1000,0,0,0,-1,1,0,1500.0
14:49:42.079,STABILIZE,-35.3632621,149.1652375,22,-0.0004901886568404734,0.0009333163616247475,0.02511708438396454,0.00026503513799980283,0.00016874755965545774,0.0018582025077193975,0,1,-1000,0,0,0,-1,1,0,1500.0
14:49:42.280,STABILIZE,-35.3632621,149.1652375,22,-0.0004901886568404734,0.0009333163616247475,0.02511708438396454,0.00026503513799980283,0.00016874755965545774,0.0018582025077193975,0,1,-1000,0,0,0,-1,1,0,1500.0
14:49:42.482,STABILIZE,-35.3632621,149.1652375,22,-0.0004901886568404734,0.0009333163616247475,0.02511708438396454,0.00026503513799980283,0.00016874755965545774,0.0018582025077193975,0,1,-1000,0,0,0,-1,1,0,1500.0
14:49:42.683,STABILIZE,-35.3632621,149.1652376,3,-0.0004901886568404734,0.0009333163616247475,0.02511708438396454,0.00026503513799980283,0.00016874755965545774,0.0018582025077193975,0,1,-1000,0,1,0,-1,2,1,1500.0
14:49:42.885,STABILIZE,-35.3632621,149.1652376,3,-0.0004901886568404734,0.0009333163616247475,0.02511708438396454,0.00026503513799980283,0.00016874755965545774,0.0018582025077193975,0,1,-1000,0,1,0,-1,2,1,1500.0
14:49:43.086,STABILIZE,-35.3632621,149.1652376,3,-0.0004901886568404734,0.0009333163616247475,0.02511708438396454,0.00026503513799980283,0.00016874755965545774,0.0018582025077193975,0,1,-1000,0,1,0,-1,2,1,1500.0
14:49:43.287,STABILIZE,-35.3632621,149.1652376,3,-0.0004901886568404734,0.0009333163616247475,0.02511708438396454,0.00026503513799980283,0.00016874755965545774,0.0018582025077193975,0,1,-1000,0,1,0,-1,2,1,1500.0
14:49:43.489,STABILIZE,-35.3632621,149.1652376,3,-0.0004901886568404734,0.0009333163616247475,0.02511708438396454,0.00026503513799980283,0.00016874755965545774,0.0018582025077193975,0,1,-1000,0,1,0,-1,2,1,1500.0
14:49:43.690,STABILIZE,-35.3632621,149.1652376,3,-0.0004901886568404734,0.0009333163616247475,0.02511708438396454,0.00026503513799980283,0.00016874755965545774,0.0018582025077193975,0,1,-1000,0,1,0,-1,2,1,1500.0
14:49:43.892,STABILIZE,-35.3632621,149.1652376,3,-0.0004901886568404734,0.0009333163616247475,0.02511708438396454,0.00026503513799980283,0.00016874755965545774,0.0018582025077193975,0,1,-1000,0,1,0,-1,2,1,1500.0
14:49:44.093,STABILIZE,-35.3632621,149.1652376,3,-0.0004901886568404734,0.0009333163616247475,0.02511708438396454,0.00026503513799980283,0.00016874755965545774,0.0018582025077193975,0,1,-1000,0,1,0,-1,2,1,1500.0
14:49:44.294,STABILIZE,-35.3632622,149.1652375,0,-0.0008651083335280418,0.0009584955987520516,0.023491349071264267,0.00019930122653022408,0.00021124578779563308,0.0017545603914186358,0,1,-1000,0,1,0,-1,1,1,1500.0
14:49:44.496,STABILIZE,-35.3632622,149.1652375,0,-0.0008651083335280418,0.0009584955987520516,0.023491349071264267,0.00019930122653022408,0.00021124578779563308,0.0017545603914186358,0,2,-1000,0,0,0,-1,1,1,1500.0
14:49:44.698,STABILIZE,-35.3632622,149.1652375,0,-0.0009119579917751253,0.0009687604033388197,0.0234178826212883,0.00030437472742050886,0.00021719327196478844,0.001782586914487183,0,1,-1000,0,0,1,-1,1,1,1500.0
14:49:44.899,STABILIZE,-35.3632622,149.1652375,0,-0.0009119579917751253,0.0009687604033388197,0.0234178826212883,0.00030437472742050886,0.00021719327196478844,0.001782586914487183,0,2,-1000,0,1,0,-1,1,1,1500.0
14:49:45.100,STABILIZE,-35.3632622,149.1652375,0,-0.0009863401064649224,0.0009610922425054014,0.023261038586497307,0.0002818540669977665,0.00019903708016499877,0.0016233731294050813,0,2,-1000,0,0,0,-1,1,1,1500.0
14:49:45.302,STABILIZE,-35.3632622,149.1652375,0,-0.0009863401064649224,0.0009610922425054014,0.023261038586497307,0.0002818540669977665,0.00019903708016499877,0.0016233731294050813,0,2,-1000,0,0,0,-1,1,1,1500.0
14:49:45.503,STABILIZE,-35.3632622,149.1652375,0,-0.0009863401064649224,0.0009610922425054014,0.023261038586497307,0.0002818540669977665,0.00019903708016499877,0.0016233731294050813,0,2,-1000,0,0,0,-1,1,1,1500.0
14:49:45.704,STABILIZE,-35.3632622,149.1652375,0,-0.0009863401064649224,0.0009610922425054014,0.023261038586497307,0.0002818540669977665,0.00019903708016499877,0.0016233731294050813,0,2,-1000,0,0,0,-1,1,1,1500.0
14:49:45.905,STABILIZE,-35.3632622,149.1652375,0,-0.0009863401064649224,0.0009610922425054014,0.023261038586497307,0.0002818540669977665,0.00019903708016499877,0.0016233731294050813,0,2,-1000,0,0,0,-1,1,1,1500.0
14:49:46.107,STABILIZE,-35.3632622,149.1652375,0,-0.0009863401064649224,0.0009610922425054014,0.023261038586497307,0.0002818540669977665,0.00019903708016499877,0.0016233731294050813,0,2,-1000,0,0,0,-1,1,1,1500.0
14:49:46.308,STABILIZE,-35.3632622,149.1652375,0,-0.000977070303633809,0.0009576596203260124,0.022952139377593994,0.0001909332349896431,0.00035316665889695287,0.0016844864003360271,0,1,-1000,1,0,0,-1,0,0,1500.0
14:49:46.509,STABILIZE,-35.3632622,149.1652375,0,-0.000977070303633809,0.0009576596203260124,0.022952139377593994,0.0001909332349896431,0.00035316665889695287,0.0016844864003360271,0,1,-1000,1,0,0,-1,0,0,1500.0
14:49:46.710,STABILIZE,-35.3632622,149.1652375,0,-0.000977070303633809,0.0009576596203260124,0.022952139377593994,0.0001909332349896431,0.00035316665889695287,0.0016844864003360271,0,1,-1000,1,0,0,-1,0,0,1500.0
14:49:46.911,STABILIZE,-35.3632622,149.1652375,0,-0.000977070303633809,0.0009576596203260124,0.022952139377593994,0.0001909332349896431,0.00035316665889695287,0.0016844864003360271,0,1,-1000,1,0,0,-1,0,0,1500.0
14:49:47.112,STABILIZE,-35.3632622,149.1652375,0,-0.000977070303633809,0.0009576596203260124,0.022952139377593994,0.0001909332349896431,0.00035316665889695287,0.0016844864003360271,0,1,-1000,1,0,0,-1,0,0,1500.0
14:49:47.313,STABILIZE,-35.3632622,149.1652375,0,-0.000977070303633809,0.0009576596203260124,0.022952139377593994,0.0001909332349896431,0.00035316665889695287,0.0016844864003360271,0,1,-1000,1,0,0,-1,0,0,1500.0
14:49:47.515,STABILIZE,-35.3632622,149.1652375,0,-0.000977070303633809,0.0009576596203260124,0.022952139377593994,0.0001909332349896431,0.00035316665889695287,0.0016844864003360271,0,1,-1000,1,0,0,-1,0,0,1500.0
14:49:47.716,STABILIZE,-35.3632622,149.1652375,0,-0.000977070303633809,0.0009576596203260124,0.022952139377593994,0.0001909332349896431,0.00035316665889695287,0.0016844864003360271,0,1,-1000,1,0,0,-1,0,0,1500.0
14:49:47.918,AUTO,-35.3632622,149.1652375,0,-0.000977070303633809,0.0009576596203260124,0.022952139377593994,0.0001909332349896431,0.00035316665889695287,0.0016844864003360271,0,1,-1000,1,0,0,-1,0,0,1500.0
14:49:48.120,AUTO,-35.3632622,149.1652375,0,-0.000977070303633809,0.0009576596203260124,0.022952139377593994,0.0001909332349896431,0.00035316665889695287,0.0016844864003360271,0,1,-1000,1,0,0,-1,0,0,1500.0
14:49:48.321,AUTO,-35.3632622,149.1652375,0,-0.0009018448763526976,0.0009748383308760822,0.022451160475611687,0.00032344378996640444,0.0002748009283095598,0.0016330536454916,0,1,-1000,1,1,0,-1,1,0,1500.0
14:49:48.522,AUTO,-35.3632622,149.1652375,0,-0.0009018448763526976,0.0009748383308760822,0.022451160475611687,0.00032344378996640444,0.0002748009283095598,0.0016330536454916,0,1,-1000,1,1,0,-1,1,0,1500.0
14:49:48.723,AUTO,-35.3632621,149.1652375,0,-0.0009055704576894641,0.0009873892413452268,0.022401509806513786,0.00025285728042945266,0.0002419376978650689,0.001497684046626091,0,2,-1000,0,0,1,-1,1,0,1500.0
14:49:48.925,AUTO,-35.3632621,149.1652375,0,-0.0004169749154243618,0.0010098605416715145,0.022318542003631592,0.00021192868007346988,0.00025028944946825504,0.0014773800503462553,0,2,-1000,1,0,1,0,3,4,1500.0
14:49:49.126,AUTO,-35.3632621,149.1652375,0,-0.0004309180658310652,0.0010389063972979784,0.02225193753838539,0.00037688325392082334,0.00024109554942697287,0.0015012950170785189,0,2,-1000,1,1,1,0,2,4,1500.0
14:49:49.327,AUTO,-35.3632621,149.1652375,0,-0.00042263470822945237,0.0010855105938389897,0.022174863144755363,0.00033472938230261207,0.0002586862538009882,0.0015227000694721937,0,1,-1000,0,1,0,0,1,4,1500.0
14:49:49.528,AUTO,-35.3632621,149.1652375,0,-0.00042263470822945237,0.0010855105938389897,0.022174863144755363,0.00033472938230261207,0.0002586862538009882,0.0015227000694721937,0,1,-1000,0,1,0,0,1,4,1500.0
14:49:49.730,AUTO,-35.3632621,149.1652375,0,-0.00039908316102810204,0.0011398923816159368,0.022084809839725494,0.0002457198570482433,0.0003848029882647097,0.0014463122934103012,0,1,-1000,0,1,1,0,0,3,1500.0
14:49:49.931,AUTO,-35.3632621,149.1652375,0,-0.00039908316102810204,0.0011398923816159368,0.022084809839725494,0.0002457198570482433,0.0003848029882647097,0.0014463122934103012,0,1,-1000,0,1,1,0,0,3,1500.0
14:49:50.132,AUTO,-35.3632621,149.1652375,0,-0.00039908316102810204,0.0011398923816159368,0.022084809839725494,0.0002457198570482433,0.0003848029882647097,0.0014463122934103012,0,1,-1000,0,1,1,0,0,3,1500.0
14:49:50.334,AUTO,-35.3632621,149.1652375,0,-0.0002438812516629696,0.001344045507721603,0.02186845988035202,0.00038070196751505136,0.0002561669098213315,0.0015562898479402065,0,1,-1000,1,1,1,0,0,3,1500.0
14:49:50.535,AUTO,-35.3632621,149.1652374,0,-0.00018730467127170414,0.0014189621433615685,0.02176920510828495,0.0003425629693083465,0.00040708319284021854,0.0014414655743166804,0,1,-1000,0,0,0,0,0,2,18670.0
14:49:50.736,AUTO,-35.3632621,149.1652374,0,-0.00018730467127170414,0.0014189621433615685,0.02176920510828495,0.0003425629693083465,0.00040708319284021854,0.0014414655743166804,0,1,-1000,0,0,0,0,0,2,18670.0
14:49:50.937,AUTO,-35.3632621,149.1652374,0,-0.0001286169426748529,0.0014968861360102892,0.021688824519515038,0.00022239115787670016,0.0002706270315684378,0.001480066915974021,0,2,-1000,0,0,0,0,-1,2,18670.0
14:49:51.139,AUTO,-35.3632621,149.1652374,0,-6.899364962009713e-05,0.0015703019453212619,0.021600930020213127,0.00027637777384370565,0.0002967220498248935,0.0014071789337322116,0,1,-1000,0,0,0,0,-1,2,18670.0
14:49:51.340,AUTO,-35.3632621,149.1652374,0,-2.764068767646677e-06,0.001646696007810533,0.02150249481201172,0.00028887426014989614,0.00029475707560777664,0.0014970086049288511,0,2,-1000,0,0,1,0,-1,2,18670.0
14:49:51.542,AUTO,-35.3632621,149.1652374,0,6.72504902468063e-05,0.0017166464822366834,0.02141108177602291,0.0002740241470746696,0.00032145169097930193,0.0013670502230525017,0,1,-1000,0,1,0,0,-1,2,18670.0
14:49:51.743,AUTO,-35.3632621,149.1652374,0,6.72504902468063e-05,0.0017166464822366834,0.02141108177602291,0.0002740241470746696,0.00032145169097930193,0.0013670502230525017,0,1,-1000,0,1,0,0,-1,2,18670.0
14:49:51.944,AUTO,-35.3632621,149.1652374,0,6.72504902468063e-05,0.0017166464822366834,0.02141108177602291,0.0002740241470746696,0.00032145169097930193,0.0013670502230525017,0,1,-1000,0,1,0,0,-1,2,18670.0
14:49:52.146,AUTO,-35.3632621,149.1652374,0,6.72504902468063e-05,0.0017166464822366834,0.02141108177602291,0.0002740241470746696,0.00032145169097930193,0.0013670502230525017,0,1,-1000,0,1,0,0,-1,2,18670.0
14:49:52.347,AUTO,-35.3632621,149.1652374,157,0.0043229819275438786,6.099922029534355e-05,0.02129942923784256,-0.0005010359454900026,0.004903867840766907,0.0013713939115405083,0,0,-1129,0,5,0,0,0,-67,18670.0
14:49:52.549,AUTO,-35.3632621,149.1652375,364,0.0027679100167006254,0.0011335776653140783,0.02107873372733593,0.0014599952846765518,0.004178299568593502,0.0020599854178726673,0,0,-1109,2,4,1,0,0,-96,18670.0
14:49:52.751,AUTO,-35.3632621,149.1652375,364,0.0027679100167006254,0.0011335776653140783,0.02107873372733593,0.0014599952846765518,0.004178299568593502,0.0020599854178726673,0,0,-1109,2,4,1,0,0,-96,18670.0
14:49:52.952,AUTO,-35.3632621,149.1652375,636,0.00167961569968611,0.0017281142063438892,0.021176792681217194,-0.007384653203189373,-0.00028472335543483496,0.0016069822013378143,0,0,-1090,-7,0,1,0,0,-119,18670.0
14:49:53.154,AUTO,-35.3632621,149.1652375,970,0.008685780689120293,0.0011868344154208899,0.020909028127789497,0.04630744084715843,-0.005731238983571529,0.0014754000585526228,0,0,-1047,46,-5,0,0,1,-136,18670.0
14:49:53.356,AUTO,-35.363262,149.1652375,1334,0.020540479570627213,-0.0005118486587889493,0.020909976214170456,0.046705398708581924,-0.007131879683583975,0.0023598845582455397,0,0,-1020,47,-6,1,0,4,-143,18670.0
14:49:53.557,AUTO,-35.363262,149.1652377,1712,0.0320223830640316,-0.0024289581924676895,0.021047893911600113,0.04536423087120056,-0.007866470143198967,0.00294829485937953,0,-1,-1008,46,-7,2,1,9,-146,18670.0
14:49:53.759,AUTO,-35.363262,149.1652377,1712,0.0320223830640316,-0.0024289581924676895,0.021047893911600113,0.04536423087120056,-0.007866470143198967,0.00294829485937953,0,-1,-1008,46,-7,2,1,9,-146,18670.0
14:49:53.962,AUTO,-35.363262,149.1652377,1712,0.0320223830640316,-0.0024289581924676895,0.021047893911600113,0.04536423087120056,-0.007866470143198967,0.00294829485937953,0,-1,-1008,46,-7,2,1,9,-146,18670.0
14:49:54.164,AUTO,-35.363262,149.1652377,1712,0.0320223830640316,-0.0024289581924676895,0.021047893911600113,0.04536423087120056,-0.007866470143198967,0.00294829485937953,0,-1,-1008,46,-7,2,1,9,-146,18670.0
14:49:54.365,AUTO,-35.3632616,149.1652396,2868,0.06211221590638161,-0.009569047950208187,-0.007408640347421169,0.01645573414862156,-0.0002779642236419022,-0.023012779653072357,1,-8,-995,16,0,-23,7,40,-147,18670.0
14:49:54.567,AUTO,-35.3632614,149.1652408,3249,0.047560129314661026,0.008159728720784187,-0.026912812143564224,-0.12076062709093094,0.11072599142789841,-0.10778265446424484,2,-10,-990,-120,111,-108,9,51,-145,208043.0
14:49:54.769,AUTO,-35.3632614,149.1652408,3249,0.047560129314661026,0.008159728720784187,-0.026912812143564224,-0.12076062709093094,0.11072599142789841,-0.10778265446424484,2,-10,-990,-120,111,-108,9,51,-145,208043.0
14:49:54.970,AUTO,-35.3632612,149.1652422,3626,0.005706118885427713,0.023459043353796005,-0.04769286885857582,-0.18015721440315247,0.01161901094019413,-0.07584038376808167,4,-12,-997,-179,12,-76,7,54,-144,208043.0
14:49:55.172,AUTO,-35.363261,149.1652436,4004,-0.0247989222407341,0.019961899146437645,-0.0613880418241024,-0.07198724150657654,-0.01974981650710106,-0.05487672612071037,6,-12,-1011,-71,-19,-55,3,47,-146,208043.0
14:49:55.374,AUTO,-35.3632609,149.1652447,4386,-0.03503057733178139,0.014441249892115593,-0.07199229300022125,-0.02247628942131996,-0.016084041446447372,-0.04511218145489693,5,-10,-1008,-21,-15,-45,0,37,-148,208043.0
14:49:55.577,AUTO,-35.3632609,149.1652456,4772,-0.039440590888261795,0.010208386927843094,-0.08114203810691833,-0.022979391738772392,-0.014051697216928005,-0.03470747545361519,4,-8,-1002,-22,-13,-35,-1,25,-149,208043.0
14:49:55.783,AUTO,-35.3632609,149.1652456,4772,-0.039440590888261795,0.010208386927843094,-0.08114203810691833,-0.022979391738772392,-0.014051697216928005,-0.03470747545361519,4,-8,-1002,-22,-13,-35,-1,25,-149,208043.0
14:49:55.985,AUTO,-35.3632609,149.1652456,4772,-0.039440590888261795,0.010208386927843094,-0.08114203810691833,-0.022979391738772392,-0.014051697216928005,-0.03470747545361519,4,-8,-1002,-22,-13,-35,-1,25,-149,208043.0
14:49:56.186,AUTO,-35.3632609,149.1652456,4772,-0.039440590888261795,0.010208386927843094,-0.08114203810691833,-0.022979391738772392,-0.014051697216928005,-0.03470747545361519,4,-8,-1002,-22,-13,-35,-1,25,-149,208043.0
14:49:56.389,AUTO,-35.3632609,149.1652459,5926,-0.07021545618772507,-0.0061071040108799934,-0.09118674695491791,0.03930463269352913,-0.00553307356312871,-0.009795589372515678,0,2,-1004,39,-4,-10,-3,-21,-149,208043.0
14:49:56.591,AUTO,-35.363261,149.1652452,6311,-0.05766742676496506,-0.0069579570554196835,-0.09319790452718735,0.05494486913084984,-0.0009150037076324224,-0.005634748842567205,-3,5,-1001,55,0,-6,-2,-36,-149,208043.0
14:49:56.793,AUTO,-35.3632611,149.1652441,6696,-0.043244730681180954,-0.006407327484339476,-0.09489354491233826,0.05945539474487305,0.004822263494133949,-0.0029961825348436832,-5,8,-1001,59,5,-3,-3,-48,-149,208043.0
14:49:56.995,AUTO,-35.3632611,149.1652441,6696,-0.043244730681180954,-0.006407327484339476,-0.09489354491233826,0.05945539474487305,0.004822263494133949,-0.0029961825348436832,-5,8,-1001,59,5,-3,-3,-48,-149,208043.0
14:49:57.197,AUTO,-35.3632612,149.1652427,7085,-0.027664197608828545,-0.004561641253530979,-0.09603895246982574,0.06342706829309464,0.009548923000693321,-0.0008123877341859043,-5,11,-1002,63,10,-1,-3,-55,-150,208043.0
14:49:57.399,AUTO,-35.3632612,149.1652411,7471,-0.011692808009684086,-0.0018236460164189339,-0.09650576859712601,0.06489381939172745,0.011692593805491924,0.0007442460628226399,-7,11,-1003,65,12,0,-4,-57,-150,208043.0
14:49:57.601,AUTO,-35.3632613,149.1652395,7859,0.004628463182598352,0.0012740204110741615,-0.09628432244062424,0.06631452590227127,0.01291362289339304,0.0021746575366705656,-6,12,-1003,66,13,1,-5,-56,-151,208043.0
14:49:57.803,AUTO,-35.3632613,149.1652395,7859,0.004628463182598352,0.0012740204110741615,-0.09628432244062424,0.06631452590227127,0.01291362289339304,0.0021746575366705656,-6,12,-1003,66,13,1,-5,-56,-151,208043.0
14:49:58.005,AUTO,-35.3632613,149.1652395,7859,0.004628463182598352,0.0012740204110741615,-0.09628432244062424,0.06631452590227127,0.01291362289339304,0.0021746575366705656,-6,12,-1003,66,13,1,-5,-56,-151,208043.0
14:49:58.206,AUTO,-35.3632613,149.1652395,7859,0.004628463182598352,0.0012740204110741615,-0.09628432244062424,0.06631452590227127,0.01291362289339304,0.0021746575366705656,-6,12,-1003,66,13,1,-5,-56,-151,208043.0
14:49:58.408,AUTO,-35.3632618,149.1652356,9029,0.052569855004549026,0.008466793224215508,-0.09352993220090866,0.06155618652701378,0.00474026333540678,0.004566336516290903,-3,9,-1002,61,5,4,-9,-29,-153,208043.0
14:49:58.610,AUTO,-35.363262,149.1652349,9423,0.06445788592100143,0.006632138043642044,-0.08964771777391434,0.0172723475843668,-0.03143862634897232,0.03978166729211807,-1,6,-997,17,-30,39,-10,-14,-153,174528.0
14:49:58.811,AUTO,-35.3632623,149.1652347,9814,0.05585918575525284,-0.004993798211216927,-0.08032768219709396,-0.06862545013427734,-0.03402477502822876,0.03187328949570656,0,3,-993,-68,-33,31,-8,0,-151,174528.0
14:49:59.013,AUTO,-35.3632623,149.1652347,9814,0.05585918575525284,-0.004993798211216927,-0.08032768219709396,-0.06862545013427734,-0.03402477502822876,0.03187328949570656,0,3,-993,-68,-33,31,-8,0,-151,174528.0
14:49:59.215,AUTO,-35.3632624,149.1652348,10200,0.03541788086295128,-0.009134836494922638,-0.07609585672616959,-0.08347801864147186,-0.0045692878775298595,0.009082111530005932,1,0,-996,-82,-3,8,-5,10,-150,174528.0
14:49:59.417,AUTO,-35.3632625,149.165235,10584,0.016916457563638687,-0.008218792267143726,-0.07720326632261276,-0.06625673919916153,0.008771216496825218,-0.012178436852991581,1,-1,-1000,-65,9,-12,-1,15,-150,174528.0
14:49:59.619,AUTO,-35.3632625,149.1652353,10968,0.0031410232186317444,-0.006072950083762407,-0.08191622793674469,-0.04596267640590668,0.007903982885181904,-0.019499387592077255,1,-2,-1002,-45,8,-20,1,15,-150,174528.0
14:49:59.820,AUTO,-35.3632625,149.1652353,10968,0.0031410232186317444,-0.006072950083762407,-0.08191622793674469,-0.04596267640590668,0.007903982885181904,-0.019499387592077255,1,-2,-1002,-45,8,-20,1,15,-150,174528.0
14:50:00.023,AUTO,-35.3632625,149.1652353,10968,0.0031410232186317444,-0.006072950083762407,-0.08191622793674469,-0.04596267640590668,0.007903982885181904,-0.019499387592077255,1,-2,-1002,-45,8,-20,1,15,-150,174528.0
14:50:00.226,AUTO,-35.3632625,149.1652353,10968,0.0031410232186317444,-0.006072950083762407,-0.08191622793674469,-0.04596267640590668,0.007903982885181904,-0.019499387592077255,1,-2,-1002,-45,8,-20,1,15,-150,174528.0
14:50:00.428,AUTO,-35.3632624,149.1652361,12132,-0.010643431916832924,-0.0017815142637118697,-0.10303667187690735,0.002783147618174553,0.0065518938936293125,-0.026555616408586502,0,-2,-1002,3,7,-27,5,5,-152,174528.0
14:50:00.629,AUTO,-35.3632623,149.1652362,12520,-0.00896279513835907,-0.0002903679560404271,-0.11059728264808655,0.00855138711631298,0.005550970323383808,-0.02606077678501606,-1,-1,-1000,8,6,-26,5,1,-152,174528.0
14:50:00.831,AUTO,-35.3632621,149.1652361,12910,-0.005964304786175489,0.0011092544300481677,-0.11764125525951385,0.014711608178913593,0.006688479334115982,-0.024046294391155243,-1,0,-1000,15,7,-24,5,-1,-152,174528.0
14:50:01.034,AUTO,-35.363262,149.1652361,13300,-0.0024874741211533546,0.002543032169342041,-0.12422674149274826,0.014772568829357624,0.0059524038806557655,-0.023193681612610817,-1,0,-1000,15,6,-23,4,-3,-152,174528.0
14:50:01.235,AUTO,-35.363262,149.1652361,13300,-0.0024874741211533546,0.002543032169342041,-0.12422674149274826,0.014772568829357624,0.0059524038806557655,-0.023193681612610817,-1,0,-1000,15,6,-23,4,-3,-152,174528.0
14:50:01.437,AUTO,-35.3632619,149.165236,13690,0.0010003553470596671,0.004062242340296507,-0.13040503859519958,0.014878353103995323,0.006372806150466204,-0.02062445692718029,-2,0,-1000,15,6,-21,4,-4,-153,174528.0
14:50:01.639,AUTO,-35.3632618,149.1652358,14085,0.004058043006807566,0.00519551569595933,-0.13579747080802917,0.01020334754139185,0.004763849079608917,-0.018666861578822136,-1,0,-1000,10,5,-19,2,-4,-153,174528.0
14:50:01.840,AUTO,-35.3632618,149.1652358,14085,0.004058043006807566,0.00519551569595933,-0.13579747080802917,0.01020334754139185,0.004763849079608917,-0.018666861578822136,-1,0,-1000,10,5,-19,2,-4,-153,174528.0
14:50:02.042,AUTO,-35.3632618,149.1652358,14085,0.004058043006807566,0.00519551569595933,-0.13579747080802917,0.01020334754139185,0.004763849079608917,-0.018666861578822136,-1,0,-1000,10,5,-19,2,-4,-153,174528.0
14:50:02.244,AUTO,-35.3632618,149.1652358,14085,0.004058043006807566,0.00519551569595933,-0.13579747080802917,0.01020334754139185,0.004763849079608917,-0.018666861578822136,-1,0,-1000,10,5,-19,2,-4,-153,174528.0
14:50:02.445,AUTO,-35.3632616,149.1652355,15252,0.009195473045110703,0.006656975485384464,-0.1483956277370453,0.0042303940281271935,0.0007910646963864565,-0.01502683013677597,-1,0,-1000,4,1,-15,0,-1,-153,174528.0
14:50:02.647,AUTO,-35.3632616,149.1652354,15642,0.009556527249515057,0.006852730177342892,-0.15201644599437714,0.00039562233723700047,0.00025955599267035723,-0.011431352235376835,0,0,-999,0,0,-11,-1,0,-153,200.0
14:50:02.848,AUTO,-35.3632616,149.1652354,16031,0.00939745269715786,0.006659368053078651,-0.15538600087165833,-0.0018236518371850252,-0.0018415625672787428,-0.01232248917222023,0,0,-999,-1,0,-12,-2,1,-153,200.0
14:50:03.050,AUTO,-35.3632616,149.1652354,16420,0.009083153679966927,0.005940369330346584,-0.15841981768608093,-0.0002540223940741271,-0.002587773371487856,-0.011290865018963814,0,0,-1000,0,-1,-11,-2,3,-153,200.0
14:50:03.253,AUTO,-35.3632616,149.1652354,16420,0.009083153679966927,0.005940369330346584,-0.15841981768608093,-0.0002540223940741271,-0.002587773371487856,-0.011290865018963814,0,0,-1000,0,-1,-11,-2,3,-153,200.0
14:50:03.454,AUTO,-35.3632616,149.1652354,16809,0.008408433757722378,0.0051248581148684025,-0.16143755614757538,-0.005173076875507832,-0.0016731314826756716,-0.013255731202661991,0,0,-999,-4,0,-13,-3,4,-153,200.0
14:50:03.656,AUTO,-35.3632616,149.1652354,17198,0.007525670807808638,0.004792820196598768,-0.16493989527225494,-0.0027614885475486517,-0.0001400480978190899,-0.014666186645627022,0,0,-1000,-1,0,-14,-3,5,-153,200.0
14:50:03.858,AUTO,-35.3632616,149.1652354,17198,0.007525670807808638,0.004792820196598768,-0.16493989527225494,-0.0027614885475486517,-0.0001400480978190899,-0.014666186645627022,0,0,-1000,-1,0,-14,-3,5,-153,200.0
14:50:04.060,AUTO,-35.3632616,149.1652354,17198,0.007525670807808638,0.004792820196598768,-0.16493989527225494,-0.0027614885475486517,-0.0001400480978190899,-0.014666186645627022,0,0,-1000,-1,0,-14,-3,5,-153,200.0
14:50:04.261,AUTO,-35.3632616,149.1652354,17198,0.007525670807808638,0.004792820196598768,-0.16493989527225494,-0.0027614885475486517,-0.0001400480978190899,-0.014666186645627022,0,0,-1000,-1,0,-14,-3,5,-153,200.0
14:50:04.463,AUTO,-35.3632616,149.1652357,18367,0.004776504822075367,0.0038327898364514112,-0.1770557016134262,-0.0007620846154168248,-0.0004884079098701477,-0.017762888222932816,0,0,-1000,0,0,-18,-3,6,-153,200.0
14:50:04.664,AUTO,-35.3632617,149.1652358,18760,0.0038297874853014946,0.003771565854549408,-0.1818210631608963,-0.003514152253046632,0.0010660109110176563,-0.01919197104871273,0,0,-1000,-2,1,-19,-3,6,-153,200.0
14:50:04.866,AUTO,-35.3632617,149.1652359,19150,0.0031523786019533873,0.003659746376797557,-0.18662625551223755,-0.001866918639279902,-5.130917998030782e-05,-0.019255109131336212,0,0,-1000,-1,0,-19,-3,6,-153,200.0
14:50:05.067,AUTO,-35.3632617,149.165236,19540,0.002600622596219182,0.0036499204579740763,-0.1916613131761551,-0.0001110031153075397,0.00020368030527606606,-0.020511411130428314,0,0,-1000,0,1,-20,-3,5,-153,200.0
14:50:05.269,AUTO,-35.3632617,149.165236,19540,0.002600622596219182,0.0036499204579740763,-0.1916613131761551,-0.0001110031153075397,0.00020368030527606606,-0.020511411130428314,0,0,-1000,0,1,-20,-3,5,-153,200.0
14:50:05.471,AUTO,-35.3632617,149.1652361,19928,0.002661279169842601,0.0035718807484954596,-0.19674097001552582,0.0021828864701092243,0.0013733005616813898,-0.02162155695259571,0,0,-1001,3,2,-22,-3,5,-153,200.0
14:50:05.673,AUTO,-35.3632617,149.1652362,20318,0.0025643149856477976,0.0035262592136859894,-0.20179760456085205,0.001421118387952447,0.0002994878450408578,-0.020449712872505188,0,0,-1000,1,1,-20,-3,4,-153,200.0
14:50:05.874,AUTO,-35.3632617,149.1652362,20318,0.0025643149856477976,0.0035262592136859894,-0.20179760456085205,0.001421118387952447,0.0002994878450408578,-0.020449712872505188,0,0,-1000,1,1,-20,-3,4,-153,200.0
14:50:06.076,AUTO,-35.3632617,149.1652362,20318,0.0025643149856477976,0.0035262592136859894,-0.20179760456085205,0.001421118387952447,0.0002994878450408578,-0.020449712872505188,0,0,-1000,1,1,-20,-3,4,-153,164684.0
14:50:06.277,AUTO,-35.3632617,149.1652362,20318,0.0025643149856477976,0.0035262592136859894,-0.20179760456085205,0.001421118387952447,0.0002994878450408578,-0.020449712872505188,0,0,-1000,1,1,-20,-3,4,-153,164684.0
14:50:06.479,AUTO,-35.3632618,149.1652363,21483,0.0030359942466020584,0.0032377750612795353,-0.21657228469848633,0.0021119709126651287,0.0008711573318578303,-0.02211661823093891,0,0,-1000,2,1,-22,-3,4,-153,164684.0
14:50:06.680,AUTO,-35.3632618,149.1652364,21873,0.0032539619132876396,0.003375211963430047,-0.22166764736175537,0.0016127426642924547,0.00097948987968266,-0.020634682849049568,0,0,-1000,2,1,-20,-2,4,-153,164684.0
14:50:06.882,AUTO,-35.3632618,149.1652364,22262,0.0029322803020477295,0.0034374012611806393,-0.22672158479690552,0.0007158959633670747,0.0003158143372274935,-0.020520813763141632,0,0,-1000,1,1,-20,-2,3,-153,164684.0
14:50:07.083,AUTO,-35.3632618,149.1652365,22651,0.0030143375042825937,0.0033567568752914667,-0.2316902130842209,0.0007545712287537754,-0.0007222560816444457,-0.021833546459674835,0,0,-1000,1,0,-22,-2,3,-153,164684.0
14:50:07.285,AUTO,-35.3632618,149.1652365,22651,0.0030143375042825937,0.0033567568752914667,-0.2316902130842209,0.0007545712287537754,-0.0007222560816444457,-0.021833546459674835,0,0,-1000,1,0,-22,-2,3,-153,164684.0
14:50:07.486,AUTO,-35.3632618,149.1652365,23041,0.002783520147204399,0.003226270666345954,-0.23657749593257904,0.0013418414164334536,-0.0007171472534537315,-0.01985311321914196,0,0,-1000,2,0,-20,-2,3,-153,164684.0
14:50:07.689,AUTO,-35.3632618,149.1652366,23436,0.002990089124068618,0.0028562715742737055,-0.2413097620010376,0.0013877141755074263,-0.00010534177999943495,-0.01939554698765278,0,0,-1000,1,0,-19,-2,3,-153,164684.0
14:50:07.893,AUTO,-35.3632618,149.1652366,23436,0.002990089124068618,0.0028562715742737055,-0.2413097620010376,0.0013877141755074263,-0.00010534177999943495,-0.01939554698765278,0,0,-1000,1,0,-19,-2,3,-153,164684.0
14:50:08.095,AUTO,-35.3632618,149.1652366,23436,0.002990089124068618,0.0028562715742737055,-0.2413097620010376,0.0013877141755074263,-0.00010534177999943495,-0.01939554698765278,0,0,-1000,1,0,-19,-2,3,-153,164684.0
14:50:08.296,AUTO,-35.3632618,149.1652366,23436,0.002990089124068618,0.0028562715742737055,-0.2413097620010376,0.0013877141755074263,-0.00010534177999943495,-0.01939554698765278,0,0,-1000,1,0,-19,-2,3,-153,164684.0
14:50:08.502,AUTO,-35.3632619,149.1652367,24603,0.0031718441750854254,0.002619628794491291,-0.2555250823497772,0.002692104084417224,0.00026578991673886776,-0.0195214431732893,0,0,-1000,3,0,-19,-2,3,-153,164684.0
14:50:08.703,AUTO,-35.3632619,149.1652367,24993,0.003419160144403577,0.002306508831679821,-0.2601109743118286,0.002343976404517889,-0.0006456595729105175,-0.018704989925026894,0,0,-1000,3,0,-18,-2,3,-153,164684.0
14:50:08.905,AUTO,-35.363262,149.1652367,25381,-0.007112513761967421,0.003981655463576317,-0.26062196493148804,-0.0378338024020195,0.013363804668188095,0.010652950964868069,0,0,-999,-37,14,10,-2,2,-152,164684.0
14:50:09.107,AUTO,-35.363262,149.1652367,25775,-0.007039182353764772,0.005685712210834026,-0.25655168294906616,0.027951963245868683,0.002077857730910182,0.019591087475419044,0,0,-1003,28,2,19,-4,0,-153,164684.0
14:50:09.309,AUTO,-35.3632621,149.1652367,26164,0.0010341653833165765,0.0050604077987372875,-0.25078123807907104,0.03201296925544739,-0.004840329755097628,0.026127051562070847,0,1,-1002,32,-3,25,-5,-1,-153,164684.0
14:50:09.511,AUTO,-35.3632621,149.1652367,26164,0.0010341653833165765,0.0050604077987372875,-0.25078123807907104,0.03201296925544739,-0.004840329755097628,0.026127051562070847,0,1,-1002,32,-3,25,-5,-1,-153,164684.0
14:50:09.712,AUTO,-35.3632622,149.1652366,26553,0.007478924468159676,0.0037354608066380024,-0.24374693632125854,0.018584003672003746,-0.003860226832330227,0.02875206433236599,0,0,-1000,19,-2,28,-5,0,-153,164684.0
14:50:09.914,AUTO,-35.3632622,149.1652366,26553,0.007478924468159676,0.0037354608066380024,-0.24374693632125854,0.018584003672003746,-0.003860226832330227,0.02875206433236599,0,0,-1000,19,-2,28,-5,0,-153,164684.0
14:50:10.115,AUTO,-35.3632622,149.1652366,26553,0.007478924468159676,0.0037354608066380024,-0.24374693632125854,0.018584003672003746,-0.003860226832330227,0.02875206433236599,0,0,-1000,19,-2,28,-5,0,-153,141772.0
14:50:10.317,AUTO,-35.3632624,149.1652367,27711,0.010835396125912666,0.0009951057145372033,-0.22385714948177338,-0.005297598894685507,0.00017160666175186634,0.02487078495323658,0,0,-999,-4,1,24,-3,5,-153,141772.0
14:50:10.519,AUTO,-35.3632624,149.1652367,27711,0.010835396125912666,0.0009951057145372033,-0.22385714948177338,-0.005297598894685507,0.00017160666175186634,0.02487078495323658,0,0,-999,-4,1,24,-3,5,-153,141772.0
14:50:10.721,AUTO,-35.3632624,149.1652367,28099,0.009431527927517891,0.0009956617141142488,-0.21786156296730042,-0.006927062291651964,0.001569446176290512,0.023646069690585136,0,0,-999,-5,2,23,-2,6,-153,141772.0
14:50:10.923,AUTO,-35.3632624,149.1652368,28487,0.007732821628451347,0.000971306290011853,-0.21231646835803986,-0.003730118740350008,0.0017363643273711205,0.022865060716867447,0,0,-1000,-2,2,22,-1,7,-153,141772.0
14:50:11.124,AUTO,-35.3632624,149.165237,28874,0.0062683820724487305,0.001432699034921825,-0.20698250830173492,-0.006807762198150158,0.002283337526023388,0.021434934809803963,0,-1,-999,-5,3,21,-1,8,-153,141772.0
14:50:11.326,AUTO,-35.3632624,149.1652371,29262,0.00469734612852335,0.0018383355345577002,-0.2019372433423996,-0.006859153974801302,0.0013682718854397535,0.020887454971671104,0,-1,-1000,-5,2,20,0,8,-153,141772.0
14:50:11.529,AUTO,-35.3632624,149.1652371,29262,0.00469734612852335,0.0018383355345577002,-0.2019372433423996,-0.006859153974801302,0.0013682718854397535,0.020887454971671104,0,-1,-1000,-5,2,20,0,8,-153,141772.0
14:50:11.730,AUTO,-35.3632624,149.1652373,29651,0.0031518691685050726,0.001989391166716814,-0.19698411226272583,-0.005505186039954424,0.0003738892264664173,0.019510040059685707,0,-1,-1000,-4,1,19,0,8,-153,141772.0
14:50:11.932,AUTO,-35.3632624,149.1652373,29651,0.0031518691685050726,0.001989391166716814,-0.19698411226272583,-0.005505186039954424,0.0003738892264664173,0.019510040059685707,0,-1,-1000,-4,1,19,0,8,-153,141772.0
14:50:12.133,AUTO,-35.3632624,149.1652373,29651,0.0031518691685050726,0.001989391166716814,-0.19698411226272583,-0.005505186039954424,0.0003738892264664173,0.019510040059685707,0,-1,-1000,-4,1,19,0,8,-153,141772.0
14:50:12.335,AUTO,-35.3632624,149.1652377,30814,0.00021414051298052073,0.0018008907791227102,-0.18396979570388794,-0.002042209729552269,-0.0007681638817302883,0.017509933561086655,0,-1,-1000,-1,0,17,0,5,-153,141772.0
14:50:12.536,AUTO,-35.3632624,149.1652377,30814,0.00021414051298052073,0.0018008907791227102,-0.18396979570388794,-0.002042209729552269,-0.0007681638817302883,0.017509933561086655,0,-1,-1000,-1,0,17,0,5,-153,141772.0
14:50:12.738,AUTO,-35.3632624,149.1652378,31203,-0.00015165616059675813,0.0014485915889963508,-0.17951811850070953,0.003032911568880081,-0.0010213172063231468,0.019126087427139282,0,0,-1001,3,0,18,0,5,-153,141772.0
14:50:12.939,AUTO,-35.3632624,149.1652379,31591,-0.00017979856056626886,0.0013247295282781124,-0.17535772919654846,-0.001605273224413395,-0.0006020287983119488,0.015367199666798115,0,-1,-1000,0,0,15,0,4,-153,141772.0
14:50:13.141,AUTO,-35.3632624,149.1652379,31978,-9.733979823067784e-05,0.001184028573334217,-0.1713162213563919,0.002387448213994503,0.0003640257054939866,0.016381537541747093,0,0,-1000,3,1,16,0,3,-153,141772.0
14:50:13.342,AUTO,-35.3632623,149.165238,32366,0.0004031510907225311,0.0012130446266382933,-0.16740725934505463,0.005215467885136604,2.4613807909190655e-05,0.015219442546367645,0,0,-1001,6,1,15,0,2,-153,141772.0
14:50:13.544,AUTO,-35.3632623,149.165238,32755,0.0006058434955775738,0.0010115946643054485,-0.1637347787618637,0.0009645234094932675,0.0001775424461811781,0.015019137412309647,0,0,-1000,1,1,14,0,1,-153,141772.0
14:50:13.746,AUTO,-35.3632623,149.165238,32755,0.0006058434955775738,0.0010115946643054485,-0.1637347787618637,0.0009645234094932675,0.0001775424461811781,0.015019137412309647,0,0,-1000,1,1,14,0,1,-153,141772.0
14:50:13.947,AUTO,-35.3632623,149.165238,32755,0.0006058434955775738,0.0010115946643054485,-0.1637347787618637,0.0009645234094932675,0.0001775424461811781,0.015019137412309647,0,0,-1000,1,1,14,0,1,-153,141772.0
14:50:14.149,AUTO,-35.3632623,149.165238,32755,0.0006058434955775738,0.0010115946643054485,-0.1637347787618637,0.0009645234094932675,0.0001775424461811781,0.015019137412309647,0,0,-1000,1,1,14,0,1,-153,300000.0
14:50:14.351,AUTO,-35.3632623,149.165238,33920,0.0015911419177427888,0.0011900378158316016,-0.15333183109760284,-0.0008365436224266887,0.00183846615254879,0.014057944528758526,0,0,-999,0,3,13,0,0,-153,300000.0
14:50:14.552,AUTO,-35.3632623,149.165238,34308,0.001900991308502853,0.0012976103462278843,-0.15009641647338867,0.0005418978398665786,0.00018482946325093508,0.011976172216236591,0,0,-1000,1,0,11,0,0,-153,300000.0
14:50:14.753,AUTO,-35.3632623,149.165238,34308,0.001900991308502853,0.0012976103462278843,-0.15009641647338867,0.0005418978398665786,0.00018482946325093508,0.011976172216236591,0,0,-1000,1,0,11,0,0,-153,300000.0
14:50:14.955,AUTO,-35.3632623,149.165238,34705,0.0020932697225362062,0.0013171426253393292,-0.1472412496805191,0.0007466358365491033,-0.0006691321032121778,0.011435309424996376,0,0,-1000,1,0,11,0,0,-153,300000.0
14:50:15.157,AUTO,-35.3632622,149.1652379,35093,0.0019744655583053827,0.001133627723902464,-0.14448058605194092,-0.004882305860519409,-0.001801678678020835,0.009738471359014511,0,0,-999,-3,0,9,0,0,-153,300000.0
14:50:15.358,AUTO,-35.3632622,149.1652379,35480,0.002365333028137684,0.0011134989326819777,-0.14156603813171387,0.004170749802142382,0.0016301400028169155,0.011861971579492092,0,0,-1000,5,2,11,0,0,-153,300000.0
14:50:15.560,AUTO,-35.3632622,149.1652378,35868,0.0026539943646639585,0.0010849499376490712,-0.13885878026485443,-0.0005335039459168911,-0.0008422845276072621,0.008828088641166687,0,0,-1000,0,0,8,0,0,-153,300000.0
14:50:15.763,AUTO,-35.3632622,149.1652378,35868,0.0026539943646639585,0.0010849499376490712,-0.13885878026485443,-0.0005335039459168911,-0.0008422845276072621,0.008828088641166687,0,0,-1000,0,0,8,0,0,-153,300000.0
14:50:15.965,AUTO,-35.3632622,149.1652378,35868,0.0026539943646639585,0.0010849499376490712,-0.13885878026485443,-0.0005335039459168911,-0.0008422845276072621,0.008828088641166687,0,0,-1000,0,0,8,0,0,-153,300000.0
14:50:16.167,AUTO,-35.3632622,149.1652378,35868,0.0026539943646639585,0.0010849499376490712,-0.13885878026485443,-0.0005335039459168911,-0.0008422845276072621,0.008828088641166687,0,0,-1000,0,0,8,0,0,-153,300000.0
14:50:16.368,AUTO,-35.3632623,149.1652375,36993,-0.04884299263358116,0.05857772007584572,0.030336866155266762,-0.16211126744747162,0.12079086154699326,0.5762892961502075,0,0,-975,-161,121,576,-12,-11,-138,300000.0
14:50:16.570,AUTO,-35.3632627,149.1652369,37331,-0.05685396492481232,0.06261502951383591,0.15121999382972717,0.03484251722693443,-0.1422898769378662,0.3472747504711151,4,5,-942,36,-141,347,-26,-25,-126,300000.0
14:50:16.771,AUTO,-35.3632627,149.1652369,37331,-0.05685396492481232,0.06261502951383591,0.15121999382972717,0.03484251722693443,-0.1422898769378662,0.3472747504711151,4,5,-942,36,-141,347,-26,-25,-126,300000.0
14:50:16.973,AUTO,-35.3632633,149.165236,37634,-0.03194086626172066,0.01621798612177372,0.21082285046577454,0.10929923504590988,-0.20338590443134308,0.14804904162883759,3,9,-945,110,-202,148,-32,-36,-112,300000.0
14:50:17.174,AUTO,-35.363264,149.165235,37902,-0.0033115295227617025,-0.024305453523993492,0.2326585054397583,0.11361360549926758,-0.12507450580596924,0.04516390338540077,3,9,-951,114,-123,45,-29,-37,-99,300000.0
14:50:17.376,AUTO,-35.3632645,149.165234,38140,0.018945373594760895,-0.04506560415029526,0.2350916713476181,0.07190872728824615,-0.05260053649544716,-0.005248564761132002,2,10,-958,73,-51,-5,-20,-31,-88,300000.0
14:50:17.578,AUTO,-35.3632649,149.1652333,38351,0.03385038673877716,-0.05240097641944885,0.22905591130256653,0.03737026825547218,-0.010336847975850105,-0.028845546767115593,1,7,-964,38,-9,-28,-10,-20,-78,300000.0
14:50:17.780,AUTO,-35.3632649,149.1652333,38351,0.03385038673877716,-0.05240097641944885,0.22905591130256653,0.03737026825547218,-0.010336847975850105,-0.028845546767115593,1,7,-964,38,-9,-28,-10,-20,-78,300000.0
14:50:17.982,AUTO,-35.3632649,149.1652333,38351,0.03385038673877716,-0.05240097641944885,0.22905591130256653,0.03737026825547218,-0.010336847975850105,-0.028845546767115593,1,7,-964,38,-9,-28,-10,-20,-78,300000.0
14:50:18.184,AUTO,-35.3632649,149.1652333,38351,0.03385038673877716,-0.05240097641944885,0.22905591130256653,0.03737026825547218,-0.010336847975850105,-0.028845546767115593,1,7,-964,38,-9,-28,-10,-20,-78,293662.0
14:50:18.386,AUTO,-35.3632648,149.1652328,38852,0.039110586047172546,-0.033777687698602676,0.20361493527889252,-0.03331288695335388,0.04031585529446602,-0.03021284192800522,-2,-2,-976,-31,41,-30,14,13,-55,293662.0
14:50:18.587,AUTO,-35.3632644,149.1652332,38983,0.03516678884625435,-0.023140156641602516,0.196675106883049,0.05858474224805832,0.042152341455221176,-0.02544916234910488,-2,-3,-979,59,43,-25,19,21,-49,293662.0
14:50:18.789,AUTO,-35.3632644,149.1652332,38983,0.03516678884625435,-0.023140156641602516,0.196675106883049,0.05858474224805832,0.042152341455221176,-0.02544916234910488,-2,-3,-979,59,43,-25,19,21,-49,293662.0
14:50:18.990,AUTO,-35.363264,149.1652337,39100,0.0240262970328331,-0.012611825950443745,0.19057320058345795,-0.22485865652561188,0.03859345614910126,-0.020731745287775993,-3,-15,-979,-224,39,-20,21,26,-44,293662.0
14:50:19.192,AUTO,-35.3632635,149.1652344,39204,0.02120434306561947,-0.003864527214318514,0.18511082231998444,0.2509758770465851,0.03033975139260292,-0.017277149483561516,-1,8,-978,252,31,-17,22,29,-39,293662.0
14:50:19.394,AUTO,-35.3632629,149.1652352,39290,0.020545560866594315,0.0034240372478961945,0.1802808791399002,0.40458792448043823,0.02669559419155121,-0.020323708653450012,-2,2,-977,405,27,-20,21,30,-32,293662.0
14:50:19.595,AUTO,-35.3632624,149.165236,39362,0.00729431351646781,0.009496847167611122,0.17478126287460327,-0.2018829733133316,0.02346021495759487,-0.020710768178105354,-1,-31,-971,-201,24,-20,20,29,-26,293662.0
14:50:19.800,AUTO,-35.3632624,149.165236,39362,0.00729431351646781,0.009496847167611122,0.17478126287460327,-0.2018829733133316,0.02346021495759487,-0.020710768178105354,-1,-31,-971,-201,24,-20,20,29,-26,293662.0
14:50:20.002,AUTO,-35.3632624,149.165236,39362,0.00729431351646781,0.009496847167611122,0.17478126287460327,-0.2018829733133316,0.02346021495759487,-0.020710768178105354,-1,-31,-971,-201,24,-20,20,29,-26,293662.0
14:50:20.204,AUTO,-35.3632624,149.165236,39362,0.00729431351646781,0.009496847167611122,0.17478126287460327,-0.2018829733133316,0.02346021495759487,-0.020710768178105354,-1,-31,-971,-201,24,-20,20,29,-26,293662.0
14:50:20.406,AUTO,-35.3632613,149.1652379,39486,-0.0006870700744912028,0.016093986108899117,0.16160842776298523,0.6003162264823914,-0.001862561097368598,-0.01419221330434084,0,29,-976,602,0,-14,10,20,-8,293662.0
14:50:20.607,AUTO,-35.3632611,149.1652383,39491,-0.002307434333488345,0.020933566614985466,0.1580733209848404,0.3685073256492615,0.1770094931125641,-0.08368140459060669,-6,0,-974,368,178,-83,7,15,0,293662.0
14:50:20.809,AUTO,-35.3632609,149.1652386,39470,-0.03483212739229202,0.04227873310446739,0.15162353217601776,-0.5220459699630737,-0.019059019163250923,0.0049324240535497665,1,-42,-974,-522,-17,4,0,6,12,293662.0
14:50:21.011,AUTO,-35.3632609,149.1652386,39470,-0.03483212739229202,0.04227873310446739,0.15162353217601776,-0.5220459699630737,-0.019059019163250923,0.0049324240535497665,1,-42,-974,-522,-17,4,0,6,12,293662.0
14:50:21.212,AUTO,-35.363261,149.1652387,39430,-0.0408732146024704,0.022104507312178612,0.14941741526126862,-0.8179524540901184,-0.09675963222980499,-0.0047833118587732315,0,-41,-991,-817,-95,-4,-5,-2,15,293662.0
14:50:21.414,AUTO,-35.3632611,149.1652385,39390,-0.03971675783395767,0.0015392100904136896,0.14665459096431732,-0.6001680493354797,-0.06421010941267014,-0.01045866310596466,1,-10,-1008,-598,-63,-10,-7,-9,13,293662.0
14:50:21.616,AUTO,-35.3632612,149.1652382,39357,-0.02757028490304947,-0.009567155502736568,0.14452609419822693,0.21031999588012695,-0.03109743259847164,-0.012011968530714512,0,33,-1017,212,-30,-11,-5,-16,8,293662.0
14:50:21.817,AUTO,-35.3632612,149.1652382,39357,-0.02757028490304947,-0.009567155502736568,0.14452609419822693,0.21031999588012695,-0.03109743259847164,-0.012011968530714512,0,33,-1017,212,-30,-11,-5,-16,8,293662.0
14:50:22.019,AUTO,-35.3632612,149.1652382,39357,-0.02757028490304947,-0.009567155502736568,0.14452609419822693,0.21031999588012695,-0.03109743259847164,-0.012011968530714512,0,33,-1017,212,-30,-11,-5,-16,8,293662.0
14:50:22.220,AUTO,-35.3632612,149.1652382,39357,-0.02757028490304947,-0.009567155502736568,0.14452609419822693,0.21031999588012695,-0.03109743259847164,-0.012011968530714512,0,33,-1017,212,-30,-11,-5,-16,8,200.0
14:50:22.422,AUTO,-35.3632611,149.1652363,39290,-0.022471779957413673,-0.031145034357905388,0.13376866281032562,0.15798577666282654,-0.03414212167263031,-0.007735942490398884,-4,-7,-996,158,-33,-7,9,-31,5,200.0
14:50:22.623,AUTO,-35.363261,149.1652354,39276,-0.03586240112781525,-0.03901262953877449,0.13131113350391388,-0.5743503570556641,-0.039314351975917816,0.002282933099195361,-8,-28,-1014,-574,-38,2,17,-37,1,200.0
14:50:22.825,AUTO,-35.3632606,149.1652343,39265,-0.0564371757209301,-0.04884994029998779,0.12824437022209167,-0.6979930400848389,-0.038965027779340744,-0.019001729786396027,-9,-11,-999,-696,-38,-18,26,-43,3,200.0
14:50:23.027,AUTO,-35.3632606,149.1652343,39265,-0.0564371757209301,-0.04884994029998779,0.12824437022209167,-0.6979930400848389,-0.038965027779340744,-0.019001729786396027,-9,-11,-999,-696,-38,-18,26,-43,3,200.0
14:50:23.229,AUTO,-35.36326,149.1652329,39250,-0.05701300501823425,-0.05938663333654404,0.07113566249608994,-0.26225829124450684,-0.018269425258040428,-0.46324020624160767,-13,9,-1011,-260,-17,-462,37,-53,4,200.0
14:50:23.431,AUTO,-35.3632591,149.1652313,39235,-0.03985463082790375,-0.07449354976415634,-0.10365286469459534,0.45395851135253906,-0.046229515224695206,-0.830335795879364,-16,37,-1007,456,-45,-830,49,-63,3,200.0
14:50:23.633,AUTO,-35.363258,149.1652295,39217,-0.024044480174779892,-0.0908607617020607,-0.3166208863258362,0.5668949484825134,-0.04599035531282425,-0.8707988858222961,-19,27,-1010,567,-45,-870,61,-75,5,200.0
14:50:23.836,AUTO,-35.363258,149.1652295,39217,-0.024044480174779892,-0.0908607617020607,-0.3166208863258362,0.5668949484825134,-0.04599035531282425,-0.8707988858222961,-19,27,-1010,567,-45,-870,61,-75,5,200.0
14:50:24.038,AUTO,-35.363258,149.1652295,39217,-0.024044480174779892,-0.0908607617020607,-0.3166208863258362,0.5668949484825134,-0.04599035531282425,-0.8707988858222961,-19,27,-1010,567,-45,-870,61,-75,5,200.0
14:50:24.240,AUTO,-35.363258,149.1652295,39217,-0.024044480174779892,-0.0908607617020607,-0.3166208863258362,0.5668949484825134,-0.04599035531282425,-0.8707988858222961,-19,27,-1010,567,-45,-870,61,-75,5,200.0
14:50:24.441,AUTO,-35.3632531,149.1652218,39147,0.014293147251009941,-0.07379918545484543,-0.8276111483573914,-0.707260012626648,0.05478851869702339,-0.1766822785139084,-33,-50,-981,-706,56,-176,89,-112,9,200.0
14:50:24.643,AUTO,-35.3632511,149.1652187,39120,0.01596086099743843,-0.056080032140016556,-0.8353842496871948,-0.48643356561660767,0.039191946387290955,0.06443838775157928,-30,-27,-1002,-484,40,64,95,-116,8,200.0
14:50:24.845,AUTO,-35.363249,149.1652154,39092,0.024043936282396317,-0.04748039320111275,-0.8130631446838379,0.33724522590637207,0.02924090251326561,0.09124793857336044,-33,12,-986,339,30,91,98,-119,8,200.0
14:50:25.048,AUTO,-35.3632468,149.165212,39062,0.038581717759370804,-0.04084819555282593,-0.7915317416191101,0.7222418785095215,0.025480762124061584,0.06135164573788643,-35,3,-1004,723,26,61,100,-120,7,200.0
14:50:25.250,AUTO,-35.3632468,149.165212,39062,0.038581717759370804,-0.04084819555282593,-0.7915317416191101,0.7222418785095215,0.025480762124061584,0.06135164573788643,-35,3,-1004,723,26,61,100,-120,7,200.0
14:50:25.452,AUTO,-35.3632446,149.1652087,39032,0.040455617010593414,-0.03397500142455101,-0.7805615067481995,0.5443385243415833,0.031295981258153915,0.025079865008592606,-32,-2,-971,544,32,25,102,-120,12,200.0
14:50:25.653,AUTO,-35.3632423,149.1652054,39001,0.027793457731604576,-0.026067953556776047,-0.778404951095581,-0.3762742280960083,0.030836038291454315,0.0034442185424268246,-36,-49,-993,-376,31,3,102,-118,9,200.0
14:50:25.855,AUTO,-35.3632423,149.1652054,39001,0.027793457731604576,-0.026067953556776047,-0.778404951095581,-0.3762742280960083,0.030836038291454315,0.0034442185424268246,-36,-49,-993,-376,31,3,102,-118,9,200.0
14:50:26.057,AUTO,-35.3632423,149.1652054,39001,0.027793457731604576,-0.026067953556776047,-0.778404951095581,-0.3762742280960083,0.030836038291454315,0.0034442185424268246,-36,-49,-993,-376,31,3,102,-118,9,200.0
14:50:26.259,AUTO,-35.3632423,149.1652054,39001,0.027793457731604576,-0.026067953556776047,-0.778404951095581,-0.3762742280960083,0.030836038291454315,0.0034442185424268246,-36,-49,-993,-376,31,3,102,-118,9,15181.0
14:50:26.461,AUTO,-35.3632357,149.1651958,38909,0.012850265018641949,0.0019936372991651297,-0.7852776646614075,-0.43255048990249634,0.034500136971473694,-0.025194847956299782,-29,-9,-987,-430,35,-24,95,-105,11,15181.0
14:50:26.663,AUTO,-35.3632337,149.165193,38881,0.02544935792684555,0.007539324928075075,-0.7878333330154419,0.3580721616744995,0.012478435412049294,-0.012059149332344532,-28,14,-996,360,13,-11,90,-98,8,15181.0
14:50:26.865,AUTO,-35.3632317,149.1651903,38856,0.03438892588019371,0.008592993952333927,-0.790047824382782,0.7271803021430969,-0.046230629086494446,-0.005047596525400877,-24,15,-999,728,-45,-4,85,-91,8,15181.0
14:50:27.066,AUTO,-35.3632299,149.1651878,38830,0.026853881776332855,-0.020840954035520554,-0.7909591197967529,0.35440659523010254,-0.15228894352912903,0.02274255082011223,-23,-15,-1000,354,-151,22,81,-88,10,15181.0
14:50:27.268,AUTO,-35.3632299,149.1651878,38830,0.026853881776332855,-0.020840954035520554,-0.7909591197967529,0.35440659523010254,-0.15228894352912903,0.02274255082011223,-23,-15,-1000,354,-151,22,81,-88,10,15181.0
14:50:27.470,AUTO,-35.363228,149.1651854,38802,0.014728117734193802,-0.05998138710856438,-0.7921810150146484,-0.26365745067596436,-0.1578899621963501,0.03281429409980774,-25,-46,-981,-263,-157,33,83,-92,10,15181.0
14:50:27.672,AUTO,-35.363226,149.1651828,38771,0.001508981571532786,-0.09850355237722397,-0.7954296469688416,-0.758234441280365,-0.10010192543268204,0.005019718781113625,-27,-53,-979,-757,-98,5,91,-102,13,15181.0
14:50:27.874,AUTO,-35.363226,149.1651828,38771,0.001508981571532786,-0.09850355237722397,-0.7954296469688416,-0.758234441280365,-0.10010192543268204,0.005019718781113625,-27,-53,-979,-757,-98,5,91,-102,13,15181.0
14:50:28.076,AUTO,-35.363226,149.1651828,38771,0.001508981571532786,-0.09850355237722397,-0.7954296469688416,-0.758234441280365,-0.10010192543268204,0.005019718781113625,-27,-53,-979,-757,-98,5,91,-102,13,15181.0
14:50:28.277,AUTO,-35.363226,149.1651828,38771,0.001508981571532786,-0.09850355237722397,-0.7954296469688416,-0.758234441280365,-0.10010192543268204,0.005019718781113625,-27,-53,-979,-757,-98,5,91,-102,13,15181.0
14:50:28.479,AUTO,-35.3632191,149.165174,38686,0.004901266191154718,-0.016061678528785706,-0.8007300496101379,0.3674951195716858,-0.15914693474769592,-0.05100226029753685,-30,11,-997,369,-158,-50,96,-115,10,15181.0
14:50:28.681,AUTO,-35.3632168,149.1651711,38657,0.006149468943476677,-0.06943213939666748,-0.8021496534347534,0.7805161476135254,-0.22065618634223938,-0.03556213900446892,-25,14,-1000,782,-219,-34,95,-119,12,15181.0
14:50:28.883,AUTO,-35.3632145,149.1651679,38623,0.005928522907197475,-0.11436707526445389,-0.8019490242004395,0.5918694734573364,-0.06604935973882675,-0.008208885788917542,-34,-4,-1001,592,-64,-7,103,-133,13,15181.0
14:50:29.085,AUTO,-35.3632119,149.1651645,38589,0.003178433747962117,-0.08173662424087524,-0.8042103052139282,-0.0643361285328865,0.2473703771829605,-0.036866966634988785,-35,-41,-1007,-64,248,-36,110,-147,12,15181.0
14:50:29.287,AUTO,-35.3632119,149.1651645,38589,0.003178433747962117,-0.08173662424087524,-0.8042103052139282,-0.0643361285328865,0.2473703771829605,-0.036866966634988785,-35,-41,-1007,-64,248,-36,110,-147,12,15181.0
