time_stamp,RTL_ALT,MODE,lat,lon,relative_alt,vx,vy,vz,xacc,yacc,zacc,xgyro,ygyro,zgyro,roll,pitch,yaw,rollspeed,pitchspeed,yawspeed
07:37:59,229294.0,AUTO,-35.3632622,149.1652375,2.6666666666666665,-1.0,1.0,0.0,0.0,1.3333333333333333,-1000.0,0.3333333333333333,0.3333333333333333,0.3333333333333333,-0.0006958790666734179,0.0009677422155315677,0.022268231337269146,0.00023044688471903405,0.0003011228400282562,0.0015183060119549434
07:38:01,229294.0,AUTO,-35.3632621,149.1652375,2.6666666666666665,0.0,0.0,0.0,0.0,1.0,-1000.0,0.6666666666666666,0.6666666666666666,0.3333333333333333,-0.0005158744170330465,0.0012752845650538802,0.021774862582484882,0.00029014326476802427,0.00025661838784193,0.0014121761390318472
07:38:02,67735.0,AUTO,-35.3632621,149.1652375,0.0,0.0,0.0,1.0,0.0,1.6666666666666667,-1000.0,0.3333333333333333,0.3333333333333333,0.6666666666666666,-6.151979778223904e-05,0.0016201936717455585,0.02138686055938403,0.00032989331521093845,0.00029299660430600244,0.0014336628761763375
07:38:03,67735.0,AUTO,-35.3632621,149.1652375,66.0,0.0,0.0,-32.0,0.0,0.0,-1101.0,5.333333333333333,-3.0,1.0,0.00238584754212449,0.00029702477089206997,0.02126781704525153,0.0043807688052766025,-0.003445439040660858,0.0016862218811487157
07:38:05,67735.0,AUTO,-35.36326183333333,149.1652387,2459.6666666666665,4.333333333333333,28.666666666666668,-147.33333333333334,1.0,-4.333333333333333,-1000.3333333333334,38.666666666666664,-8.333333333333334,0.0,0.052892198165257774,-0.0070228360903759795,0.012416070637603601,0.03846632316708565,-0.009961587066451708,0.0004679889728625615
07:38:07,35118.0,AUTO,-35.36326076666666,149.1652464,5653.666666666667,0.0,-7.666666666666667,-147.66666666666666,0.3333333333333333,-0.6666666666666666,-1001.6666666666666,-24.333333333333332,0.0,-28.0,-0.06875359266996384,0.0012177170913976927,-0.09106206148862839,-0.025003429502248764,-0.0009350662197296818,-0.028379824633399647
07:38:09,35118.0,AUTO,-35.3632622,149.1652361333333,8743.666666666666,-18.0,-41.666666666666664,-152.0,-3.0,12.0,-1003.6666666666666,66.33333333333333,4.666666666666667,2.0,0.03857743491729101,0.01247792225331068,-0.10836442559957504,0.06603103379408519,0.004625446192221716,0.002569508816425999
07:38:11,35118.0,AUTO,-35.3632629,149.16523703333334,11836.0,27.666666666666668,15.666666666666666,-149.33333333333334,-3.6666666666666665,-6.666666666666667,-1005.3333333333334,-29.0,62.333333333333336,-81.0,-0.025413031379381817,-0.012914244454198828,-0.08404343823591869,-0.03027461771853268,0.06184665113687515,-0.08106446514527003
07:38:12,152458.0,AUTO,-35.36326033333333,149.1652366333333,13775.666666666666,10.0,-14.333333333333334,-152.0,-4.666666666666667,0.3333333333333333,-1000.3333333333334,36.333333333333336,9.333333333333334,-30.333333333333332,-0.003646265404919783,0.021473511432607967,-0.16191494464874268,0.036480765168865524,0.008767022751271725,-0.031110035255551338
07:38:13,152458.0,AUTO,-35.36326006666666,149.16523546666667,14950.0,-5.0,-7.0,-152.0,-1.3333333333333333,2.0,-999.0,12.666666666666666,-9.0,0.0,0.014551516622304916,0.020281000062823296,-0.17201265692710876,0.012345706888784965,-0.009861301475514969,5.6406017392873764e-05
07:38:15,152458.0,AUTO,-35.36326163333334,149.16523586666668,18061.0,-9.0,8.666666666666666,-152.0,2.0,0.0,-1000.3333333333334,-4.0,-3.0,-15.333333333333334,0.0018946257575104635,-0.0005513159946228067,-0.1766104449828466,-0.005300714168697596,-0.004356904421001673,-0.01545297789076964
07:38:17,152458.0,AUTO,-35.363262133333336,149.16523633333335,21173.0,-3.3333333333333335,-5.666666666666667,-148.0,-0.6666666666666666,0.6666666666666666,-986.6666666666666,-65.0,50.0,105.33333333333333,-0.030716005091865856,0.010253983472163478,-0.20505265891551971,-0.06597764727969964,0.04974091130619248,0.10561961183945338
07:38:18,25623.0,AUTO,-35.363264333333326,149.16523279999998,22841.666666666668,-27.0,-27.0,-105.66666666666667,2.0,9.333333333333334,-958.0,96.33333333333333,-91.33333333333333,2.0,0.02701520741296311,-0.026611240891118843,0.07941237340370814,0.09586726501584053,-0.09271358263989289,0.0018493980169296265
07:38:19,25623.0,AUTO,-35.36326523333333,149.16523166666664,23542.666666666668,0.3333333333333333,9.0,-77.66666666666667,0.3333333333333333,-0.3333333333333333,-969.0,-11.333333333333334,25.666666666666668,-21.666666666666668,0.054697987933953605,-0.0385554414242506,0.056185719867547355,-0.012197941541671753,0.02530624996870756,-0.022184931052227814
07:38:21,25623.0,AUTO,-35.363262133333336,149.16523786666667,24599.666666666668,14.333333333333334,27.666666666666668,-29.0,0.0,-7.0,-976.0,-10.666666666666666,5.666666666666667,-1.6666666666666667,-0.006740140573432048,0.01446697519471248,0.04607724770903587,-0.011768417743345102,0.005223577298844854,-0.0019129228700573246
07:38:23,25623.0,AUTO,-35.3632612,149.16523956666666,24575.333333333332,-0.3333333333333333,0.3333333333333333,14.333333333333334,-1.6666666666666667,-2.0,-1019.6666666666666,205.66666666666666,-42.666666666666664,-4.333333333333333,0.041019879281520844,-0.021711523023744423,0.03804199273387591,0.2053513526916504,-0.04426316854854425,-0.004895496492584546
07:38:24,33877.0,AUTO,-35.3632589,149.16524303333335,24450.333333333332,46.666666666666664,76.66666666666667,4.333333333333333,-4.333333333333333,-21.0,-1007.6666666666666,80.33333333333333,-31.0,761.0,0.09448693692684174,-0.07817819093664487,0.2615654319524765,0.07951119914650917,-0.032356074235091604,0.7614056666692098
07:38:25,33877.0,AUTO,-35.36325443333333,149.16525073333332,24396.0,85.33333333333333,143.66666666666666,7.0,-33.666666666666664,-7.333333333333333,-1001.3333333333334,205.0,-61.666666666666664,778.3333333333334,0.031613493959108986,-0.1565752625465393,1.028748591740926,0.20373842865228653,-0.06332167362173398,0.7789178540309271
07:38:27,33877.0,AUTO,-35.3632288,149.16530250000002,24054.333333333332,209.33333333333334,352.3333333333333,21.666666666666668,-83.0,-47.0,-995.6666666666666,46.333333333333336,-10.333333333333334,-2.6666666666666665,0.03991683820883433,-0.19937379161516824,1.0767441193262737,0.04489646852016449,-0.011428831766049067,-0.0023795034115513167
07:38:29,33877.0,AUTO,-35.36318253333334,149.16539799999998,23478.333333333332,304.0,505.0,27.0,-119.66666666666667,-55.0,-989.3333333333334,19.666666666666668,28.333333333333332,-7.333333333333333,0.0617680698633194,-0.18030108511447906,1.0710811614990234,0.018493345007300377,0.027512236187855404,-0.008266594416151444
07:38:30,15081.0,AUTO,-35.363146666666665,149.16547156666664,23066.333333333332,329.3333333333333,547.6666666666666,31.666666666666668,-130.66666666666666,-71.0,-987.6666666666666,-3.3333333333333335,21.666666666666668,-5.333333333333333,0.07374549905459087,-0.15570175647735596,1.0666221777598064,-0.004516326201458772,0.02149076738472407,-0.0057002369624873
07:38:31,15081.0,AUTO,-35.363124166666665,149.1655178666667,22800.666666666668,334.6666666666667,559.6666666666666,32.0,-127.66666666666667,-72.0,-989.3333333333334,10.333333333333334,41.333333333333336,-4.333333333333333,0.07823752363522847,-0.13579505185286203,1.0653098821640015,0.009283190981174508,0.04107804285983244,-0.0045564162962061045
07:38:33,15081.0,AUTO,-35.3630646,149.1656409,22080.666666666668,319.6666666666667,537.6666666666666,29.666666666666668,-126.33333333333333,-80.66666666666667,-996.6666666666666,-7.0,52.333333333333336,-3.6666666666666665,0.07880732665459315,-0.08054285248120625,1.0621304114659627,-0.00861481080452601,0.05170552060008049,-0.003817179317896565
07:38:35,15081.0,AUTO,-35.363013099999996,149.16574736666666,21446.0,235.66666666666666,403.3333333333333,27.666666666666668,-94.66666666666667,-66.66666666666667,-1006.0,448.3333333333333,54.333333333333336,-13.666666666666666,0.076766736805439,0.014110624474900154,1.0620580911636353,0.4475896656513214,0.053708054746190705,-0.014209656665722529
07:38:36,86423.0,AUTO,-35.362991,149.16579526666666,21133.333333333332,156.66666666666666,275.0,18.666666666666668,-64.33333333333333,-26.0,-1012.0,297.6666666666667,9.0,-19.0,0.04030085479219755,0.061001631120840706,1.059242049853007,0.2957150638103485,0.00832949485629797,-0.019466641048590343
07:38:37,86423.0,AUTO,-35.3629823,149.16581570000002,21000.0,117.0,197.33333333333334,13.333333333333334,-48.333333333333336,-59.0,-1005.6666666666666,-506.3333333333333,17.333333333333332,13.0,0.011961822398006916,0.06949874510367711,1.0576723019282024,-0.5077533225218455,0.016659020446240902,0.013152885561188063
07:38:39,86423.0,AUTO,-35.36297133333333,149.16584156666667,20851.333333333332,38.666666666666664,31.333333333333332,2.3333333333333335,-10.333333333333334,6.666666666666667,-1008.0,406.3333333333333,-12.666666666666666,0.0,-0.004197252487453322,0.04793729136387507,1.0558091004689534,0.4057365854581197,-0.01435224898159504,-0.0005914974802484115
07:38:41,86423.0,AUTO,-35.36296973333334,149.1658439,20867.666666666668,14.0,-19.333333333333332,-1.3333333333333333,0.0,-0.3333333333333333,-997.0,-136.66666666666666,-27.0,-4.0,-0.019486888622244198,0.00017062207916751504,1.0550391276677449,-0.1377052366733551,-0.028856882204612095,-0.004855247447267175
07:38:42,58573.0,RTL,-35.362969033333336,149.165843,20874.666666666668,15.0,-12.333333333333334,-2.3333333333333335,-2.6666666666666665,-2.0,-1012.3333333333334,-127.66666666666667,16.666666666666668,-5.666666666666667,-0.005290003182987372,-0.004244553507305682,1.0528976519902546,-0.12867178519566855,0.01541535696014762,-0.006915168526271979
07:38:43,58573.0,RTL,-35.362968200000005,149.16584253333335,20932.0,8.666666666666666,-9.666666666666666,-18.333333333333332,-3.0,-1.6666666666666667,-1033.3333333333333,-72.0,6.0,-1.3333333333333333,0.0035249742213636637,-0.0008474296191707253,1.0504085620244343,-0.07222253084182739,0.004871880441593627,-0.002351167844608426
07:38:45,58573.0,RTL,-35.362966766666666,149.16584149999997,22127.333333333332,-8.333333333333334,-1.0,-102.33333333333333,0.0,0.6666666666666666,-1042.6666666666667,-10.0,2.6666666666666665,3.0,0.008833994157612324,5.504228586990697e-05,1.0461335182189941,-0.010117953487982353,0.0018467838332677882,0.0028544229765733085
07:38:47,58573.0,RTL,-35.362967700000006,149.16584216666664,24897.333333333332,-31.666666666666668,20.333333333333332,-147.66666666666666,1.0,-4.333333333333333,-997.6666666666666,29.333333333333332,-5.333333333333333,-8.666666666666666,0.05276710043350855,-0.011907487486799559,1.0447176297505696,0.029178489310046036,-0.007163944188505411,-0.009255649366726479
07:38:48,202074.0,RTL,-35.3629716,149.1658459,26775.666666666668,-33.0,16.333333333333332,-147.0,4.666666666666667,-7.666666666666667,-1009.3333333333334,-62.666666666666664,-30.333333333333332,-31.0,-0.05826111510396004,0.01143898000009358,0.9708428581555685,-0.06375431176275015,-0.03275074561436971,-0.03245245153084397
07:38:49,202074.0,RTL,-35.36297216666666,149.165846,27928.0,8.0,-10.333333333333334,-149.0,0.0,2.0,-1000.6666666666666,34.333333333333336,-4.333333333333333,-12.0,-0.058744492630163826,-0.008213333319872618,0.9576118389765421,0.03379700891673565,-0.006116262055002153,-0.013501598810156187
07:38:51,202074.0,RTL,-35.36296696666667,149.165841,31031.333333333332,14.0,-15.666666666666666,-150.33333333333334,-1.6666666666666667,6.0,-999.3333333333334,3.3333333333333335,-3.3333333333333335,9.333333333333334,0.02244850993156433,-0.0030355219884465137,0.950829287370046,0.002380239039969941,-0.0054668826051056385,0.008970557867238918
07:38:53,202074.0,RTL,-35.362966,149.1658396,34144.0,-4.0,4.0,-150.33333333333334,0.0,0.0,-1000.6666666666666,-2.0,3.6666666666666665,-16.666666666666668,0.0032968951078752675,-0.005012156131366889,0.9389599760373434,-0.0031664305133745074,0.0026017387863248587,-0.018172926579912502
07:38:54,88199.0,RTL,-35.362966,149.16584,36088.333333333336,-3.3333333333333335,5.666666666666667,-151.0,0.0,-1.0,-1000.0,1.6666666666666667,3.6666666666666665,-20.0,0.0016941617553432782,-0.0012176243180874735,0.9118540088335673,0.0008141569560393691,0.002574153089274963,-0.021314607312281925
07:38:55,88199.0,RTL,-35.362966,149.1658403,37257.0,-4.333333333333333,4.666666666666667,-151.0,0.0,-0.6666666666666666,-999.6666666666666,0.6666666666666666,2.0,-20.333333333333332,0.0012098627630621195,0.00020042746715868512,0.8952231804529825,0.00013604690320789814,0.0010337352675075333,-0.021546997750798862
07:38:57,88199.0,RTL,-35.36296653333333,149.16584083333336,40374.666666666664,-6.0,2.0,-152.0,0.0,0.0,-999.6666666666666,2.0,0.0,-18.333333333333332,-0.00013437667803373188,-0.0002029154469103863,0.8529944022496542,0.0009690617055942615,-0.001512264832854271,-0.01986079600950082
07:38:59,88199.0,RTL,-35.36296716666667,149.165841,43496.666666666664,-4.666666666666667,1.0,-152.0,0.0,0.0,-1000.0,2.3333333333333335,0.6666666666666666,-19.333333333333332,-0.0008561223124464353,-0.0017336457579707105,0.8101667364438375,0.0015036619345967968,-0.0006580520809317628,-0.02070363548894723
07:39:00,125029.0,RTL,-35.3629674,149.165841,45442.0,-3.3333333333333335,1.0,-152.0,0.0,0.0,-999.6666666666666,0.6666666666666666,1.6666666666666667,-18.666666666666668,-0.0011789517011493444,-0.001804638421162963,0.7830576101938883,-0.00028562456524620455,0.0001591290347278118,-0.02045240004857381
07:39:01,125029.0,RTL,-35.36296746666667,149.16584103333332,46610.333333333336,-3.0,1.0,-152.0,0.0,0.0,-999.3333333333334,7.333333333333333,5.666666666666667,-9.333333333333334,-9.218495688401163e-05,-0.0011283364195454244,0.7686317761739095,0.006403846200555563,0.004130674448485176,-0.01099285192321986
07:39:03,125029.0,RTL,-35.36296806666667,149.16584113333332,49716.666666666664,-6.666666666666667,2.0,-151.0,0.3333333333333333,0.0,-999.6666666666666,-1.6666666666666667,-0.3333333333333333,28.0,-0.00130628661524194,-0.0014776461175642908,0.802281896273295,-0.0038158558309078217,-0.0017959103958370786,0.027685518686970074
07:39:05,125029.0,RTL,-35.3629685,149.16584126666666,52825.666666666664,-1.3333333333333333,0.3333333333333333,-152.0,0.0,0.0,-1000.0,4.0,2.0,21.666666666666668,-0.002667650735626618,-0.0028017091875274978,0.8493375182151794,0.0028142425386856,0.0006407436061029633,0.021167302504181862
07:39:06,61696.0,RTL,-35.36296843333333,149.1658413,54764.666666666664,0.0,0.0,-152.0,0.0,0.0,-999.6666666666666,1.3333333333333333,1.6666666666666667,17.333333333333332,-0.0013247438085575898,-0.002265260322019458,0.8701230883598328,0.00043627033786227304,0.0005759811028838158,0.016789368043343227
07:39:07,61696.0,RTL,-35.362968333333335,149.1658413,55932.0,0.0,0.0,-152.0,0.0,0.0,-999.6666666666666,1.3333333333333333,3.3333333333333335,15.666666666666666,-0.0011035432883848746,-0.0013062774669378996,0.8813033302625021,0.0007426655696084102,0.00204231939278543,0.01478965487331152
07:39:09,61696.0,RTL,-35.36296803333334,149.1658414,59046.666666666664,-1.0,0.0,-152.0,0.0,0.0,-1000.0,2.0,0.6666666666666666,13.333333333333334,-0.001175107356781761,-0.0011138086750482519,0.9058500727017721,0.0004454885299007098,-0.000934608009022971,0.012372296613951525
07:39:11,61696.0,RTL,-35.3629679,149.1658414,62149.666666666664,-1.0,0.0,-152.0,0.0,0.0,-1000.0,2.6666666666666665,2.0,10.0,-0.001119230524636805,-0.001307464709194998,0.9238384564717611,0.000990982943524917,0.0007062886531154314,0.008900869016846022
07:39:12,110846.0,RTL,-35.3629679,149.1658414,64046.5,-1.0,0.0,-152.0,0.0,0.0,-1000.0,0.0,1.5,6.5,-0.000988991989288479,-0.0012223802623338997,0.9328315258026123,-0.0016768264467827976,0.0005261424812488258,0.005788511596620083
07:39:14,110846.0,RTL,-35.3629678,149.1658414,67157.0,-2.0,0.0,-152.0,0.0,0.0,-1000.0,0.5,1.5,6.5,-0.0008062585548032075,-0.0013224013382568955,0.9456380903720856,-0.0009630421409383416,0.00020519329700618982,0.005430157762020826
07:39:16,110846.0,RTL,-35.3629678,149.1658414,70262.5,-2.0,0.0,-152.0,0.0,0.0,-1000.0,2.5,1.5,7.5,-0.0010724985040724277,-0.0013601012760773301,0.9563698768615723,0.0012954327394254506,0.00025971949798986316,0.0062112631276249886
07:39:17,64561.0,RTL,-35.3629678,149.1658414,71426.75,-2.0,0.0,-152.0,0.0,0.0,-999.5,1.75,1.75,7.0,-0.0009791773627512157,-0.001591585692949593,0.9603636860847473,0.0004971882444806397,0.0004313142562750727,0.006014502723701298
07:39:18,64561.0,RTL,-35.3629678,149.1658414,73368.0,-2.0,0.0,-152.0,0.0,0.0,-1000.0,1.5,0.5,9.0,-0.0009961599425878376,-0.00141147366957739,0.9660893380641937,0.0001612390042282641,-0.0007609741296619177,0.007852564565837383
07:39:20,64561.0,RTL,-35.3629678,149.1658414,76474.0,-2.0,0.0,-152.0,0.0,0.0,-1000.0,2.0,1.0,6.0,-0.001281527802348137,-0.0010979383368976414,0.9752278625965118,0.0009977638837881386,-0.00046776130329817533,0.00514179328456521
07:39:22,64561.0,RTL,-35.3629678,149.1658414,79586.5,-2.0,0.0,-152.0,0.0,0.0,-999.5,-0.5,1.0,5.5,-0.0010932618170045316,-0.001303701603319496,0.9826211035251617,-0.002507918165065348,-0.00025680282851681113,0.004473644541576505
07:39:23,119916.0,RTL,-35.3629678,149.1658414,80752.5,-2.0,0.0,-152.0,0.0,0.0,-1000.0,2.75,2.0,5.5,-0.0011397784110158682,-0.0012666164839174598,0.9848954975605011,0.0016755369142629206,0.0004509766586124897,0.004403535043820739
07:39:24,119916.0,RTL,-35.3629678,149.1658414,82692.5,-2.0,0.0,-152.0,0.0,0.0,-1000.5,1.5,1.5,3.5,-0.0011509807663969696,-0.0015303337713703513,0.9889402091503143,-0.00033285131212323904,-0.00019611051538959146,0.0021764161065220833
07:39:26,119916.0,RTL,-35.3629678,149.16584145000002,85798.5,-2.0,0.0,-152.0,0.0,0.0,-999.5,-0.5,1.0,5.5,-0.0016963401576504111,-0.0012037771521136165,0.994295060634613,-0.002650754526257515,-0.0009296810021623969,0.004184268647804856
07:39:28,119916.0,RTL,-35.3629678,149.1658415,88905.0,-1.0,0.0,-152.0,0.0,0.0,-999.0,0.0,3.0,5.0,-0.001390528865158558,-0.0012683821259997785,0.9989748299121857,-0.0013643603888340294,0.0014047614531591535,0.003525338717736304
07:39:29,136066.0,RTL,-35.3629678,149.1658415,90073.25,-1.0,0.0,-152.0,0.0,0.0,-999.75,1.75,1.5,5.25,-0.0012081791064701974,-0.0014605149917770177,1.00090292096138,-1.0062794899567962e-05,6.0585036408156157e-05,0.0037298688548617065
07:39:30,136066.0,RTL,-35.3629678,149.1658415,92012.0,-2.0,0.0,-152.0,0.0,0.0,-1000.0,2.0,2.0,4.0,-0.0007660129922442138,-0.0014332362916320562,1.0034082531929016,0.00019315292593091726,0.00031930580735206604,0.0024637981550768018
07:39:32,136066.0,RTL,-35.3629678,149.1658415,95119.0,-2.0,0.0,-152.0,0.0,0.0,-1000.0,2.0,1.0,4.0,-0.0012390080955810845,-0.0014557254617102444,1.0069680213928223,0.0006527294171974063,-0.0004654116346500814,0.0024150010431185365
07:39:34,136066.0,RTL,-35.3629678,149.1658415,98229.5,-2.0,0.0,-152.0,0.0,0.0,-1000.0,1.0,2.0,1.5,-0.0012475312105379999,-0.0012573059066198766,1.0101290345191956,-0.0005460588145069778,0.0005694053834304214,0.0005175478290766478
07:39:35,86598.0,RTL,-35.3629678,149.1658415,99394.75,-2.0,0.0,-152.0,0.0,0.0,-1000.0,2.5,1.5,4.0,-0.0012148213863838464,-0.0011675134301185608,1.0112711787223816,0.0009752688929438591,-0.00017926024156622589,0.002739721065154299
07:39:36,86598.0,RTL,-35.3629678,149.1658415,101337.0,-2.0,0.0,-152.0,0.0,0.0,-999.5,0.5,2.5,4.0,-0.0013835267745889723,-0.0007491832657251507,1.0137067437171936,-0.0011777453473769128,0.0007002358324825764,0.00258291931822896
07:39:38,86598.0,RTL,-35.3629678,149.1658415,104448.0,-2.0,0.0,-152.0,0.0,0.0,-1000.0,2.5,1.0,4.0,-0.0015233985614031553,-0.0013313739909790456,1.0159764885902405,0.0005373683525249362,-0.0008970489725470543,0.0025958805927075446
07:39:40,102384.5,RTL,-35.3629678,149.1658415,107551.0,-1.0,0.0,-152.0,0.0,0.0,-1000.0,3.0,2.5,1.5,-0.0013734514941461384,-0.0014995181118138134,1.0182368159294128,0.000776269705966115,0.0005987001350149512,9.5319002866745e-05
07:39:42,118171.0,RTL,-35.3629678,149.1658415,110665.5,-1.0,0.0,-152.0,0.0,0.0,-1000.0,2.0,2.0,4.0,-0.0012946125934831798,-0.0012429983471520245,1.0199487805366516,0.00015557499136775732,0.0002253813436254859,0.0022531707072630525
07:39:44,118171.0,RTL,-35.3629678,149.1658415,113772.5,-2.0,0.0,-152.0,0.0,0.0,-999.5,3.0,2.5,3.5,-0.0007221236010082066,-0.0013648758176714182,1.0211942791938782,0.001317958696745336,0.0009297338547185063,0.0022186171263456345
07:39:46,78422.0,RTL,-35.3629678,149.1658415,117029.5,-2.0,0.0,-152.0,0.0,0.0,-1000.0,2.0,2.0,2.5,-0.0012386590242385864,-0.0013579909573309124,1.0229132771492004,-0.00014238432049751282,0.0001577524235472083,0.0013563816901296377
07:39:48,78422.0,RTL,-35.3629678,149.1658415,120144.0,-2.0,0.0,-152.0,0.0,0.0,-1000.0,2.0,2.0,2.5,-0.0013847494265064597,-0.0009654708264861256,1.0240492820739746,-0.0002953463699668646,0.00023776700254529715,0.0006064194603823125
07:39:50,78422.0,RTL,-35.3629678,149.1658415,123254.5,-2.0,0.0,-152.0,0.0,0.0,-999.5,2.5,1.5,3.5,-0.0017839745269156992,-0.0017004295950755477,1.0251508951187134,0.0006124833598732948,-0.0009109980892390013,0.0021694600582122803
07:39:51,121910.0,RTL,-35.3629678,149.1658415,124421.0,-1.0,0.0,-152.0,0.0,0.0,-1000.0,1.5,1.75,2.0,-0.0016667885356582701,-0.00138793425867334,1.0252457559108734,-0.0007639423420187086,0.0003577487077564001,0.000782795570557937
07:39:52,121910.0,RTL,-35.3629678,149.1658415,126358.5,-1.0,0.0,-152.0,0.0,0.0,-1000.0,3.0,1.5,2.5,-0.0014998827246017754,-0.0013269283808767796,1.0267452597618103,0.001242300495505333,-0.0003152195713482797,0.0011341373319737613
07:39:54,121910.0,RTL,-35.3629678,149.1658415,129465.5,-1.0,0.0,-152.0,0.0,0.0,-999.0,2.5,2.0,4.0,-0.0014360564528033137,-0.0014427911373786628,1.027235746383667,0.0004618437960743904,0.000606728601269424,0.0025800475268624723
07:39:56,121910.0,RTL,-35.3629678,149.1658415,132572.5,-2.0,0.0,-152.0,0.0,0.0,-999.5,3.0,1.5,3.0,-0.000848877418320626,-0.001212501316331327,1.0278940200805664,0.0011737608583644032,-0.0006021653534844518,0.0011877237120643258
07:39:57,28654.0,RTL,-35.3629678,149.1658415,133738.25,-2.0,0.0,-152.0,0.0,0.0,-999.75,2.25,1.5,3.25,-0.0009503203618805856,-0.0016099298372864723,1.0282132923603058,0.0004628845490515232,-8.384155808016658e-05,0.0016758350539021194
07:39:58,28654.0,RTL,-35.3629678,149.1658415,135679.0,-2.0,0.0,-152.0,0.0,0.0,-999.5,3.0,3.0,3.0,-0.0011994224041700363,-0.0012468578643165529,1.028451144695282,0.0010579267982393503,0.0011435295455157757,0.0013474380830302835
07:40:00,28654.0,RTL,-35.3629678,149.1658415,138786.0,-2.0,0.0,-152.0,0.0,0.0,-999.5,1.5,3.5,2.0,-0.0014342819340527058,-0.001151793694589287,1.0290101170539856,-0.0009788927854970098,0.0013862147461622953,0.0002763743977993727
07:40:02,28654.0,RTL,-35.3629678,149.1658415,141897.0,-1.0,0.0,-152.0,0.0,0.0,-999.5,3.5,1.5,4.0,-0.0016163488617166877,-0.0014487510197795928,1.0292739272117615,0.000986908155027777,-0.0006651375442743301,0.0025044517824426293
07:40:03,1327.0,RTL,-35.3629678,149.1658415,143069.5,-1.0,0.0,-152.0,0.0,0.0,-1000.0,2.5,2.5,3.5,-0.0014714100689161569,-0.0012656780309043825,1.0294156670570374,0.0005350348365027457,0.0006171356071718037,0.0015537652652710676
07:40:04,1327.0,RTL,-35.3629678,149.1658415,145004.5,-1.0,0.0,-152.0,0.0,0.0,-1000.0,3.5,2.0,4.0,-0.001337699533905834,-0.001424228132236749,1.0296571254730225,0.0016867135418578982,0.0001999132800847292,0.002257424290291965
07:40:06,1327.0,RTL,-35.3629678,149.1658415,148111.0,-1.0,0.0,-152.0,0.0,0.0,-1000.0,1.0,0.5,2.5,-0.0015880929422564805,-0.001262893551029265,1.0296091437339783,-0.0009072641842067242,-0.0011326557723805308,0.0008285464718937874
07:40:08,1327.0,RTL,-35.3629678,149.1658415,151224.0,-1.0,0.0,-152.0,0.0,0.0,-1000.0,2.0,1.0,2.0,-0.001596735033672303,-0.0011748282122425735,1.03091561794281,0.0003564943326637149,-0.0011783608933910728,7.194862700998783e-05
07:40:09,100619.0,RTL,-35.3629678,149.1658415,152389.75,-1.25,0.0,-152.0,0.0,0.0,-1000.0,4.0,2.5,1.75,-0.0011086092126788571,-0.0012476096453610808,1.0308775901794434,0.001875244197435677,0.0006010850775055587,-4.9462716560810804e-05
07:40:10,100619.0,RTL,-35.3629678,149.1658415,154331.5,-2.0,0.0,-152.0,0.0,0.0,-1000.0,1.0,0.5,1.5,-0.0011531455675140023,-0.0011826673871837556,1.0311090350151062,-0.0014895761851221323,-0.0011484959395602345,-0.0003534741699695587
07:40:12,100619.0,RTL,-35.3629678,149.1658415,157439.0,-2.0,0.0,-152.0,0.0,0.0,-1000.0,2.5,2.0,1.5,-0.0010232534259557724,-0.0013063378282822669,1.0312948822975159,8.393160533159971e-05,-8.773058652877808e-07,-0.0004597565275616944
07:40:14,100619.0,RTL,-35.3629678,149.1658415,160545.0,-2.0,0.0,-152.0,0.0,0.0,-1000.5,2.5,2.0,2.5,-0.0014904397539794445,-0.0012712181778624654,1.0312736630439758,0.0003115866566076875,0.00013876729644834995,0.000957890588324517
07:40:15,53955.0,RTL,-35.3629678,149.1658415,161710.0,-1.5,0.0,-152.0,0.0,0.0,-999.75,2.0,2.25,3.5,-0.0018692062585614622,-0.0011533192300703377,1.031426876783371,-0.00024776975624263287,-1.6956590116024017e-05,0.001475461176596582
07:40:16,53955.0,RTL,-35.3629678,149.1658415,163652.0,-1.0,-0.5,-152.0,0.0,0.0,-1000.0,1.5,2.0,2.0,-0.0015620345366187394,-0.00135034357663244,1.0312241315841675,-0.0005681515904143453,-0.00023083691485226154,0.0005083339056000113
07:40:18,53955.0,RTL,-35.3629678,149.1658415,166759.0,-1.0,0.0,-152.0,0.0,0.0,-1000.0,1.5,2.0,2.0,-0.0014403130044229329,-0.0014429704751819372,1.031674563884735,-0.000200935872271657,-0.00015412346692755818,-0.00018902902957051992
07:40:20,53955.0,RTL,-35.3629678,149.1658415,169867.0,-1.0,0.0,-152.0,0.0,0.0,-999.5,4.0,2.0,3.5,-0.0014967249007895589,-0.0014070000033825636,1.0315905809402466,0.0018177434103563428,4.667846951633692e-05,0.0014555410016328096
07:40:21,147559.0,RTL,-35.3629678,149.1658415,171031.5,-1.0,0.0,-152.0,0.0,0.0,-1000.0,2.75,2.5,2.5,-0.0013330790388863534,-0.001353998522972688,1.0316048562526703,0.00042448414023965597,0.0004413414862938225,0.0006100254831835628
07:40:22,147559.0,RTL,-35.3629678,149.1658415,172978.0,-2.0,0.0,-152.0,0.0,0.0,-1000.5,3.5,1.5,2.5,-0.0013365514460019767,-0.0011967923492193222,1.03152996301651,0.0010949261486530304,-0.0007214960642158985,0.0007757284911349416
07:40:24,147559.0,RTL,-35.3629678,149.1658415,176085.5,-2.0,0.0,-152.0,0.0,0.0,-999.5,0.5,3.0,4.5,-0.0013765553594566882,-0.0008644964545965195,1.0324305891990662,-0.0016385436756536365,0.000500143098179251,0.0025514226872473955
07:40:26,147559.0,RTL,-35.3629678,149.1658415,179152.0,-2.0,0.0,-152.0,0.0,0.0,-999.0,0.0,4.0,3.0,-0.0011033962946385145,-0.00147722358815372,1.0326083898544312,-0.002601770916953683,0.0012151028495281935,0.0007378477603197098
07:40:27,267579.0,RTL,-35.3629678,149.1658415,180123.75,-2.0,0.0,-152.0,0.0,0.0,-1000.0,3.0,3.0,2.75,-0.0013432645646389574,-0.0014076848165132105,1.0324574410915375,0.000324519001878798,0.0006556766456924379,0.0007872663845773786
07:40:28,267579.0,RTL,-35.3629678,149.1658415,181677.0,-1.5,0.0,-152.0,0.0,0.0,-1000.0,4.0,3.0,3.0,-0.0015096028218977153,-0.0013343082973733544,1.0322527885437012,0.0018647314282134175,0.0006436133990064263,0.0010287854820489883
07:40:30,267579.0,RTL,-35.3629678,149.1658415,184792.5,-1.0,0.0,-152.0,0.0,0.0,-999.5,3.0,3.0,3.0,-0.0015759209054522216,-0.001166755217127502,1.0323230624198914,0.00013572105672210455,0.00036092009395360947,0.0011204734910279512
07:40:32,264067.0,RTL,-35.36296835,149.1658404,187886.5,-16.0,-24.0,-149.5,3.5,1.5,-998.5,0.5,45.5,2.5,-0.0026262952014803886,0.047871680930256844,1.0323273539543152,-0.0022603286197409034,0.043230751529335976,0.0006355684017762542
07:40:34,260555.0,RTL,-35.3629765,149.1658242,190788.0,-84.0,-144.0,-121.0,30.0,13.0,-964.0,-88.5,117.0,289.5,-0.03380207344889641,0.1557101458311081,1.1118798851966858,-0.09221442323178053,0.1142256148159504,0.2872067012358457
07:40:36,260555.0,RTL,-35.36299885,149.16577005,191983.5,-186.5,-317.0,3.0,84.0,-2.0,-951.0,-94.5,50.5,58.0,0.08436509221792221,0.13209299743175507,1.5885611772537231,-0.09745259745977819,0.04770223284140229,0.05579089280217886
07:40:37,158778.0,RTL,-35.363019075000004,149.16573232500002,191781.25,-265.25,-380.25,28.5,108.25,-6.0,-1005.25,-9.25,42.75,-10.25,0.07813882455229759,0.19064267352223396,1.6128689646720886,-0.012267056852579117,0.04021786747034639,-0.013105579884722829
07:40:38,158778.0,RTL,-35.36304525,149.1656859,191560.0,-309.5,-465.5,11.5,128.5,-6.0,-1020.0,185.0,0.0,-13.0,0.03570924140512943,0.20445650070905685,1.5756959915161133,0.18227098137140274,-0.0027712201699614525,-0.015994200482964516
07:40:40,158778.0,RTL,-35.36310365,149.1655712,191544.0,-330.0,-565.0,-5.0,144.0,-3.0,-988.0,-79.0,-30.0,-35.5,-0.016963215544819832,0.1650751456618309,1.4914636611938477,-0.08240385353565216,-0.033850936219096184,-0.03861518017947674
07:40:42,158778.0,RTL,-35.3631624,149.1654471,191635.5,-318.5,-550.0,-3.0,163.0,21.0,-998.5,-131.5,-43.0,-34.0,-0.03992280084639788,0.10849267989397049,1.4198349714279175,-0.13447442278265953,-0.04628509283065796,-0.03715142607688904
07:40:43,45522.0,RTL,-35.363190025,149.16538845000002,191672.0,-292.0,-502.75,-0.25,134.5,18.25,-988.25,-182.75,-53.75,-42.25,-0.05754402093589306,0.05913972016423941,1.3905889391899109,-0.18557750806212425,-0.05749615468084812,-0.04543391987681389
07:40:44,45522.0,RTL,-35.36321415,149.16533729999998,191656.0,-247.5,-424.0,3.5,112.0,32.0,-996.0,169.0,-46.5,-8.5,-0.06447390466928482,0.010854613268747926,1.3690022230148315,0.16579883266240358,-0.050376059487462044,-0.011250205338001251
07:40:46,45522.0,RTL,-35.363248049999996,149.16526585,191592.0,-127.5,-225.5,3.0,61.0,17.0,-1012.5,-26.5,-15.5,-22.0,-0.05817306414246559,-0.04969516210258007,1.3335691094398499,-0.02975696325302124,-0.01951833162456751,-0.025383961852639914
07:40:48,45522.0,RTL,-35.3632615,149.16523645,191568.0,-29.0,-63.0,1.0,14.0,5.0,-1009.5,-1.0,23.5,-12.5,-0.020830707158893347,-0.04723886586725712,1.3018333911895752,-0.0033936798572540283,0.020719189196825027,-0.015366014558821917
07:40:49,132871.0,RTL,-35.36326295,149.165232625,191567.5,-8.75,-18.25,0.75,3.25,-8.25,-999.5,-103.25,25.25,-7.75,-0.004755716770887375,-0.029359245672822,1.289063185453415,-0.10591562319314107,0.02239292301237583,-0.010851327097043395
07:40:50,132871.0,RTL,-35.3632631,149.16523245,191574.0,-3.0,-0.5,0.5,0.0,-4.5,-1003.5,7.5,35.5,-6.5,0.002619772916659713,-0.0037641143426299095,1.2788323163986206,0.0043981969356536865,0.033010274171829224,-0.010043361457064748
07:40:52,132871.0,RTL,-35.3632638,149.16523404999998,191582.5,1.0,1.0,1.5,-0.5,12.0,-997.5,169.0,4.0,2.0,-0.008906020550057292,-0.003557023825123906,1.2630897760391235,0.16654913872480392,0.00126392743550241,-0.0009728495497256517
07:40:54,132871.0,RTL,-35.36326425,149.1652364,191580.5,11.0,-0.5,0.0,-0.5,9.5,-999.5,249.0,6.0,1.5,-0.014344503171741962,0.0033112551318481565,1.2494351863861084,0.24663035199046135,0.0029450940201058984,-0.001076407264918089
07:40:55,11760.0,RTL,-35.363264375,149.1652373,191578.5,15.0,-4.5,0.5,-1.25,0.5,-1000.25,-73.75,2.0,0.75,-0.019660334568470716,0.002448739149258472,1.2440515458583832,-0.07604180183261633,-0.0016536492039449513,-0.002150341577362269
07:40:56,11760.0,RTL,-35.36326385,149.16523755,191493.0,15.5,-7.0,22.5,-2.0,0.5,-963.5,-188.0,3.5,-1.5,-0.011844792636111379,-0.0007787293507135473,1.2398162484169006,-0.1905761957168579,0.00010011321865022182,-0.005049204453825951
07:40:58,11760.0,RTL,-35.3632619,149.1652373,189913.5,1.5,-3.0,109.5,-0.5,-23.0,-977.5,-1088.5,0.5,6.0,-0.008671006187796593,-0.0005615174013655633,1.2295893430709839,-1.0927247405052185,-0.003504635184071958,0.0036833116319030523
07:41:00,11760.0,RTL,-35.363263,149.16523840000002,187772.5,4.5,-5.0,104.0,3.5,-82.5,-939.0,-1581.5,3.5,-13.5,-0.028828351758420467,0.006067128153517842,1.2201306819915771,-1.5841429829597473,-0.0002959895646199584,-0.017376701347529888
07:41:01,25698.0,RTL,-35.36326485,149.16523932500002,186739.75,15.5,-10.0,97.75,4.75,-82.5,-981.5,-1129.5,4.25,-5.25,-0.04522572457790375,0.006579608307220042,1.2178884744644165,-1.1299644261598587,0.0007236982928588986,-0.008728531887754798
07:41:02,25698.0,RTL,-35.3632669,149.1652402,185733.0,34.5,-18.0,99.0,3.5,-79.0,-975.5,-1075.0,3.0,-19.0,-0.06008775904774666,0.0044435684103518724,1.2140629291534424,-1.0749311447143555,-0.0011076037771999836,-0.02204995136708021
07:41:04,25698.0,RTL,-35.36326805,149.16524049999998,183702.5,58.5,-27.0,98.5,-0.5,-27.5,-1017.0,-1188.0,4.5,-4.0,-0.06898252852261066,-0.0021554663544520736,1.2080294489860535,-1.189413696527481,0.0007798376027494669,-0.007088634185492992
07:41:06,25698.0,RTL,-35.363266966666664,149.16524,181652.66666666666,53.0,-23.666666666666668,102.66666666666667,-3.0,65.66666666666667,-972.3333333333334,595.6666666666666,5.333333333333333,3.6666666666666665,-0.04165556033452352,-0.002980760453889767,1.2019229332605998,0.5949005335569382,0.0016617916990071535,0.0011426037332663934
07:41:07,1713.0,RTL,-35.363265825,149.16523949999998,180505.25,46.25,-21.0,96.0,-2.25,55.25,-1023.5,1312.0,9.0,1.0,-0.004755699876113795,-0.0035261675366200507,1.1989213526248932,1.3133974373340607,0.005268097040243447,-0.0020196723635308444
07:41:08,1713.0,RTL,-35.36326505,149.16523925,179487.0,35.5,-17.0,95.5,-2.5,43.5,-1015.5,1189.0,5.5,6.5,0.001148369541624561,-0.002247914904728532,1.1961688995361328,1.1913769841194153,0.0017438230570405722,0.003735097707249224
07:41:10,1713.0,RTL,-35.36326244999999,149.165238,177440.5,13.5,-10.0,100.0,-4.0,57.5,-1046.0,1247.5,7.5,4.5,0.023434681817889214,-0.005814404226839542,1.191878318786621,1.2494477033615112,0.003617841750383377,0.0018244358943775296
07:41:12,1713.0,RTL,-35.363259150000005,149.1652363,175417.5,-18.0,3.5,99.0,-2.5,68.0,-982.5,1514.5,8.5,-3.0,0.049512485042214394,-0.00506887654773891,1.1881067156791687,1.515551507472992,0.004894333658739924,-0.006747487932443619
07:41:13,18247.0,RTL,-35.36325815,149.165235875,174401.0,-33.25,10.5,100.5,-0.25,71.5,-1003.75,962.75,5.25,0.25,0.0387706495821476,-0.0032164088333956897,1.1881123185157776,0.962373673915863,0.001381280948407948,-0.0031873700791038573
07:41:14,18247.0,RTL,-35.36325825,149.165236,173393.0,-39.5,14.0,95.5,2.0,56.5,-1036.5,852.5,10.5,9.0,0.025550191290676594,0.0006448774656746536,1.1862436532974243,0.851980060338974,0.006494330707937479,0.006413932656869292
07:41:16,18247.0,RTL,-35.3632609,149.16523734999998,171337.0,-23.5,6.5,97.0,3.0,75.0,-989.0,1323.5,0.5,0.0,0.0017313255229964852,0.0013011072296649218,1.1834882497787476,1.3233356475830078,-0.0032214245293289423,-0.0031584183452650905
07:41:18,18247.0,RTL,-35.363261949999995,149.16523765,169282.5,-6.5,0.0,101.0,1.0,45.5,-976.0,113.5,12.0,-19.0,-0.014107981696724892,-0.00045926922757644206,1.1806187629699707,0.11184389889240265,0.008042474277317524,-0.02279796649236232
07:41:19,91487.0,RTL,-35.3632626,149.165237975,168269.0,-2.0,-1.25,99.0,-0.5,-11.75,-1007.0,-1032.25,0.75,0.25,-0.031227894127368927,0.00027082716223958414,1.180125653743744,-1.0336963385343552,-0.0033023549476638436,-0.002554688515374437
07:41:20,91487.0,RTL,-35.36326225,149.16523785,167258.5,0.0,-4.5,99.0,-4.0,-1.5,-959.0,-1070.5,-4.0,9.5,-0.02397260721772909,-0.0036667558015324175,1.1788426041603088,-1.0717806816101074,-0.008514609420672059,0.006373128155246377
07:41:22,91487.0,RTL,-35.363257899999994,149.16523535,165192.5,-28.5,8.5,96.5,-5.0,-48.0,-1057.0,-1270.5,4.5,4.5,0.04447907581925392,-0.010277906898409128,1.175428569316864,-1.2715664505958557,0.0005555902607738972,0.001778185018338263
07:41:24,91487.0,RTL,-35.36325615,149.16523465,163168.5,-60.5,25.0,104.0,1.0,-67.0,-942.5,-579.0,6.5,-3.0,0.04841155372560024,-0.00017824821406975389,1.1761765480041504,-0.5793055444955826,0.002126280916854739,-0.006453579757362604
07:41:25,11595.0,RTL,-35.363257025,149.165235275,162157.25,-56.0,22.0,98.75,2.0,-63.75,-999.0,-477.0,5.0,-1.25,0.033826089929789305,0.0018131932883989066,1.174966722726822,-0.4777478128671646,0.0007990067824721336,-0.005031598440837115
07:41:26,11595.0,RTL,-35.36325825,149.1652359,161134.0,-48.0,18.0,99.0,4.0,-66.5,-1023.0,-589.0,5.5,-9.0,0.019883585162460804,0.002537183463573456,1.1736544370651245,-0.5901453644037247,0.0014418395003303885,-0.012526988051831722
07:41:28,11595.0,RTL,-35.3632611,149.16523719999998,159081.5,-21.0,6.0,95.5,3.0,-58.5,-1023.0,-363.0,2.0,0.5,0.0049660224467515945,0.0009858517441898584,1.1730854511260986,-0.36392017593607306,-0.0018871314823627472,-0.0028687844751402736
07:41:30,11595.0,RTL,-35.3632631,149.16523815,157055.5,2.0,-2.0,99.5,3.0,-80.5,-967.5,-1175.5,2.0,-6.5,-0.02130953688174486,-0.0004391565453261137,1.1715220212936401,-1.1775677800178528,-0.0026484476402401924,-0.010719908168539405
07:41:31,68966.0,RTL,-35.36326405,149.16523859999998,156034.5,9.25,-5.5,100.5,1.75,-70.0,-990.25,-1444.75,5.75,-5.0,-0.03891852777451277,-7.477360122720711e-05,1.171633005142212,-1.4469806551933289,0.0014656053972430527,-0.008943564025685191
07:41:32,68966.0,RTL,-35.36326495,149.16523915,155018.5,20.5,-10.0,99.5,1.0,-78.5,-985.5,-1342.0,2.5,-7.5,-0.04409456253051758,-0.00020804988162126392,1.1704130172729492,-1.3436510562896729,-0.0020949244499206543,-0.011153774335980415
07:41:34,68966.0,RTL,-35.3632653,149.16523925,152980.0,30.0,-15.0,97.5,-1.5,-1.5,-1025.0,-823.0,2.0,3.5,-0.0421026274561882,-0.0029868417186662555,1.1699460744857788,-0.8263974189758301,-0.0019578048959374428,0.00018210348207503557
07:41:36,68966.0,RTL,-35.3632643,149.16523875000001,150955.0,24.0,-12.5,103.5,-1.5,26.5,-946.5,-347.0,4.5,6.5,-0.03150370251387358,-0.003623622003942728,1.1690673232078552,-0.34975255094468594,0.000198479276150465,0.003497682395391166
07:41:37,468.0,RTL,-35.363263475000004,149.16523835,149935.75,17.25,-9.5,100.25,-1.75,48.75,-967.0,56.0,3.25,8.5,-0.015861414605751634,-0.004163768899161369,1.1692759990692139,0.05327480472624302,-0.0013069465640001,0.005360284470953047
07:41:38,468.0,RTL,-35.3632631,149.1652382,149303.0,13.0,-7.0,98.0,-2.0,63.0,-1012.0,442.0,10.0,2.0,-0.01129312627017498,-0.00366076803766191,1.1690080165863037,0.43950381875038147,0.0054777986370027065,-0.0012771016918122768
07:41:40,468.0,RTL,-35.36326295,149.1652382,147278.0,6.5,-3.0,101.5,3.0,0.5,-1022.0,905.0,4.5,0.0,0.0009128265082836151,0.0002604130422696471,1.1688922047615051,0.9058469533920288,0.000710200285539031,-0.0036469982005655766
07:41:42,468.0,RTL,-35.36326475,149.16523925,145249.5,21.5,-11.5,101.5,1.5,44.0,-1012.0,1318.0,9.0,0.5,-0.006900449050590396,-0.00019486460405460093,1.1684024930000305,1.3184269666671753,0.004874586593359709,-0.002384162857197225
07:41:43,119172.0,RTL,-35.363264825,149.16523915,143977.75,26.5,-14.5,103.0,-0.25,-12.0,-977.75,609.75,3.25,5.0,-0.0061436213363776915,-0.0030626095831394196,1.1675657033920288,0.6119819283485413,-0.0014178258134052157,0.0019012214033864439
07:41:44,119172.0,RTL,-35.36326445,149.16523884999998,143209.5,27.0,-14.5,104.0,-2.0,-21.5,-970.0,308.5,0.5,6.0,-0.0005241992112132721,-0.004087357548996806,1.1668334603309631,0.31061695516109467,-0.003985998104326427,0.003106530522927642
07:41:46,119172.0,RTL,-35.36326235,149.1652376,141146.5,11.5,-6.0,101.5,-1.5,-14.0,-1003.0,503.0,3.0,-1.5,0.028042913414537907,-0.0063276770524680614,1.1667160391807556,0.5051253288984299,-0.002227641409263015,-0.005555416690185666
07:41:48,119172.0,RTL,-35.36326045,149.16523665,139087.0,-12.5,4.0,97.5,-3.0,73.5,-960.0,1352.0,14.5,8.0,0.03890801779925823,-0.003893237328156829,1.1678184866905212,1.3517901301383972,0.010313706239685416,0.0046097037848085165
07:41:49,15337.0,RTL,-35.3632598,149.165236375,137838.25,-21.25,7.0,98.75,-2.5,74.75,-1012.5,1317.0,0.5,1.75,0.030361523386090994,-0.00456906168255955,1.1667340099811554,1.3158355951309204,-0.004198372887913138,-0.002194606466218829
07:41:50,15337.0,RTL,-35.363259,149.16523595,137075.5,-25.0,8.5,99.0,-5.0,40.5,-1013.5,1230.5,3.5,-2.0,0.05083417519927025,-0.006593945901840925,1.1664201021194458,1.2307714819908142,-0.0014295200817286968,-0.006193289998918772
07:41:52,15337.0,RTL,-35.3632564,149.16523445,135058.5,-48.5,20.0,101.5,-2.5,-31.5,-970.0,75.0,13.0,8.0,0.07145656272768974,-0.007102487375959754,1.1663618087768555,0.07528957352042198,0.008738839533179998,0.00444182544015348
07:41:54,15337.0,RTL,-35.3632559,149.1652345,133024.5,-66.0,28.5,103.5,3.0,16.0,-998.0,1144.5,20.0,10.5,0.059711307287216187,0.0025850330712273717,1.1678507924079895,1.1431604623794556,0.01490881061181426,0.006763675133697689
07:41:55,92621.0,RTL,-35.363258125,149.16523585,131751.5,-55.0,22.75,106.5,6.5,4.0,-993.75,952.5,3.5,4.25,0.030349126551300287,0.005046769860200584,1.1672096252441406,0.950635239481926,-0.0006761268596164882,0.0010348065407015383
07:41:56,92621.0,RTL,-35.3632599,149.16523675,130966.5,-42.0,15.5,105.5,4.0,15.0,-1008.0,1190.0,6.0,8.0,0.013818299397826195,0.003868664149194956,1.1676989793777466,1.1878498792648315,0.0009526696521788836,0.0043933355482295156
07:41:58,92621.0,RTL,-35.363261699999995,149.16523734999998,128908.0,-13.0,1.5,100.5,-2.5,50.5,-1047.0,1458.5,-4.0,-2.5,0.023423368111252785,-0.005406291456893086,1.167437195777893,1.4548400044441223,-0.009274868294596672,-0.0063220246229320765
07:42:00,92621.0,RTL,-35.3632591,149.16523575000002,126852.0,-29.0,11.5,95.5,-3.0,78.0,-1003.5,1098.0,9.5,3.5,0.04477246664464474,-0.006792873842641711,1.165524959564209,1.0922934412956238,0.005016685463488102,-0.00020283646881580353
07:42:01,6101.0,RTL,-35.36325765,149.165235075,125580.75,-40.75,17.25,98.75,-2.75,18.5,-968.25,-512.25,9.0,7.0,0.030688739381730556,-0.005725069437175989,1.1666084229946136,-0.5195220896275714,0.004400315694510937,0.0036973661044612527
07:42:02,6101.0,RTL,-35.363257,149.16523485,124820.5,-50.0,22.0,98.5,0.5,29.5,-993.5,-307.0,10.0,12.5,0.032821315340697765,-0.0030195206636562943,1.1660415530204773,-0.3147987574338913,0.005654269130900502,0.009073260705918074
07:42:04,6101.0,RTL,-35.36325825,149.16523569999998,122771.0,-48.5,19.5,98.5,2.5,48.0,-1026.0,494.0,5.0,8.5,0.014274985529482365,0.001140179461799562,1.167961835861206,0.48611168563365936,0.00013117410708218813,0.005464923218823969
07:42:06,6101.0,RTL,-35.36326015,149.16523665,120722.5,-28.5,10.0,100.5,3.5,36.0,-990.5,-112.0,5.5,11.0,-0.003780627332162112,3.3687319955788553e-06,1.1673831939697266,-0.1214735098183155,0.000477753346785903,0.007430796977132559
07:42:07,42578.0,RTL,-35.363261675000004,149.1652374,119452.5,-16.75,5.75,99.25,4.0,62.5,-1002.25,944.0,8.0,9.5,-0.0043895392345802975,0.0010697383258957416,1.1678640842437744,0.9358928203582764,0.0031155727338045835,0.006001421716064215
07:42:08,42578.0,RTL,-35.36326285,149.165238,118690.0,-6.5,1.5,98.0,4.0,61.0,-1037.5,1342.5,4.0,6.0,-0.007037954404950142,0.001032070053042844,1.1668621897697449,1.3348976373672485,-0.0009371740743517876,0.002204764634370804
07:42:10,42578.0,RTL,-35.3632655,149.16523925,116666.0,20.0,-8.0,101.5,5.5,50.5,-1022.0,1404.0,3.0,4.0,-0.02630971372127533,0.0008794549503363669,1.1678544878959656,1.3977239727973938,-0.0024738279171288013,0.0005283672362565994
07:42:12,42578.0,RTL,-35.36326835,149.1652406,114640.5,52.0,-22.0,103.5,0.5,67.5,-1071.0,1200.5,3.0,3.5,-0.04838394187390804,-0.0017718992894515395,1.1662218570709229,1.1945712566375732,-0.0015036416007205844,0.0006660576909780502
07:42:13,76116.0,RTL,-35.363268475,149.1652406,113375.75,60.25,-26.0,102.5,-1.5,72.75,-1009.25,1268.0,3.0,3.5,-0.039482538122683764,-0.004881200846284628,1.1666922867298126,1.2628881335258484,-0.002078898309264332,-0.00017897371435537934
07:42:14,76116.0,RTL,-35.36326785,149.16524025,112612.0,60.5,-26.0,103.5,-2.5,65.0,-994.0,1444.0,6.5,6.0,-0.02101897355169058,-0.0068490521516650915,1.1668073534965515,1.4395853281021118,0.0017667789943516254,0.0023128926986828446
07:42:16,76116.0,RTL,-35.36326545,149.16523890000002,110560.5,43.5,-17.0,100.0,-0.5,32.0,-1019.0,1163.0,2.5,5.5,0.0045345459366217256,-0.007810512557625771,1.1665624380111694,1.1602551639080048,-0.0019740418065339327,0.0021971536334604025
07:42:18,76116.0,RTL,-35.3632639,149.1652382,108533.0,24.0,-8.5,104.5,-1.5,31.0,-1011.5,1333.5,4.5,2.5,0.011356357485055923,-0.005329845007508993,1.166728436946869,1.3313699960708618,-0.0002586699556559324,-0.0012665463145822287
07:42:19,62122.0,RTL,-35.363263425,149.165238,107251.25,15.0,-4.5,101.25,-0.25,70.75,-1023.0,1279.5,8.25,4.25,0.004386457905638963,-0.004765207413583994,1.1668347716331482,1.276189610362053,0.0038482758682221174,0.00036839517997577786
07:42:20,62122.0,RTL,-35.3632634,149.165238,106491.0,12.5,-3.5,105.5,0.0,70.5,-1012.5,1208.0,4.0,-0.5,-0.006527973324409686,-0.0033787547145038843,1.166048526763916,1.2049235701560974,-0.0005815150216221809,-0.005439297063276172
07:42:22,62122.0,RTL,-35.3632635,149.1652382,104443.0,15.0,-5.5,100.0,0.5,33.0,-998.0,1244.0,4.5,-6.0,0.005512116244062781,-0.0034597532358020544,1.1674704551696777,1.242681086063385,-0.000361983897164464,-0.010433865245431662
07:42:24,41056.0,RTL,-35.363264150000006,149.16523855,102386.0,16.5,-6.0,100.5,1.5,63.0,-1037.0,1432.5,10.0,12.0,-0.011958454735577106,-0.001629273290745914,1.1672837138175964,1.429509460926056,0.005797576159238815,0.007928686100058258
07:42:26,19990.0,RTL,-35.36326525,149.1652393,100250.5,29.5,-13.5,103.5,1.0,20.5,-1011.5,1333.5,1.0,-1.5,-0.009850768372416496,-0.0014917569933459163,1.1670241355895996,1.333312451839447,-0.0034303616266697645,-0.005507092922925949
07:42:28,19990.0,RTL,-35.3632652,149.16523915,98184.5,33.0,-16.0,100.5,-0.5,42.0,-997.5,1374.5,1.0,2.5,-0.0032389388943556696,-0.0043455715058371425,1.1662896275520325,1.3744752407073975,-0.00338060618378222,-0.0010984463151544333
07:42:29,37789.0,RTL,-35.363264825,149.165238775,96906.5,29.0,-12.0,98.75,-0.25,43.75,-1011.75,1377.25,5.25,3.25,0.002234231264083064,-0.005762206623330712,1.1666312515735626,1.3777627646923065,0.0005844710394740105,-0.0005007118452340364
07:42:30,37789.0,RTL,-35.3632647,149.16523865,96144.0,28.0,-11.0,100.5,-0.5,11.0,-1010.5,902.0,2.5,0.5,-0.0018834192887879908,-0.00599802378565073,1.1666991710662842,0.9033927619457245,-0.0019488157704472542,-0.0036487384932115674
07:42:32,37789.0,RTL,-35.3632638,149.1652379,94104.5,22.5,-6.5,99.5,-1.0,-23.0,-980.5,301.0,5.0,1.0,0.0065328136552125216,-0.0075608729384839535,1.167098581790924,0.3037661164999008,0.00011143053416162729,-0.0033781008096411824
07:42:34,37789.0,RTL,-35.3632629,149.16523755,92068.0,10.0,-1.0,103.0,0.0,-69.0,-998.5,-1040.0,6.0,1.5,-0.012187972664833069,-0.004413399612531066,1.1668628454208374,-1.0383275151252747,0.0011823507957160473,-0.001786956563591957
07:42:35,24520.0,RTL,-35.363263025,149.1652377,90782.5,10.5,-1.75,99.0,-1.0,-55.25,-996.5,-582.25,2.5,4.75,-0.006294036633335054,-0.004667484317906201,1.1667308807373047,-0.5801637079566717,-0.0020861097145825624,0.0011352623696438968
07:42:36,24520.0,RTL,-35.3632628,149.1652377,90026.5,9.5,-2.5,100.5,-1.5,-69.5,-997.5,-941.0,7.5,2.0,-0.0076386211439967155,-0.005704466253519058,1.1665701270103455,-0.9395067989826202,0.002736568683758378,-0.0017093841452151537
07:42:38,24520.0,RTL,-35.36326185,149.1652373,88008.0,1.5,0.0,99.5,0.0,2.5,-1001.5,646.0,2.0,0.0,0.02207214944064617,-0.004689650144428015,1.1669341325759888,0.6484733670949936,-0.0027760309167206287,-0.004017182160168886
07:42:40,24520.0,RTL,-35.3632604,149.16523635,85973.0,-12.5,5.5,100.5,-3.5,44.0,-1013.5,1350.5,5.5,2.5,0.0438348613679409,-0.008348895236849785,1.1659619212150574,1.3519496321678162,0.0008662629406899214,-0.0016056757885962725
07:42:41,204926.0,RTL,-35.36325835,149.165235225,84713.25,-26.25,11.75,105.5,-4.5,0.5,-960.5,708.75,4.75,10.5,0.06425781734287739,-0.010157165117561817,1.1661876738071442,0.7106766402721405,0.00012059439904987812,0.0063871596939861774
07:42:42,204926.0,RTL,-35.36325695,149.1652344,83944.0,-39.0,19.0,104.5,-3.0,-20.5,-994.5,265.0,10.0,2.5,0.07106921449303627,-0.00913875363767147,1.1664904356002808,0.265991386026144,0.005075219552963972,-0.001520388526841998
07:42:44,204926.0,RTL,-35.36325655,149.16523445,81897.0,-59.5,29.5,103.5,3.5,-32.0,-979.0,244.5,10.0,-11.5,0.05006220191717148,-0.001226644599228166,1.167819082736969,0.2454252541065216,0.005642174044623971,-0.015540636028163135
07:42:46,204926.0,RTL,-35.363258900000005,149.16523569999998,79841.5,-43.0,20.5,101.5,3.5,-42.5,-972.5,41.0,8.5,2.0,0.020518098026514053,0.00012833563232561573,1.1669679284095764,0.040939390659332275,0.003871997119858861,-0.0019461598712950945
07:42:47,28538.0,RTL,-35.363261075000004,149.1652368,78551.25,-25.25,12.75,102.75,2.25,-45.5,-980.25,-7.25,2.5,-2.25,0.0016811888781376183,-0.00014576582907466218,1.1677387356758118,-0.007971260230988264,-0.0024432498030364513,-0.006565364194102585
07:42:48,28538.0,RTL,-35.3632621,149.16523725000002,77789.5,-12.0,6.0,103.0,1.0,-12.0,-969.0,660.0,-0.5,3.0,0.00382893776986748,-0.0026257263962179422,1.1665953993797302,0.6595301926136017,-0.0056171477772295475,-0.001191011629998684
07:42:50,28538.0,RTL,-35.3632613,149.16523665,75752.5,-7.0,4.5,102.0,-0.5,-12.0,-1039.5,527.5,3.0,2.0,0.029745135456323624,-0.007187976967543364,1.1671225428581238,0.5267392992973328,-0.001032626023516059,-0.0017268785741180182
07:42:52,40285.0,RTL,-35.36326115,149.16523675000002,73723.0,-12.0,7.5,104.5,2.0,-69.0,-963.5,-691.5,5.5,0.0,0.003911912092007697,-0.0022666462464258075,1.1677714586257935,-0.6934033930301666,0.0012697700876742601,-0.004075012169778347
07:42:54,52032.0,RTL,-35.36326385,149.16523834999998,71690.0,5.5,-0.5,103.0,4.0,-64.0,-1011.0,-689.5,2.5,-1.5,-0.027704058215022087,0.0008349605777766556,1.167871117591858,-0.6914926022291183,-0.0018768643494695425,-0.005887588602490723
07:42:56,52032.0,RTL,-35.3632651,149.1652387,69658.5,27.0,-10.5,103.5,0.5,-67.5,-961.0,-857.0,3.0,0.0,-0.025628321804106236,-0.005709056742489338,1.1670034527778625,-0.858619898557663,-0.0013805008493363857,-0.004297884413972497
07:42:58,239420.0,RTL,-35.36326485,149.1652385,67590.5,27.0,-9.0,104.0,0.0,-37.5,-1002.5,-98.5,-1.5,0.0,-0.013087419793009758,-0.005680205067619681,1.1673240661621094,-0.09909022971987724,-0.006012170808389783,-0.0038619968108832836
07:43:00,239420.0,RTL,-35.363264,149.1652381,65536.0,23.0,-7.0,102.0,-1.0,-51.5,-961.5,-435.5,0.0,1.0,-0.0063991546630859375,-0.006335627054795623,1.1672726273536682,-0.435838520526886,-0.004353957250714302,-0.003003197372891009
07:43:02,130794.0,RTL,-35.3632633,149.1652379,63462.0,14.5,-2.5,100.0,5.0,-50.0,-972.0,-241.0,11.0,-12.5,-0.00042848940938711166,-0.0017052199109457433,1.1685535311698914,-0.2402753373607993,0.0066118568647652864,-0.016461076214909554
07:43:04,22168.0,RTL,-35.36326735,149.16524035,61427.0,41.5,-16.5,98.5,4.0,-73.0,-956.5,-925.5,0.5,0.5,-0.0654192641377449,0.001969596545677632,1.1674631237983704,-0.9249045550823212,-0.003999219625256956,-0.003391124657355249
07:43:06,22168.0,RTL,-35.3632688,149.16524084999998,59412.5,69.5,-30.5,98.0,0.0,-69.0,-975.5,-1199.5,-3.5,-8.5,-0.06646975502371788,-0.0057911265175789595,1.1660864353179932,-1.1978040933609009,-0.008334350306540728,-0.012918123975396156
07:43:07,39562.0,RTL,-35.3632686,149.165240525,58136.5,67.25,-27.25,100.5,-0.5,-65.25,-998.5,-1408.5,3.75,3.75,-0.0646783858537674,-0.0061367705930024385,1.1679466664791107,-1.406622976064682,-0.0007684628944844007,0.00015373504720628262
07:43:08,39562.0,RTL,-35.363268399999995,149.16524040000002,57373.0,67.5,-27.0,100.5,-1.0,-60.0,-1006.5,-1409.0,-3.0,7.5,-0.0684099942445755,-0.0075558454263955355,1.168906807899475,-1.40690016746521,-0.007929289946332574,0.003799550700932741
07:43:10,39562.0,RTL,-35.363265,149.16523845,55311.5,42.5,-16.0,97.0,-6.0,-47.5,-1036.0,-1454.5,3.0,5.0,-0.024790802039206028,-0.011909327935427427,1.1679695844650269,-1.4517518877983093,-0.001052170991897583,0.00104376336093992
07:43:12,39562.0,RTL,-35.36326075,149.16523625,53269.5,2.5,2.5,96.0,-4.5,-49.5,-1044.5,-1276.0,4.0,1.0,0.010793502908200026,-0.010624768678098917,1.1695753335952759,-1.2732070684432983,0.000202873139642179,-0.002466585603542626
07:43:13,133349.0,RTL,-35.363259075,149.165235525,51999.5,-17.25,11.0,99.0,-3.75,-52.25,-1002.75,-1396.5,4.0,-2.5,0.014139177743345499,-0.008125141495838761,1.1689084768295288,-1.3944300711154938,-8.884083945304155e-05,-0.006715855502989143
07:43:14,133349.0,RTL,-35.363258349999995,149.16523525000002,51234.0,-27.5,14.5,97.5,-3.0,-48.0,-1021.5,-1419.5,0.5,2.0,0.015288173221051693,-0.006871361052617431,1.1688029766082764,-1.4180646538734436,-0.0037958017783239484,-0.0020580601412802935
07:43:16,133349.0,RTL,-35.3632575,149.165235,49090.5,-48.5,23.5,103.0,2.5,68.0,-993.5,730.0,7.5,16.0,0.025449962355196476,-0.0016881347983144224,1.1697399616241455,0.7294628769159317,0.003918573260307312,0.01264617033302784
07:43:18,133349.0,RTL,-35.3632599,149.16523623333333,47162.333333333336,-34.333333333333336,16.333333333333332,100.33333333333333,3.0,31.666666666666668,-996.6666666666666,19.0,5.0,7.666666666666667,-0.00957118506388118,-0.0008992344276824346,1.168882687886556,0.017585034171740215,0.0015968306300540764,0.0040895212441682816
07:43:19,9966.0,RTL,-35.36326113333333,149.16523676666668,45871.333333333336,-20.0,9.0,95.0,-1.0,36.666666666666664,-1020.3333333333334,28.333333333333332,-1.0,7.333333333333333,-0.011831364904840788,-0.004289251907418172,1.1689503987630208,0.026608196397622425,-0.005517400956402223,0.004064557918657859
07:43:20,9966.0,RTL,-35.36326103333334,149.1652366,45095.666666666664,-16.666666666666668,7.0,96.66666666666667,-3.6666666666666665,41.0,-982.6666666666666,-54.333333333333336,0.0,7.0,-0.002017341806398084,-0.008087229759742817,1.1680956681569417,-0.055829217347006,-0.004311092120284836,0.003997939405962825
07:43:22,9966.0,RTL,-35.363256199999995,149.16523385,42933.0,-46.0,22.5,94.5,-5.0,64.0,-1018.0,802.6666666666666,10.333333333333334,1.6666666666666667,0.07212164998054504,-0.01080630486831069,1.1681863069534302,0.8644030690193176,0.008708869805559516,-0.002169292070902884
07:43:24,9966.0,RTL,-35.363255833333334,149.16523416666666,41050.666666666664,-69.0,33.0,98.66666666666667,1.0,54.666666666666664,-998.6666666666666,540.6666666666666,7.0,3.0,0.037518661469221115,-0.00042591459350660443,1.1698691844940186,0.5370234052340189,0.0035585806084175906,-7.573786812524001e-05
07:43:25,121056.0,RTL,-35.363257075,149.16523502500002,39660.25,-60.5,26.0,97.5,1.0,44.0,-944.5,202.0,6.75,11.5,0.018076934618875384,0.00031129223498282954,1.1704517304897308,0.19741789624094963,0.0029572726343758404,0.007999561727046967
07:43:26,121056.0,RTL,-35.36325785,149.16523545,38882.5,-53.5,22.5,99.5,3.0,54.0,-1004.5,557.5,4.0,8.0,0.023148100823163986,0.0002723965735640377,1.170513391494751,0.5526431202888489,0.00026336871087551117,0.0050238288240507245
07:43:28,121056.0,RTL,-35.36325993333333,149.16523646666667,36949.0,-34.333333333333336,13.0,98.33333333333333,1.3333333333333333,68.33333333333333,-969.3333333333334,778.0,2.6666666666666665,8.666666666666666,0.006432634778320789,-0.0009368400327124012,1.1706690788269043,0.7726082603136698,-0.0014537305881579716,0.0054823938601960736
07:43:30,121056.0,RTL,-35.363261200000004,149.1652368,34902.666666666664,-18.0,7.666666666666667,98.66666666666667,1.0,33.0,-1011.6666666666666,17.333333333333332,2.3333333333333335,4.333333333333333,-0.006313459714874625,-0.003525855795790752,1.1698753833770752,0.011658988272150358,-0.0016319889885683854,0.0014935970927278202
07:43:31,156662.0,RTL,-35.363261933333334,149.16523693333332,33626.666666666664,-10.333333333333334,6.333333333333333,97.33333333333333,0.0,63.0,-994.3333333333334,738.3333333333334,3.6666666666666665,2.6666666666666665,-0.004081574035808444,-0.004713575976590316,1.1697824398676555,0.7325102090835571,-0.0006513120606541634,-0.0005343476465592781
07:43:32,156662.0,RTL,-35.36326226666666,149.16523703333334,32848.666666666664,-6.0,5.333333333333333,93.0,0.3333333333333333,63.666666666666664,-1002.6666666666666,745.6666666666666,6.0,8.333333333333334,-0.005714300321415067,-0.00512751704081893,1.1699397166570027,0.7399111787478129,0.002326464978978038,0.005195097842564185
07:43:34,156662.0,RTL,-35.363263366666665,149.16523766666668,30808.333333333332,6.666666666666667,0.3333333333333333,96.0,1.0,11.0,-983.6666666666666,962.6666666666666,1.3333333333333333,-1.0,0.0036884964210912585,-0.003951969866951306,1.170608401298523,0.9599319299062093,-0.0027339820129175982,-0.00414678268134594
07:43:36,156662.0,RTL,-35.36326463333333,149.16523843333334,28790.333333333332,20.0,-4.333333333333333,99.0,1.6666666666666667,-42.0,-951.6666666666666,29.666666666666668,2.6666666666666665,-2.0,-0.014013851061463356,-0.0016661756671965122,1.1705589294433594,0.02796268214782079,-0.0015151777770370245,-0.005149066758652528
07:43:37,130662.0,RTL,-35.36326556666666,149.165239,27529.666666666668,28.666666666666668,-10.333333333333334,100.33333333333333,-0.3333333333333333,-27.333333333333332,-960.0,252.0,0.6666666666666666,7.333333333333333,-0.020422061905264854,-0.0037360879747817912,1.1698384682337444,0.2507603404422601,-0.003328938347597917,0.004369896681358417
07:43:38,130662.0,RTL,-35.36326516666667,149.16523876666665,26770.666666666668,33.0,-13.0,97.66666666666667,-2.3333333333333335,-53.0,-986.6666666666666,-532.3333333333334,0.3333333333333333,3.6666666666666665,-0.013003319191435972,-0.007189905891815822,1.1692052682240803,-0.5340174833933512,-0.003325805300846696,0.000464535861586531
07:43:40,130662.0,RTL,-35.36326193333333,149.1652369,24736.666666666668,10.333333333333334,-2.3333333333333335,99.66666666666667,-5.0,-31.666666666666668,-987.0,77.66666666666667,3.6666666666666665,12.0,0.03477692479888598,-0.011257041866580645,1.1690903504689534,0.07664565245310466,-9.933781499663989e-05,0.008773170101145903
07:43:42,70568.0,RTL,-35.3632591,149.1652356,22707.0,-21.0,12.0,102.0,-0.3333333333333333,-64.66666666666667,-984.3333333333334,-612.3333333333334,4.333333333333333,3.3333333333333335,0.03309879017372926,-0.005002175457775593,1.1702985366185505,-0.6143416066964468,0.0012603994303693373,0.00026972296958168346
07:43:44,10474.0,RTL,-35.3632597,149.16523630000003,20649.0,-25.333333333333332,12.333333333333334,97.0,2.0,-72.0,-1005.0,-1364.3333333333333,5.0,-2.0,0.0010825338152547677,-0.0006865079655350806,1.1702498197555542,-1.3679225444793701,0.0013576222117990255,-0.006080258637666702
07:43:46,10474.0,RTL,-35.3632625,149.1652378,18594.666666666668,-6.0,2.0,97.33333333333333,1.3333333333333333,-68.66666666666667,-965.0,-933.3333333333334,-1.0,1.0,-0.02143097793062528,-0.00042804846695313853,1.1701675653457642,-0.9361173907915751,-0.005102770713468392,-0.002216153312474489
07:43:48,10497.0,RTL,-35.36326403333334,149.1652383,16538.333333333332,13.666666666666666,-4.666666666666667,93.66666666666667,1.3333333333333333,-72.33333333333333,-995.3333333333334,-1376.6666666666667,0.0,-3.3333333333333335,-0.03293373746176561,-0.003005523234605789,1.1704115867614746,-1.379682977994283,-0.0042590429075062275,-0.006814378779381514
07:43:50,10497.0,RTL,-35.3632657,149.16523913333336,14502.666666666666,29.666666666666668,-10.333333333333334,96.66666666666667,3.6666666666666665,-75.66666666666667,-988.0,-1132.6666666666667,0.0,-5.0,-0.04347882233560085,-0.0012343989413542051,1.171074350674947,-1.135214626789093,-0.003674615795413653,-0.008454785371820131
07:43:52,10497.0,RTL,-35.36326733333333,149.16524006666668,12471.0,48.333333333333336,-19.333333333333332,96.66666666666667,1.0,-13.0,-994.0,517.6666666666666,3.0,0.0,-0.025992370521028835,-0.0022006515258302293,1.170635461807251,0.5171999633312225,-0.0009948532097041607,-0.0036641679083307586
07:43:53,74121.0,RTL,-35.3632679,149.16524033333332,11444.333333333334,56.0,-23.0,49.666666666666664,-0.3333333333333333,-35.666666666666664,-1049.6666666666667,-638.0,-1.6666666666666667,4.0,-0.05511892338593801,-0.004095998747895162,1.1710207064946492,-0.6390127241611481,-0.0054169814102351665,0.0010006142935405176
07:43:54,74121.0,RTL,-35.36326736666667,149.16524003333333,11193.666666666666,56.333333333333336,-23.666666666666668,23.0,-2.3333333333333335,31.0,-1013.3333333333334,404.3333333333333,0.6666666666666666,4.0,-0.033854102715849876,-0.005922882817685604,1.1707872152328491,0.40275583664576214,-0.0028790556049595275,0.0011091021976123254
07:43:56,74121.0,RTL,-35.363264433333335,149.16523836666667,10645.333333333334,35.0,-13.666666666666666,33.666666666666664,-2.6666666666666665,16.666666666666668,-1001.0,454.6666666666667,3.3333333333333335,1.3333333333333333,0.0027712150234341,-0.009224257742365202,1.1708985567092896,0.4543202718098958,-5.726516246795654e-05,-0.0018828879886617262
